~Version Information
VERS.                      2.0: CWLS Log ASCII Standard - VERSION 2.0
WRAP.                       NO: One line per depth step
~Well Information Block
STRT.FT               619.7000: 
STOP.FT               951.7000: 
STEP.FT                 0.1000: 
NULL.                -999.2500: 
COMP.          Pioneer Natural Resources: COMPANY
WELL.          Screamin 12-29 Tr: WELL
FLD.           Purgatoire River: FIELD
LOC.           1979' FNL & 532' FWL--: LOCATION
CNTY.               Las Animas: COUNTY
SRVC.                Patterson: SERVICE COMPANY
DATE.          Fri Mar 31 15:43:57 2006: LOG DATE
UWI.           05 071 08660 00: UNIQUE WELL ID
STAT.                 Colorado: STATE
~Curve Information Block
DEPT.FT            0 000 00 00: Depth
DCAL.in                       : CDL Caliper
RHOB.g/cc                     : CDL Bulk Density
RHOC.g/cc                     : CDL Density Correction
DPOR.pu                       : CDL Density Porosity
GR.GAPI                       : Gamma Ray
~Parameter Information Block
~A  Depth       DCAL        RHOB        RHOC        DPOR         GR     
# ...
   899.7000      7.8562      2.5193      0.0341      7.9225    140.4748
   899.8000      7.8589      2.4986      0.0378      9.1752    142.9379
   899.9000      7.8589      2.4825      0.0172     10.1517    146.5401
   900.0000      7.8686      2.4790     -0.0095     10.3633    150.5747
   900.1000      7.8686      2.4807      0.0332     10.2591    153.3717
   900.2000      7.8686      2.4693      0.0275     10.9543    153.0479
   900.3000      7.8816      2.4495     -0.0327     12.1502    150.3315
   900.4000      7.8816      2.4506     -0.0259     12.0821    147.3682
   900.5000      7.8876      2.4779      0.0367     10.4333    147.0841
   900.6000      7.8876      2.5062      0.0457      8.7181    151.4483
   900.7000      7.8876      2.5236      0.0479      7.6626    154.4158
   900.8000      7.8858      2.5419      0.0409      6.5522    149.9749
   900.9000      7.8858      2.5704      0.0993      4.8231    143.9671
   901.0000      7.8763      2.5952      0.1120      3.3197    143.0343
   901.1000      7.8763      2.5937      0.1316      3.4100    144.1549
   901.2000      7.8763      2.5670      0.0715      5.0295    143.9160
   901.3000      7.8611      2.5459      0.0619      6.3105    144.2791
   901.4000      7.8611      2.5488      0.0658      6.1311    145.8688
   901.5000      7.8501      2.5586      0.0936      5.5378    147.6247
   901.6000      7.8501      2.5555      0.0556      5.7247    149.6835
   901.7000      7.8501      2.5400      0.0450      6.6663    150.4513
   901.8000      7.8468      2.5179      0.0542      8.0086    146.8177
   901.9000      7.8468      2.5007      0.0184      9.0476    140.1396
   902.0000      7.8500      2.5017      0.0111      8.9870    136.3099
   902.1000      7.8500      2.5177      0.0370      8.0202    138.0927
   902.2000      7.8500      2.5396      0.0767      6.6880    141.6894
   902.3000      7.8576      2.5654      0.0748      5.1273    143.2864
   902.4000      7.8576      2.5833      0.1134      4.0400    144.3008
   902.5000      7.8633      2.5844      0.0648      3.9784    146.4618
   902.6000      7.8633      2.5842      0.0334      3.9902    145.4929
   902.7000      7.8633      2.5916      0.0730      3.5385    138.7921
   902.8000      7.8699      2.5966      0.0682      3.2372    130.3707
   902.9000      7.8699      2.6061      0.0431      2.6595    123.9653
   903.0000      7.8745      2.6318      0.0760      1.1050    121.6087
   903.1000      7.8745      2.6596      0.0835     -0.5822    122.3217
   903.2000      7.8745      2.6761      0.0533     -1.5838    122.1745
   903.3000      7.8705      2.6812      0.0618     -1.8884    118.2029
   903.4000      7.8705      2.6670      0.0978     -1.0274    112.0817
   903.5000      7.8644      2.6321      0.0439      1.0852    106.2180
   903.6000      7.8644      2.5988      0.0015      3.1032    100.5893
   903.7000      7.8644      2.5800      0.0205      4.2438     97.8272
   903.8000      7.8577      2.5615      0.0179      5.3642     99.8065
   903.9000      7.8577      2.5363     -0.0263      6.8939    103.0785
   904.0000      7.8540      2.5191     -0.0545      7.9327    107.6359
   904.1000      7.8540      2.5216      0.0231      7.7821    115.9783
   904.2000      7.8540      2.5340      0.0570      7.0303    124.9797
   904.3000      7.8598      2.5455      0.0555      6.3322    131.4031
   904.4000      7.8598      2.5586      0.0777      5.5410    136.5074
   904.5000      7.8642      2.5736      0.0746      4.6309    137.3421
   904.6000      7.8642      2.5838      0.0818      4.0097    131.1982
   904.7000      7.8642      2.5851      0.0613      3.9316    126.8562
   904.8000      7.8605      2.5825      0.0667      4.0932    128.1482
   904.9000      7.8605      2.5781      0.0793      4.3583    129.6252
   905.0000      7.8514      2.5646      0.0885      5.1782    131.4600
   905.1000      7.8514      2.5435      0.0416      6.4523    135.0336
   905.2000      7.8514      2.5258      0.0354      7.5245    139.0473
   905.3000      7.8441      2.5133      0.0378      8.2846    141.3565
   905.4000      7.8441      2.5027      0.0224      8.9274    138.3568
   905.5000      7.8409      2.5018      0.0115      8.9821    134.1414
   905.6000      7.8409      2.5141      0.0737      8.2372    134.7201
   905.7000      7.8409      2.5238      0.0435      7.6511    135.2391
   905.8000      7.8393      2.5225      0.0587      7.7297    133.5458
   905.9000      7.8393      2.5194      0.0562      7.9140    136.1337
   906.0000      7.8389      2.5233      0.0166      7.6789    141.4545
   906.1000      7.8389      2.5340      0.0405      7.0284    143.6810
   906.2000      7.8389      2.5494      0.0413      6.0964    146.1322
   906.3000      7.8342      2.5649      0.0769      5.1565    148.7909
   906.4000      7.8342      2.5662      0.1328      5.0817    146.7990
   906.5000      7.8208      2.5489      0.0725      6.1273    145.1839
   906.6000      7.8208      2.5313      0.0413      7.1945    147.7194
   906.7000      7.8208      2.5226      0.0508      7.7185    147.8863
   906.8000      7.8110      2.5221     -0.0031      7.7537    142.9957
   906.9000      7.8110      2.5298      0.0183      7.2862    137.4338
   907.0000      7.8212      2.5317      0.0237      7.1673    135.2713
   907.1000      7.8212      2.5124      0.0463      8.3398    136.9485
   907.2000      7.8212      2.4845      0.0072     10.0327    138.4649
   907.3000      7.8431      2.4799      0.0180     10.3093    139.6891
   907.4000      7.8431      2.5005      0.0933      9.0606    145.5849
   907.5000      7.8532      2.5184      0.0570      7.9777    153.3629
   907.6000      7.8532      2.5219      0.0807      7.7645    155.8351
   907.7000      7.8532      2.5122      0.0966      8.3509    155.0029
   907.8000      7.8530      2.4942      0.0457      9.4429    156.6779
   907.9000      7.8530      2.4835      0.0321     10.0912    157.9007
   908.0000      7.8487      2.4830      0.0861     10.1191    153.9878
   908.1000      7.8487      2.4867      0.0421      9.8961    148.8021
   908.2000      7.8487      2.5032      0.0245      8.8977    147.6242
   908.3000      7.8459      2.5311      0.0675      7.2079    146.6527
   908.4000      7.8459      2.5540      0.0495      5.8167    140.6040
   908.5000      7.8424      2.5753      0.0538      4.5300    133.3363
   908.6000      7.8424      2.6111      0.0828      2.3586    131.2237
   908.7000      7.8424      2.6609      0.1186     -0.6596    132.1326
   908.8000      7.8339      2.7043      0.1301     -3.2900    128.7186
   908.9000      7.8339      2.7210      0.1175     -4.3025    120.9796
   909.0000      7.8235      2.7129      0.0622     -3.8132    115.3025
   909.1000      7.8235      2.7011      0.0847     -3.0992    114.1397
   909.2000      7.8235      2.6898      0.0829     -2.4097    113.4487
   909.3000      7.8238      2.6646      0.0268     -0.8867    111.9686
   909.4000      7.8238      2.6289     -0.0513      1.2782    113.3740
   909.5000      7.8374      2.6021     -0.0468      2.9013    118.5269
   909.6000      7.8374      2.5815     -0.0227      4.1500    124.0621
   909.7000      7.8374      2.5542     -0.0552      5.8080    126.2427
   909.8000      7.8433      2.5375     -0.0661      6.8186    124.4625
   909.9000      7.8433      2.5538      0.0048      5.8298    121.3375
   910.0000      7.8403      2.5909      0.0399      3.5822    118.6482
   910.1000      7.8403      2.6164      0.0998      2.0341    117.6848
   910.2000      7.8403      2.6148      0.0629      2.1330    122.1676
   910.3000      7.8334      2.5994      0.0486      3.0682    131.0092
   910.4000      7.8334      2.5863      0.0616      3.8585    136.2467
   910.5000      7.8199      2.5774      0.0648      4.4002    133.0105
   910.6000      7.8199      2.5806      0.0221      4.2068    126.2267
   910.7000      7.8199      2.6050      0.0735      2.7256    122.1300
   910.8000      7.8098      2.6314      0.0640      1.1270    120.4074
