~Version Information
VERS.                      2.0: CWLS Log ASCII Standard - VERSION 2.0
WRAP.                       NO: One line per depth step
~Well Information Block
STRT.FT               830.0000: 
STOP.FT              1782.5000: 
STEP.FT                 0.1000: 
NULL.                -999.2500: 
COMP.          Pioneer Natural Resources: COMPANY
WELL.          Manville 42-14 Tr: WELL
FLD.           Purgatoire River: FIELD
LOC.           2018 FNL & 562' FEL: LOCATION
STAT.                 Colorado: State
CNTY.               Las Animas: COUNTY
CTRY. USA : Country
SECT. 14 : Section
TOWN. 32S : Township
RANG. 66W : Range
SRVC.                Patterson: SERVICE COMPANY
DATE.          Mon Sep 19 09:44:06 2005: LOG DATE
API.           05 071 08522 00: UNIQUE WELL ID
~Curve Information Block
DEPT.FT            0 000 00 00: Depth
DCAL.in                       : CDL Caliper
RHOB.g/cc                     : CDL Bulk Density
RHOC.g/cc                     : CDL Density Correction
DPOR.pu                       : CDL Density Porosity
GR.GAPI                       : Gamma Ray
NPOR.pu                       : Neutron Porosity
~Parameter Information Block
~A  Depth       DCAL        RHOB        RHOC        DPOR         GR         NPOR    
# ...
  1329.2000      8.0568      2.6599      0.0443     -0.5994    102.6608     25.1493
  1329.3000      8.0364      2.6499     -0.0110      0.0082    100.2825     24.5368
  1329.4000      8.0364      2.6418      0.0278      0.4952    104.6713     23.4795
  1329.5000      8.0305      2.6462      0.0683      0.2311    112.1599     22.6958
  1329.6000      8.0305      2.6524      0.0721     -0.1463    119.4973     22.4197
  1329.7000      8.0305      2.6589      0.0855     -0.5365    126.5757     22.0271
  1329.8000      7.9980      2.6639      0.0815     -0.8408    126.4594     21.2547
  1329.9000      7.9980      2.6557      0.0860     -0.3484    116.8443     20.8206
  1330.0000      7.9591      2.6289      0.0885      1.2790    107.0266     21.0263
  1330.1000      7.9591      2.5956      0.0358      3.2945    102.2771     21.6305
  1330.2000      7.9591      2.5764      0.0252      4.4587    100.3201     22.2960
  1330.3000      7.9657      2.5795      0.0368      4.2751     98.5684     22.4141
  1330.4000      7.9657      2.5789      0.1121      4.3086     96.6560     22.0089
  1330.5000      7.9999      2.5477      0.0340      6.1987     99.0392     21.7010
  1330.6000      7.9999      2.5132      0.0156      8.2912    106.7142     21.4959
  1330.7000      7.9999      2.5145      0.0234      8.2148    111.0713     21.0804
  1330.8000      8.0020      2.5557      0.0159      5.7169    107.1736     20.6415
  1330.9000      8.0020      2.6290      0.0582      1.2721     99.7323     20.3599
  1331.0000      7.9859      2.7261      0.0318     -4.6098     93.1422     20.2231
  1331.1000      7.9859      2.8218      0.1463    -10.4092     89.3147     20.5730
  1331.2000      7.9859      2.8871      0.1922    -14.3698     89.1571     21.5191
  1331.3000      7.9726      2.9223      0.2082    -16.5000     89.0888     22.5905
  1331.4000      7.9726      2.9322      0.2636    -17.1018     86.2728     23.3400
  1331.5000      7.9576      2.8982      0.2062    -15.0428     85.1391     23.5401
  1331.6000      7.9576      2.8218      0.0767    -10.4093     88.1817     23.3501
  1331.7000      7.9576      2.7429      0.0085     -5.6283     94.1012     22.9731
  1331.8000      7.8863      2.6912     -0.0088     -2.4982    100.1717     22.6187
  1331.9000      7.8863      2.6643     -0.0349     -0.8667    102.9317     22.6940
  1332.0000      7.8780      2.6472     -0.0127      0.1718    103.4785     23.0208
  1332.1000      7.8780      2.6263      0.0126      1.4340    105.0784     22.8714
  1332.2000      7.8780      2.6051      0.0396      2.7212    105.8323     22.1122
  1332.3000      8.0164      2.5942      0.0475      3.3829    102.3202     20.8292
  1332.4000      8.0164      2.5867      0.0876      3.8376     96.9385     19.6348
  1332.5000      8.0945      2.5713      0.0464      4.7716     94.7794     19.0912
  1332.6000      8.0945      2.5584      0.0046      5.5485     95.5434     18.4722
  1332.7000      8.0945      2.5646      0.0139      5.1787     93.1882     17.5118
  1332.8000      8.0610      2.5805      0.0257      4.2144     88.0488     17.0861
  1332.9000      8.0610      2.5825      0.0978      4.0911     87.9794     17.7996
  1333.0000      8.0347      2.5641      0.0400      5.2071     91.4039     19.3755
  1333.1000      8.0347      2.5422      0.0249      6.5363     91.1876     20.5670
  1333.2000      8.0347      2.5295      0.0164      7.3043     87.6710     20.7219
  1333.3000      8.0181      2.5224      0.0140      7.7336     84.2377     20.6404
  1333.4000      8.0181      2.5195      0.0370      7.9069     82.2149     20.6082
  1333.5000      8.0312      2.5229      0.0322      7.7016     80.5685     19.9031
  1333.6000      8.0312      2.5276      0.0428      7.4210     78.4598     18.7192
  1333.7000      8.0312      2.5322      0.0466      7.1393     76.7210     18.4335
  1333.8000      8.0165      2.5515      0.0215      5.9679     76.2575     19.4533
  1333.9000      8.0165      2.5835      0.1272      4.0292     77.8614     21.0035
  1334.0000      8.0173      2.5996      0.1266      3.0532     82.0600     21.8026
  1334.1000      8.0173      2.5960      0.0737      3.2752     86.1114     21.4171
  1334.2000      8.0173      2.5927      0.0483      3.4714     86.7635     20.9573
  1334.3000      7.9801      2.5953      0.0506      3.3134     86.1751     20.9386
  1334.4000      7.9801      2.5990      0.0540      3.0898     87.1564     20.7859
  1334.5000      8.0029      2.6010      0.0549      2.9685     87.7756     20.3720
  1334.6000      8.0029      2.5870      0.0778      3.8170     85.9915     20.0000
  1334.7000      8.0029      2.5505     -0.0352      6.0276     81.5588     19.6415
  1334.8000      8.0362      2.5179     -0.0217      8.0044     77.6648     19.3216
  1334.9000      8.0362      2.5095     -0.0204      8.5172     76.2775     19.0847
  1335.0000      8.0366      2.5160     -0.0067      8.1232     73.5127     18.8165
  1335.1000      8.0366      2.5227      0.0268      7.7125     69.8372     19.0684
  1335.2000      8.0366      2.5265      0.0003      7.4839     69.3027     19.9752
  1335.3000      8.0123      2.5379      0.0097      6.7946     70.7822     20.6877
  1335.4000      8.0123      2.5634      0.0350      5.2505     72.9036     20.9097
  1335.5000      8.0028      2.5876      0.1197      3.7840     75.6456     20.8853
  1335.6000      8.0028      2.5856      0.0963      3.9009     78.7577     20.9664
  1335.7000      8.0028      2.5472      0.0805      6.2319     84.8209     20.8534
  1335.8000      7.9970      2.4893      0.0093      9.7389     91.3696     20.1725
  1335.9000      7.9970      2.4443     -0.0135     12.4680     91.8451     19.7077
  1336.0000      7.9992      2.4288     -0.0489     13.4077     87.8962     19.9008
  1336.1000      7.9992      2.4336     -0.0264     13.1147     85.0977     20.4717
  1336.2000      7.9992      2.4386     -0.0197     12.8092     87.0014     21.4742
  1336.3000      8.0154      2.4456     -0.0505     12.3904     93.2226     22.4685
  1336.4000      8.0154      2.4723     -0.0280     10.7717     97.2452     22.5082
  1336.5000      8.0300      2.5103      0.0483      8.4689     94.4602     22.0486
  1336.6000      8.0300      2.5389      0.0529      6.7362     88.2185     22.0675
  1336.7000      8.0300      2.5530      0.0708      5.8777     85.3945     22.3401
  1336.8000      8.0386      2.5531      0.0521      5.8735     88.2655     22.4106
  1336.9000      8.0386      2.5416      0.0415      6.5707     91.0261     22.4864
  1337.0000      8.0187      2.5245      0.0431      7.6078     87.7141     22.4608
  1337.1000      8.0187      2.5108     -0.0231      8.4389     79.3568     22.0957
  1337.2000      8.0187      2.5114     -0.0289      8.4000     72.7733     22.0386
  1337.3000      8.0131      2.5250      0.0299      7.5740     73.3659     22.5497
  1337.4000      8.0131      2.5398      0.0947      6.6761     78.0693     23.3909
  1337.5000      8.0219      2.5596      0.0334      5.4765     79.8908     23.8838
  1337.6000      8.0219      2.5890      0.1114      3.6971     77.6724     22.5986
  1337.7000      8.0219      2.6061      0.1171      2.6597     75.9552     20.1484
  1337.8000      8.0165      2.5962      0.0625      3.2606     77.1285     19.2524
  1337.9000      8.0165      2.5713      0.0482      4.7674     78.9906     20.3452
  1338.0000      8.0122      2.5510      0.0124      5.9974     77.0461     21.4440
  1338.1000      8.0122      2.5517      0.0100      5.9563     70.9882     21.3777
  1338.2000      8.0122      2.5763      0.0250      4.4681     65.6682     20.6092
  1338.3000      8.0018      2.6093      0.0519      2.4659     63.9683     19.7141
  1338.4000      8.0018      2.6266      0.0777      1.4210     65.4540     18.9265
  1338.5000      8.0133      2.6186      0.0262      1.9057     68.8364     18.2647
  1338.6000      8.0133      2.5945      0.0302      3.3623     71.1844     17.5686
  1338.7000      8.0133      2.5599      0.0016      5.4599     69.6146     17.2095
