~Version Information
VERS.                      2.0: CWLS Log ASCII Standard - VERSION 2.0
WRAP.                       NO: One line per depth step
~Well Information Block
STRT.FT                 0.0000: 
STOP.FT              1147.5000: 
STEP.FT                 0.2500: 
NULL.                -999.2500: 
COMP.          Pioneer Natural Resources: COMPANY
WELL.          Tin Barn 14-20 TR: WELL
FLD.           Purgatorie River: FIELD
LOC.           925 FSL & 1151 FWL: LOCATION
PROV.                 Colorado: PROVINCE
CNTY.               Las Animas: COUNTRY
SRVC.                Patterson: SERVICE COMPANY
DATE.          Wed Jan 18 12:02:25 2006: LOG DATE
UWI.                          : UNIQUE WELL ID
~Curve Information Block
DEPT.FT            0 000 00 00: Depth
CCL.                          : Casing Collar Locator
TT3.usec                      : CBL 3' Travel Time
AMP3.mV                       : CBL 3' Amplitude
GR.GAPI                       : Gamma Ray
~Parameter Information Block
~A  Depth       CCL         TT3         AMP3         GR     
# ...
  1038.5000      0.0000    663.1203      7.4756     67.2845
  1038.7500      0.0000    660.3743      7.4532     65.8356
  1039.0000      0.0000    651.6757      7.4182     64.4806
  1039.2500      0.0000    634.5712      7.3863     63.1356
  1039.5000      0.0000    613.0905      7.3665     61.7169
  1039.7500      0.0000    595.7308      7.3446     60.3143
  1040.0000      0.0000    586.6257      7.3010     59.2838
  1040.2500      0.0000    583.4570      7.2536     58.9305
  1040.5000      0.0000    582.7216      7.2572     59.0435
  1040.7500      0.0000    582.7378      7.3356     58.9556
  1041.0000      0.0000    583.0841      7.4614     58.1769
  1041.2500      0.0000    584.0419      7.6102     56.8676
  1041.5000      0.0000    587.2715      7.7699     55.6286
  1041.7500      0.0000    596.3044      7.9152     54.9431
  1042.0000      0.0000    613.5217      8.0277     54.8956
  1042.2500      0.0000    634.9019      8.1179     55.3318
  1042.5000      0.0000    652.0229      8.2045     56.1167
  1042.7500      0.0000    660.8396      8.2930     57.2047
  1043.0000      0.0000    663.7684      8.3846     58.6359
  1043.2500      0.0000    664.4226      8.4787     60.6042
  1043.5000      0.0000    664.5294      8.5578     63.4393
  1043.7500      0.0000    664.5126      8.5959     67.2895
  1044.0000      0.0000    664.4511      8.5763     71.7246
  1044.2500      0.0000    664.3359      8.4889     75.8373
  1044.5000      0.0000    664.0970      8.3327     79.0894
  1044.7500      0.0000    663.7156      8.1238     82.1160
  1045.0000      0.0000    663.3096      7.8979     86.3097
  1045.2500      0.0000    663.0352      7.7067     92.2817
  1045.5000      0.0000    662.9342      7.5982     98.8701
  1045.7500      0.0000    662.7208      7.5826    103.9096
  1046.0000      0.0000    661.2557      7.6176    106.0331
  1046.2500      0.0000    656.5270      7.6401    105.5258
  1046.5000      0.0000    648.1682      7.6245    103.4503
  1046.7500      0.0000    640.7725      7.5866    100.5760
  1047.0000      0.0000    640.6838      7.5364     97.5817
  1047.2500      0.0000    647.8379      7.4679     95.5139
  1047.5000      0.0000    655.8702      7.3786     95.0666
  1047.7500      0.0000    659.9671      7.2859     95.4907
  1048.0000      0.0000    659.1232      7.2307     94.8686
  1048.2500      0.0000    652.8469      7.2454     91.7229
  1048.5000      0.0000    641.5438      7.3236     86.3541
  1048.7500      0.0000    628.3882      7.4495     80.6215
  1049.0000      0.0000    615.4909      7.6223     76.3789
  1049.2500      0.0000    602.5078      7.8088     74.0969
  1049.5000      0.0000    591.4943      7.9390     72.9273
  1049.7500      0.0000    585.7258      7.9963     71.8836
  1050.0000      0.0000    586.0260      8.0335     70.7396
  1050.2500      0.0000    592.4199      8.0852     69.8362
  1050.5000      0.0000    604.1583      8.1287     69.4768
  1050.7500      0.0000    618.3141      8.1239     69.9211
  1051.0000      0.0000    633.8929      8.0534     71.7919
  1051.2500      0.0000    651.7615      7.9462     75.8233
  1051.5000      0.0000    665.1752      7.8604     81.7909
  1051.7500      0.0000    662.5263      7.8200     87.9835
  1052.0000      0.0000    646.7484      7.7938     92.3046
  1052.2500      0.0000    636.8281      7.7470     93.9653
  1052.5000      0.0000    642.2063      7.6848     93.8052
  1052.7500      0.0000    653.6093      7.6525     93.2175
  1053.0000      0.0000    661.0071      7.6974     93.1722
  1053.2500      0.0000    663.5558      7.8010     93.9203
  1053.5000      0.0000    663.9883      7.8969     94.9754
  1053.7500      0.0000    663.5406      7.9798     95.4179
  1054.0000      0.0000    661.3194      8.0998     94.6102
  1054.2500      0.0000    655.5100      8.2562     92.8645
  1054.5000      0.0000    647.2776      8.3889     91.4748
  1054.7500      0.0000    643.0950      8.4525     92.0107
  1055.0000      0.0000    647.3730      8.4455     95.4390
  1055.2500      0.0000    655.6449      8.3836    101.7708
  1055.5000      0.0000    661.4470      8.2844    110.2733
  1055.7500      0.0000    663.6826      8.1672    119.6096
  1056.0000      0.0000    664.2645      8.0482    127.7260
  1056.2500      0.0000    664.5255      7.9489    132.2397
  1056.5000      0.0000    664.9941      7.8844    131.7838
  1056.7500      0.0000    666.2770      7.8381    127.1541
  1057.0000      0.0000    669.3539      7.7817    120.8074
  1057.2500      0.0000    673.8307      7.7058    115.2443
  1057.5000      0.0000    676.2844      7.6264    112.0260
  1057.7500      0.0000    674.0324      7.5835    111.8497
  1058.0000      0.0000    669.3120      7.6096    114.7037
  1058.2500      0.0000    665.8340      7.7106    119.7251
  1058.5000      0.0000    664.4976      7.8779    125.4527
  1058.7500      0.0000    664.4041      8.0830    130.6826
  1059.0000      0.0000    664.8382      8.2723    134.9858
  1059.2500      0.0000    665.4897      8.4040    138.4164
  1059.5000      0.0000    666.1267      8.4893    141.0979
  1059.7500      0.0000    666.7113      8.5826    143.2942
  1060.0000      0.0000    667.9457      8.7217    145.5447
  1060.2500      0.0000    671.0706      8.8831    148.1816
  1060.5000      0.0000    675.5905      8.9945    150.5595
  1060.7500      0.0000    677.9621      9.0176    151.0520
  1061.0000      0.0000    676.0233      9.0202    148.1555
  1061.2500      0.0000    673.2420      9.0959    141.8010
  1061.5000      0.0000    674.8512      9.2274    133.7466
  1061.7500      0.0000    681.5963      9.3084    126.5616
  1062.0000      0.0000    688.1324      9.2809    121.8339
  1062.2500      0.0000    687.9368      9.1750    119.1675
  1062.5000      0.0000    681.0997      9.0221    117.1484
  1062.7500      0.0000    674.3425      8.8168    115.5053
  1063.0000      0.0000    673.1168      8.5917    116.0415
  1063.2500      0.0000    676.4881      8.4429    120.9615
  1063.5000      0.0000    678.8815      8.4284    130.2158
  1063.7500      0.0000    676.6684      8.5076    140.8813
  1064.0000      0.0000    672.0373      8.5958    149.2712
  1064.2500      0.0000    668.6330      8.6149    153.4764
  1064.5000      0.0000    667.3734      8.5345    153.9941
  1064.7500      0.0000    668.1133      8.4157    152.4086
  1065.0000      0.0000    671.3414      8.3388    149.9218
  1065.2500      0.0000    676.1754      8.2894    147.1580
  1065.5000      0.0000    678.8600      8.2079    144.8626
  1065.7500      0.0000    676.7579      8.1059    144.1186
  1066.0000      0.0000    671.7899      8.0581    145.5925
  1066.2500      0.0000    666.3383      8.1118    148.6481
  1066.5000      0.0000    659.4088      8.2314    151.5486
  1066.7500      0.0000    649.8385      8.3469    152.9583
  1067.0000      0.0000    640.7155      8.4168    153.1318
  1067.2500      0.0000    636.7410      8.4226    153.0513
  1067.5000      0.0000    638.0872      8.3833    152.5435
  1067.7500      0.0000    641.2722      8.3451    150.2356
  1068.0000      0.0000    643.0074      8.2973    145.4795
  1068.2500      0.0000    642.3932      8.1503    139.4548
  1068.5000      0.0000    644.7495      7.8021    134.2971
  1068.7500      0.0000    658.2174      7.2192    131.7715
  1069.0000      0.0000    684.9319      6.5072    132.5780
  1069.2500      0.0000    719.1520      5.9328    135.9344
  1069.5000      0.0000    747.8035      5.7694    139.7231
  1069.7500      0.0000    757.4694      5.9997    141.7245
  1070.0000      0.0000    750.5325      6.3277    140.9138
  1070.2500     -2.0000    743.1149      6.5185    137.5473
  1070.5000     -2.0000    742.8663      6.5578    132.6221
  1070.7500      0.0000    743.3951      6.5650    127.6980
  1071.0000      0.0000    737.2552      6.7083    124.6286
  1071.2500      0.0000    725.5927      7.1808    124.5879
  1071.5000      0.0000    717.0291      7.9981    127.2206
  1071.7500      0.0000    714.9106      8.7190    130.9403
