~Version Information
VERS.                      2.0: CWLS Log ASCII Standard - VERSION 2.0
WRAP.                       NO: One line per depth step
~Well Information Block
STRT.FT               695.5000: 
STOP.FT              1499.5000: 
STEP.FT                 0.2500: 
NULL.                -999.2500: 
COMP.          Pioneer Natural Resources: COMPANY
WELL.          Pallet Ranch 34-25 Tr: WELL
FLD.           Purgatoire River: FIELD
LOC.           465' FSL & 2138' FEL: LOCATION
PROV.                 Colorado: PROVINCE
CNTY.               Las Animas: COUNTRY
SRVC.                Patterson: SERVICE COMPANY
DATE.          Wed Jan 18 18:58:46 2006: LOG DATE
UWI.           05 071 08657 00: UNIQUE WELL ID
~Curve Information Block
DEPT.FT            0 000 00 00: Depth
SN.Ohm-m                      : IEL Short Normal
SP.mV                         : IEL Spontaneous Potential
DIR.Ohm-m                     : IEL Induction Resistivity
GR.GAPI                       : Gamma Ray
~Parameter Information Block
~A  Depth        SN          SP         DIR          GR     
# ...
   997.0000   2000.0000   2000.0000     15.9025    117.7873
   997.2500   2000.0000   2000.0000     16.0940    118.7378
   997.5000   2000.0000   2000.0000     16.2957    117.5913
   997.7500   2000.0000   2000.0000     16.4886    115.4150
   998.0000   2000.0000   2000.0000     16.6731    110.7186
   998.2500   2000.0000   2000.0000     16.8734    107.2349
   998.5000   2000.0000   2000.0000     17.1193    102.9529
   998.7500   2000.0000   2000.0000     17.4242    101.5354
   999.0000   2000.0000   2000.0000     17.7757    102.0433
   999.2500   2000.0000   2000.0000     18.1466    103.7418
   999.5000   2000.0000   2000.0000     18.5144    106.9360
   999.7500   2000.0000   2000.0000     18.8731    108.5863
  1000.0000   2000.0000   2000.0000     19.2286    109.1242
  1000.2500   2000.0000   2000.0000     19.5832    107.9220
  1000.5000   2000.0000   2000.0000     19.9215    104.1362
  1000.7500   2000.0000   2000.0000     20.2100    100.6983
  1001.0000   2000.0000   2000.0000     20.4090     94.7169
  1001.2500   2000.0000   2000.0000     20.4876     90.4918
  1001.5000   2000.0000   2000.0000     20.4320     84.7132
  1001.7500   2000.0000   2000.0000     20.2438     81.9072
  1002.0000   2000.0000   2000.0000     19.9329     80.0629
  1002.2500   2000.0000   2000.0000     19.5126     80.5773
  1002.5000   2000.0000   2000.0000     18.9983     84.1244
  1002.7500   2000.0000   2000.0000     18.4109     88.5074
  1003.0000   2000.0000   2000.0000     17.7777     98.1297
  1003.2500   2000.0000   2000.0000     17.1289    106.0716
  1003.5000   2000.0000   2000.0000     16.4898    118.3143
  1003.7500   2000.0000   2000.0000     15.8762    125.2929
  1004.0000   2000.0000   2000.0000     15.2926    132.3397
  1004.2500   2000.0000   2000.0000     14.7365    134.6675
  1004.5000   2000.0000   2000.0000     14.2031    135.7613
  1004.7500   2000.0000   2000.0000     13.6901    135.8309
  1005.0000   2000.0000   2000.0000     13.2001    136.1784
  1005.2500   2000.0000   2000.0000     12.7399    136.9524
  1005.5000   2000.0000   2000.0000     12.3190    139.1473
  1005.7500   2000.0000   2000.0000     11.9478    141.2090
  1006.0000   2000.0000   2000.0000     11.6361    144.6774
  1006.2500   2000.0000   2000.0000     11.3922    146.7824
  1006.5000   2000.0000   2000.0000     11.2209    148.9210
  1006.7500   2000.0000   2000.0000     11.1208    149.5236
  1007.0000   2000.0000   2000.0000     11.0816    149.5775
  1007.2500   2000.0000   2000.0000     11.0861    149.4000
  1007.5000   2000.0000   2000.0000     11.1167    149.0226
  1007.7500   2000.0000   2000.0000     11.1656    148.5793
  1008.0000   2000.0000   2000.0000     11.2388    147.5169
  1008.2500   2000.0000   2000.0000     11.3503    146.5798
  1008.5000   2000.0000   2000.0000     11.5102    144.6136
  1008.7500   2000.0000   2000.0000     11.7153    142.7037
  1009.0000   2000.0000   2000.0000     11.9479    139.2109
  1009.2500   2000.0000   2000.0000     12.1828    137.0101
  1009.5000   2000.0000   2000.0000     12.4003    134.3641
  1009.7500   2000.0000   2000.0000     12.5957    132.7389
  1010.0000   2000.0000   2000.0000     12.7810    129.9478
  1010.2500   2000.0000   2000.0000     12.9760    128.0359
  1010.5000   2000.0000   2000.0000     13.1971    125.9648
  1010.7500   2000.0000   2000.0000     13.4489    125.4290
  1011.0000   2000.0000   2000.0000     13.7248    125.7946
  1011.2500   2000.0000   2000.0000     14.0128    126.6107
  1011.5000   2000.0000   2000.0000     14.3040    128.2499
  1011.7500   2000.0000   2000.0000     14.5967    129.1342
  1012.0000   2000.0000   2000.0000     14.8936    128.9337
  1012.2500   2000.0000   2000.0000     15.1947    127.2789
  1012.5000   2000.0000   2000.0000     15.4915    122.8428
  1012.7500   2000.0000   2000.0000     15.7704    119.4660
  1013.0000   2000.0000   2000.0000     16.0218    115.6088
  1013.2500   2000.0000   2000.0000     16.2461    114.5623
  1013.5000   2000.0000   2000.0000     16.4510    115.5143
  1013.7500   2000.0000   2000.0000     16.6453    117.5169
  1014.0000   2000.0000   2000.0000     16.8370    121.8116
  1014.2500   2000.0000   2000.0000     17.0358    125.1432
  1014.5000   2000.0000   2000.0000     17.2527    130.1483
  1014.7500   2000.0000   2000.0000     17.4966    132.8803
  1015.0000   2000.0000   2000.0000     17.7702    134.7388
  1015.2500   2000.0000   2000.0000     18.0688    133.9590
  1015.5000   2000.0000   2000.0000     18.3844    130.0450
  1015.7500   2000.0000   2000.0000     18.7104    126.3798
  1016.0000   2000.0000   2000.0000     19.0449    120.7095
  1016.2500   2000.0000   2000.0000     19.3885    117.2315
  1016.5000   2000.0000   2000.0000     19.7376    112.3492
  1016.7500   2000.0000   2000.0000     20.0831    108.9441
  1017.0000   2000.0000   2000.0000     20.4154    102.8776
  1017.2500   2000.0000   2000.0000     20.7296     97.9738
  1017.5000   2000.0000   2000.0000     21.0250     89.6350
  1017.7500   2000.0000   2000.0000     21.3014     83.8620
  1018.0000   2000.0000   2000.0000     21.5650     75.4447
  1018.2500   2000.0000   2000.0000     21.8357     70.1038
  1018.5000   2000.0000   2000.0000     22.1416     62.7730
  1018.7500   2000.0000   2000.0000     22.4978     58.7414
  1019.0000   2000.0000   2000.0000     22.8895     54.6777
  1019.2500   2000.0000   2000.0000     23.2784     53.3147
  1019.5000   2000.0000   2000.0000     23.6295     52.5629
  1019.7500   2000.0000   2000.0000     23.9351     52.4171
  1020.0000   2000.0000   2000.0000     24.2194     52.4337
  1020.2500   2000.0000   2000.0000     24.5181     52.7958
  1020.5000   2000.0000   2000.0000     24.8448     54.3465
  1020.7500   2000.0000   2000.0000     25.1637     56.1286
  1021.0000   2000.0000   2000.0000     25.3958     59.5062
  1021.2500   2000.0000   2000.0000     25.4674     61.7775
  1021.5000   2000.0000   2000.0000     25.3625     64.5457
  1021.7500   2000.0000   2000.0000     25.1299     65.7938
  1022.0000   2000.0000   2000.0000     24.8413     66.6996
  1022.2500   2000.0000   2000.0000     24.5495     66.5564
  1022.5000   2000.0000   2000.0000     24.2777     64.9858
  1022.7500   2000.0000   2000.0000     24.0323     63.1485
  1023.0000   2000.0000   2000.0000     23.8186     60.2633
  1023.2500   2000.0000   2000.0000     23.6483     59.1889
  1023.5000   2000.0000   2000.0000     23.5354     59.8653
  1023.7500   2000.0000   2000.0000     23.4850     61.5480
  1024.0000   2000.0000   2000.0000     23.4840     64.2659
  1024.2500   2000.0000   2000.0000     23.5022     65.4118
  1024.5000   2000.0000   2000.0000     23.5040     65.9395
  1024.7500   2000.0000   2000.0000     23.4648     65.7069
  1025.0000   2000.0000   2000.0000     23.3797     64.5252
  1025.2500   2000.0000   2000.0000     23.2613     63.1614
  1025.5000   2000.0000   2000.0000     23.1307     60.7891
  1025.7500   2000.0000   2000.0000     23.0101     59.5238
  1026.0000   2000.0000   2000.0000     22.9197     58.5790
  1026.2500   2000.0000   2000.0000     22.8754     58.4546
  1026.5000   2000.0000   2000.0000     22.8820     58.6480
  1026.7500   2000.0000   2000.0000     22.9283     59.0625
  1027.0000   2000.0000   2000.0000     22.9888     60.5602
  1027.2500   2000.0000   2000.0000     23.0349     62.3172
  1027.5000   2000.0000   2000.0000     23.0459     65.7764
  1027.7500   2000.0000   2000.0000     23.0128     68.1581
  1028.0000   2000.0000   2000.0000     22.9383     71.0505
  1028.2500   2000.0000   2000.0000     22.8381     72.2663
  1028.5000   2000.0000   2000.0000     22.7414     72.9672
  1028.7500   2000.0000   2000.0000     22.6826     72.8245
  1029.0000   2000.0000   2000.0000     22.6834     72.0201
  1029.2500   2000.0000   2000.0000     22.7391     71.1767
  1029.5000   2000.0000   2000.0000     22.8208     69.4065
  1029.7500   2000.0000   2000.0000     22.8910     67.9092
  1030.0000   2000.0000   2000.0000     22.9245     65.3521
  1030.2500   2000.0000   2000.0000     22.9196     63.5167
