~Version Information
VERS.                      2.0: CWLS Log ASCII Standard - VERSION 2.0
WRAP.                       NO: One line per depth step
~Well Information Block
STRT.FT               460.0000: 
STOP.FT              1498.0000: 
STEP.FT                 0.1000: 
NULL.                -999.2500: 
COMP.          Pioneer Natural Resources: COMPANY
WELL.           Amore 32-09 Tr: WELL
FLD.           Purgatoire River: FIELD
LOC.           1941' FNL & 2297' FEL: LOCATION
PROV.                 Colorado: PROVINCE
CNTY.               Las Animas: COUNTRY
SRVC.                Patterson: SERVICE COMPANY
DATE.          Mon Nov 14 13:24:57 2005: LOG DATE
UWI.           05 071 08584 00: UNIQUE WELL ID
~Curve Information Block
DEPT.FT            0 000 00 00: Depth
DCAL.in                       : CDL Caliper
RHOB.g/cc                     : CDL Bulk Density
RHOC.g/cc                     : CDL Density Correction
DPOR.pu                       : CDL Density Porosity
GR.GAPI                       : Gamma Ray
NPOR.pu                       : Neutron Porosity
~Parameter Information Block
~A  Depth       DCAL        RHOB        RHOC        DPOR         GR         NPOR    
# ...
   872.8000      8.0186      2.6668      0.0602     -1.0202     88.2576     21.1823
   872.9000      8.0186      2.6637      0.0549     -0.8275     88.4144     20.3907
   873.0000      8.0236      2.6761      0.0854     -1.5802     89.7348     19.6757
   873.1000      8.0236      2.7034      0.1285     -3.2386     93.2773     20.0174
   873.2000      8.0236      2.7217      0.1524     -4.3460     98.0447     21.0233
   873.3000      8.0173      2.7093      0.1586     -3.5957    101.0479     21.6624
   873.4000      8.0173      2.6696      0.1328     -1.1889    101.8168     21.8345
   873.5000      8.0088      2.6231      0.1014      1.6301    103.5455     22.0030
   873.6000      8.0088      2.5844      0.0642      3.9787    107.5502     22.2546
   873.7000      8.0088      2.5609      0.0289      5.3999    108.7445     22.3901
   873.8000      8.0059      2.5622      0.0307      5.3209    105.0617     22.1859
   873.9000      8.0059      2.5849      0.0497      3.9445    101.9500     22.0543
   874.0000      8.0118      2.6100      0.1386      2.4215    105.1166     22.5553
   874.1000      8.0118      2.6267      0.0926      1.4099    110.3609     23.4440
   874.2000      8.0118      2.6396      0.1128      0.6298    108.3611     24.1631
   874.3000      8.0189      2.6498      0.1601      0.0107     99.5184     24.6281
   874.4000      8.0189      2.6559      0.1430     -0.3585     92.0847     24.9205
   874.5000      8.0231      2.6589      0.1491     -0.5389     89.9321     25.0298
   874.6000      8.0231      2.6507      0.1646     -0.0406     90.5110     24.8283
   874.7000      8.0231      2.6258      0.1052      1.4662     89.5539     24.1912
   874.8000      8.0277      2.5966      0.1004      3.2374     86.8857     23.3535
   874.9000      8.0277      2.5748      0.0821      4.5604     85.6377     22.4988
   875.0000      8.0325      2.5647      0.0726      5.1699     87.0362     21.8312
   875.1000      8.0325      2.5731      0.0157      4.6588     91.0934     21.6977
   875.2000      8.0325      2.5999      0.0534      3.0338     96.1460     21.8526
   875.3000      8.0358      2.6280      0.0757      1.3312    100.8611     21.9661
   875.4000      8.0358      2.6423      0.0956      0.4686    105.8514     22.3009
   875.5000      8.0351      2.6336      0.1056      0.9922    109.8268     23.2763
   875.6000      8.0351      2.6041      0.0714      2.7802    112.6162     24.9231
   875.7000      8.0351      2.5776      0.0649      4.3869    113.7338     26.6245
   875.8000      8.0310      2.5699      0.0777      4.8531    109.6794     27.5002
   875.9000      8.0310      2.5751      0.0761      4.5408    102.8939     27.6167
   876.0000      8.0296      2.5874      0.0462      3.7953    100.6644     27.5360
   876.1000      8.0296      2.6058      0.0757      2.6799    103.2982     27.2705
   876.2000      8.0296      2.6297      0.0612      1.2319    104.8400     27.1560
   876.3000      8.0325      2.6616      0.0859     -0.7007    102.9156     27.4956
   876.4000      8.0325      2.6955      0.1435     -2.7569    101.5950     27.9391
   876.5000      8.0337      2.7170      0.1488     -4.0606    103.5753     28.4045
   876.6000      8.0337      2.7166      0.1166     -4.0375    103.3751     28.8351
   876.7000      8.0337      2.6980      0.0915     -2.9095     96.9304     28.5709
   876.8000      8.0331      2.6757      0.0645     -1.5584     90.0786     27.3730
   876.9000      8.0331      2.6551      0.0639     -0.3095     89.5331     25.8603
   877.0000      8.0343      2.6279      0.0049      1.3371     94.4465     24.8368
   877.1000      8.0343      2.5935     -0.0003      3.4230     99.6168     24.5662
   877.2000      8.0343      2.5641     -0.0159      5.2036    101.5676     24.4639
   877.3000      8.0349      2.5467     -0.0028      6.2591    102.2324     24.2988
   877.4000      8.0349      2.5343      0.0215      7.0099    103.8349     24.3458
   877.5000      8.0331      2.5275     -0.0162      7.4253    103.8964     24.3165
   877.6000      8.0331      2.5413      0.0251      6.5864    103.6089     24.1459
   877.7000      8.0331      2.5726      0.0970      4.6917    108.3006     24.0941
   877.8000      8.0289      2.5982      0.0751      3.1420    116.9491     24.0201
   877.9000      8.0289      2.6086      0.1122      2.5068    123.8652     23.9219
   878.0000      8.0193      2.6069      0.1271      2.6136    126.7791     23.8463
   878.1000      8.0193      2.5947      0.1037      3.3505    125.0357     23.7687
   878.2000      8.0193      2.5762      0.0682      4.4701    118.7359     23.7879
   878.3000      8.0043      2.5597      0.0750      5.4730    110.3335     24.1612
   878.4000      8.0043      2.5523      0.0942      5.9197    102.7049     25.3551
   878.5000      7.9973      2.5572      0.0713      5.6263     98.3832     27.0845
   878.6000      7.9973      2.5737      0.0975      4.6242     98.8069     28.0618
   878.7000      7.9973      2.5971      0.1147      3.2084    103.2727     28.0613
   878.8000      8.0004      2.6246      0.1270      1.5364    113.4621     28.0701
   878.9000      8.0004      2.6511      0.1594     -0.0665    126.9010     28.4791
   879.0000      8.0011      2.6668      0.1538     -1.0210    136.3962     29.0726
   879.1000      8.0011      2.6722      0.1790     -1.3435    140.1611     29.3668
   879.2000      8.0011      2.6718      0.1597     -1.3183    138.0230     29.2436
   879.3000      8.0084      2.6643      0.1366     -0.8659    133.4283     29.1989
   879.4000      8.0084      2.6457      0.1339      0.2585    132.4093     29.3412
   879.5000      8.0238      2.6218      0.0555      1.7078    131.9163     29.7897
   879.6000      8.0238      2.6106      0.0456      2.3899    128.4586     31.0135
   879.7000      8.0238      2.6174      0.0907      1.9769    124.8907     32.8613
   879.8000      8.0360      2.6333      0.0693      1.0144    122.8050     34.2861
   879.9000      8.0360      2.6566      0.0547     -0.3974    123.0544     34.4088
   880.0000      8.0415      2.6884      0.0459     -2.3246    125.6995     33.4451
   880.1000      8.0415      2.7154      0.0923     -3.9644    131.5352     31.8895
   880.2000      8.0415      2.7201      0.0796     -4.2455    139.9080     30.0945
   880.3000      8.0446      2.7035      0.0871     -3.2447    142.2602     28.7411
   880.4000      8.0446      2.6791      0.0552     -1.7614    138.5493     28.6702
   880.5000      8.0465      2.6540      0.0555     -0.2406    138.5925     29.8894
   880.6000      8.0465      2.6316     -0.0094      1.1161    141.7260     31.1720
   880.7000      8.0465      2.6205      0.0256      1.7887    141.3017     31.3067
   880.8000      8.0442      2.6163      0.0566      2.0394    137.6798     30.5087
   880.9000      8.0442      2.6049      0.0551      2.7324    134.8531     29.8965
   881.0000      8.0415      2.5877      0.0255      3.7758    133.5402     29.8813
   881.1000      8.0415      2.5785     -0.0038      4.3344    132.5778     30.0149
   881.2000      8.0415      2.5815      0.0428      4.1521    130.3751     29.9913
   881.3000      8.0409      2.5849      0.0715      3.9477    127.7779     30.0963
   881.4000      8.0409      2.5806      0.0426      4.2057    126.4457     30.4726
   881.5000      8.0411      2.5703      0.0428      4.8281    125.6263     30.3745
   881.6000      8.0411      2.5577      0.0308      5.5958    124.5584     29.5543
   881.7000      8.0411      2.5569      0.0150      5.6400    123.3930     28.6328
   881.8000      8.0407      2.5846      0.0454      3.9649    122.8603     28.0306
   881.9000      8.0407      2.6278      0.1198      1.3464    124.5145     28.1928
   882.0000      8.0392      2.6502      0.1203     -0.0151    128.1070     28.9206
   882.1000      8.0392      2.6390      0.0649      0.6662    129.9877     29.2004
   882.2000      8.0392      2.6099      0.0709      2.4309    130.0112     28.6748
   882.3000      8.0375      2.5775      0.0243      4.3952    132.6214     27.8044
