~Version Information
VERS.                      2.0: CWLS Log ASCII Standard - VERSION 2.0
WRAP.                       NO: One line per depth step
~Well Information Block
STRT.FT               340.0000: 
STOP.FT              2342.7500: 
STEP.FT                 0.2500: 
NULL.                -999.2500: 
COMP.          Pioneer Natural Resources: COMPANY
WELL.          Pinkerton 41-12: WELL
FLD.           Purgatoire River: FIELD
LOC.           1222' FNL & 670' FEL--: LOCATION
CNTY.               Las Animas: COUNTY
SRVC.                Patterson: SERVICE COMPANY
DATE.          Wed Mar 15 10:37:39 2006: LOG DATE
UWI.           05 071 08500 00: UNIQUE WELL ID
STAT.                 Colorado: STATE
~Curve Information Block
DEPT.FT            0 000 00 00: Depth
SN.Ohm-m                      : IEL Short Normal
SP.mV                         : IEL Spontaneous Potential
DIR.Ohm-m                     : IEL Induction Resistivity
GR.GAPI                       : Gamma Ray
~Parameter Information Block
~A  Depth        SN          SP         DIR          GR     
# ...
  1780.5000      7.6975     71.4568      7.9389    133.2196
  1780.7500      7.8828     70.6055      8.0520    130.2091
  1781.0000      8.1078     69.6944      8.1782    125.6012
  1781.2500      8.3310     68.7440      8.3065    122.8148
  1781.5000      8.5140     67.7728      8.4211    119.8999
  1781.7500      8.6309     66.8022      8.5041    119.1950
  1782.0000      8.6733     65.8593      8.5403    120.1637
  1782.2500      8.6510     64.9791      8.5234    121.8062
  1782.5000      8.5848     64.2024      8.4586    124.4403
  1782.7500      8.4960     63.5716      8.3601    125.4570
  1783.0000      8.3977     63.1237      8.2447    125.2227
  1783.2500      8.2923     62.8841      8.1266    124.2953
  1783.5000      8.1770     62.8608      8.0159    123.2386
  1783.7500      8.0505     63.0433      7.9191    123.3704
  1784.0000      7.9177     63.4040      7.8390    124.6072
  1784.2500      7.7893     63.9029      7.7747    125.5446
  1784.5000      7.6795     64.4935      7.7215    126.5170
  1784.7500      7.6022     65.1285      7.6718    126.9893
  1785.0000      7.5625     65.7647      7.6189    127.8098
  1785.2500      7.5499     66.3655      7.5586    128.4442
  1785.5000      7.5395     66.9038      7.4911    129.4329
  1785.7500      7.5054     67.3628      7.4188    130.2166
  1786.0000      7.4387     67.7374      7.3447    131.8125
  1786.2500      7.3576     68.0335      7.2716    133.1814
  1786.5000      7.2981     68.2675      7.2015    135.7980
  1786.7500      7.2893     68.4624      7.1362    138.0537
  1787.0000      7.3348     68.6437      7.0775    141.8533
  1787.2500      7.4166     68.8344      7.0275    144.0095
  1787.5000      7.5140     69.0505      6.9897    145.8338
  1787.7500      7.6201     69.2987      6.9699    146.2496
  1788.0000      7.7417     69.5770      6.9768    146.5535
  1788.2500      7.8882     69.8770      7.0210    146.9489
  1788.5000      8.0643     70.1880      7.1141    147.8386
  1788.7500      8.2740     70.4999      7.2667    148.1468
  1789.0000      8.5276     70.8059      7.4881    146.7755
  1789.2500      8.8431     71.1031      7.7863    143.9614
  1789.5000      9.2400     71.3905      8.1690    136.9360
  1789.7500      9.7351     71.6683      8.6449    131.2079
  1790.0000     10.3443     71.9350      9.2243    122.8342
  1790.2500     11.0859     72.1876      9.9181    117.9067
  1790.5000     11.9758     72.4209     10.7356    111.0776
  1790.7500     13.0169     72.6288     11.6810    106.3577
  1791.0000     14.1926     72.8051     12.7509     98.5192
  1791.2500     15.4726     72.9444     13.9339     92.8250
  1791.5000     16.8281     73.0425     15.2109     83.9928
  1791.7500     18.2425     73.0962     16.5559     78.2989
  1792.0000     19.7054     73.1035     17.9369     70.8934
  1792.2500     21.1914     73.0631     19.3178     67.1192
  1792.5000     22.6474     72.9749     20.6646     63.3010
  1792.7500     24.0027     72.8405     21.9467     61.6329
  1793.0000     25.1960     72.6633     23.1325     59.6197
  1793.2500     26.1922     72.4488     24.1855     58.4350
  1793.5000     26.9804     72.2041     25.0754     57.5261
  1793.7500     27.5612     71.9381     25.7970     58.0228
  1794.0000     27.9357     71.6602     26.3768     60.3674
  1794.2500     28.1055     71.3807     26.8556     62.2760
  1794.5000     28.0828     71.1105     27.2598     64.3098
  1794.7500     27.8999     70.8608     27.5849     64.8398
  1795.0000     27.6127     70.6434     27.8044     64.8451
  1795.2500     27.2870     70.4695     27.8938     64.7990
  1795.5000     26.9775     70.3486     27.8479     65.2679
  1795.7500     26.7079     70.2873     27.6772     66.0764
  1796.0000     26.4692     70.2876     27.3924     68.0893
  1796.2500     26.2333     70.3467     26.9997     69.9607
  1796.5000     25.9711     70.4575     26.5079     73.1602
  1796.7500     25.6592     70.6096     25.9396     75.0223
  1797.0000     25.2752     70.7909     25.3250     76.6904
  1797.2500     24.7903     70.9898     24.6815     77.0896
  1797.5000     24.1722     71.1963     23.9923     77.0927
  1797.7500     23.3925     71.4035     23.2046     76.9014
  1798.0000     22.4320     71.6083     22.2529     76.8396
  1798.2500     21.2877     71.8110     21.0981     77.5308
  1798.5000     19.9866     72.0152     19.7550     80.3029
  1798.7500     18.5968     72.2261     18.2929     82.8659
  1799.0000     17.2165     72.4491     16.8102     86.2173
  1799.2500     15.9382     72.6878     15.4000     87.7819
  1799.5000     14.8149     72.9428     14.1237     90.2406
  1799.7500     13.8555     73.2110     13.0039     92.7955
  1800.0000     13.0432     73.4862     12.0333     98.0259
  1800.2500     12.3513     73.7597     11.1909    101.5685
  1800.5000     11.7465     74.0219     10.4540    105.2016
  1800.7500     11.1936     74.2630      9.8040    106.0363
  1801.0000     10.6676     74.4736      9.2289    105.4921
  1801.2500     10.1635     74.6447      8.7230    104.7380
  1801.5000      9.6939     74.7677      8.2871    104.1697
  1801.7500      9.2805     74.8345      7.9263    104.3920
  1802.0000      8.9502     74.8386      7.6458    105.2822
  1802.2500      8.7350     74.7759      7.4486    105.7683
  1802.5000      8.6642     74.6472      7.3334    105.5857
  1802.7500      8.7442     74.4590      7.2950    104.8851
  1803.0000      8.9388     74.2244      7.3239    104.0262
  1803.2500      9.1706     73.9615      7.4062    104.1796
  1803.5000      9.3447     73.6911      7.5227    105.0577
  1803.7500      9.3798     73.4337      7.6502    105.1249
  1804.0000      9.2339     73.2060      7.7652    103.5227
  1804.2500      8.9229     73.0193      7.8516    101.8286
  1804.5000      8.5267     72.8785      7.9069    100.2254
  1804.7500      8.1725     72.7835      7.9439    100.6678
  1805.0000      7.9879     72.7306      7.9843    104.1347
  1805.2500      8.0423     72.7148      8.0474    108.1178
  1805.5000      8.3081     72.7309      8.1414    115.5179
  1805.7500      8.6728     72.7742      8.2588    120.3780
  1806.0000      8.9993     72.8404      8.3804    125.7735
  1806.2500      9.2033     72.9246      8.4862    127.8049
  1806.5000      9.3003     73.0218      8.5688    129.9555
  1806.7500      9.3950     73.1258      8.6416    132.0385
  1807.0000      9.6272     73.2306      8.7365    136.7104
  1807.2500     10.1068     73.3298      8.8950    139.9957
  1807.5000     10.8758     73.4179      9.1579    143.1741
  1807.7500     11.9082     73.4901      9.5578    143.4258
  1808.0000     13.1358     73.5419     10.1136    140.7775
  1808.2500     14.4732     73.5700     10.8246    137.2472
  1808.5000     15.8289     73.5713     11.6675    130.1522
  1808.7500     17.1186     73.5439     12.5978    124.7468
  1809.0000     18.2957     73.4865     13.5613    116.2258
  1809.2500     19.3819     73.3988     14.5118    110.6440
  1809.5000     20.4693     73.2803     15.4266    103.6044
  1809.7500     21.6758     73.1307     16.3116    100.5116
  1810.0000     23.0682     72.9485     17.1946     98.3190
  1810.2500     24.6025     72.7323     18.1127     97.6224
  1810.5000     26.1308     72.4815     19.0981     95.5276
  1810.7500     27.4784     72.1981     20.1633     92.3969
  1811.0000     28.5367     71.8888     21.2873     84.7585
  1811.2500     29.3056     71.5665     22.4116     78.5241
  1811.5000     29.8652     71.2503     23.4557     69.8771
  1811.7500     30.3115     70.9644     24.3505     65.8044
  1812.0000     30.6979     70.7352     25.0710     63.1357
  1812.2500     31.0072     70.5871     25.6392     63.5470
  1812.5000     31.1607     70.5385     26.0940     66.6660
  1812.7500     31.0631     70.5979     26.4472     69.8241
  1813.0000     30.6546     70.7619     26.6541     75.3667
  1813.2500     29.9307     71.0156     26.6153     79.2958
  1813.5000     28.9232     71.3344     26.2153     84.9854
  1813.7500     27.6789     71.6887     25.3814     88.2576
