~Version Information
VERS.                      2.0: CWLS Log ASCII Standard - VERSION 2.0
WRAP.                       NO: One line per depth step
~Well Information Block
STRT.FT               295.7500: 
STOP.FT              1461.0000: 
STEP.FT                 0.2500: 
NULL.                -999.2500: 
COMP.          Pioneer Natural Resources: COMPANY
WELL.              Lucky 21-36: WELL
FLD.           Purgatoire River: FIELD
LOC.           799' FNL & 1578' FWL--: LOCATION
CDN. :
PROV. :
UWI. :
STAT. :
CNTY. :
CTRY. :
API. :
COMP. :
WELL. :
FLD. :
LOC. :
DATE. :
SRVC. :
CNTY.               Las Animas: COUNTY
SRVC.          Superior Well Services: SERVICE COMPANY
DATE.          Mon Jul 07 19-13-01 2008: LOG DATE
UWI.           05 071 08456 00: UNIQUE WELL ID
STAT.                 Colorado: STATE
~Curve Information Block
DEPT.FT            0 000 00 00: Depth
SN.Ohm-m                      : IEL Short Normal
SP.mV                         : IEL Spontaneous Potential
DIR.Ohm-m                     : IEL Induction Resistivity
GR.GAPI                       : Gamma Ray
~Parameter Information Block
~A  Depth        SN          SP         DIR          GR     
# ...
   396.2500   2000.0000   1980.0000      8.2618    107.2324
   396.5000   2000.0000   1980.0000      8.3553    106.6346
   396.7500   2000.0000   1980.0000      8.4764    106.3323
   397.0000   2000.0000   1980.0000      8.6163    106.2597
   397.2500   2000.0000   1980.0000      8.7664    106.1997
   397.5000   2000.0000   1980.0000      8.9211    106.4416
   397.7500   2000.0000   1980.0000      9.0793    108.0813
   398.0000   2000.0000   1980.0000      9.2434    110.4248
   398.2500   2000.0000   1980.0000      9.4159    115.6029
   398.5000   2000.0000   1980.0000      9.5980    119.4499
   398.7500   2000.0000   1980.0000      9.7888    124.2544
   399.0000   2000.0000   1980.0000      9.9849    126.1102
   399.2500   2000.0000   1980.0000     10.1806    126.2268
   399.5000   2000.0000   1980.0000     10.3680    124.5043
   399.7500   2000.0000   1980.0000     10.5398    120.0856
   400.0000   2000.0000   1980.0000     10.6929    116.9398
   400.2500   2000.0000   1980.0000     10.8321    113.7407
   400.5000   2000.0000   1980.0000     10.9718    113.1584
   400.7500   2000.0000   1980.0000     11.1358    114.1603
   401.0000   2000.0000   1980.0000     11.3540    115.1111
   401.2500   2000.0000   1980.0000     11.6559    114.7977
   401.5000   2000.0000   1980.0000     12.0620    112.4582
   401.7500   2000.0000   1980.0000     12.5777    105.4074
   402.0000   2000.0000   1980.0000     13.1912     98.9131
   402.2500   2000.0000   1980.0000     13.8800     88.2056
   402.5000   2000.0000   1980.0000     14.6232     81.5938
   402.7500   2000.0000   1980.0000     15.4120     74.2671
   403.0000   2000.0000   1980.0000     16.2534     71.7081
   403.2500   2000.0000   1980.0000     17.1618     71.2975
   403.5000   2000.0000   1980.0000     18.1451     72.7951
   403.7500   2000.0000   1980.0000     19.1897     76.4903
   404.0000   2000.0000   1980.0000     20.2509     79.1815
   404.2500   2000.0000   1980.0000     21.2539     82.5119
   404.5000   2000.0000   1980.0000     22.1113     83.9848
   404.7500   2000.0000   1980.0000     22.7546     85.2973
   405.0000   2000.0000   1980.0000     23.1619     85.9078
   405.2500   2000.0000   1980.0000     23.3631     86.7998
   405.5000   2000.0000   1980.0000     23.4181     87.3948
   405.7500   2000.0000   1980.0000     23.3843     88.3892
   406.0000   2000.0000   1980.0000     23.2948     89.4383
   406.2500   2000.0000   1980.0000     23.1577     92.2587
   406.5000   2000.0000   1980.0000     22.9690     94.9418
   406.7500   2000.0000   1980.0000     22.7273     99.0763
   407.0000   2000.0000   1980.0000     22.4411    101.1505
   407.2500   2000.0000   1980.0000     22.1282    103.0393
   407.5000   2000.0000   1980.0000     21.8072    104.0664
   407.7500   2000.0000   1980.0000     21.4888    106.0992
   408.0000   2000.0000   1980.0000     21.1720    107.5121
   408.2500   2000.0000   1980.0000     20.8518    108.3236
   408.5000   2000.0000   1980.0000     20.5326    107.4617
   408.7500   2000.0000   1980.0000     20.2332    104.6003
   409.0000   2000.0000   1980.0000     19.9796    102.5744
   409.2500   2000.0000   1980.0000     19.7918    100.6646
   409.5000   2000.0000   1980.0000     19.6781    100.1786
   409.7500   2000.0000   1980.0000     19.6378     99.6690
   410.0000   2000.0000   1980.0000     19.6660     99.0031
   410.2500   2000.0000   1980.0000     19.7531     97.7244
   410.5000   2000.0000   1980.0000     19.8813     97.1684
   410.7500   2000.0000   1980.0000     20.0206     97.1664
   411.0000   2000.0000   1980.0000     20.1316     97.4532
   411.2500   2000.0000   1980.0000     20.1770     97.6480
   411.5000   2000.0000   1980.0000     20.1354     97.6048
   411.7500   2000.0000   1980.0000     20.0125     97.8858
   412.0000   2000.0000   1980.0000     19.8398     98.5062
   412.2500   2000.0000   1980.0000     19.6641     99.5328
   412.5000   2000.0000   1980.0000     19.5318     99.6973
   412.7500   2000.0000   1980.0000     19.4767     98.6817
   413.0000   2000.0000   1980.0000     19.5142     97.4057
   413.2500   2000.0000   1980.0000     19.6434     95.4416
   413.5000   2000.0000   1980.0000     19.8538     94.3878
   413.7500   2000.0000   1980.0000     20.1322     92.9965
   414.0000   2000.0000   1980.0000     20.4674     91.9934
   414.2500   2000.0000   1980.0000     20.8506     90.5944
   414.5000   2000.0000   1980.0000     21.2749     90.1389
   414.7500   2000.0000   1980.0000     21.7367     90.6598
   415.0000   2000.0000   1980.0000     22.2366     91.7283
   415.2500   2000.0000   1980.0000     22.7778     93.5696
   415.5000   2000.0000   1980.0000     23.3582     94.1899
   415.7500   2000.0000   1980.0000     23.9623     93.1230
   416.0000   2000.0000   1980.0000     24.5606     91.0467
   416.2500   2000.0000   1980.0000     25.1187     87.1184
   416.5000   2000.0000   1980.0000     25.6106     84.9786
   416.7500   2000.0000   1980.0000     26.0266     83.4344
   417.0000   2000.0000   1980.0000     26.3742     83.2673
   417.2500   2000.0000   1980.0000     26.6723     83.2096
   417.5000   2000.0000   1980.0000     26.9421     82.9476
   417.7500   2000.0000   1980.0000     27.1949     82.6432
   418.0000   2000.0000   1980.0000     27.4184     83.0255
   418.2500   2000.0000   1980.0000     27.5714     84.9259
   418.5000   2000.0000   1980.0000     27.5982     86.9449
   418.7500   2000.0000   1980.0000     27.4597     90.6348
   419.0000   2000.0000   1980.0000     27.1602     93.3109
   419.2500   2000.0000   1980.0000     26.7459     97.3645
   419.5000   2000.0000   1980.0000     26.2814     99.9335
   419.7500   2000.0000   1980.0000     25.8293    103.1214
   420.0000   2000.0000   1980.0000     25.4430    104.3624
   420.2500   2000.0000   1980.0000     25.1650    104.3360
   420.5000   2000.0000   1980.0000     25.0204    103.1885
   420.7500   2000.0000   1980.0000     25.0098    100.6790
   421.0000   2000.0000   1980.0000     25.1132     99.0079
   421.2500   2000.0000   1980.0000     25.3050     96.9469
   421.5000   2000.0000   1980.0000     25.5717     95.8807
   421.7500   2000.0000   1980.0000     25.9229     94.5363
   422.0000   2000.0000   1980.0000     26.3877     93.6305
   422.2500   2000.0000   1980.0000     26.9996     91.9282
   422.5000   2000.0000   1980.0000     27.7758     90.3559
   422.7500   2000.0000   1980.0000     28.7016     86.9746
   423.0000   2000.0000   1980.0000     29.7318     83.9715
   423.2500   2000.0000   1980.0000     30.8133     78.8599
   423.5000   2000.0000   1980.0000     31.9189     75.6846
   423.7500   2000.0000   1980.0000     33.0645     72.2588
   424.0000   2000.0000   1980.0000     34.2888     70.9944
   424.2500   2000.0000   1980.0000     35.6047     69.9723
   424.5000   2000.0000   1980.0000     36.9587     69.2390
   424.7500   2000.0000   1980.0000     38.2361     67.2650
   425.0000   2000.0000   1980.0000     39.3205     65.3782
   425.2500   2000.0000   1980.0000     40.1644     62.4510
   425.5000   2000.0000   1980.0000     40.8097     60.9445
   425.7500   2000.0000   1980.0000     41.3419     59.7982
   426.0000   2000.0000   1980.0000     41.8258     59.7942
   426.2500   2000.0000   1980.0000     42.2729     60.6110
   426.5000   2000.0000   1980.0000     42.6536     61.2368
   426.7500   2000.0000   1980.0000     42.9355     61.2134
   427.0000   2000.0000   1980.0000     43.1098     60.1858
   427.2500   2000.0000   1980.0000     43.1833     57.5418
   427.5000   2000.0000   1980.0000     43.1409     55.7567
   427.7500   2000.0000   1980.0000     42.9195     54.2434
   428.0000   2000.0000   1980.0000     42.4226     54.2924
   428.2500   2000.0000   1980.0000     41.5610     55.5231
   428.5000   2000.0000   1980.0000     40.2812     56.5974
   428.7500   2000.0000   1980.0000     38.5637     58.0901
   429.0000   2000.0000   1980.0000     36.4211     59.2521
   429.2500   2000.0000   1980.0000     33.9208     62.5580
   429.5000   2000.0000   1980.0000     31.2070     66.7756
