~Version Information
VERS.                      2.0: CWLS Log ASCII Standard - VERSION 2.0
WRAP.                       NO: One line per depth step
~Well Information Block
STRT.FT               330.0000: 
STOP.FT              1972.5000: 
STEP.FT                 0.1000: 
NULL.                -999.2500: 
COMP.          Pioneer Natural Resources: COMPANY
WELL.           Willys 32-8 Tr: WELL
FLD.           Purgatoire River: FIELD
LOC.           1843' FNL & 2355' FEL: LOCATION
CNTY.               Las Animas: COUNTY
SRVC.                Patterson: SERVICE COMPANY
DATE.          Thu Feb 09 10:31:59 2006: LOG DATE
UWI.           05 071 08688 00: UNIQUE WELL ID
STAT.                 Colorado: STATE
~Curve Information Block
DEPT.FT            0 000 00 00: Depth
DCAL.in                       : CDL Caliper
RHOB.g/cc                     : CDL Bulk Density
RHOC.g/cc                     : CDL Density Correction
DPOR.pu                       : CDL Density Porosity
GR.GAPI                       : Gamma Ray
~Parameter Information Block
~A  Depth       DCAL        RHOB        RHOC        DPOR         GR     
# ...
  1965.2000      7.8362      2.4554     -0.0022     11.7962   -999.2500
  1965.3000      7.8374      2.4684      0.0361     11.0076   -999.2500
  1965.4000      7.8374      2.4947      0.0405      9.4110   -999.2500
  1965.5000      7.8453      2.5102      0.0783      8.4736   -999.2500
  1965.6000      7.8453      2.4966      0.0543      9.2949   -999.2500
  1965.7000      7.8453      2.4746     -0.0055     10.6293   -999.2500
  1965.8000      7.8494      2.4774      0.0326     10.4636   -999.2500
  1965.9000      7.8494      2.5012      0.0838      9.0196   -999.2500
  1966.0000      7.8522      2.5201      0.0950      7.8730   -999.2500
  1966.1000      7.8522      2.5282      0.0903      7.3845   -999.2500
  1966.2000      7.8522      2.5399      0.0530      6.6700   -999.2500
  1966.3000      7.8472      2.5543      0.1505      5.7994   -999.2500
  1966.4000      7.8472      2.5502      0.1200      6.0498   -999.2500
  1966.5000      7.8391      2.5242      0.0473      7.6249   -999.2500
  1966.6000      7.8391      2.4935      0.0447      9.4874   -999.2500
  1966.7000      7.8391      2.4727      0.0309     10.7442   -999.2500
  1966.8000      7.8371      2.4689     -0.0066     10.9740   -999.2500
  1966.9000      7.8371      2.4740      0.0654     10.6642   -999.2500
  1967.0000      7.8313      2.4731      0.0361     10.7220   -999.2500
  1967.1000      7.8313      2.4687      0.0456     10.9850   -999.2500
  1967.2000      7.8313      2.4670      0.0405     11.0933   -999.2500
  1967.3000      7.8397      2.4667      0.0381     11.1061   -999.2500
  1967.4000      7.8397      2.4751     -0.0029     10.6028   -999.2500
  1967.5000      7.8412      2.4963      0.0480      9.3155   -999.2500
  1967.6000      7.8412      2.5167      0.0624      8.0789   -999.2500
  1967.7000      7.8412      2.5228      0.0487      7.7064   -999.2500
  1967.8000      7.8360      2.5143      0.0478      8.2244   -999.2500
  1967.9000      7.8360      2.4949      0.0273      9.3984   -999.2500
  1968.0000      7.8357      2.4801     -0.0160     10.2976   -999.2500
  1968.1000      7.8357      2.4861      0.0256      9.9362   -999.2500
  1968.2000      7.8357      2.5032      0.0088      8.8944   -999.2500
  1968.3000      7.8395      2.5136      0.0306      8.2690   -999.2500
  1968.4000      7.8395      2.5126      0.0172      8.3272   -999.2500
  1968.5000      7.8451      2.5064     -0.0232      8.7024   -999.2500
  1968.6000      7.8451      2.5016      0.0090      8.9963   -999.2500
  1968.7000      7.8451      2.5069      0.0068      8.6710   -999.2500
  1968.8000      7.8391      2.5511      0.0313      5.9910   -999.2500
  1968.9000      7.8391      2.6741      0.0120     -1.4585   -999.2500
  1969.0000      7.8163      2.7432      0.0779     -5.6509   -999.2500
  1969.1000      7.8163      2.3123      0.5802     20.4676   -999.2500
  1969.2000      7.8163      1.3163     -0.0300     80.8307   -999.2500
  1969.3000      7.7107      0.4466     -0.0300    133.5397   -999.2500
  1969.4000      7.7107      0.0848   -999.2500    155.4663   -999.2500
  1969.5000      7.0703      0.0087   -999.2500    160.0763   -999.2500
  1969.6000      7.0703      0.0005   -999.2500    160.5773   -999.2500
  1969.7000      7.0703      0.0000   -999.2500    160.6061   -999.2500
  1969.8000      4.6185      0.0000   -999.2500    160.6061   -999.2500
  1969.9000      4.6185   -999.2500   -999.2500   -999.2500   -999.2500
  1970.0000      4.2922   -999.2500   -999.2500   -999.2500   -999.2500
  1970.1000      4.2922   -999.2500   -999.2500   -999.2500   -999.2500
  1970.2000      4.2922   -999.2500   -999.2500   -999.2500   -999.2500
  1970.3000   -999.2500   -999.2500   -999.2500   -999.2500   -999.2500
  1970.4000   -999.2500   -999.2500   -999.2500   -999.2500   -999.2500
  1970.5000   -999.2500   -999.2500   -999.2500   -999.2500   -999.2500
  1970.6000   -999.2500   -999.2500   -999.2500   -999.2500   -999.2500
  1970.7000   -999.2500   -999.2500   -999.2500   -999.2500   -999.2500
  1970.8000   -999.2500   -999.2500   -999.2500   -999.2500   -999.2500
  1970.9000   -999.2500   -999.2500   -999.2500   -999.2500   -999.2500
  1971.0000   -999.2500   -999.2500   -999.2500   -999.2500   -999.2500
  1971.1000   -999.2500   -999.2500   -999.2500   -999.2500   -999.2500
  1971.2000   -999.2500   -999.2500   -999.2500   -999.2500   -999.2500
  1971.3000   -999.2500   -999.2500   -999.2500   -999.2500   -999.2500
  1971.4000   -999.2500   -999.2500   -999.2500   -999.2500   -999.2500
  1971.5000   -999.2500   -999.2500   -999.2500   -999.2500   -999.2500
  1971.6000   -999.2500   -999.2500   -999.2500   -999.2500   -999.2500
  1971.7000   -999.2500   -999.2500   -999.2500   -999.2500   -999.2500
  1971.8000   -999.2500   -999.2500   -999.2500   -999.2500   -999.2500
  1971.9000   -999.2500   -999.2500   -999.2500   -999.2500   -999.2500
  1972.0000   -999.2500   -999.2500   -999.2500   -999.2500   -999.2500
  1972.1000   -999.2500   -999.2500   -999.2500   -999.2500   -999.2500
  1972.2000   -999.2500   -999.2500   -999.2500   -999.2500   -999.2500
  1972.3000   -999.2500   -999.2500   -999.2500   -999.2500   -999.2500
  1972.4000   -999.2500   -999.2500   -999.2500   -999.2500   -999.2500
  1972.5000   -999.2500   -999.2500   -999.2500   -999.2500   -999.2500
