~Version Information
VERS.                      2.0: CWLS Log ASCII Standard - VERSION 2.0
WRAP.                       NO: One line per depth step
~Well Information Block
STRT.FT                 0.0000: 
STOP.FT              1981.7500: 
STEP.FT                 0.2500: 
NULL.                -999.2500: 
COMP.          Petrogulf Corporation: COMPANY
WELL.          Collister 17-31R: WELL
FLD.           Purgatorie River: FIELD
LOC.           962' FNL & 1520' FEL: LOCATION
STAT.                 Colorado: State
CNTY.               Las Animas: COUNTY
CTRY. USA : Country
SECT. 17 : Section
TOWN. 33S : Township
RANG. 67W : Range
SRVC.                Patterson: SERVICE COMPANY
DATE.          Fri Jan 06 10:32:29 2006: LOG DATE
API. 05-071-08436                         : UNIQUE WELL ID
~Curve Information Block
DEPT.FT            0 000 00 00: Depth
CCL.                          : Casing Collar Locator
TT3.usec                      : CBL 3' Travel Time
AMP3.mV                       : CBL 3' Amplitude
GR.GAPI                       : Gamma Ray
~Parameter Information Block
~A  Depth       CCL         TT3         AMP3         GR     
# ...
   636.5000      0.0000    342.6198      6.8696     94.3484
   636.7500      0.0000    342.6106      6.8436     96.4075
   637.0000      0.0000    342.5596      6.8816     95.1036
   637.2500      0.0000    342.3988      6.9931     92.2734
   637.5000      0.0000    342.2137      7.1476     90.3592
   637.7500      0.0000    342.1747      7.2782     90.0670
   638.0000      0.0000    342.3540      7.3273     90.1898
   638.2500      0.0000    342.6672      7.2888     89.3237
   638.5000      0.0000    342.9836      7.2079     87.1257
   638.7500      0.0000    343.3780      7.1481     84.1412
   639.0000      0.0000    345.2260      7.1563     81.0167
   639.2500      0.0000    354.2436      7.2318     77.9280
   639.5000      0.0000    382.4292      7.3123     74.6433
   639.7500      0.0000    438.6532      7.3217     71.1287
   640.0000      0.0000    511.2036      7.2453     67.8274
   640.2500      0.0000    572.4706      7.1360     65.1088
   640.5000      0.0000    607.3430      7.0533     62.8816
   640.7500      0.0000    622.8242      7.0049     61.1363
   641.0000      0.0000    631.3888      6.9645     60.3757
   641.2500      0.0000    637.4806      6.9511     61.0528
   641.5000      0.0000    636.9731      7.0226     62.8756
   641.7500      0.0000    622.3359      7.1775     64.8606
   642.0000      0.0000    592.4520      7.3329     65.8194
   642.2500      0.0000    563.3710      7.4185     64.8591
   642.5000      0.0000    557.9766      7.4311     61.8733
   642.7500      0.0000    577.7430      7.3861     57.7012
   643.0000      0.0000    600.9275      7.2829     53.7043
   643.2500      0.0000    610.2751      7.1515     51.0662
   643.5000      0.0000    607.4127      7.0560     50.3005
   643.7500      0.0000    602.7703      7.0061     51.1100
   644.0000      0.0000    602.9805      6.9553     52.5933
   644.2500      0.0000    608.0303      6.8935     53.7720
   644.5000      0.0000    613.9782      6.8598     54.1416
   644.7500      0.0000    617.5303      6.8902     53.8503
   645.0000      0.0000    618.3761      6.9931     53.3729
   645.2500      0.0000    617.1680      7.1487     52.9844
   645.5000      0.0000    613.7885      7.3234     52.5551
   645.7500      0.0000    609.0814      7.4948     51.7595
   646.0000      0.0000    607.2026      7.6112     50.3504
   646.2500      0.0000    613.6552      7.5520     48.2384
   646.5000      0.0000    629.6024      7.3134     45.5202
   646.7500      0.0000    648.0905      7.1174     42.5713
   647.0000      0.0000    658.7549      7.0564     39.9905
   647.2500      0.0000    658.3983      7.0324     38.2295
   647.5000      0.0000    651.0869      7.1465     37.2973
   647.7500      0.0000    636.5155      7.4822     36.9465
   648.0000     -2.0000    612.8666      7.8115     37.1234
   648.2500      2.0000    596.1217      7.9713     38.0222
   648.5000      0.0000    608.5138      8.0678     39.6102
   648.7500      0.0000    642.4375      8.1995     41.2904
   649.0000      0.0000    669.2537      8.2967     42.2358
   649.2500      0.0000    678.8500      8.2958     42.0944
   649.5000      0.0000    680.1553      8.2676     41.3807
   649.7500      0.0000    676.0433      8.2196     41.2224
   650.0000      0.0000    662.2953      8.0816     42.6877
   650.2500      0.0000    641.7437      7.9138     46.2877
   650.5000      0.0000    623.2911      7.7507     52.0379
   650.7500      0.0000    611.5266      7.5111     59.6130
   651.0000      0.0000    604.4630      7.2205     68.1340
   651.2500      0.0000    598.7388      7.0143     76.1768
   651.5000      0.0000    593.7862      6.9438     82.5389
   651.7500      0.0000    590.6536      6.9564     87.0011
   652.0000      0.0000    589.5117      6.9989     90.1669
   652.2500      0.0000    590.0739      7.0445     92.7866
   652.5000      0.0000    593.4572      7.0712     95.3505
   652.7500      0.0000    603.0317      7.0773     97.8813
   653.0000      0.0000    621.2034      7.0861     99.8852
   653.2500      0.0000    643.6552      7.1053    100.8347
   653.5000      0.0000    661.5170      7.1136    100.7685
   653.7500      0.0000    671.0287      7.0902    100.1885
   654.0000      0.0000    675.9832      7.0304     99.5290
   654.2500      0.0000    681.9270      6.9365     98.8788
   654.5000      0.0000    690.7429      6.8123     97.8435
   654.7500      0.0000    698.3332      6.6753     95.5597
   655.0000      0.0000    698.9962      6.5529     91.3687
   655.2500      0.0000    693.6119      6.4515     85.6238
   655.5000      0.0000    688.2637      6.3545     79.5501
   655.7500      0.0000    685.6915      6.2570     74.4469
   656.0000      0.0000    685.2103      6.1763     71.2021
   656.2500      0.0000    687.2219      6.1209     70.1099
   656.5000      0.0000    691.0676      6.0767     70.6359
   656.7500      0.0000    692.4222      6.0248     71.6099
   657.0000      0.0000    685.9796      5.9536     72.2237
   657.2500      0.0000    669.7902      5.8736     72.9402
   657.5000      0.0000    648.6633      5.8093     74.9712
   657.7500      0.0000    631.2699      5.7536     78.6745
   658.0000      0.0000    621.8776      5.6781     82.7741
   658.2500      0.0000    618.8607      5.5910     85.4900
   658.5000      0.0000    620.6885      5.5318     86.2202
   658.7500      0.0000    629.3980      5.5149     85.6253
   659.0000      0.0000    647.0135      5.5190     84.1927
   659.2500      0.0000    669.3333      5.5235     81.6252
   659.5000      0.0000    688.0548      5.5204     77.9957
   659.7500      0.0000    700.1724      5.4972     74.5988
   660.0000      0.0000    709.0117      5.4390     72.8524
   660.2500      0.0000    716.0625      5.3507     72.8191
   660.5000      0.0000    718.0854      5.2654     73.4791
   660.7500      0.0000    712.6779      5.2221     74.0714
   661.0000      0.0000    701.5817      5.2276     74.5059
   661.2500      0.0000    688.7970      5.2486     74.7426
   661.5000      0.0000    678.5104      5.2490     74.4933
   661.7500      0.0000    672.7356      5.2276     73.7295
   662.0000      0.0000    670.4564      5.2035     73.0564
   662.2500      0.0000    669.7803      5.1844     73.1312
   662.5000      0.0000    669.7189      5.1725     73.8374
   662.7500      0.0000    670.2448      5.1858     74.5590
   663.0000      0.0000    671.5918      5.2572     75.1804
   663.2500      0.0000    673.7183      5.3809     76.2059
   663.5000      0.0000    676.9672      5.4805     77.9088
   663.7500      0.0000    683.2474      5.4815     79.9997
   664.0000      0.0000    694.1957      5.3906     82.2457
   664.2500      0.0000    706.0626      5.2796     84.7543
   664.5000      0.0000    710.3865      5.2200     87.2083
   664.7500      0.0000    704.3779      5.2212     88.3564
   665.0000      0.0000    695.9991      5.2279     87.1246
   665.2500      0.0000    693.8423      5.1975     84.2236
   665.5000      0.0000    697.0405      5.1486     81.8448
   665.7500      0.0000    699.7004      5.1125     81.4668
   666.0000      0.0000    699.9602      5.0896     82.7136
   666.2500      0.0000    699.8262      5.0669     84.7311
   666.5000      0.0000    699.9954      5.0414     87.6943
   666.7500      0.0000    697.3306      5.0107     92.0148
   667.0000      0.0000    687.0170      4.9560     96.6853
   667.2500      0.0000    670.6281      4.8596     99.4477
   667.5000      0.0000    659.3832      4.7302     98.4786
   667.7500      0.0000    660.1815      4.5835     93.4503
   668.0000      0.0000    662.5970      4.4077     85.5223
   668.2500      0.0000    649.9220      4.1781     76.9923
   668.5000      0.0000    619.0831      3.9052     70.4498
   668.7500      0.0000    580.0385      3.6312     67.3900
   669.0000      0.0000    538.0660      3.3802     67.6053
   669.2500      0.0000    490.1994      3.1573     70.0454
   669.5000      0.0000    441.1100      2.9937     73.8711
   669.7500      0.0000    410.0674      2.9635     78.4412
