~Version Information
VERS.                      2.0: CWLS Log ASCII Standard - VERSION 2.0
WRAP.                       NO: One line per depth step
~Well Information Block
STRT.FT               615.0000: 
STOP.FT              2815.0000: 
STEP.FT                 0.2500: 
NULL.                -999.2500: 
COMP.          Pioneer Natural Resources: COMPANY
WELL.              Loews 41-32: WELL
FLD.           Purgatoire River: FIELD
LOC.           751' FNL & 128' FEL: LOCATION
CNTY.               Las Animas: COUNTY
SRVC.                Patterson: SERVICE COMPANY
DATE.          Sun Feb 12 02:27:11 2006: LOG DATE
UWI.           05 071 08693 00: UNIQUE WELL ID
STAT.                 Colorado: STATE
~Curve Information Block
DEPT.FT            0 000 00 00: Depth
SN.Ohm-m                      : IEL Short Normal
SP.mV                         : IEL Spontaneous Potential
DIR.Ohm-m                     : IEL Induction Resistivity
GR.GAPI                       : Gamma Ray
~Parameter Information Block
~A  Depth        SN          SP         DIR          GR     
   615.0000   2000.0000   2000.0000     36.2718    102.7699
   615.2500   2000.0000   2000.0000     35.8174     99.7495
   615.5000   2000.0000   2000.0000     35.7872     95.7836
   615.7500   2000.0000   2000.0000     36.0955     94.0128
   616.0000   2000.0000   2000.0000     36.6805     93.1574
   616.2500   2000.0000   2000.0000     37.4586     93.9791
   616.5000   2000.0000   2000.0000     38.2912     97.4611
   616.7500   2000.0000   2000.0000     39.0300    101.2466
   617.0000   2000.0000   2000.0000     39.6048    108.6307
   617.2500   2000.0000   2000.0000     40.0368    114.1262
   617.5000   2000.0000   2000.0000     40.3379    122.2796
   617.7500   2000.0000   2000.0000     40.4134    127.3207
   618.0000   2000.0000   2000.0000     40.1106    133.9087
   618.2500   2000.0000   2000.0000     39.3957    137.4758
   618.5000   2000.0000   2000.0000     38.4698    141.4915
   618.7500   2000.0000   2000.0000     37.6860    143.1753
   619.0000   2000.0000   2000.0000     37.3605    143.7247
   619.2500   2000.0000   2000.0000     37.6450    142.6592
   619.5000   2000.0000   2000.0000     38.5014    139.5116
   619.7500   2000.0000   2000.0000     39.7403    136.8267
   620.0000   2000.0000   2000.0000     41.0905    132.2966
   620.2500   2000.0000   2000.0000     42.2637    129.3319
   620.5000   2000.0000   2000.0000     42.9992    126.4536
   620.7500   2000.0000   2000.0000     43.1167    126.3474
   621.0000   2000.0000   2000.0000     42.6234    128.6896
   621.2500   2000.0000   2000.0000     41.7878    131.0035
   621.5000   2000.0000   2000.0000     41.0483    134.0897
   621.7500   2000.0000   2000.0000     40.7822    135.6024
   622.0000   2000.0000   2000.0000     41.1005    137.5176
   622.2500   2000.0000   2000.0000     41.7520    138.9906
   622.5000   2000.0000   2000.0000     42.1931    141.7918
   622.7500   2000.0000   2000.0000     41.8886    143.8266
   623.0000   2000.0000   2000.0000     40.7156    146.5155
   623.2500   2000.0000   2000.0000     39.0681    147.9684
   623.5000   2000.0000   2000.0000     37.5558    149.8325
   623.7500   2000.0000   2000.0000     36.6617    150.7131
   624.0000   2000.0000   2000.0000     36.6203    150.4716
   624.2500   2000.0000   2000.0000     37.4529    148.6637
   624.5000   2000.0000   2000.0000     39.0394    143.3665
   624.7500   2000.0000   2000.0000     41.1768    138.8015
   625.0000   2000.0000   2000.0000     43.5987    132.6579
   625.2500   2000.0000   2000.0000     45.9276    130.3181
   625.5000   2000.0000   2000.0000     47.6276    129.9865
   625.7500   2000.0000   2000.0000     48.1285    130.9969
   626.0000   2000.0000   2000.0000     47.1754    132.1550
   626.2500   2000.0000   2000.0000     45.0641    131.9694
   626.5000   2000.0000   2000.0000     42.4268    130.5913
   626.7500   2000.0000   2000.0000     39.8044    129.6893
   627.0000   2000.0000   2000.0000     37.4333    129.5403
   627.2500   2000.0000   2000.0000     35.3175    130.5352
   627.5000   2000.0000   2000.0000     33.4057    133.4606
   627.7500   2000.0000   2000.0000     31.7044    136.0189
   628.0000   2000.0000   2000.0000     30.2949    140.1535
   628.2500   2000.0000   2000.0000     29.3317    142.8358
   628.5000   2000.0000   2000.0000     29.1053    146.3514
   628.7500   2000.0000   2000.0000     30.1774    148.1342
   629.0000   2000.0000   2000.0000     33.6506    149.7318
   629.2500   2000.0000   2000.0000     41.9794    150.1464
   629.5000   2000.0000   2000.0000     62.1103    150.2901
   629.7500   2000.0000   2000.0000    123.1763    150.3714
   630.0000   2000.0000   2000.0000    601.8031    150.3994
   630.2500   2000.0000   2000.0000 100000.0000    149.8589
   630.5000   2000.0000   2000.0000 100000.0000    147.3033
   630.7500   2000.0000   2000.0000 100000.0000    144.4718
   631.0000   2000.0000   2000.0000 100000.0000    139.5999
   631.2500   2000.0000   2000.0000 100000.0000    136.5623
   631.5000   2000.0000   2000.0000 100000.0000    132.6991
   631.7500   2000.0000   2000.0000 100000.0000    130.7373
   632.0000   2000.0000   2000.0000 100000.0000    129.4889
   632.2500   2000.0000   2000.0000 100000.0000    130.1480
   632.5000   2000.0000   2000.0000 100000.0000    132.6780
   632.7500   2000.0000   2000.0000 100000.0000    134.2784
   633.0000   2000.0000   2000.0000 100000.0000    134.8195
   633.2500   2000.0000   2000.0000 100000.0000    133.7478
   633.5000   2000.0000   2000.0000 100000.0000    131.4288
   633.7500   2000.0000   2000.0000 100000.0000    130.8543
   634.0000   2000.0000   2000.0000 100000.0000    133.2567
   634.2500   2000.0000   2000.0000 100000.0000    136.8901
   634.5000   2000.0000   2000.0000 100000.0000    143.0601
   634.7500   2000.0000   2000.0000 100000.0000    145.8584
   635.0000   2000.0000   2000.0000 100000.0000    146.0755
   635.2500   2000.0000   2000.0000 100000.0000    143.5672
   635.5000   2000.0000   2000.0000 100000.0000    137.4884
   635.7500   2000.0000   2000.0000 100000.0000    133.0810
   636.0000   2000.0000   2000.0000     19.9500    127.0762
   636.2500   2000.0000   2000.0000      5.5286    123.4461
   636.5000   2000.0000   2000.0000      3.3922    118.0148
   636.7500   2000.0000   2000.0000      2.7851    110.4266
   637.0000   2000.0000   2000.0000      2.7290    104.8453
   637.2500   2000.0000   2000.0000      3.0104    101.3528
   637.5000   2000.0000   2000.0000      3.6073     97.6065
   637.7500   2000.0000   2000.0000      4.6467     87.1558
   638.0000   2000.0000   2000.0000      6.5886     90.9948
   638.2500   2000.0000   2000.0000     11.0268     96.5297
   638.5000   2000.0000   2000.0000     26.0614    107.4767
   638.7500   2000.0000   2000.0000    393.3503    101.7485
   639.0000   2000.0000   2000.0000 100000.0000    110.7892
   639.2500   2000.0000   2000.0000 100000.0000    116.2490
   639.5000   2000.0000   2000.0000    237.9971    123.9130
   639.7500   2000.0000   2000.0000     44.0722    111.5383
   640.0000   2000.0000   2000.0000     25.9203    114.9355
   640.2500   2000.0000   2000.0000     20.3888    115.1375
   640.5000   2000.0000   2000.0000     18.3326    112.7313
   640.7500   2000.0000   2000.0000     17.6070    110.3299
   641.0000   2000.0000   2000.0000     17.4594    107.7847
   641.2500   2000.0000   2000.0000     17.6008    107.6844
   641.5000   2000.0000   2000.0000     17.9586    109.7963
   641.7500   2000.0000   2000.0000     18.6100    111.8498
   642.0000   2000.0000   2000.0000     19.7526    114.4578
   642.2500   2000.0000   2000.0000     21.6556    115.5715
   642.5000   2000.0000   2000.0000     24.5178    116.3273
   642.7500   2000.0000   2000.0000     28.1630    116.1258
   643.0000   2000.0000   2000.0000     31.6646    114.4657
   643.2500   2000.0000   2000.0000     33.5927    112.5650
   643.5000   2000.0000   2000.0000     33.3000    109.4304
   643.7500   2000.0000   2000.0000     31.4933    107.8072
   644.0000   2000.0000   2000.0000     29.2010    106.6826
   644.2500   2000.0000   2000.0000     26.9764    106.6556
   644.5000   2000.0000   2000.0000     24.9888    106.7805
   644.7500   2000.0000   2000.0000     23.3153    106.4135
   645.0000   2000.0000   2000.0000     22.0544    104.7511
   645.2500   2000.0000   2000.0000     21.2953    102.9679
   645.5000   2000.0000   2000.0000     21.0604     99.6948
   645.7500   2000.0000   2000.0000     21.2778     97.5562
   646.0000   2000.0000   2000.0000     21.7871     95.5791
   646.2500   2000.0000   2000.0000     22.3816     95.7188
   646.5000   2000.0000   2000.0000     22.8879     98.2407
   646.7500   2000.0000   2000.0000     23.2332    100.7861
   647.0000   2000.0000   2000.0000     23.4448    104.1174
   647.2500   2000.0000   2000.0000     23.5890    105.2779
   647.5000   2000.0000   2000.0000     23.7109    105.3735
   647.7500   2000.0000   2000.0000     23.8143    104.7712
   648.0000   2000.0000   2000.0000     23.8752    103.5755
   648.2500   2000.0000   2000.0000     23.8653    102.8302
