~Version Information
VERS.                      2.0: CWLS Log ASCII Standard - VERSION 2.0
WRAP.                       NO: One line per depth step
~Well Information Block
STRT.FT                 7.7500: 
STOP.FT              2101.0000: 
STEP.FT                 0.2500: 
NULL.                -999.2500: 
COMP.          Pioneer Natural Resources: COMPANY
WELL.          Gunslinger 13-24: WELL
FLD.           Purgatoire River: FIELD
LOC.           1968' FSL & 633' FWL: LOCATION
PROV.                 Colorado: PROVINCE
CNTY.               Las Animas: COUNTRY
SRVC.                Patterson: SERVICE COMPANY
DATE.          Mon Aug 15 11:00:02 2005: LOG DATE
UWI.           05 071 08442 00: UNIQUE WELL ID
~Curve Information Block
DEPT.FT            0 000 00 00: Depth
GR.GAPI                       : Gamma Ray
CCL.                          : Casing Collar Locator
TT3.usec                      : CBL 3' Travel Time
AMP3.mV                       : CBL 3' Amplitude
~Parameter Information Block
~A  Depth        GR         CCL         TT3         AMP3    
# ...
  1649.2500    103.9772      0.0000    327.6973     34.0640
  1649.5000    104.0069      0.0000    327.6277     34.5718
  1649.7500    103.2398      0.0000    327.4844     35.0120
  1650.0000    103.1024      0.0000    327.3138     35.3631
  1650.2500    104.8727      0.0000    327.1747     35.6217
  1650.5000    108.5757      0.0000    327.1250     35.7921
  1650.7500    112.4696      0.0000    327.1932     35.8711
  1651.0000    114.1881      0.0000    327.3664     35.8448
  1651.2500    112.6267      0.0000    327.5938     35.6998
  1651.5000    108.7838      0.0000    327.8087     35.4363
  1651.7500    105.2093      0.0000    327.9608     35.0788
  1652.0000    104.6277      0.0000    328.0416     34.6686
  1652.2500    108.1574      0.0000    328.0804     34.2417
  1652.5000    114.2213      0.0000    328.1162     33.8094
  1652.7500    119.6474      0.0000    328.1711     33.3642
  1653.0000    122.2544      0.0000    328.2426     32.9071
  1653.2500    122.3022      0.0000    328.3174     32.4601
  1653.5000    121.6337      0.0000    328.3901     32.0484
  1653.7500    121.9364      0.0000    328.4970     31.6752
  1654.0000    123.7180      0.0000    328.7444     31.3215
  1654.2500    126.2147      0.0000    329.5595     30.9653
  1654.5000    127.9568      0.0000    332.2112     30.5998
  1654.7500    127.7686      0.0000    339.5586     30.2361
  1655.0000    125.5339      0.0000    355.9366     29.8870
  1655.2500    121.9751      0.0000    384.9641     29.5430
  1655.5000    117.7946      0.0000    426.4239     29.1628
  1655.7500    113.3950      0.0000    475.7339     28.6923
  1656.0000    109.3737      0.0000    526.5745     28.0929
  1656.2500    106.7153      0.0000    573.1078     27.3554
  1656.5000    106.0973      0.0000    610.7936     26.4970
  1656.7500    107.1272      0.0000    637.8153     25.5530
  1657.0000    108.4559      0.0000    655.7112     24.5736
  1657.2500    108.7482      0.0000    667.1936     23.6241
  1657.5000    107.6892      0.0000    673.9851     22.7743
  1657.7500    106.2822      0.0000    677.2839     22.0736
  1658.0000    106.1939      0.0000    678.9210     21.5309
  1658.2500    108.6704      0.0000    681.1054     21.1189
  1658.5000    113.8752      0.0000    685.3137     20.7953
  1658.7500    121.0624      0.0000    691.6123     20.5260
  1659.0000    129.1656      0.0000    698.7043     20.3052
  1659.2500    137.1734      0.0000    704.8251     20.1579
  1659.5000    144.2483      0.0000    708.8757     20.1151
  1659.7500    149.8468      0.0000    710.8442     20.1843
  1660.0000    153.7505      0.0000    711.2853     20.3449
  1660.2500    155.9712      0.0000    710.5486     20.5654
  1660.5000    156.7196      0.0000    708.4234     20.8072
  1660.7500    156.3512      0.0000    704.3953     21.0110
  1661.0000    155.0984      0.0000    698.3035     21.0964
  1661.2500    152.8455      0.0000    690.7287     20.9982
  1661.5000    149.3142      0.0000    682.6777     20.7153
  1661.7500    144.5462      0.0000    675.0953     20.3219
  1662.0000    139.1589      0.0000    669.0248     19.9179
  1662.2500    134.0772      0.0000    665.9694     19.5588
  1662.5000    130.0609      0.0000    667.2577     19.2303
  1662.7500    127.7003      0.0000    672.5330     18.8863
  1663.0000    127.7728      0.0000    679.1450     18.5040
  1663.2500    130.9741      0.0000    683.7285     18.1060
  1663.5000    136.9223      0.0000    684.7410     17.7403
  1663.7500    143.7839      0.0000    683.3235     17.4470
  1664.0000    149.2279      0.0000    681.8765     17.2410
  1664.2500    151.6973      0.0000    682.2518     17.1135
  1664.5000    150.9610      0.0000    684.9453     17.0403
  1664.7500    148.0000      0.0000    688.8958     16.9857
  1665.0000    144.5486      0.0000    691.6959     16.9102
  1665.2500    142.2630      0.0000    690.8881     16.7849
  1665.5000    141.7975      0.0000    686.1465     16.6037
  1665.7500    142.4794      0.0000    680.2679     16.3791
  1666.0000    142.9287      0.0000    677.2787     16.1247
  1666.2500    142.1883      0.0000    678.8665     15.8419
  1666.5000    140.4579      0.0000    682.5895     15.5247
  1666.7500    138.7065      0.0000    683.8833     15.1751
  1667.0000    137.5664      0.0000    680.0465     14.8130
  1667.2500    136.7778      0.0000    672.4128     14.4737
  1667.5000    135.6539      0.0000    664.9816     14.1936
  1667.7500    133.7133      0.0000    661.2925     13.9921
  1668.0000    130.7614      0.0000    662.1931     13.8679
  1668.2500    126.7163      0.0000    665.5404     13.8110
  1668.5000    121.8003      0.0000    667.9282     13.8178
  1668.7500    117.0610      0.0000    667.6843     13.8957
  1669.0000    114.3566      0.0000    666.4659     14.0564
  1669.2500    115.2447      0.0000    667.1976     14.3002
  1669.5000    119.6610      0.0000    670.6934     14.6043
  1669.7500    125.8574      0.0000    675.1142     14.9322
  1670.0000    131.6779      0.0000    678.3331     15.2656
  1670.2500    135.7030      0.0000    679.9941     15.6283
  1670.5000    137.3228      0.0000    681.4247     16.0707
  1670.7500    136.4330      0.0000    683.8287     16.6071
  1671.0000    133.4974      0.0000    686.6417     17.1586
  1671.2500    129.4716      0.0000    688.0939     17.5746
  1671.5000    125.2439      0.0000    687.4886     17.7379
  1671.7500    121.3791      0.0000    686.0849     17.6566
  1672.0000    118.5223      0.0000    685.3963     17.4474
  1672.2500    117.4479      0.0000    685.4871     17.2395
  1672.5000    118.1833      0.0000    685.3837     17.1067
  1672.7500    119.4014      0.0000    684.4416     17.0715
  1673.0000    119.1895      0.0000    683.0672     17.1359
  1673.2500    116.4351      0.0000    682.3873     17.2832
  1673.5000    111.3680      0.0000    683.1753     17.4550
  1673.7500    105.0364      0.0000    685.2025     17.5509
  1674.0000     98.6551      0.0000    687.9484     17.4780
  1674.2500     93.3809      0.0000    691.3831     17.2172
  1674.5000     90.1266      0.0000    695.3614     16.8429
  1674.7500     89.1107      0.0000    698.6658     16.4710
  1675.0000     89.5539      0.0000    699.4642     16.1852
  1675.2500     90.0127      0.0000    696.8702     16.0022
  1675.5000     89.3712      0.0000    691.9321     15.8893
  1675.7500     87.8661      0.0000    687.0903     15.8017
  1676.0000     87.0708      0.0000    684.5845     15.7106
  1676.2500     88.5455      0.0000    685.2860     15.6165
  1676.5000     92.4594      0.0000    688.7776     15.5461
  1676.7500     97.5059      0.0000    693.8658     15.5342
  1677.0000    101.8034      0.0000    698.8955     15.5999
  1677.2500    103.7945      0.0000    702.2222     15.7403
  1677.5000    102.9003      0.0000    702.8593     15.9420
  1677.7500     99.8436      0.0000    700.7961     16.1936
  1678.0000     96.1982      0.0000    696.9072     16.4837
  1678.2500     93.3537      0.0000    692.4600     16.7905
  1678.5000     91.8915      0.0000    688.1815     17.0714
  1678.7500     91.7158      0.0000    683.6500     17.2678
  1679.0000     92.4335      0.0000    678.0084     17.3255
  1679.2500     93.6762      0.0000    671.4319     17.2183
  1679.5000     95.2267      0.0000    665.7101     16.9526
  1679.7500     96.8535      0.0000    663.3240     16.5540
  1680.0000     98.2613      0.0000    665.7430     16.0527
  1680.2500     99.3555      0.0000    671.9818     15.4798
  1680.5000    100.2347      0.0000    678.4820     14.8707
  1680.7500    100.7222      0.0000    681.0140     14.2647
  1681.0000    100.1178      0.0000    677.5908     13.7002
  1681.2500     97.4634      0.0000    669.8082     13.2092
  1681.5000     92.1134      0.0000    661.2651     12.8122
  1681.7500     84.5254      0.0000    654.7895     12.5151
  1682.0000     76.5807      0.0000    651.1074     12.3100
  1682.2500     70.5229      0.0000    649.5074     12.1808
  1682.5000     67.4389      0.0000    649.0785     12.1040
