~Version Information
VERS.                      2.0: CWLS Log ASCII Standard - VERSION 2.0
WRAP.                       NO: One line per depth step
~Well Information Block
STRT.FT               460.0000: 
STOP.FT              2311.7000: 
STEP.FT                 0.1000: 
NULL.                -999.2500: 
COMP.          Pioneer Natural Resources: COMPANY
WELL.          McDonald 33-31 R: WELL
FLD.           Purgatoire River: FIELD
LOC.           1386' FSL & 1926' FEL: LOCATION
STAT.                 Colorado: State
CNTY.               Las Animas: COUNTY
CTRY.                      USA: Country
SECT.                       31: Section
TOWN.                      32S: Township
RANG.                      66W: Range
SRVC.                Patterson: SERVICE COMPANY
DATE.          Sat Sep 24 09:00:13 2005: LOG DATE
API.           05 071 08533 00: API
~Curve Information Block
DEPT.FT            0 000 00 00: Depth
DCAL.in                       : CDL Caliper
RHOB.g/cc                     : CDL Bulk Density
RHOC.g/cc                     : CDL Density Correction
DPOR.pu                       : CDL Density Porosity
NPOR.pu                       : Neutron Porosity
GR.GAPI                       : Gamma Ray
~Parameter Information Block
~A  Depth       DCAL        RHOB        RHOC        DPOR        NPOR         GR     
# ...
  1189.6000      7.9910      2.7474      0.0658     -5.9052     29.1134     81.0626
  1189.7000      7.9910      2.7238      0.0036     -4.4707     29.1951     80.9771
  1189.8000      7.9929      2.6940      0.0556     -2.6686     29.8115     81.2010
  1189.9000      7.9929      2.6612      0.0384     -0.6761     30.6817     82.9653
  1190.0000      7.9985      2.6198     -0.0038      1.8305     31.2265     85.2597
  1190.1000      7.9985      2.5786     -0.0346      4.3268     31.1229     89.5057
  1190.2000      7.9985      2.5472     -0.0221      6.2320     30.6912     94.6264
  1190.3000      8.0067      2.5219     -0.0289      7.7644     30.2217     96.2619
  1190.4000      8.0067      2.4995     -0.0334      9.1216     29.4902     93.6533
  1190.5000      8.0126      2.4857     -0.0399      9.9570     28.4866     91.0136
  1190.6000      8.0126      2.4859     -0.0133      9.9483     27.4533     91.4426
  1190.7000      8.0126      2.4902      0.0092      9.6826     26.4986     94.3972
  1190.8000      8.0164      2.4801      0.0166     10.2952     25.6623     97.7674
  1190.9000      8.0164      2.4556     -0.0147     11.7794     24.8509    101.0494
  1191.0000      8.0194      2.4381      0.0056     12.8417     23.7474    105.6815
  1191.1000      8.0194      2.4468      0.0044     12.3123     22.1406    109.9792
  1191.2000      8.0194      2.4814      0.0740     10.2198     20.6495    111.1262
  1191.3000      8.0242      2.5217      0.0841      7.7754     19.9350    110.1952
  1191.4000      8.0242      2.5519      0.1118      5.9446     19.8372    110.4954
  1191.5000      8.0317      2.5675      0.0968      5.0000     19.8863    112.7167
  1191.6000      8.0317      2.5614      0.1223      5.3707     19.8103    117.8374
  1191.7000      8.0317      2.5262      0.1178      7.5028     19.6578    125.8409
  1191.8000      8.0370      2.4759      0.0568     10.5532     19.5903    132.1056
  1191.9000      8.0370      2.4412      0.0175     12.6531     19.7118    133.6022
  1192.0000      8.0378      2.4332      0.0720     13.1398     20.0584    130.3056
  1192.1000      8.0378      2.4411      0.0518     12.6593     20.6870    124.7960
  1192.2000      8.0378      2.4524      0.0794     11.9728     21.4446    123.5107
  1192.3000      8.0375      2.4577      0.0768     11.6526     21.8529    127.6965
  1192.4000      8.0375      2.4592      0.0679     11.5612     21.8691    133.2840
  1192.5000      8.0359      2.4652      0.0961     11.1995     21.5591    139.1532
  1192.6000      8.0359      2.4768      0.1128     10.4986     20.8928    143.0845
  1192.7000      8.0359      2.4908      0.1289      9.6512     20.2959    140.7814
  1192.8000      8.0285      2.4990      0.1413      9.1505     20.1131    135.7689
  1192.9000      8.0285      2.4907      0.1076      9.6523     20.0150    134.9628
  1193.0000      8.0192      2.4615      0.0922     11.4273     19.8489    137.2135
  1193.1000      8.0192      2.4110      0.0688     14.4875     19.8374    138.4862
  1193.2000      8.0192      2.3460      0.0594     18.4237     19.7199    138.6347
  1193.3000      8.0187      2.2806      0.0176     22.3876     19.0989    140.5690
  1193.4000      8.0187      2.2230     -0.0276     25.8791     18.3106    146.6807
  1193.5000      8.0321      2.1715     -0.0335     29.0018     17.8036    153.1039
  1193.6000      8.0321      2.1233     -0.0483     31.9188     17.1934    151.8070
  1193.7000      8.0321      2.0720      0.0148     35.0314     16.1984    140.4349
  1193.8000      8.0515      2.0057      0.0156     39.0496     15.0922    128.3096
  1193.9000      8.0515      1.9309     -0.0386     43.5797     14.0522    124.5104
  1194.0000      8.0613      1.8761     -0.0277     46.9012     13.0147    125.7599
  1194.1000      8.0613      1.8625     -0.0470     47.7247     11.8356    128.9546
  1194.2000      8.0613      1.8869      0.0113     46.2488     10.6745    133.9095
  1194.3000      8.0645      1.9326      0.0670     43.4810      9.9472    134.3316
  1194.4000      8.0645      1.9924      0.1115     39.8575      9.6947    129.1875
  1194.5000      8.0684      2.0695      0.1873     35.1835      9.6140    125.2498
  1194.6000      8.0684      2.1608      0.2135     29.6486      9.5855    121.2451
  1194.7000      8.0684      2.2527      0.2377     24.0794      9.7489    113.2626
  1194.8000      8.0621      2.3306      0.2177     19.3553     10.2584    106.3371
  1194.9000      8.0621      2.3905      0.1867     15.7283     11.1973    104.7458
  1195.0000      8.0387      2.4306      0.1665     13.2976     12.4898    107.8482
  1195.1000      8.0387      2.4491      0.1307     12.1771     13.6977    113.0658
  1195.2000      8.0387      2.4505      0.1127     12.0910     14.7106    116.9662
  1195.3000      8.0194      2.4411      0.0740     12.6590     15.9321    118.1689
  1195.4000      8.0194      2.4303      0.0632     13.3149     17.1086    118.8342
  1195.5000      8.0137      2.4231      0.0745     13.7514     17.6266    121.8964
  1195.6000      8.0137      2.4183      0.0280     14.0407     17.4563    124.7391
  1195.7000      8.0137      2.4221      0.0205     13.8092     16.8844    124.7185
  1195.8000      8.0131      2.4383      0.0536     12.8312     16.2407    124.3414
  1195.9000      8.0131      2.4586      0.0201     11.6013     15.9027    123.9185
  1196.0000      8.0142      2.4741      0.0455     10.6628     16.0930    121.8741
  1196.1000      8.0142      2.4804      0.0795     10.2785     16.6737    119.3668
  1196.2000      8.0142      2.4829      0.0308     10.1292     17.4567    119.2454
  1196.3000      8.0147      2.4958      0.0546      9.3434     18.5499    120.3189
  1196.4000      8.0147      2.5223      0.0541      7.7387     19.9199    121.7777
  1196.5000      8.0066      2.5463      0.0868      6.2849     21.0356    123.9902
  1196.6000      8.0066      2.5542      0.1002      5.8056     21.5660    124.7133
  1196.7000      8.0066      2.5570      0.0384      5.6347     21.7540    122.0574
  1196.8000      7.9933      2.5658      0.0424      5.1059     22.0190    118.3005
  1196.9000      7.9933      2.5675      0.0824      5.0022     22.4933    116.6993
  1197.0000      7.9864      2.5519      0.0707      5.9425     22.8958    115.8130
  1197.1000      7.9864      2.5229      0.0467      7.7015     23.0903    112.4725
  1197.2000      7.9864      2.4815      0.0464     10.2103     23.1356    109.2431
  1197.3000      7.9839      2.4239     -0.0125     13.7047     22.9690    109.0095
  1197.4000      7.9839      2.3483     -0.0399     18.2832     22.6132    110.3002
  1197.5000      7.9826      2.2594     -0.0403     23.6744     22.0663    111.1558
  1197.6000      7.9826      2.1756     -0.1136     28.7542     21.1256    110.0853
  1197.7000      7.9826      2.1244     -0.1361     31.8561     19.7029    106.9485
  1197.8000      7.9830      2.1138     -0.0805     32.4973     17.9084    106.0353
  1197.9000      7.9830      2.1324     -0.0832     31.3687     16.0948    109.5376
  1198.0000      7.9831      2.1739     -0.0202     28.8560     14.2978    109.5295
  1198.1000      7.9831      2.2393      0.0433     24.8932     12.3051    100.8644
  1198.2000      7.9831      2.3278      0.1378     19.5262     10.5546     92.0077
  1198.3000      7.9802      2.4288      0.2164     13.4091      9.4880     90.3989
  1198.4000      7.9802      2.5289      0.2723      7.3365      8.9693     90.7554
  1198.5000      7.9741      2.6179      0.3254      1.9478      8.9312     86.4949
  1198.6000      7.9741      2.6840      0.2868     -2.0581      9.5956     79.2004
  1198.7000      7.9741      2.7191      0.2387     -4.1878     11.1234     72.0586
  1198.8000      7.9681      2.7169      0.1900     -4.0549     13.1093     65.2679
  1198.9000      7.9681      2.6828      0.1183     -1.9871     14.8346     60.5794
  1199.0000      7.9661      2.6419      0.0454      0.4891     16.2698     61.5169
  1199.1000      7.9661      2.6203      0.0127      1.8008     17.6474     67.0936
