~Version Information
VERS.                      2.0: CWLS Log ASCII Standard - VERSION 2.0
WRAP.                       NO: One line per depth step
~Well Information Block
STRT.FT               845.0000: 
STOP.FT              2103.2000: 
STEP.FT                 0.1000: 
NULL.                -999.2500: 
COMP.          Petrogulf Corporation: COMPANY
WELL.               YWAM 7-32R: WELL
FLD.           Purgatorie River: FIELD
LOC.           2355' FNL & 2376' FEL: LOCATION
PROV.                 Colorado: PROVINCE
CNTY.               Las Animas: COUNTRY
SRVC.                Patterson: SERVICE COMPANY
DATE.          Thu Sep 29 23:12:08 2005: LOG DATE
UWI.                          : UNIQUE WELL ID
~Curve Information Block
DEPT.FT            0 000 00 00: Depth
SP.mV                         : DIL Spontaneous Potential
RILD.Ohm-m                    : DIL Deep Resistivity
RILM.Ohm-m                    : DIL Medium Resistivity
RLL3.Ohm-m                    : DIL Shallow Resistivity
GR.GAPI                       : Gamma Ray
~Parameter Information Block
~A  Depth        SP         RILD        RILM        RLL3         GR     
# ...
  1920.2000    199.2192     25.9123     28.5285     29.6610     43.5715
  1920.3000    199.7485     25.2563     27.9725     31.7553     42.6630
  1920.4000    199.7485     25.2563     27.9725     31.7553     41.8203
  1920.5000    200.4640     24.5496     27.1981     33.8173     41.0551
  1920.6000    200.4640     24.5496     27.1981     33.8173     40.3767
  1920.7000    200.4640     24.5496     27.1981     33.8173     39.7972
  1920.8000    201.3813     23.8626     26.2240     35.6043     39.3459
  1920.9000    201.3813     23.8626     26.2240     35.6043     39.0697
  1921.0000    202.4995     23.2702     25.1153     36.6752     39.0359
  1921.1000    202.4995     23.2702     25.1153     36.6752     39.3266
  1921.2000    202.4995     23.2702     25.1153     36.6752     40.0354
  1921.3000    203.7881     22.8296     23.9696     36.3692     41.2500
  1921.4000    203.7881     22.8296     23.9696     36.3692     43.0504
  1921.5000    205.1756     22.5667     22.8936     34.1242     45.4898
  1921.6000    205.1756     22.5667     22.8936     34.1242     48.5929
  1921.7000    205.1756     22.5667     22.8936     34.1242     52.3460
  1921.8000    206.5503     22.4749     21.9816     30.0169     56.6920
  1921.9000    206.5503     22.4749     21.9816     30.0169     61.5373
  1922.0000    207.7806     22.5227     21.3025     25.0445     66.7594
  1922.1000    207.7806     22.5227     21.3025     25.0445     72.2149
  1922.2000    207.7806     22.5227     21.3025     25.0445     77.7557
  1922.3000    208.7535     22.6631     20.8971     20.7630     83.2376
  1922.4000    208.7535     22.6631     20.8971     20.7630     88.5311
  1922.5000    209.4158     22.8452     20.7809     18.5364     93.5201
  1922.6000    209.4158     22.8452     20.7809     18.5364     98.0987
  1922.7000    209.4158     22.8452     20.7809     18.5364    102.1669
  1922.8000    209.7939     23.0245     20.9481     19.0496    105.6276
  1922.9000    209.7939     23.0245     20.9481     19.0496    108.3844
  1923.0000    209.9772     23.1729     21.3739     22.3226    110.3516
  1923.1000    209.9772     23.1729     21.3739     22.3226    111.4594
  1923.2000    209.9772     23.1729     21.3739     22.3226    111.6686
  1923.3000    210.0784     23.2823     22.0153     27.8437    110.9812
  1923.4000    210.0784     23.2823     22.0153     27.8437    109.4429
  1923.5000    210.1957     23.3645     22.8131     34.5199    107.1434
  1923.6000    210.1957     23.3645     22.8131     34.5199    104.2116
  1923.7000    210.1957     23.3645     22.8131     34.5199    100.8017
  1923.8000    210.3928     23.4455     23.6958     40.7206     97.0835
  1923.9000    210.3928     23.4455     23.6958     40.7206     93.2312
  1924.0000    210.6926     23.5589     24.5880     44.8155     89.4118
  1924.1000    210.6926     23.5589     24.5880     44.8155     85.7849
  1924.2000    210.6926     23.5589     24.5880     44.8155     82.4906
  1924.3000    211.0819     23.7376     25.4219     45.9970     79.6502
  1924.4000    211.0819     23.7376     25.4219     45.9970     77.3552
  1924.5000    211.5277     24.0052     26.1453     44.6877     75.6574
  1924.6000    211.5277     24.0052     26.1453     44.6877     74.5648
  1924.7000    211.5277     24.0052     26.1453     44.6877     74.0370
  1924.8000    212.0008     24.3667     26.7251     42.1726     73.9905
  1924.9000    212.0008     24.3667     26.7251     42.1726     74.3072
  1925.0000    212.4930     24.8029     27.1452     39.7956     74.8595
  1925.1000    212.4930     24.8029     27.1452     39.7956     75.5262
  1925.2000    212.4930     24.8029     27.1452     39.7956     76.2153
  1925.3000    213.0133     25.2695     27.4008     38.2850     76.8717
  1925.4000    213.0133     25.2695     27.4008     38.2850     77.4877
  1925.5000    213.5684     25.7072     27.4952     37.5180     78.0810
  1925.6000    213.5684     25.7072     27.4952     37.5180     78.6886
  1925.7000    213.5684     25.7072     27.4952     37.5180     79.3434
  1925.8000    214.1406     26.0614     27.4403     36.7769     80.0625
  1925.9000    214.1406     26.0614     27.4403     36.7769     80.8396
  1926.0000    214.6797     26.3007     27.2585     35.3465     81.6472
  1926.1000    214.6797     26.3007     27.2585     35.3465     82.4417
  1926.2000    214.6797     26.3007     27.2585     35.3465     83.1780
  1926.3000    215.1083     26.4239     26.9837     33.0335     83.8109
  1926.4000    215.1083     26.4239     26.9837     33.0335     84.3002
  1926.5000    215.3368     26.4520     26.6593     30.2179     84.6053
  1926.6000    215.3368     26.4520     26.6593     30.2179     84.6838
  1926.7000    215.3368     26.4520     26.6593     30.2179     84.4873
  1926.8000    215.2819     26.4116     26.3314     27.4998     83.9614
  1926.9000    215.2819     26.4116     26.3314     27.4998     83.0546
  1927.0000    214.8856     26.3245     26.0413     25.3570     81.7318
  1927.1000    214.8856     26.3245     26.0413     25.3570     79.9825
  1927.2000    214.8856     26.3245     26.0413     25.3570     77.8334
  1927.3000    214.1314     26.2051     25.8191     24.0638     75.3448
  1927.4000    214.1314     26.2051     25.8191     24.0638     72.6062
  1927.5000    213.0547     26.0660     25.6804     23.7491     69.7213
  1927.6000    213.0547     26.0660     25.6804     23.7491     66.7914
  1927.7000    213.0547     26.0660     25.6804     23.7491     63.9009
  1927.8000    211.7446     25.9217     25.6272     24.3799     61.1105
  1927.9000    211.7446     25.9217     25.6272     24.3799     58.4544
  1928.0000    210.3320     25.7892     25.6509     25.6687     55.9456
  1928.1000    210.3320     25.7892     25.6509     25.6687     53.5834
  1928.2000    210.3320     25.7892     25.6509     25.6687     51.3618
  1928.3000    208.9585     25.6851     25.7379     27.0823     49.2753
  1928.4000    208.9585     25.6851     25.7379     27.0823     47.3183
  1928.5000    207.7375     25.6229     25.8748     28.0891     45.4885
  1928.6000    207.7375     25.6229     25.8748     28.0891     43.7834
  1928.7000    207.7375     25.6229     25.8748     28.0891     42.1988
  1928.8000    206.7282     25.6121     26.0526     28.5316     40.7293
  1928.9000    206.7282     25.6121     26.0526     28.5316     39.3699
  1929.0000    205.9394     25.6572     26.2678     28.8151     38.1199
  1929.1000    205.9394     25.6572     26.2678     28.8151     36.9769
  1929.2000    205.9394     25.6572     26.2678     28.8151     35.9447
  1929.3000    205.3535     25.7562     26.5213     29.6856     35.0238
  1929.4000    205.3535     25.7562     26.5213     29.6856     34.2114
  1929.5000    204.9494     25.8992     26.8150     31.7044     33.4999
  1929.6000    204.9494     25.8992     26.8150     31.7044     32.8785
  1929.7000    204.9494     25.8992     26.8150     31.7044     32.3365
  1929.8000    204.7125     26.0702     27.1468     34.8046     31.8663
  1929.9000    204.7125     26.0702     27.1468     34.8046     31.4670
  1930.0000    204.6330     26.2535     27.5070     38.2717     31.1501
  1930.1000    204.6330     26.2535     27.5070     38.2717     30.9320
  1930.2000    204.6330     26.2535     27.5070     38.2717     30.8386
  1930.3000    204.6987     26.4421     27.8769     41.1554     30.8949
  1930.4000    204.6987     26.4421     27.8769     41.1554     31.1265
  1930.5000    204.8858     26.6408     28.2312     42.7709     31.5527
  1930.6000    204.8858     26.6408     28.2312     42.7709     32.1888
  1930.7000    204.8858     26.6408     28.2312     42.7709     33.0476
  1930.8000    205.1511     26.8616     28.5443     42.9052     34.1417
  1930.9000    205.1511     26.8616     28.5443     42.9052     35.4871
  1931.0000    205.4294     27.1125     28.7985     41.6768     37.1049
  1931.1000    205.4294     27.1125     28.7985     41.6768     39.0231
  1931.2000    205.4294     27.1125     28.7985     41.6768     41.2736
  1931.3000    205.6434     27.3872     28.9914     39.3315     43.8927
