~Version Information
VERS.                      2.0: CWLS Log ASCII Standard - VERSION 2.0
WRAP.                       NO: One line per depth step
~Well Information Block
STRT.FT                -6.7500: 
STOP.FT              1121.2500: 
STEP.FT                 0.2500: 
NULL.                -999.2500: 
COMP.          Pioneer Natural Resources: COMPANY
WELL.              Draco 31-21: WELL
FLD.           Purgatorie River: FIELD
LOC.           491' FNL & 2446' FEL--: LOCATION
CNTY.               Las Animas: COUNTY
SRVC.          Patterson Wireline: SERVICE COMPANY
DATE.          Mon Feb 06 09:50:04 2006: LOG DATE
UWI.           05 071 08672 00: UNIQUE WELL ID
STAT.                       CO: STATE
~Curve Information Block
DEPT.FT            0 000 00 00: Depth
CCL.                          : Casing Collar Locator
TT3.usec                      : CBL 3' Travel Time
AMP3.mV                       : CBL 3' Amplitude
GR.GAPI                       : Gamma Ray
~Parameter Information Block
~A  Depth       CCL         TT3         AMP3         GR     
# ...
   361.7500      0.0000    628.1324     13.1958     66.4923
   362.0000      0.0000    588.4600     13.2075     65.2549
   362.2500      0.0000    535.9874     13.3063     64.7816
   362.5000      0.0000    499.6922     13.4487     64.3930
   362.7500      0.0000    500.4401     13.5944     63.5844
   363.0000      0.0000    539.5734     13.7136     62.4717
   363.2500      0.0000    599.9528     13.7896     61.5601
   363.5000      0.0000    658.4263     13.8202     61.4778
   363.7500      0.0000    699.9043     13.8116     62.9678
   364.0000      0.0000    722.3694     13.7672     66.7015
   364.2500      0.0000    731.8000     13.6847     72.5144
   364.5000      0.0000    734.6251     13.5725     78.7237
   364.7500      0.0000    733.6249     13.4703     82.9309
   365.0000      0.0000    726.7722     13.4499     84.1962
   365.2500      0.0000    707.2932     13.5828     84.2274
   365.5000      0.0000    666.8120     13.8869     85.8626
   365.7500      0.0000    603.1374     14.2961     90.3525
   366.0000      0.0000    527.0819     14.6877     96.2670
   366.2500      0.0000    459.4143     14.9519    100.9077
   366.5000      0.0000    419.2484     15.0444    102.6056
   366.7500      0.0000    415.1356     14.9864    101.8082
   367.0000      0.0000    442.9388     14.8355    100.3331
   367.2500      0.0000    485.4758     14.6657     99.8609
   367.5000      0.0000    516.0826     14.5609    101.0349
   367.7500      0.0000    513.1667     14.5926    103.6280
   368.0000      0.0000    476.6532     14.7807    107.2521
   368.2500      0.0000    426.7321     15.0647    111.6501
   368.5000      0.0000    385.3114     15.3181    116.2758
   368.7500      0.0000    361.7701     15.4128    120.0562
   369.0000      0.0000    354.9355     15.3013    122.0836
   369.2500      0.0000    362.6693     15.0469    122.5838
   369.5000      0.0000    386.3947     14.7705    122.7527
   369.7500      0.0000    426.4675     14.5658    123.2360
   370.0000      0.0000    473.7206     14.4585    122.9585
   370.2500      0.0000    508.5101     14.4254    120.0097
   370.5000      0.0000    513.4005     14.4322    113.7869
   370.7500      0.0000    488.1341     14.4602    105.9262
   371.0000      0.0000    449.5119     14.5154     99.0803
   371.2500      0.0000    417.0574     14.6196     95.0610
   371.5000      0.0000    401.5964     14.7929     93.9361
   371.7500      0.0000    404.3814     15.0455     94.2174
   372.0000      0.0000    419.2007     15.3836     93.9446
   372.2500      0.0000    433.2465     15.8151     92.3161
   372.5000      0.0000    432.5830     16.3345     90.5657
   372.7500      0.0000    412.7603     16.8998     90.8969
   373.0000      0.0000    382.7993     17.4375     94.3214
   373.2500      0.0000    356.2176     17.8876     99.6208
   373.5000      0.0000    339.7119     18.2495    104.2943
   373.7500      0.0000    331.2625     18.5795    106.3090
   374.0000      0.0000    325.8784     18.9343    105.1611
   374.2500      0.0000    320.6839     19.3051    101.5869
   374.5000      0.0000    315.7258     19.6093     96.3825
   374.7500      0.0000    312.1973     19.7558     89.7345
   375.0000      0.0000    310.9522     19.7155     81.9743
   375.2500      0.0000    312.2989     19.5175     74.6165
   375.5000      0.0000    316.2985     19.1939     69.7709
   375.7500      0.0000    322.5169     18.7597     68.2323
   376.0000      0.0000    329.6671     18.2476     68.6348
   376.2500      0.0000    336.0030     17.7288     68.6762
   376.5000      0.0000    340.2682     17.2830     66.9212
   376.7500      0.0000    342.1601     16.9537     63.4692
   377.0000      0.0000    342.0350     16.7351     59.3598
   377.2500      0.0000    340.5909     16.5902     55.7288
   377.5000      0.0000    338.8938     16.4764     53.4851
   377.7500      0.0000    338.1553     16.3605     53.2407
   378.0000      0.0000    338.9743     16.2231     54.8681
   378.2500      0.0000    340.8768     16.0594     57.0192
   378.5000      0.0000    342.8472     15.8831     57.7643
   378.7500      0.0000    344.2080     15.7262     56.3961
   379.0000      0.0000    344.9051     15.6216     54.4981
   379.2500      0.0000    345.2087     15.5741     54.6330
   379.5000      0.0000    345.4083     15.5454     57.7807
   379.7500      0.0000    345.7511     15.4745     62.2348
   380.0000      0.0000    346.7201     15.3215     65.0862
   380.2500      0.0000    349.8176     15.0822     64.7186
   380.5000      0.0000    358.6020     14.7520     62.0122
   380.7500      0.0000    378.5860     14.2864     59.5031
   381.0000      0.0000    413.8225     13.6423     59.4885
   381.2500      0.0000    461.6648     12.8839     62.5342
   381.5000      0.0000    512.8583     12.1958     67.3117
   381.7500      0.0000    560.0612     11.7116     71.7664
   382.0000      0.0000    604.5283     11.3599     74.6624
   382.2500      0.0000    650.6946     10.9781     76.2156
   382.5000      0.0000    696.9967     10.5457     77.3544
   382.7500      0.0000    736.7046     10.1965     78.5505
   383.0000      0.0000    765.3101     10.0356     79.5509
   383.2500     -2.0000    782.1393     10.0448     80.1361
   383.5000      2.0000    784.7370     10.1540     80.7114
   383.7500      0.0000    765.1994     10.3474     81.9032
   384.0000      0.0000    715.7235     10.6935     83.6933
   384.2500      0.0000    640.5130     11.2635     85.0740
   384.5000      0.0000    560.5050     12.0076     84.6741
   384.7500      0.0000    500.8373     12.7559     81.9580
   385.0000      0.0000    472.0731     13.3861     77.9296
   385.2500      0.0000    468.0182     13.9213     74.4857
   385.5000      0.0000    481.6310     14.4148     72.8314
   385.7500      0.0000    514.9478     14.8317     72.4993
   386.0000      0.0000    569.4068     15.1040     72.0653
   386.2500      0.0000    633.2427     15.2323     70.8367
   386.5000      0.0000    684.7205     15.2813     69.6326
   386.7500      0.0000    706.1201     15.3152     69.8756
   387.0000      0.0000    692.9699     15.3617     72.1969
   387.2500      0.0000    653.5121     15.4202     76.0189
   387.5000      0.0000    602.6123     15.4779     80.1562
   387.7500      0.0000    554.5266     15.5246     83.6278
   388.0000      0.0000    517.2491     15.5576     86.1241
   388.2500      0.0000    489.8213     15.5821     88.0030
   388.5000      0.0000    464.4683     15.6084     89.9231
   388.7500      0.0000    434.7594     15.6466     92.2587
   389.0000      0.0000    402.6580     15.7014     94.6572
   389.2500      0.0000    375.7197     15.7715     96.3462
   389.5000      0.0000    358.7598     15.8517     97.1434
   389.7500      0.0000    350.6912     15.9344     97.8224
   390.0000      0.0000    347.6733     16.0065     99.0405
   390.2500      0.0000    346.6507     16.0501    100.1974
   390.5000      0.0000    346.1931     16.0537     99.7567
   390.7500      0.0000    345.9075     16.0266     96.6448
   391.0000      0.0000    345.7210     15.9997     91.2335
   391.2500      0.0000    345.4213     16.0109     84.9572
   391.5000      0.0000    344.4881     16.0857     79.0160
   391.7500      0.0000    342.1074     16.2254     73.6095
   392.0000      0.0000    337.5662     16.4096     68.3523
   392.2500      0.0000    330.9406     16.6094     63.0263
   392.5000      0.0000    323.4500     16.7983     57.9108
   392.7500      0.0000    316.8896     16.9551     53.8643
   393.0000      0.0000    312.5662     17.0635     52.1403
   393.2500      0.0000    310.8408     17.1162     53.5757
   393.5000      0.0000    311.5091     17.1185     57.6744
   393.7500      0.0000    314.2315     17.0879     62.7314
   394.0000      0.0000    318.5310     17.0451     67.0396
   394.2500      0.0000    323.7101     17.0007     69.7917
   394.5000      0.0000    328.9405     16.9492     70.8531
   394.7500      0.0000    333.2566     16.8831     70.2252
   395.0000      0.0000    335.5500     16.8106     68.2183
