~Version Information
VERS.                      2.0: CWLS Log ASCII Standard - VERSION 2.0
WRAP.                       NO: One line per depth step
~Well Information Block
STRT.FT               230.0000: 
STOP.FT              1028.0000: 
STEP.FT                 0.2500: 
NULL.                -999.2500: 
COMP.          Pioneer Natural Resources: COMPANY
WELL.              Gough 14-29: WELL
FLD.           Purgatoire River: FIELD
LOC.           1199' FSL & 676' FWL: LOCATION
PROV.                 Colorado: PROVINCE
CNTY.               Las Animas: COUNTRY
SRVC.                Patterson: SERVICE COMPANY
DATE.          Thu Dec 22 16:27:18 2005: LOG DATE
UWI.           05 071 08612 00: UNIQUE WELL ID
~Curve Information Block
DEPT.FT            0 000 00 00: Depth
SN.Ohm-m                      : IEL Short Normal
SP.mV                         : IEL Spontaneous Potential
DIR.Ohm-m                     : IEL Induction Resistivity
GR.GAPI                       : Gamma Ray
~Parameter Information Block
SNDERRM.mmho-m         10.0000: Medium Sonde Error Correction
~A  Depth        SN          SP         DIR          GR     
# ...
   632.0000     33.2427    -14.6814     27.6967     58.6755
   632.2500     34.2113    -14.8507     28.1234     56.4265
   632.5000     35.0054    -15.0161     28.4013     55.6522
   632.7500     35.6988    -15.1737     28.7151     56.7835
   633.0000     36.4572    -15.3319     29.2188     59.8339
   633.2500     37.3327    -15.5085     29.9799     61.9024
   633.5000     38.2137    -15.7186     30.9739     63.9354
   633.7500     38.8897    -15.9621     32.1101     64.3491
   634.0000     39.2495    -16.2211     33.2681     63.8655
   634.2500     39.4521    -16.4650     34.3336     63.1916
   634.5000     39.7109    -16.6600     35.2342     62.1903
   634.7500     40.0095    -16.7800     35.9675     61.6224
   635.0000     40.2584    -16.8170     36.6074     60.6923
   635.2500     40.5633    -16.7830     37.2664     59.7568
   635.5000     41.0980    -16.7011     38.0260     57.4675
   635.7500     41.8269    -16.5934     38.8791     55.3453
   636.0000     42.6117    -16.4741     39.7255     51.9258
   636.2500     43.4646    -16.3480     40.4386     50.0833
   636.5000     44.4006    -16.2095     40.9512     48.5845
   636.7500     45.2201    -16.0463     41.2933     48.3152
   637.0000     45.7231    -15.8469     41.5550     48.2872
   637.2500     46.0179    -15.6061     41.8300     48.1052
   637.5000     46.4226    -15.3252     42.1895     47.3214
   637.7500     47.0629    -15.0103     42.6784     46.5761
   638.0000     47.7309    -14.6709     43.3063     45.4459
   638.2500     48.2501    -14.3199     44.0309     44.7687
   638.5000     48.7658    -13.9754     44.7539     43.9046
   638.7500     49.4532    -13.6612     45.3532     43.4482
   639.0000     50.2050    -13.4018     45.7411     42.8182
   639.2500     50.8555    -13.2072     45.9186     42.2047
   639.5000     51.4321    -13.0619     45.9715     40.5997
   639.7500     52.0239    -12.9303     46.0132     39.0388
   640.0000     52.5791    -12.7772     46.1089     36.2442
   640.2500     52.9118    -12.5863     46.2337     34.3518
   640.5000     52.8959    -12.3626     46.2824     32.0924
   640.7500     52.6400    -12.1238     46.1231     31.3636
   641.0000     52.3963    -11.8889     45.6656     31.7331
   641.2500     52.2608    -11.6706     44.9033     32.7242
   641.5000     52.0282    -11.4713     43.9081     34.5658
   641.7500     51.4365    -11.2845     42.7994     35.8155
   642.0000     50.4831    -11.1008     41.7051     38.2631
   642.2500     49.3560    -10.9150     40.7237     40.8976
   642.5000     48.1793    -10.7286     39.8981     46.8596
   642.7500     46.9935    -10.5482     39.2156     51.7336
   643.0000     45.8785    -10.3789     38.6364     58.6551
   643.2500     44.9095    -10.2185     38.1275     62.0037
   643.5000     44.0360    -10.0550     37.6728     64.3939
   643.7500     43.1767     -9.8706     37.2547     64.4459
   644.0000     42.3587     -9.6498     36.8229     62.9698
   644.2500     41.6365     -9.3890     36.2784     61.2440
   644.5000     41.0069     -9.0994     35.4848     57.8782
   644.7500     40.4158     -8.8042     34.3142     55.4975
   645.0000     39.7704     -8.5279     32.7080     52.7239
   645.2500     38.9860     -8.2845     30.7152     51.8798
   645.5000     37.9995     -8.0678     28.4737     52.1717
   645.7500     36.7600     -7.8537     26.1469     52.9933
   646.0000     35.2698     -7.6128     23.8660     54.3513
   646.2500     33.5190     -7.3242     21.7128     55.2702
   646.5000     31.3864     -6.9819     19.7370     57.6125
   646.7500     28.8067     -6.5957     17.9762     60.6579
   647.0000     25.9460     -6.1898     16.4608     68.1893
   647.2500     23.0764     -5.7977     15.2053     74.7943
   647.5000     20.4209     -5.4520     14.2024     85.3607
   647.7500     18.1661     -5.1737     13.4233     91.8267
   648.0000     16.4591     -4.9650     12.8233     99.6339
   648.2500     15.3215     -4.8098     12.3500    103.3449
   648.5000     14.6198     -4.6812     11.9525    106.5491
   648.7500     14.1327     -4.5549     11.5901    116.1843
   649.0000     13.6766     -4.4216     11.2398    115.8240
   649.2500     13.2504     -4.2881     10.8964    115.1729
   649.5000     12.9705     -4.1655     10.5661    113.9920
   649.7500     12.8359     -4.0582     10.2591    121.5863
   650.0000     12.7565     -3.9613      9.9864    119.0014
   650.2500     12.7355     -3.8677      9.7608    116.8515
   650.5000     12.8047     -3.7743      9.5964    113.6766
   650.7500     12.8994     -3.6858      9.5021    112.0591
   651.0000     12.9124     -3.6165      9.4738    111.0144
   651.2500     12.7958     -3.5866      9.4911    111.4268
   651.5000     12.5902     -3.6131      9.5221    113.4376
   651.7500     12.3886     -3.6994      9.5330    115.1372
   652.0000     12.2842     -3.8296      9.4986    117.0507
   652.2500     12.3193     -3.9740      9.4058    117.5871
   652.5000     12.4281     -4.0997      9.2533    117.7288
   652.7500     12.4459     -4.1815      9.0492    117.9162
   653.0000     12.2515     -4.2084      8.8096    118.8523
   653.2500     11.9065     -4.1841      8.5552    119.6789
   653.5000     11.5804     -4.1247      8.3080    120.0479
   653.7500     11.3574     -4.0519      8.0856    119.0765
   654.0000     11.2257     -3.9849      7.8997    115.8133
   654.2500     11.2105     -3.9345      7.7555    113.1241
   654.5000     11.3402     -3.9010      7.6550    109.6211
   654.7500     11.5161     -3.8745      7.5993    107.9321
   655.0000     11.5882     -3.8386      7.5913    106.0450
   655.2500     11.5347     -3.7775      7.6360    104.9240
   655.5000     11.4494     -3.6820      7.7397    103.3703
   655.7500     11.3984     -3.5504      7.9085    102.6268
   656.0000     11.3695     -3.3871      8.1462    102.1586
   656.2500     11.3688     -3.2006      8.4532    101.9281
   656.5000     11.4892     -3.0032      8.8267    100.1996
   656.7500     11.8017     -2.8091      9.2603     97.1239
   657.0000     12.3142     -2.6286      9.7434     88.6915
   657.2500     13.0591     -2.4581     10.2593     80.7541
   657.5000     14.0575     -2.2764     10.7864     67.0907
   657.7500     15.3065     -2.0533     11.3028     58.3263
   658.0000     16.8871     -1.7657     11.7955     48.4666
   658.2500     18.8740     -1.4092     12.2658     45.3935
   658.5000     21.0613     -0.9980     12.7269     47.0368
   658.7500     22.9113     -0.5557     13.1911     51.9271
   659.0000     23.8894     -0.1050     13.6560     62.8666
   659.2500     23.8443      0.3369     14.0959     70.8925
   659.5000     23.0128      0.7556     14.4686     81.3765
   659.7500     21.7336      1.1356     14.7309     86.4687
   660.0000     20.2620      1.4609     14.8570     91.4931
   660.2500     18.7888      1.7194     14.8452     93.9352
   660.5000     17.4630      1.9035     14.7139     97.6396
   660.7500     16.4079      2.0078     14.4931    100.3811
   661.0000     15.7682      2.0283     14.2195    104.1515
   661.2500     15.6434      1.9661     13.9326    105.7892
   661.5000     15.9311      1.8325     13.6691    106.6449
   661.7500     16.3577      1.6501     13.4545    106.5240
   662.0000     16.7045      1.4484     13.2989    105.8453
   662.2500     16.9325      1.2559     13.2007    105.0661
   662.5000     17.1189      1.0900     13.1538    103.7950
   662.7500     17.3302      0.9536     13.1564    103.6272
   663.0000     17.5715      0.8375     13.2142    105.3176
   663.2500     17.8251      0.7299     13.3375    107.2456
   663.5000     18.0566      0.6258     13.5347    109.2750
   663.7500     18.2155      0.5303     13.8066    109.2431
   664.0000     18.3063      0.4567     14.1436    107.4492
   664.2500     18.4050      0.4218     14.5293    105.8550
   664.5000     18.5611      0.4388     14.9452    103.8696
   664.7500     18.7519      0.5108     15.3731    102.9778
   665.0000     18.9737      0.6255     15.7983    102.2875
   665.2500     19.2688      0.7561     16.2135    102.2885
