~Version Information
VERS.                      2.0: CWLS Log ASCII Standard - VERSION 2.0
WRAP.                       NO: One line per depth step
~Well Information Block
STRT.FT                 0.0000: 
STOP.FT              1923.5000: 
STEP.FT                 0.2500: 
NULL.                -999.2500: 
COMP.          Petrogulf Corporation: COMPANY
WELL.            Montoya 7-14R: WELL
FLD.           Purgatorie River: FIELD
LOC.           628' FSL & 454' FWL: LOCATION
STAT.                 Colorado: State
CNTY.               Las Animas: COUNTY
CTRY. USA : Country
SECT. 7 : Section
TOWN. 33S : Township
RANG. 67W : Range
SRVC.                Patterson: SERVICE COMPANY
DATE.          Wed Nov 09 12:02:27 2005: LOG DATE
API. 05-071-08554                         : UNIQUE WELL ID
~Curve Information Block
DEPT.FT            0 000 00 00: Depth
CCL.                          : Casing Collar Locator
TT3.usec                      : CBL 3' Travel Time
AMP3.mV                       : CBL 3' Amplitude
GR.GAPI                       : Gamma Ray
~Parameter Information Block
~A  Depth       CCL         TT3         AMP3         GR     
# ...
   871.0000      0.0000    534.2375      7.4200     95.1674
   871.2500      0.0000    504.6771      7.5165     96.6477
   871.5000      0.0000    456.4764      7.6146     96.9714
   871.7500      0.0000    412.3745      7.7334     96.8136
   872.0000      0.0000    395.0832      7.8682     97.4414
   872.2500      0.0000    411.4412      8.0341     99.3497
   872.5000      0.0000    457.4166      8.2130    101.8554
   872.7500      0.0000    513.5397      8.2561    104.0443
   873.0000      0.0000    549.9602      7.9912    105.5153
   873.2500      0.0000    551.6209      7.4822    105.8537
   873.5000      0.0000    534.3185      7.0510    104.0924
   873.7500      0.0000    531.7577      6.9436     99.7212
   874.0000      0.0000    557.4428      7.0893     94.2340
   874.2500      2.0000    587.2584      7.2875     90.7474
   874.5000     -2.0000    593.4588      7.4495     91.4903
   874.7500      0.0000    578.6831      7.5617     95.8785
   875.0000      0.0000    567.0275      7.5963    101.2741
   875.2500      0.0000    574.5188      7.5780    105.3130
   875.5000      0.0000    594.5258      7.6778    107.2458
   875.7500      0.0000    608.6337      8.0111    107.5825
   876.0000      0.0000    607.4192      8.3709    107.2959
   876.2500      0.0000    599.8137      8.5009    107.4265
   876.5000      0.0000    600.5174      8.4694    108.7088
   876.7500      0.0000    612.1126      8.4596    111.0380
   877.0000      0.0000    625.2486      8.4804    113.3617
   877.2500      0.0000    633.2061      8.4662    114.3017
   877.5000      0.0000    640.2809      8.4317    113.0980
   877.7500      0.0000    652.2590      8.4338    110.1192
   878.0000      0.0000    663.6489      8.4893    106.5911
   878.2500      0.0000    662.6491      8.5636    103.8565
   878.5000      0.0000    646.5900      8.6062    102.8135
   878.7500      0.0000    625.9119      8.5688    103.6316
   879.0000      0.0000    612.7559      8.4008    105.5296
   879.2500      0.0000    607.6471      8.0868    106.9446
   879.5000      0.0000    600.1180      7.6809    106.5015
   879.7500      0.0000    584.3147      7.2634    104.0939
   880.0000      0.0000    572.7972      6.8692    100.8272
   880.2500      0.0000    586.2635      6.4658     97.8307
   880.5000      0.0000    624.3090      6.0150     95.3593
   880.7500      0.0000    662.8157      5.5535     93.1173
   881.0000      0.0000    684.3403      5.1762     91.0213
   881.2500      0.0000    690.8201      4.9420     89.2709
   881.5000      0.0000    689.6156      4.8464     87.8569
   881.7500      0.0000    684.3893      4.8685     86.3061
   882.0000      0.0000    677.7891      4.9758     84.0809
   882.2500      0.0000    673.4714      5.1045     81.2047
   882.5000      0.0000    672.8843      5.2131     78.4753
   882.7500      0.0000    673.5668      5.3330     77.1501
   883.0000      0.0000    673.4055      5.5326     78.3866
   883.2500      0.0000    674.0743      5.8715     82.5173
   883.5000      0.0000    677.4885      6.3745     88.4577
   883.7500      0.0000    681.3935      6.9904     94.1447
   884.0000      0.0000    681.4110      7.5756     98.1580
   884.2500      0.0000    676.0959      7.9651    100.9122
   884.5000      0.0000    667.4959      8.0914    103.9265
   884.7500      0.0000    659.0005      8.0384    107.8973
   885.0000      0.0000    654.8787      7.9835    111.6260
   885.2500      0.0000    657.5386      8.0665    112.8634
   885.5000      0.0000    664.6985      8.2831    110.4192
   885.7500      0.0000    672.5391      8.4998    105.6201
   886.0000      0.0000    677.6586      8.5713    101.4596
   886.2500      0.0000    677.8436      8.4385    100.3141
   886.5000      0.0000    677.9523      8.1320    102.7593
   886.7500      0.0000    685.8480      7.7254    108.0355
   887.0000      0.0000    698.4721      7.3082    114.5758
   887.2500      0.0000    705.0632      6.9622    120.2329
   887.5000      0.0000    700.3638      6.7285    123.2460
   887.7500      0.0000    686.0493      6.5965    123.4804
   888.0000      0.0000    668.8348      6.5242    122.1425
   888.2500      0.0000    659.0211      6.4775    120.2109
   888.5000      0.0000    660.7999      6.4662    117.8386
   888.7500      0.0000    668.9131      6.5363    115.3131
   889.0000      0.0000    677.9546      6.7103    113.6868
   889.2500      0.0000    686.6931      6.9752    113.8615
   889.5000      0.0000    694.6048      7.3350    115.3926
   889.7500      0.0000    698.9268      7.8080    116.6000
   890.0000      0.0000    695.0567      8.3937    115.9497
   890.2500      0.0000    680.1180      9.0908    113.5206
   890.5000      0.0000    657.1938      9.9013    111.2202
   890.7500      0.0000    632.1107     10.7536    111.1326
   891.0000      0.0000    600.9180     11.4637    113.2731
   891.2500      0.0000    554.8065     11.8512    115.3993
   891.5000      0.0000    506.2836     11.8980    115.4106
   891.7500      0.0000    483.7286     11.7758    113.3803
   892.0000      0.0000    495.0872     11.6974    110.7106
   892.2500      0.0000    529.1458     11.7305    108.0495
   892.5000      0.0000    574.4728     11.7910    105.0004
   892.7500      0.0000    609.9896     11.8136    101.6013
   893.0000      0.0000    606.7676     11.8489     99.0557
   893.2500      0.0000    553.5239     11.9988     98.6297
   893.5000      0.0000    471.8679     12.3398    100.3602
   893.7500      0.0000    400.1759     12.9191    103.4361
   894.0000      0.0000    358.5520     13.7991    107.5778
   894.2500      0.0000    339.1158     15.0608    113.2013
   894.5000      0.0000    326.8108     16.7395    120.0385
   894.7500      0.0000    315.6275     18.7988    126.3291
   895.0000      0.0000    307.0911     21.1289    129.9262
   895.2500      0.0000    302.6208     23.5127    130.2028
   895.5000      0.0000    301.0190     25.6515    128.7034
   895.7500      0.0000    300.5543     27.2885    127.7364
   896.0000      0.0000    300.3843     28.3009    128.2614
   896.2500      0.0000    300.5898     28.6097    129.2149
   896.5000      0.0000    302.8924     28.0470    128.6942
   896.7500      0.0000    313.1000     26.5176    125.6707
   897.0000      0.0000    340.5228     24.3127    120.8668
   897.2500      0.0000    384.9949     22.0564    116.2947
   897.5000      0.0000    427.8896     20.2377    113.8553
   897.7500      0.0000    458.4116     18.9261    114.2282
   898.0000      0.0000    490.7094     18.0173    116.7845
   898.2500      0.0000    523.8250     17.5027    120.1539
   898.5000      0.0000    530.2090     17.3484    123.0691
   898.7500      0.0000    512.6179     17.3313    125.3214
   899.0000      0.0000    512.8682     17.1262    127.8140
   899.2500      0.0000    547.0997     16.4973    131.3052
   899.5000      0.0000    588.0610     15.4435    135.4652
   899.7500      0.0000    611.9785     14.2324    139.4899
   900.0000      0.0000    620.2037     13.2213    142.8597
   900.2500      0.0000    623.0670     12.5424    144.8937
   900.5000      0.0000    627.9279     12.0221    144.4641
   900.7500      0.0000    637.7236     11.4548    141.2012
   901.0000      0.0000    650.1563     10.8070    136.5389
   901.2500      0.0000    659.6949     10.1161    132.7052
   901.5000      0.0000    662.6037      9.3694    130.9340
   901.7500      0.0000    658.4908      8.5421    131.0939
   902.0000      0.0000    650.2852      7.6828    132.5829
   902.2500      0.0000    644.1203      6.9493    135.1302
   902.5000      0.0000    642.6766      6.5503    138.8902
   902.7500      0.0000    641.5884      6.6068    143.9067
   903.0000      0.0000    639.4740      7.0180    149.3696
   903.2500      0.0000    641.8108      7.4857    153.5220
   903.5000      0.0000    650.2203      7.7559    154.4638
   903.7500      0.0000    659.1567      7.8323    151.0979
   904.0000      0.0000    664.3306      7.8994    143.6852
   904.2500      0.0000    666.2856      8.0700    134.0533
