~Version Information
VERS.                      2.0: CWLS Log ASCII Standard - VERSION 2.0
WRAP.                       NO: One line per depth step
~Well Information Block
STRT.FT                -6.5000: 
STOP.FT              1564.2500: 
STEP.FT                 0.2500: 
NULL.                -999.2500: 
COMP.          Pioneer Natural Resources: COMPANY
WELL.            Bluesky 44-17: WELL
FLD.           Purgatorie River: FIELD
LOC.           --39' FSL & 288' FEL------: LOCATION
STAT.                       CO: State
CNTY.               Las Animas: COUNTY
CTRY. USA : Country
SECT. 17 : Section
TOWN. 33S : Township
RANG. 66W : Range
SRVC.          Patterson Wireline: SERVICE COMPANY
DATE.          Tue Sep 13 13:24:14 2005: LOG DATE
API.           05 071 08511 00: UNIQUE WELL ID
~Curve Information Block
DEPT.FT            0 000 00 00: Depth
CCL.                          : Casing Collar Locator
TT3.usec                      : CBL 3' Travel Time
AMP3.mV                       : CBL 3' Amplitude
GR.GAPI                       : Gamma Ray
~Parameter Information Block
~A  Depth       CCL         TT3         AMP3         GR     
# ...
   831.0000      0.0000    755.5320     10.1721    157.8108
   831.2500      0.0000    758.6901     10.1638    151.9649
   831.5000      0.0000    762.8747     10.1957    140.4617
   831.7500      0.0000    768.0828     10.2787    127.1227
   832.0000      0.0000    773.7229     10.4066    116.1397
   832.2500      0.0000    778.2030     10.5508    110.1660
   832.5000      0.0000    779.7659     10.6759    109.8011
   832.7500      0.0000    777.3445     10.7596    113.8783
   833.0000      0.0000    770.4738     10.7992    120.3522
   833.2500      0.0000    759.5113     10.8032    127.3032
   833.5000      0.0000    746.6204     10.7822    133.0136
   833.7500      0.0000    735.4391     10.7470    135.3604
   834.0000      0.0000    728.6860     10.7068    132.2750
   834.2500      0.0000    726.2972     10.6640    123.5506
   834.5000      0.0000    726.3578     10.6104    111.7456
   834.7500      0.0000    727.5729     10.5324    100.5605
   835.0000      0.0000    730.2113     10.4251     92.3493
   835.2500      0.0000    734.4202     10.2984     87.3744
   835.5000      0.0000    738.3596     10.1708     84.8727
   835.7500      0.0000    739.0938     10.0556     83.9441
   836.0000      0.0000    735.4693      9.9522     83.4202
   836.2500      0.0000    729.2983      9.8501     81.9042
   836.5000      0.0000    723.4645      9.7419     78.7534
   836.7500      0.0000    719.5299      9.6299     74.9332
   837.0000      0.0000    717.2349      9.5185     72.4334
   837.2500      0.0000    715.3947      9.4058     72.6624
   837.5000      0.0000    712.8025      9.2854     75.3543
   837.7500      0.0000    708.8942      9.1554     78.8558
   838.0000      0.0000    704.3521      9.0217     81.2901
   838.2500      0.0000    701.0326      8.8966     81.6001
   838.5000      0.0000    700.6017      8.7911     79.8874
   838.7500      0.0000    702.8952      8.7074     77.1074
   839.0000      0.0000    705.7744      8.6374     74.5290
   839.2500      0.0000    706.6126      8.5705     73.1788
   839.5000      0.0000    703.8754      8.5021     73.2277
   839.7500      0.0000    697.7867      8.4361     73.8105
   840.0000      0.0000    690.0786      8.3787     73.9020
   840.2500      0.0000    682.9884      8.3339     73.5456
   840.5000      0.0000    678.0138      8.3021     73.7320
   840.7500      0.0000    675.4224      8.2823     74.9339
   841.0000      0.0000    674.8074      8.2741     76.3343
   841.2500      0.0000    675.9227      8.2788     76.7779
   841.5000      0.0000    678.8479      8.2994     75.9943
   841.7500      0.0000    683.2431      8.3391     74.5543
   842.0000      0.0000    687.5174      8.3967     72.9987
   842.2500      0.0000    689.3427      8.4653     71.5051
   842.5000      0.0000    687.5652      8.5360     70.2451
   842.7500      0.0000    683.3522      8.6046     69.5144
   843.0000      0.0000    679.0385      8.6745     69.2649
   843.2500      0.0000    676.2545      8.7523     68.7534
   843.5000      0.0000    675.5125      8.8412     67.0834
   843.7500      0.0000    677.1090      8.9375     64.4194
   844.0000      0.0000    681.6543      9.0331     62.5335
   844.2500      0.0000    689.3459      9.1228     63.7160
   844.5000      0.0000    699.1353      9.2084     68.7400
   844.7500      0.0000    709.6783      9.2953     75.8297
   845.0000      0.0000    721.2690      9.3848     81.7387
   845.2500      0.0000    735.2469      9.4719     84.0228
   845.5000      0.0000    750.6241      9.5487     82.6020
   845.7500      0.0000    762.9551      9.6074     79.4182
   846.0000      0.0000    767.6848      9.6432     76.6284
   846.2500      0.0000    763.7874      9.6564     74.9538
   846.5000      0.0000    753.8719      9.6532     73.5646
   846.7500      0.0000    742.0252      9.6397     71.2783
   847.0000      0.0000    731.7299      9.6165     67.7207
   847.2500      0.0000    724.3003      9.5784     63.6024
   847.5000      0.0000    718.3733      9.5219     60.2636
   847.7500      0.0000    711.7488      9.4492     58.8646
   848.0000      0.0000    704.6666      9.3665     59.5586
   848.2500      0.0000    700.9420      9.2797     61.3186
   848.5000      0.0000    704.7102      9.1934     62.7150
   848.7500      0.0000    715.6218      9.1128     62.9252
   849.0000      0.0000    727.8131      9.0428     62.0874
   849.2500      0.0000    734.1033      8.9846     60.9339
   849.5000      0.0000    731.0051      8.9375     60.2016
   849.7500      0.0000    719.9374      8.9039     60.2158
   850.0000      0.0000    705.1222      8.8899     60.8805
   850.2500      0.0000    691.2183      8.8997     62.0127
   850.5000      0.0000    681.7203      8.9284     63.6623
   850.7500      0.0000    678.3718      8.9619     66.0495
   851.0000      0.0000    681.6420      8.9866     69.2464
   851.2500      0.0000    691.1778      9.0009     73.0161
   851.5000      0.0000    705.4465      9.0161     77.1532
   851.7500      0.0000    721.5047      9.0444     81.9682
   852.0000      0.0000    735.9164      9.0866     87.9153
   852.2500      0.0000    746.0052      9.1344     94.4419
   852.5000      0.0000    750.7333      9.1805     99.6904
   852.7500      0.0000    751.1452      9.2266    101.8476
   853.0000      0.0000    750.1328      9.2815    100.7171
   853.2500      0.0000    751.0651      9.3527     97.7435
   853.5000      0.0000    755.1697      9.4375     94.5581
   853.7500      0.0000    759.3735      9.5194     91.7770
   854.0000      0.0000    758.7250      9.5756     89.3001
   854.2500      0.0000    753.1319      9.5913     87.1891
   854.5000      0.0000    749.5710      9.5667     85.6623
   854.7500      0.0000    754.2642      9.5132     84.6292
   855.0000      0.0000    763.8568      9.4466     83.9434
   855.2500      0.0000    767.7114      9.3825     83.7229
   855.5000      0.0000    759.1578      9.3335     83.7640
   855.7500      0.0000    742.4550      9.3064     83.0727
   856.0000      0.0000    728.4427      9.2984     80.7654
   856.2500      0.0000    725.0262      9.2981     77.3504
   856.5000      0.0000    732.7416      9.2902     74.5944
   856.7500      0.0000    747.4052      9.2646     74.1104
   857.0000      0.0000    764.2830      9.2205     76.3258
   857.2500      0.0000    779.8442      9.1644     80.4730
   857.5000      0.0000    792.1353      9.1059     84.9256
   857.7500      0.0000    800.7368      9.0543     87.7208
   858.0000      0.0000    805.9656      9.0155     87.5800
   858.2500      0.0000    808.0642      8.9907     84.8362
   858.5000      0.0000    807.4547      8.9778     81.2665
   858.7500      0.0000    805.2476      8.9737     78.8371
   859.0000      0.0000    802.8340      8.9760     78.4226
   859.2500      0.0000    800.9489      8.9846     79.3770
   859.5000      0.0000    799.2742      9.0036     80.2051
   859.7500      0.0000    796.5107      9.0387     79.8439
   860.0000      0.0000    790.6222      9.0904     78.4542
   860.2500      0.0000    779.5789      9.1519     77.0572
   860.5000      0.0000    762.8787      9.2145     76.5792
   860.7500      0.0000    742.6830      9.2738     77.1740
   861.0000      0.0000    722.9183      9.3311     78.1506
   861.2500      0.0000    706.7802      9.3884     78.4605
   861.5000      0.0000    695.2305      9.4430     77.5709
   861.7500      0.0000    687.9814      9.4885     76.1107
   862.0000      0.0000    685.5291      9.5229     75.4485
   862.2500      0.0000    689.8283      9.5522     76.3748
   862.5000      0.0000    702.7038      9.5864     78.2255
   862.7500      0.0000    723.1431      9.6311     79.3475
   863.0000      0.0000    746.0325      9.6869     78.3824
   863.2500      0.0000    764.3810      9.7536     75.2164
   863.5000      0.0000    773.6565      9.8273     71.0591
   863.7500      0.0000    773.9089      9.8870     67.8249
   864.0000      0.0000    767.6202      9.8839     67.1344
   864.2500      0.0000    756.4578      9.7585     69.3383
