~Version Information
VERS.                      2.0: CWLS Log ASCII Standard - VERSION 2.0
WRAP.                       NO: One line per depth step
~Well Information Block
STRT.FT                 0.0000: 
STOP.FT              3428.7500: 
STEP.FT                 0.2500: 
NULL.                -999.2500: 
COMP.          Pioneer Natural Resources: COMPANY
WELL.          Cordillera 34-7: WELL
FLD.           Purgatorie River: FIELD
LOC.           598' FSL & 1770' FEL: LOCATION
PROV.                 Colorado: PROVINCE
CNTY.               Las Animas: COUNTRY
SRVC.                Patterson: SERVICE COMPANY
DATE.          Fri Nov 18 07:55:32 2005: LOG DATE
UWI.                          : UNIQUE WELL ID
~Curve Information Block
DEPT.FT            0 000 00 00: Depth
AMP3.mV                       : CBL 3' Amplitude
CCL.                          : Casing Collar Locator
GR.GAPI                       : Gamma Ray
TT3.usec                      : CBL 3' Travel Time
~Parameter Information Block
~A  Depth       AMP3        CCL          GR         TT3     
# ...
  3149.0000      6.8663      0.0000     74.5243    590.5806
  3149.2500      7.0051      0.0000     68.3680    614.4832
  3149.5000      7.2273      0.0000     64.4350    649.6202
  3149.7500      7.4912      0.0000     61.9324    672.4863
  3150.0000      7.7219      0.0000     59.7157    677.1574
  3150.2500      7.9010      0.0000     57.4961    665.7682
  3150.5000      8.0823      0.0000     55.9403    639.1072
  3150.7500      8.3077      0.0000     55.6435    597.1310
  3151.0000      8.5628      0.0000     56.1859    538.5831
  3151.2500      8.8018      0.0000     56.4359    471.7795
  3151.5000      8.9735      0.0000     55.7323    419.5776
  3151.7500      9.0425      0.0000     54.3903    399.2165
  3152.0000      9.0139      0.0000     53.0479    410.6427
  3152.2500      8.9286      0.0000     52.0567    439.8014
  3152.5000      8.8226      0.0000     51.6803    464.1819
  3152.7500      8.6874      0.0000     52.2397    478.1750
  3153.0000      8.5029      0.0000     53.5693    501.0157
  3153.2500      8.3004      0.0000     54.7527    533.9811
  3153.5000      8.1178      0.0000     54.9932    554.0917
  3153.7500      7.9243      0.0000     54.6363    562.6430
  3154.0000      7.6748      0.0000     54.9143    581.2835
  3154.2500      7.3839      0.0000     56.6578    608.8035
  3154.5000      7.1045      0.0000     59.4392    627.8017
  3154.7500      6.8934      0.0000     61.8976    632.9138
  3155.0000      6.7926      0.0000     62.7798    630.1895
  3155.2500      6.7962      0.0000     61.8639    624.6545
  3155.5000      6.8358      0.0000     60.0208    618.3860
  3155.7500      6.8238      0.0000     58.2544    614.1418
  3156.0000      6.7208      0.0000     56.7096    613.0902
  3156.2500      6.5431      0.0000     54.8675    612.9965
  3156.5000      6.3234      0.0000     52.6497    613.7458
  3156.7500      6.1016      0.0000     50.9258    617.3331
  3157.0000      5.9197      0.0000     50.7483    621.6500
  3157.2500      5.7945      0.0000     52.2646    621.1793
  3157.5000      5.7220      0.0000     54.5094    611.9996
  3157.7500      5.6999      0.0000     56.2250    597.3131
  3158.0000      5.7166      0.0000     56.7805    589.3083
  3158.2500      5.7474      0.0000     56.2293    594.7950
  3158.5000      5.7837      0.0000     54.6850    600.5386
  3158.7500      5.8381      0.0000     52.1625    583.7656
  3159.0000      5.9098      0.0000     49.1152    534.6793
  3159.2500      5.9765      0.0000     46.5679    469.0966
  3159.5000      6.0222      0.0000     45.4005    415.8252
  3159.7500      6.0449      0.0000     45.7652    388.4018
  3160.0000      6.0447      0.0000     47.2011    380.7751
  3160.2500      6.0281      0.0000     48.9168    387.4250
  3160.5000      6.0067      0.0000     50.0360    414.4736
  3160.7500      5.9656      0.0000     50.1181    467.9822
  3161.0000      5.8707      0.0000     49.5722    534.5287
  3161.2500      5.7335      0.0000     49.2502    587.1208
  3161.5000      5.6223      0.0000     49.5705    612.4898
  3161.7500      5.6008      0.0000     50.2559    616.6229
  3162.0000      5.6819      0.0000     50.9432    609.3937
  3162.2500      5.8302      0.0000     51.7869    598.1479
  3162.5000      5.9909      0.0000     53.3153    588.7612
  3162.7500      6.1237      0.0000     55.8492    583.8566
  3163.0000      6.2355      0.0000     59.1854    582.0554
  3163.2500      6.3750      0.0000     62.7791    578.6839
  3163.5000      6.5740      0.0000     66.0495    564.9697
  3163.7500      6.8226      0.0000     68.4304    535.9394
  3164.0000      7.1034      0.0000     69.3982    508.0707
  3164.2500      7.4010      0.0000     68.8654    509.8540
  3164.5000      7.6799      0.0000     67.4767    543.2302
  3164.7500      7.8813      0.0000     66.1028    581.0977
  3165.0000      7.9756      0.0000     65.0092    602.6203
  3165.2500      8.0104      0.0000     63.8486    606.2481
  3165.5000      8.0500      0.0000     62.4031    599.8453
  3165.7500      8.1172      0.0000     60.9246    592.9496
  3166.0000      8.2147      0.0000     59.6162    591.9118
  3166.2500      8.3580      0.0000     58.0509    597.3370
  3166.5000      8.6040      0.0000     55.4695    604.7539
  3166.7500      9.0223      0.0000     51.7612    610.0601
  3167.0000      9.6087      0.0000     47.8682    615.8316
  3167.2500     10.2684      0.0000     45.0023    626.7098
  3167.5000     10.9145      0.0000     43.6759    640.8393
  3167.7500     11.5572      0.0000     43.6984    653.2644
  3168.0000     12.2566      0.0000     44.7558    661.9815
  3168.2500     13.0240      0.0000     46.5010    664.8472
  3168.5000     13.8177      0.0000     48.2510    655.0283
  3168.7500     14.6080      0.0000     49.2515    619.8265
  3169.0000     15.3673      0.0000     49.4245    549.7000
  3169.2500     15.9875      0.0000     49.4812    459.9017
  3169.5000     16.3386      0.0000     50.1386    386.2566
  3169.7500     16.4258      0.0000     51.5126    347.6975
  3170.0000     16.3820      0.0000     53.3702    334.8601
  3170.2500     16.3271      0.0000     55.6077    332.7614
  3170.5000     16.2804      0.0000     58.1958    335.8584
  3170.7500     16.1582      0.0000     60.8546    348.6928
  3171.0000     15.8424      0.0000     63.0792    382.1589
  3171.2500     15.3027      0.0000     64.4600    441.2680
  3171.5000     14.6560      0.0000     64.9134    510.3418
  3171.7500     14.0417      0.0000     64.7362    561.9301
  3172.0000     13.4659      0.0000     64.4221    585.1758
  3172.2500     12.8632      0.0000     64.2278    592.0490
  3172.5000     12.1910      0.0000     63.9478    596.8886
  3172.7500     11.4025      0.0000     63.2700    603.8502
  3173.0000     10.6149      0.0000     62.2160    612.8600
  3173.2500     10.2334      0.0000     61.0848    625.6222
  3173.5000     10.3241      0.0000     60.0580    642.2939
  3173.7500     10.1800      0.0000     58.9553    656.2164
  3174.0000      9.3748      0.0000     57.3973    651.9305
  3174.2500      8.5197      0.0000     55.2582    611.8434
  3174.5000      8.2326      0.0000     53.1168    535.1557
  3174.7500      8.3424      0.0000     52.2792    450.1909
  3175.0000      8.3845      2.0000     53.9482    396.5800
  3175.2500      8.1423      0.0000     57.9221    397.5989
  3175.5000      7.6800      0.0000     62.2679    451.6126
  3175.7500      7.2448      0.0000     64.7031    529.6778
  3176.0000      7.1684      0.0000     64.3726    584.8751
  3176.2500      7.5058      0.0000     62.2223    587.9515
  3176.5000      7.7894      0.0000     59.7943    547.9486
  3176.7500      7.6613      0.0000     57.8969    494.7724
  3177.0000      7.3954      0.0000     56.4991    452.5661
  3177.2500      7.2985      0.0000     55.6320    426.6294
  3177.5000      7.2856      0.0000     55.7969    410.3735
  3177.7500      7.1986      0.0000     57.2859    398.2725
  3178.0000      7.0078      0.0000     59.4791    389.5804
  3178.2500      6.7378      0.0000     61.1567    384.7775
  3178.5000      6.4284      0.0000     61.5158    382.7087
  3178.7500      6.1606      0.0000     60.7651    381.5654
  3179.0000      6.0150      0.0000     59.7623    380.4971
  3179.2500      5.9887      0.0000     59.3366    379.6219
  3179.5000      6.0196      0.0000     59.9579    379.3545
  3179.7500      6.0572      0.0000     61.4860    380.6097
  3180.0000      6.0787      0.0000     62.8641    387.4244
  3180.2500      6.0913      0.0000     62.5724    409.9041
  3180.5000      6.1267      0.0000     59.9750    458.0026
  3180.7500      6.2022      0.0000     56.0306    524.3517
  3181.0000      6.2870      0.0000     52.4045    579.7479
  3181.2500      6.3172      0.0000     50.2624    595.8542
  3181.5000      6.2483      0.0000     50.0783    571.8997
  3181.7500      6.0731      0.0000     51.9982    537.7146
  3182.0000      5.7798      0.0000     55.8720    527.2880
  3182.2500      5.3581      0.0000     61.0637    550.4578
