~Version Information
VERS.                      2.0: CWLS Log ASCII Standard - VERSION 2.0
WRAP.                       NO: One line per depth step
~Well Information Block
STRT.FT                 0.0000: 
STOP.FT              1906.7500: 
STEP.FT                 0.2500: 
NULL.                -999.2500: 
COMP.          Petrogulf Corporation: COMPANY
WELL.             Kraft 17-23R: WELL
FLD.           Purgatorie River: FIELD
LOC.           1509' FSL & 1673' FWL: LOCATION
STAT.                 Colorado: State
CNTY.               Las Animas: COUNTY
CTRY. USA : Country
SECT. 17 : Section
TOWN. 33S : Township
RANG. 67W : Range
SRVC.                Patterson: SERVICE COMPANY
DATE.          Fri Jan 06 08:59:54 2006: LOG DATE
API. 05-071-08560                         : UNIQUE WELL ID
~Curve Information Block
DEPT.FT            0 000 00 00: Depth
CCL.                          : Casing Collar Locator
TT3.usec                      : CBL 3' Travel Time
AMP3.mV                       : CBL 3' Amplitude
AMP3.mV                       : CBL 3' Amplitude
GR.GAPI                       : Gamma Ray
AMP3.mV                       : CBL 3' Amplitude
~Parameter Information Block
~A  Depth       CCL         TT3         AMP3        AMP3         GR        .AMP3    
# ...
   120.0000      0.0000    301.7929     27.3189     27.3189     94.5425     27.3189
   120.2500      0.0000    301.8017     26.9106     26.9106     93.9395     26.9106
   120.5000      0.0000    301.8108     26.4683     26.4683     90.8981     26.4683
   120.7500      0.0000    301.8413     25.9902     25.9902     85.9844     25.9902
   121.0000      0.0000    301.8856     25.5055     25.5055     80.4030     25.5055
   121.2500      0.0000    301.9474     25.0467     25.0467     75.3981     25.0467
   121.5000      0.0000    302.0615     24.6382     24.6382     71.8376     24.6382
   121.7500      0.0000    302.2349     24.3216     24.3216     70.3274     24.3216
   122.0000      0.0000    302.4031     24.1314     24.1314     71.4138     24.1314
   122.2500      0.0000    302.4824     24.0557     24.0557     75.2229     24.0557
   122.5000      0.0000    302.4489     24.0439     24.0439     80.8023     24.0439
   122.7500      0.0000    302.3570     24.0331     24.0331     86.2150     24.0331
   123.0000      0.0000    302.2868     23.9891     23.9891     89.7184     23.9891
   123.2500      0.0000    302.2804     23.9295     23.9295     90.9696     23.9295
   123.5000      0.0000    302.3265     23.8927     23.8927     91.0399     23.8927
   123.7500      0.0000    302.3924     23.8850     23.8850     91.3606     23.8850
   124.0000      0.0000    302.4622     23.8533     23.8533     92.5426     23.8533
   124.2500      0.0000    302.5394     23.7356     23.7356     93.8422     23.7356
   124.5000      0.0000    302.6194     23.5448     23.5448     93.7355     23.5448
   124.7500      0.0000    302.6831     23.3623     23.3623     91.4095     23.3623
   125.0000      0.0000    302.7045     23.2681     23.2681     87.8016     23.2681
   125.2500      0.0000    302.6540     23.3092     23.3092     84.8995     23.3092
   125.5000      0.0000    302.5370     23.4874     23.4874     83.9193     23.4874
   125.7500      0.0000    302.4218     23.7525     23.7525     84.2877     23.7525
   126.0000      0.0000    302.3639     24.0436     24.0436     84.3580     24.0436
   126.2500      0.0000    302.3335     24.3338     24.3338     82.9893     24.3338
   126.5000      0.0000    302.2683     24.6209     24.6209     80.4173     24.6209
   126.7500      0.0000    302.1555     24.9026     24.9026     77.7577     24.9026
   127.0000      0.0000    302.0300     25.1789     25.1789     75.9824     25.1789
   127.2500      0.0000    301.9292     25.4485     25.4485     75.3348     25.4485
   127.5000      0.0000    301.8735     25.6910     25.6910     75.2572     25.6910
   127.7500      0.0000    301.8597     25.8826     25.8826     74.7383     25.8826
   128.0000      0.0000    301.8512     26.0221     26.0221     73.0915     26.0221
   128.2500      0.0000    301.8041     26.1203     26.1203     70.5829     26.1203
   128.5000      0.0000    301.7153     26.1639     26.1639     68.1044     26.1639
   128.7500      0.0000    301.6278     26.1230     26.1230     66.2409     26.1230
   129.0000      0.0000    301.5867     26.0117     26.0117     64.8628     26.0117
   129.2500      0.0000    301.6055     25.8649     25.8649     63.5000     25.8649
   129.5000      0.0000    301.6768     25.6283     25.6283     61.8672     25.6283
   129.7500      0.0000    301.7957     25.1892     25.1892     60.0863     25.1892
   130.0000      0.0000    301.9615     24.5296     24.5296     58.6239     24.5296
   130.2500      0.0000    302.1705     23.7454     23.7454     58.1296     23.7454
   130.5000      0.0000    302.4186     22.9374     22.9374     59.1518     22.9374
   130.7500      0.0000    302.7033     22.1670     22.1670     61.7076     22.1670
   131.0000      0.0000    303.0155     21.4933     21.4933     65.1539     21.4933
   131.2500      0.0000    303.3173     20.9620     20.9620     68.7164     20.9620
   131.5000      0.0000    303.5616     20.5465     20.5465     72.0331     20.5465
   131.7500      0.0000    303.7589     20.1534     20.1534     74.9672     20.1534
   132.0000      0.0000    303.9904     19.7198     19.7198     77.2851     19.7198
   132.2500      0.0000    304.5201     19.3057     19.3057     78.9867     19.3057
   132.5000      0.0000    306.8009     19.0258     19.0258     80.5482     19.0258
   132.7500      0.0000    315.9413     18.8343     18.8343     82.2181     18.8343
   133.0000      0.0000    340.9910     18.4272     18.4272     83.3603     18.4272
   133.2500      0.0000    385.0826     17.4969     17.4969     83.0264     17.4969
   133.5000      0.0000    436.4940     16.0620     16.0620     81.0389     16.0620
   133.7500      0.0000    482.7356     14.4818     14.4818     78.0542     14.4818
   134.0000      0.0000    522.4117     13.2682     13.2682     74.7408     13.2682
   134.2500      0.0000    552.9484     12.7247     12.7247     71.3728     12.7247
   134.5000      0.0000    566.2652     12.6523     12.6523     68.1605     12.6523
   134.7500     -2.0000    555.2297     12.6491     12.6491     65.5901     12.6491
   135.0000      2.0000    519.5093     12.5509     12.5509     64.3464     12.5509
   135.2500      0.0000    474.6453     12.4148     12.4148     64.9830     12.4148
   135.5000      0.0000    445.8257     12.3462     12.3462     67.6275     12.3462
   135.7500      0.0000    441.1186     12.5424     12.5424     71.9834     12.5424
   136.0000      0.0000    439.2746     13.3589     13.3589     77.5644     13.3589
   136.2500      0.0000    418.3902     14.7978     14.7978     83.7449     14.7978
   136.5000      0.0000    390.4309     15.9884     15.9884     89.5683     15.9884
   136.7500      0.0000    384.3409     16.1817     16.1817     93.8131     16.1817
   137.0000      0.0000    400.7978     15.7935     15.7935     95.5545     15.7935
   137.2500      0.0000    406.9481     15.4824     15.4824     94.6479     15.4824
   137.5000      0.0000    381.6764     15.3116     15.3116     91.8306     15.3116
   137.7500      0.0000    343.3571     15.1610     15.1610     88.7682     15.1610
   138.0000      0.0000    317.9341     15.0271     15.0271     87.6992     15.0271
   138.2500      0.0000    309.8673     14.9269     14.9269     89.9772     14.9269
   138.5000      0.0000    313.2982     14.8378     14.8378     94.6877     14.8378
   138.7500      0.0000    325.3269     14.7172     14.7172     99.2600     14.7172
   139.0000      0.0000    343.2084     14.5451     14.5451    101.4688     14.5451
   139.2500      0.0000    360.4660     14.3500     14.3500    100.4848     14.3500
   139.5000      0.0000    370.6517     14.1847     14.1847     96.4514     14.1847
   139.7500      0.0000    371.6856     14.0674     14.0674     90.0741     14.0674
   140.0000      0.0000    365.4870     13.9637     13.9637     82.7105     13.9637
   140.2500      0.0000    357.0210     13.8342     13.8342     76.0420     13.8342
   140.5000      0.0000    352.8188     13.6820     13.6820     71.2608     13.6820
   140.7500      0.0000    356.3224     13.5521     13.5521     68.8538     13.5521
   141.0000      0.0000    364.7507     13.4801     13.4801     69.0664     13.4801
   141.2500      0.0000    372.4054     13.4505     13.4505     71.9464     13.4505
   141.5000      0.0000    376.4036     13.4351     13.4351     76.7376     13.4351
   141.7500      0.0000    377.6625     13.4367     13.4367     81.6772     13.4367
   142.0000      0.0000    377.9465     13.4570     13.4570     84.9016     13.4570
   142.2500      0.0000    377.9566     13.4649     13.4649     85.8191     13.4649
   142.5000      0.0000    377.0064     13.4309     13.4309     85.6717     13.4309
   142.7500      0.0000    373.1700     13.3779     13.3779     86.5450     13.3779
   143.0000      0.0000    365.0602     13.3658     13.3658     89.5293     13.3658
   143.2500      0.0000    354.5875     13.4215     13.4215     93.8632     13.4215
   143.5000      0.0000    345.9270     13.5261     13.5261     97.9108     13.5261
   143.7500      0.0000    341.1289     13.6620     13.6620    100.7144     13.6620
