~Version Information
VERS.                      2.0: CWLS Log ASCII Standard - VERSION 2.0
WRAP.                       NO: One line per depth step
~Well Information Block
STRT.FT               245.0000: 
STOP.FT              1208.2500: 
STEP.FT                 0.2500: 
NULL.                -999.2500: 
COMP.          Pioneer Natural Resources: COMPANY
WELL.              Davida 34-8: WELL
FLD.           Purgatoire River: FIELD
LOC.           418' FSL & 1923' FEL--: LOCATION
CNTY.               Las Animas: COUNTY
SRVC.                Patterson: SERVICE COMPANY
DATE.          Sat Mar 18 07:00:13 2006: LOG DATE
UWI.           05 071 08722 00: UNIQUE WELL ID
STAT.                 Colorado: STATE
~Curve Information Block
DEPT.FT            0 000 00 00: Depth
GR.GAPI                       : Gamma Ray
DIR.Ohm-m                     : IEL Induction Resistivity
~Parameter Information Block
~A  Depth        GR         DIR     
# ...
  1081.2500     88.9796     16.4999
  1081.5000     81.8535     17.4158
  1081.7500     75.3558     18.5244
  1082.0000     64.3424     20.1540
  1082.2500     57.0393     21.6608
  1082.5000     47.6105     23.1675
  1082.7500     43.0954     24.4707
  1083.0000     39.9055     25.3699
  1083.2500     40.3742     25.9567
  1083.5000     44.7555     26.3416
  1083.7500     49.8302     26.7889
  1084.0000     59.9441     27.3570
  1084.2500     67.6053     27.8277
  1084.5000     78.5436     28.4302
  1084.7500     84.2765     28.9443
  1085.0000     89.1246     29.2639
  1085.2500     89.6134     29.5423
  1085.5000     86.9692     29.7335
  1085.7500     83.9536     29.9315
  1086.0000     79.4278     29.9550
  1086.2500     77.1131     30.0020
  1086.5000     75.1739     30.0959
  1086.7500     75.0156     30.3538
  1087.0000     76.3092     30.9729
  1087.2500     77.5490     32.3517
  1087.5000     78.0794     34.1881
  1087.7500     76.7169     35.7240
  1088.0000     72.5757     36.5337
  1088.2500     69.8537     37.1830
  1088.5000     68.9478     37.4506
  1088.7500     71.7943     37.5613
  1089.0000     81.7963     37.2694
  1089.2500     91.5674     37.8392
  1089.5000    108.2891     38.4488
  1089.7500    118.9212     38.9506
  1090.0000    131.1327     39.1633
  1090.2500    135.6859     38.9511
  1090.5000    136.8697     38.2965
  1090.7500    134.7524     37.3225
  1091.0000    129.9538     36.2462
  1091.2500    127.3174     35.5782
  1091.5000    125.7273     35.4659
  1091.7500    126.2219     35.4630
  1092.0000    128.5264     35.8574
  1092.2500    130.6366     36.5575
  1092.5000    134.0894     37.7465
  1092.7500    136.6171     38.1957
  1093.0000    141.8450     38.3395
  1093.2500    147.3191     38.0993
  1093.5000    160.1399     37.5351
  1093.7500    172.5717     36.7914
  1094.0000    198.1893     36.0080
  1094.2500    219.3774     35.2688
  1094.5000    251.1045     34.6048
  1094.7500    265.5280     34.0220
  1095.0000    266.6467     33.5172
  1095.2500    252.5777     33.0777
  1095.5000    217.2062     32.6845
  1095.7500    190.9583     32.3275
  1096.0000    155.6994     32.0187
  1096.2500    136.5236     31.7844
  1096.5000    114.1994     31.6399
  1096.7500    120.6408     31.5673
  1097.0000    108.7075     31.5158
  1097.2500    104.7880     31.4207
  1097.5000    102.4826     31.2320
  1097.7500    116.1094     30.9344
  1098.0000    113.6374     30.5486
  1098.2500    111.2436     30.1183
  1098.5000    107.3046     29.6958
  1098.7500    104.9225     29.3310
  1099.0000    102.2840     29.0603
  1099.2500    101.2510     28.8950
  1099.5000    100.3398     28.8173
  1099.7500     99.6458     28.7943
  1100.0000     97.8651     28.8021
  1100.2500     96.2267     28.8418
  1100.5000     93.6483     28.9344
  1100.7500     92.2320     29.1000
  1101.0000     91.1058     29.3369
  1101.2500     91.2149     29.6141
  1101.5000     92.5835     29.8807
  1101.7500     93.9261     30.0870
  1102.0000     95.8664     30.2066
  1102.2500     97.0187     30.2474
  1102.5000     98.7935     30.2433
  1102.7500     99.9400     30.2313
  1103.0000    100.9235     30.2305
  1103.2500    100.7280     30.2405
  1103.5000     98.8951     30.2553
  1103.7500     96.5161     30.2782
  1104.0000     91.1849     30.3207
  1104.2500     86.9304     30.3897
  1104.5000     81.1053     30.4778
  1104.7500     78.4212     30.5684
  1105.0000     76.5343     30.6486
  1105.2500     76.3104     30.7182
  1105.5000     76.7108     30.7903
  1105.7500     77.3530     30.8849
  1106.0000     79.1255     31.0220
  1106.2500     80.6445     31.2179
  1106.5000     81.9277     31.4824
  1106.7500     81.0986     31.8158
  1107.0000     76.9916     32.2031
  1107.2500     73.2889     32.6103
  1107.5000     68.6455     32.9893
  1107.7500     66.9627     33.2906
  1108.0000     66.3440     33.4773
  1108.2500     66.6545     33.5296
  1108.5000     67.6540     33.4401
  1108.7500     68.6610     33.2124
  1109.0000     70.6144     32.8706
  1109.2500     71.9390     32.4678
  1109.5000     73.2895     32.0744
  1109.7500     73.5752     31.7479
  1110.0000     73.3841     31.5080
  1110.2500     73.2009     31.3363
  1110.5000     73.1415     31.1979
  1110.7500     73.1533     31.0670
  1111.0000     72.9045     30.9359
  1111.2500     72.3465     30.8040
  1111.5000     70.5691     30.6583
  1111.7500     68.8416     30.4627
  1112.0000     66.7056     30.1682
  1112.2500     66.7084     29.7385
  1112.5000     69.7944     29.1744
  1112.7500     73.3449     28.5139
  1113.0000     78.8961     27.8126
  1113.2500     81.8781     27.1207
  1113.5000     84.9899     26.4738
  1113.7500     86.3935     25.8925
  1114.0000     87.8357     25.3852
  1114.2500     88.3912     24.9482
  1114.5000     88.5681     24.5672
  1114.7500     88.3047     24.2234
  1115.0000     87.6600     23.9036
  1115.2500     87.2937     23.6079
  1115.5000     87.0918     23.3510
  1115.7500     87.1388     23.1538
  1116.0000     86.9365     23.0304
  1116.2500     86.2446     22.9779
  1116.5000     84.3696     22.9765
  1116.7500     82.9546     22.9986
  1117.0000     81.1796     23.0231
  1117.2500     80.3234     23.0419
  1117.5000     79.5196     23.0546
  1117.7500     79.1926     23.0578
  1118.0000     78.5231     23.0387
  1118.2500     77.8310     22.9807
  1118.5000     77.1587     22.8752
  1118.7500     77.6649     22.7301
  1119.0000     80.4639     22.5709
  1119.2500     83.5148     22.4329
  1119.5000     89.1157     22.3517
  1119.7500     92.9361     22.3532
  1120.0000     97.2340     22.4488
  1120.2500     97.9760     22.6326
  1120.5000     94.6640     22.8821
  1120.7500     90.0237     23.1562
  1121.0000     82.3964     23.3979
  1121.2500     78.7533     23.5426
  1121.5000     76.7857     23.5396
  1121.7500     77.3648     23.3719
  1122.0000     79.7507     23.0595
  1122.2500     81.9118     22.6443
  1122.5000     85.5665     22.1671
  1122.7500     87.8852     21.6572
  1123.0000     90.6486     21.1368
  1123.2500     92.1491     20.6334
  1123.5000     94.7214     20.1865
  1123.7500     96.9766     19.8416
  1124.0000    100.7443     19.6373
  1124.2500    102.8101     19.5921
  1124.5000    104.1653     19.6988
  1124.7500    103.7058     19.9277
  1125.0000    101.2704     20.2393
  1125.2500     98.8948     20.5998
  1125.5000     95.3602     20.9933
  1125.7500     93.8187     21.4227
  1126.0000     93.3017     21.9011
  1126.2500     93.6548     22.4372
  1126.5000     93.8242     23.0239
  1126.7500     93.4773     23.6369
  1127.0000     93.1729     24.2476
  1127.2500     93.4983     24.8460
  1127.5000     93.9835     25.4597
  1127.7500     93.5124     26.1542
  1128.0000     91.2374     27.0103
  1128.2500     89.0767     28.0913
  1128.5000     85.7092     29.4155
  1128.7500     83.7101     30.9394
  1129.0000     81.4264     32.5561
  1129.2500     80.5396     34.1134
  1129.5000     80.4601     35.4532
  1129.7500     81.3266     36.4525
  1130.0000     83.5583     37.0390
  1130.2500     85.1323     37.1789
  1130.5000     87.0501     36.8736
  1130.7500     88.0797     36.1808
  1131.0000     89.3752     35.2247
  1131.2500     89.9414     34.1627
  1131.5000     90.2330     33.1318
  1131.7500     90.3330     32.2199
  1132.0000     90.9550     31.4734
  1132.2500     91.6003     30.9183
  1132.5000     91.8844     30.5673
  1132.7500     91.0472     30.4093
  1133.0000     88.1932     30.4027
  1133.2500     85.6267     30.4881
  1133.5000     81.6128     30.6200
  1133.7500     79.2955     30.7924
  1134.0000     77.1240     31.0346
  1134.2500     76.7965     31.3825
  1134.5000     77.8322     31.8475
  1134.7500     79.3002     32.3990
  1135.0000     82.3512     32.9660
  1135.2500     84.6568     33.4550
  1135.5000     87.5086     33.7835
  1135.7500     88.3853     33.9148
  1136.0000     87.8033     33.8702
  1136.2500     86.4363     33.7098
  1136.5000     83.8513     33.4989
  1136.7500     82.3836     33.2832
