~Version Information
VERS.                      2.0: CWLS Log ASCII Standard - VERSION 2.0
WRAP.                       NO: One line per depth step
~Well Information Block
STRT.FT               580.0000: 
STOP.FT              1029.0000: 
STEP.FT                 0.1000: 
NULL.                -999.2500: 
COMP.          Pioneer Natural Resources: COMPANY
WELL.             Quartz 13-22: WELL
FLD.           Purgatoire River: FIELD
LOC.           1933' FSL & 675' FWL: LOCATION
PROV.                 Colorado: PROVINCE
CNTY.               Las Animas: COUNTRY
SRVC.                Patterson: SERVICE COMPANY
DATE.          Fri Dec 16 10:30:09 2005: LOG DATE
UWI.           05 071 08638 00: UNIQUE WELL ID
~Curve Information Block
DEPT.FT            0 000 00 00: Depth
DCAL.in                       : CDL Caliper
RHOB.g/cc                     : CDL Bulk Density
RHOC.g/cc                     : CDL Density Correction
DPOR.pu                       : CDL Density Porosity
GR.GAPI                       : Gamma Ray
NPOR.pu                       : Neutron Porosity
~Parameter Information Block
~A  Depth       DCAL        RHOB        RHOC        DPOR         GR         NPOR    
# ...
   925.6000      7.9159      2.5516      0.0238      5.9655     65.6663     22.0129
   925.7000      7.9159      2.5522      0.0051      5.9302     70.0350     21.8268
   925.8000      7.8962      2.5590      0.0466      5.5170     75.9800     21.6732
   925.9000      7.8962      2.5642      0.0139      5.1997     82.5205     21.6415
   926.0000      7.8932      2.5587      0.0475      5.5363     90.3443     21.9248
   926.1000      7.8932      2.5474     -0.0082      6.2188     93.6647     22.4331
   926.2000      7.8932      2.5446      0.0088      6.3878     91.0603     22.8849
   926.3000      7.8918      2.5563      0.0123      5.6812     87.5388     23.0922
   926.4000      7.8918      2.5774      0.0301      4.3986     82.8018     23.0774
   926.5000      7.9324      2.6001      0.0118      3.0259     75.3584     23.1742
   926.6000      7.9324      2.6176      0.0549      1.9655     71.6254     23.5286
   926.7000      7.9324      2.6266      0.0601      1.4179     75.2920     23.9593
   926.8000      7.9401      2.6295      0.0408      1.2439     78.6011     24.3699
   926.9000      7.9401      2.6285      0.0369      1.3006     75.6002     24.6418
   927.0000      7.9505      2.6241      0.0102      1.5722     71.8482     24.5640
   927.1000      7.9505      2.6194      0.0270      1.8564     75.0445     24.1171
   927.2000      7.9505      2.6200      0.0105      1.8188     84.0098     23.6780
   927.3000      7.9623      2.6253      0.0513      1.4955     90.4742     23.5735
   927.4000      7.9623      2.6257      0.0275      1.4757     90.4307     23.6450
   927.5000      7.9204      2.6193     -0.0268      1.8607     86.7730     23.6684
   927.6000      7.9204      2.6138     -0.0051      2.1940     82.9096     23.6983
   927.7000      7.9204      2.6151      0.0119      2.1165     81.7999     23.5480
   927.8000      7.8904      2.6293      0.0230      1.2542     85.8112     22.9992
   927.9000      7.8904      2.6572      0.0839     -0.4360     92.2714     22.4046
   928.0000      7.8961      2.6820      0.1000     -1.9399     95.5084     22.2409
   928.1000      7.8961      2.6868      0.0964     -2.2299     93.9615     22.4563
   928.2000      7.8961      2.6757      0.0651     -1.5552     88.2887     22.5714
   928.3000      7.8793      2.6604      0.0849     -0.6330     81.3741     22.4613
   928.4000      7.8793      2.6457      0.0656      0.2590     79.9101     22.3336
   928.5000      7.8803      2.6330      0.0369      1.0333     81.8372     22.3192
   928.6000      7.8803      2.6189      0.0609      1.8834     82.7238     22.5637
   928.7000      7.8803      2.5995      0.0182      3.0583     86.7957     22.9145
   928.8000      7.8735      2.5812     -0.0161      4.1712     94.6937     22.9299
   928.9000      7.8735      2.5679      0.0002      4.9759    104.0428     22.7006
   929.0000      7.8845      2.5549      0.0241      5.7619    113.7092     22.3913
   929.1000      7.8845      2.5457      0.0147      6.3227    117.6995     21.8325
   929.2000      7.8845      2.5510     -0.0024      5.9975    115.3864     21.3710
   929.3000      7.8892      2.5681      0.0687      4.9638    114.8750     21.3018
   929.4000      7.8892      2.5819      0.0297      4.1280    118.2419     21.2026
   929.5000      7.8939      2.5824      0.0796      4.0958    123.3511     20.9847
   929.6000      7.8939      2.5640      0.0650      5.2092    128.1877     21.0342
   929.7000      7.8939      2.5331      0.0451      7.0858    125.8489     21.1956
   929.8000      7.8888      2.5046      0.0177      8.8115    116.4391     21.0336
   929.9000      7.8888      2.4886      0.0249      9.7792    111.4736     20.8476
   930.0000      7.8936      2.4885      0.0029      9.7903    112.6782     21.2182
   930.1000      7.8936      2.4965      0.0512      9.3016    113.6177     21.9818
   930.2000      7.8936      2.4943      0.0755      9.4390    113.6529     22.5957
   930.3000      7.9132      2.4827      0.0300     10.1370    112.1256     22.9384
   930.4000      7.9132      2.4824      0.0565     10.1555    106.2917     23.0704
   930.5000      7.9110      2.4905      0.0384      9.6641    101.3548     23.0037
   930.6000      7.9110      2.4907      0.0271      9.6574    103.1766     22.7226
   930.7000      7.9110      2.4881      0.0250      9.8100    106.1621     22.3312
   930.8000      7.9137      2.4977      0.0440      9.2314    102.9627     22.1258
   930.9000      7.9137      2.5171      0.0477      8.0543     96.1019     22.2643
   931.0000      7.9257      2.5333      0.0880      7.0719     91.9333     22.3402
   931.1000      7.9257      2.5372      0.0819      6.8361     91.1279     22.1349
   931.2000      7.9257      2.5278      0.0750      7.4054     92.4945     22.0132
   931.3000      7.9283      2.5146      0.0456      8.2056     94.2417     21.9255
   931.4000      7.9283      2.5121      0.0400      8.3595     93.2089     21.4587
   931.5000      7.9224      2.5207      0.0686      7.8353     90.5389     20.8144
   931.6000      7.9224      2.5252      0.0824      7.5607     89.1511     20.4949
   931.7000      7.9224      2.5147      0.0605      8.2005     86.5374     20.6426
   931.8000      7.9233      2.4923      0.0523      9.5560     84.1515     20.9996
   931.9000      7.9233      2.4718      0.0114     10.8011     86.2372     21.3319
   932.0000      7.9397      2.4680     -0.0211     11.0330     88.4430     21.6521
   932.1000      7.9397      2.4765      0.0453     10.5121     88.0587     21.7803
   932.2000      7.9397      2.4785      0.0439     10.3927     87.7526     21.5803
   932.3000      7.9649      2.4683     -0.0110     11.0091     88.7262     21.3461
   932.4000      7.9649      2.4572      0.0057     11.6822     90.9082     21.2084
   932.5000      7.9488      2.4566     -0.0113     11.7183     94.5878     20.9074
   932.6000      7.9488      2.4659      0.0375     11.1594     96.4214     20.4576
   932.7000      7.9488      2.4759      0.0082     10.5516     92.2187     20.0769
   932.8000      7.9485      2.4841      0.0353     10.0520     86.8337     19.8342
   932.9000      7.9485      2.4884      0.0201      9.7929     87.3108     19.7968
   933.0000      7.9497      2.4853      0.0121      9.9820     94.0286     20.0133
   933.1000      7.9497      2.4798      0.0237     10.3172    100.6977     20.4414
   933.2000      7.9497      2.4759      0.0464     10.5501    101.4656     20.8641
   933.3000      7.9566      2.4698      0.0500     10.9205     97.3080     21.0799
   933.4000      7.9566      2.4601      0.0089     11.5062     89.5491     21.1093
   933.5000      7.9590      2.4582     -0.0334     11.6230     78.6406     21.1215
   933.6000      7.9590      2.4738      0.0130     10.6775     71.7161     21.0985
   933.7000      7.9590      2.4927      0.0645      9.5328     76.1044     21.0509
   933.8000      7.9609      2.4969      0.0347      9.2793     87.6278     21.2353
   933.9000      7.9609      2.4897      0.0354      9.7171     96.4229     21.7300
   934.0000      7.9657      2.4792      0.0384     10.3511    100.4435     22.3374
   934.1000      7.9657      2.4703     -0.0057     10.8934    104.1126     22.6087
   934.2000      7.9657      2.4713      0.0096     10.8313    107.5276     22.1162
   934.3000      7.9627      2.4807      0.0286     10.2628    107.1810     21.2643
   934.4000      7.9627      2.4842      0.0313     10.0481    101.2707     20.8825
   934.5000      7.9630      2.4759      0.0179     10.5508     93.2899     21.1628
   934.6000      7.9630      2.4622      0.0091     11.3817     88.8483     21.5664
   934.7000      7.9630      2.4489      0.0007     12.1894     86.2980     21.6129
   934.8000      7.9657      2.4388     -0.0087     12.7981     81.2799     21.3676
   934.9000      7.9657      2.4377     -0.0104     12.8681     77.4875     21.0535
   935.0000      7.9694      2.4535     -0.0505     11.9089     81.4698     20.9589
   935.1000      7.9694      2.4842      0.0252     10.0515     89.9135     21.2289
