~Version Information
VERS.                      2.0: CWLS Log ASCII Standard - VERSION 2.0
WRAP.                       NO: One line per depth step
~Well Information Block
STRT.FT                -8.2500: 
STOP.FT              1580.5000: 
STEP.FT                 0.2500: 
NULL.                -999.2500: 
COMP.          Pioneer Natural Resources: COMPANY
WELL.          Daytona 31-14 Tr: WELL
FLD.           Purgatorie River: FIELD
LOC.           683' FNL & 1943' FEL--: LOCATION
CNTY.               Las Animas: COUNTY
SRVC.          Patterson Wireline: SERVICE COMPANY
DATE.          Thu Feb 02 08:47:22 2006: LOG DATE
UWI.           05 071 08681 00: UNIQUE WELL ID
STAT.                       CO: STATE
~Curve Information Block
DEPT.FT            0 000 00 00: Depth
CCL.                          : Casing Collar Locator
TT3.usec                      : CBL 3' Travel Time
AMP3.mV                       : CBL 3' Amplitude
GR.GAPI                       : Gamma Ray
~Parameter Information Block
~A  Depth       CCL         TT3         AMP3         GR     
# ...
   829.2500      0.0000    449.9478      6.1159    119.4058
   829.5000      0.0000    496.0235      6.0728    122.5365
   829.7500      0.0000    540.5486      6.0046    122.6996
   830.0000      0.0000    565.8876      5.9213    117.9485
   830.2500      0.0000    566.3497      5.8343    109.1265
   830.5000      0.0000    555.4868      5.7526     99.3196
   830.7500      0.0000    555.5843      5.6827     91.7817
   831.0000      0.0000    577.8963      5.6329     88.2937
   831.2500      0.0000    613.4548      5.6133     88.9939
   831.5000      0.0000    643.7457      5.6284     92.9466
   831.7500      0.0000    658.7935      5.6706     98.6343
   832.0000      0.0000    662.9138      5.7195    104.4784
   832.2500      0.0000    665.0452      5.7497    109.4633
   832.5000      0.0000    668.1671      5.7465    113.4907
   832.7500      0.0000    669.1459      5.7140    117.2338
   833.0000      0.0000    665.5104      5.6672    121.5940
   833.2500      0.0000    659.8871      5.6185    126.8244
   833.5000      0.0000    657.8055      5.5717    131.8105
   833.7500      0.0000    661.5624      5.5252    134.6297
   834.0000      0.0000    667.1396      5.4781    134.5131
   834.2500      0.0000    668.5506      5.4338    132.9648
   834.5000      0.0000    664.8821      5.4010    132.0260
   834.7500      0.0000    661.1238      5.3906    131.7432
   835.0000      0.0000    661.7762      5.4139    130.5311
   835.2500      0.0000    666.1064      5.4807    127.7823
   835.5000      0.0000    670.6669      5.5896    124.9103
   835.7500      0.0000    673.8376      5.7197    123.8437
   836.0000      0.0000    676.0295      5.8348    125.2469
   836.2500      0.0000    677.3875      5.9059    128.0851
   836.5000      0.0000    677.4672      5.9304    130.4565
   836.7500      0.0000    676.6954      5.9284    131.1545
   837.0000      0.0000    676.6448      5.9252    130.7664
   837.2500      0.0000    678.6185      5.9403    130.9136
   837.5000      0.0000    682.7414      5.9870    132.4234
   837.7500      0.0000    688.6427      6.0704    134.7431
   838.0000      0.0000    696.3427      6.1802    137.0615
   838.2500      0.0000    705.7036      6.2895    139.2875
   838.5000      0.0000    715.1658      6.3652    141.5872
   838.7500      0.0000    721.6791      6.3871    143.3236
   839.0000      0.0000    722.4649      6.3626    143.1417
   839.2500      0.0000    717.1797      6.3225    140.4728
   839.5000      0.0000    708.3796      6.2969    136.5177
   839.7500      0.0000    699.7570      6.2928    133.1560
   840.0000      0.0000    693.9549      6.3026    131.2843
   840.2500      0.0000    692.0836      6.3344    130.7291
   840.5000      0.0000    694.7175      6.4205    130.9020
   840.7500      0.0000    702.3141      6.5867    130.6250
   841.0000      0.0000    714.1028      6.8165    128.3170
   841.2500      0.0000    726.9776      7.0571    123.7429
   841.5000      0.0000    736.5308      7.2611    119.0446
   841.7500      0.0000    739.9748      7.4147    116.7527
   842.0000      0.0000    738.2109      7.5247    117.1222
   842.2500      0.0000    734.8201      7.5893    118.3613
   842.5000      0.0000    732.9119      7.5911    118.9523
   842.7500      0.0000    733.2073      7.5153    118.7573
   843.0000      0.0000    735.0965      7.3732    118.2301
   843.2500      0.0000    738.4899      7.2070    117.6304
   843.5000      0.0000    743.5859      7.0721    116.9999
   843.7500      0.0000    749.1600      7.0048    116.0560
   844.0000      0.0000    752.1851      6.9999    114.0589
   844.2500      0.0000    749.9308      7.0204    110.7382
   844.5000      0.0000    742.6083      7.0326    107.5608
   844.7500      0.0000    733.6622      7.0294    107.1327
   845.0000      0.0000    726.9300      7.0192    110.8624
   845.2500      0.0000    723.1887      6.9972    117.5957
   845.5000      0.0000    719.4774      6.9336    124.6743
   845.7500      0.0000    711.9692      6.8055    129.9861
   846.0000      0.0000    699.6691      6.6444    133.0104
   846.2500      0.0000    685.5271      6.5291    134.2413
   846.5000      0.0000    674.5843      6.5001    133.9466
   846.7500      0.0000    671.6808      6.4998    131.7748
   847.0000      0.0000    680.2299      6.4375    127.6487
   847.2500      0.0000    700.6006      6.2960    122.8246
   847.5000      0.0000    727.5991      6.1356    119.6855
   847.7500      0.0000    751.0215      6.0114    120.2947
   848.0000     -2.0000    761.9368      5.9259    125.0204
   848.2500      0.0000    759.0807      5.8558    132.2654
   848.5000      0.0000    747.6004      5.8036    139.2519
   848.7500      0.0000    732.5370      5.8172    143.3592
   849.0000      0.0000    716.1542      5.9480    143.5355
   849.2500      0.0000    700.5643      6.1717    140.8874
   849.5000      0.0000    689.3201      6.3669    137.6353
   849.7500      0.0000    685.4034      6.4130    135.1632
   850.0000      0.0000    688.7056      6.3020    133.2633
   850.2500      0.0000    695.8953      6.1295    131.2254
   850.5000      0.0000    702.7577      5.9920    129.0321
   850.7500      0.0000    706.7845      5.9205    127.3574
   851.0000      0.0000    707.6027      5.8957    127.1751
   851.2500      0.0000    705.6339      5.8900    129.6490
   851.5000      0.0000    701.4781      5.8924    135.4322
   851.7500      0.0000    696.3604      5.9105    143.5101
   852.0000      0.0000    691.8596      5.9583    151.3350
   852.2500      0.0000    688.8784      6.0367    156.4876
   852.5000      0.0000    687.3030      6.1266    158.0623
   852.7500      0.0000    686.6318      6.1997    156.8356
   853.0000      0.0000    686.7415      6.2327    154.6180
   853.2500      0.0000    688.2794      6.2136    152.9633
   853.5000      0.0000    692.5477      6.1419    151.9009
   853.7500      0.0000    700.5526      6.0254    150.1221
   854.0000      0.0000    711.3485      5.8741    146.7147
   854.2500      0.0000    721.2249      5.6996    142.2711
   854.5000      0.0000    725.4855      5.5198    138.0202
   854.7500      0.0000    722.0601      5.3576    134.4516
   855.0000      0.0000    713.5182      5.2302    131.1520
   855.2500      0.0000    705.3036      5.1416    127.3517
   855.5000      0.0000    701.7643      5.0844    122.1339
   855.7500      0.0000    703.2693      5.0438    114.7151
   856.0000      0.0000    706.3838      5.0014    105.2707
   856.2500      0.0000    706.8544      4.9420     95.3535
   856.5000      0.0000    703.0208      4.8615     87.0062
   856.7500      0.0000    696.6179      4.7726     81.4202
   857.0000      0.0000    690.5544      4.7006     78.4938
   857.2500      0.0000    686.4664      4.6693     77.3535
   857.5000      0.0000    684.0349      4.6871     77.1399
   857.7500      0.0000    681.4855      4.7470     77.6524
   858.0000      0.0000    676.0421      4.8384     79.4920
   858.2500      0.0000    664.9673      4.9507     83.3854
   858.5000      0.0000    648.3857      5.0582     89.1998
   858.7500      0.0000    632.0097      5.1126     95.5742
   859.0000      0.0000    624.8168      5.0705    100.3633
   859.2500      0.0000    631.3924      4.9379    101.4686
   859.5000      0.0000    647.3226      4.7781     97.7431
   859.7500      0.0000    663.6634      4.6636     89.6718
   860.0000      0.0000    674.6017      4.6232     79.2673
   860.2500      0.0000    679.7923      4.6345     69.0872
   860.5000      0.0000    681.5355      4.6610     61.2363
   860.7500      0.0000    681.8919      4.6851     56.9801
   861.0000      0.0000    681.9088      4.7070     56.5769
   861.2500      0.0000    681.9960      4.7254     59.1431
   861.5000      0.0000    682.4062      4.7326     63.1866
   861.7500      0.0000    683.6423      4.7269     67.7259
   862.0000      0.0000    686.6349      4.7168     72.7512
   862.2500      0.0000    692.4617      4.7097     78.4438
   862.5000      0.0000    701.5696      4.7001     84.2639
