~Version Information
 VERS.                                  2.0 : CWLS LAS VERSION
 WRAP.                                   NO : WRAPING MODE
 SWARE .                  MController 2.5.1 : SOFTWARE VERSION
~Well Information
 WELL.                           Erin 21-15 : WELL
 COMP.  Pioneer Natural Resources USA, Inc. : COMPANY
 FLD.                      Purgatoire River : FIELD
 LOC.             NE/NW Sec. 15, T33S, R67W : LOCATION
 DATE.                03/01/2006-03/02/2006 : DATE(S) LOGGED
 SRVC.                  Entrada GeoSciences : SERVICE COMPANY
 STAT.                             Colorado : STATE
 CNTY.                           Las Animas : COUNTY
 CTRY.                        United States : COUNTRY
 API.                          05-071-08713 : API NUMBER
 STRT.FT                             553.00 : START DEPTH
 STOP.FT                            2200.00 : STOP DEPTH
 STEP.FT                               1.00 : DEPTH INCREMENT
 NULL.                                -9999 : NULL VALUE
~Curve information
 DEPTH.FT                                   :
 ROP.MIN/FT                                 :
 GAS.UNITS                                  :
~ASCII Log data
# ...
     1953.00         0.20        400.0 
     1954.00         0.27        400.0 
     1955.00         0.30         22.2 
     1956.00         0.30         23.2 
     1957.00         0.30         26.7 
     1958.00         0.38         32.7 
     1959.00         0.37         37.6 
     1960.00         0.43         38.7 
     1961.00         0.40         37.9 
     1962.00         0.37         36.5 
     1963.00         0.37         38.3 
     1964.00         0.50         96.5 
     1965.00         0.43        139.9 
     1966.00         0.32        140.1 
     1967.00         0.50        127.4 
     1968.00         1.60         70.6 
     1969.00         0.32        101.7 
     1970.00         0.37        173.5 
     1971.00         0.33        248.4 
     1972.00         0.40        341.0 
     1973.00         0.33        399.7 
     1974.00         0.43        406.2 
     1975.00         0.50        335.5 
     1976.00         0.43        258.5 
     1977.00         0.55        176.3 
     1978.00         0.47         76.0 
     1979.00         0.47         28.5 
     1980.00         0.50         25.2 
     1981.00         0.60         29.4 
     1982.00         0.57         32.6 
     1983.00         0.50         31.1 
     1984.00         0.38         31.6 
     1985.00         0.27         34.1 
     1986.00         0.33         38.9 
     1987.00         0.23         46.6 
     1988.00         0.23         53.8 
     1989.00         0.20         62.1 
     1990.00         0.33         75.6 
     1991.00         0.33         87.6 
     1992.00         0.33        100.0 
     1993.00         0.30        109.8 
     1994.00         0.33        121.7 
     1995.00         0.35        140.1 
     1996.00         0.30        149.2 
     1997.00         0.27        154.7 
     1998.00         0.50        259.4 
     1999.00         0.40        318.9 
     2000.00         0.37        273.1 
     2001.00         0.35        243.2 
     2002.00         0.17        233.0 
     2003.00         0.17        223.7 
     2004.00         0.20        217.3 
     2005.00         0.13        211.7 
     2006.00         0.13        196.6 
     2007.00         0.13        175.3 
     2008.00         0.17        157.6 
     2009.00         0.17        146.1 
     2010.00         0.23        127.2 
     2011.00         0.23        119.3 
     2012.00         0.23        168.3 
     2013.00         0.30         93.0 
     2014.00         0.23         53.5 
     2015.00         0.23         38.4 
     2016.00         0.23         32.1 
     2017.00         0.25         29.6 
     2018.00         0.30         24.4 
     2019.00         0.20         25.5 
     2020.00         0.13         25.2 
     2021.00         0.13         28.6 
     2022.00         0.10         34.4 
     2023.00         0.10         39.0 
     2024.00         0.17         43.9 
     2025.00         0.23         46.5 
     2026.00         0.23         47.3 
     2027.00         0.27         57.1 
     2028.00         0.43        114.6 
     2029.00         0.20        109.2 
     2030.00         0.13        110.1 
     2031.00         0.22        129.0 
     2032.00         0.27        143.1 
     2033.00         0.30        132.6 
     2034.00         0.23        120.7 
     2035.00         0.23        101.9 
     2036.00         0.17         91.5 
     2037.00         0.13         82.3 
     2038.00         0.27         52.5 
     2039.00         0.40         26.8 
     2040.00         0.43         21.7 
     2041.00         0.27         22.5 
     2042.00         0.30         28.2 
     2043.00         0.17         27.5 
     2044.00         0.35         25.5 
     2045.00         0.27         28.3 
     2046.00         0.30         51.3 
     2047.00         0.13         66.5 
     2048.00         0.13         74.4 
     2049.00         0.23         78.1 
     2050.00         0.27         75.5 
     2051.00         0.27         71.4 
     2052.00         0.33         68.1 
     2053.00         0.27         68.5 
     2054.00         0.23         67.3 
     2055.00         0.27         65.5 
     2056.00         0.27         63.9 
     2057.00         0.35         62.9 
     2058.00         0.43         30.6 
     2059.00         0.50         46.5 
     2060.00         0.47         83.1 
     2061.00         0.87        229.8 
     2062.00         0.75        278.7 
     2063.00         0.30        252.1 
     2064.00         0.43        220.2 
     2065.00         0.40        195.4 
     2066.00         0.40        141.5 
     2067.00         0.40         81.6 
     2068.00         0.40         39.3 
     2069.00         0.37         22.7 
     2070.00         0.38         25.9 
     2071.00         0.40         27.6 
     2072.00         0.43         31.1 
     2073.00         0.40         34.9 
     2074.00         0.40         38.7 
     2075.00         0.43         44.6 
     2076.00         0.37         46.5 
     2077.00         0.33         49.4 
     2078.00         0.33         48.5 
     2079.00         0.38         49.3 
     2080.00         0.47         72.8 
     2081.00         0.37         95.9 
     2082.00         0.37        101.9 
     2083.00         0.43         89.0 
     2084.00         0.53         66.0 
     2085.00         0.50         53.0 
     2086.00         0.40         45.9 
     2087.00         0.65         53.8 
     2088.00         0.17         98.5 
     2089.00         0.43        190.1 
     2090.00         0.50        282.4 
     2091.00         0.50        291.9 
     2092.00         0.53        223.0 
     2093.00         0.62        179.4 
     2094.00         0.47        145.3 
     2095.00         0.53        110.3 
     2096.00         0.40         88.9 
     2097.00         0.40         37.4 
     2098.00         0.43         24.6 
     2099.00         0.47         20.4 
     2100.00         0.55         22.7 
     2101.00         0.40         23.7 
     2102.00         0.37         26.4 
     2103.00         0.40         27.2 
     2104.00         0.40         26.5 
     2105.00         0.37         26.4 
     2106.00         0.40         26.1 
     2107.00         0.40         25.7 
     2108.00         0.40         29.2 
     2109.00         0.55         29.6 
     2110.00         0.37         32.8 
     2111.00         0.43         34.5 
     2112.00         0.50         35.7 
     2113.00         0.47         35.8 
     2114.00         0.43         33.5 
     2115.00         0.43         30.4 
     2116.00         0.48         29.1 
     2117.00         0.47         28.7 
     2118.00         0.50        173.3 
     2119.00         0.60        288.7 
     2120.00         0.57        174.2 
     2121.00         0.53         84.7 
     2122.00         0.53         58.3 
     2123.00         0.50         41.4 
     2124.00         0.52         53.5 
     2125.00         0.57         25.8 
     2126.00         0.60         20.3 
     2127.00         0.57         18.1 
     2128.00         0.50         26.3 
     2129.00         0.70         32.3 
     2130.00         0.35         31.4 
     2131.00         0.47         28.3 
     2132.00         0.33         30.2 
     2133.00         0.43         32.4 
     2134.00         0.63         33.6 
     2135.00         0.60         38.2 
     2136.00         0.37         39.3 
     2137.00         0.48         40.3 
     2138.00         0.70         39.7 
     2139.00         0.67         42.3 
     2140.00         0.43         45.5 
     2141.00         0.80         44.6 
     2142.00         0.68         43.3 
     2143.00         0.70         44.2 
     2144.00         0.60         46.7 
     2145.00         0.60         47.5 
     2146.00         0.63         41.9 
     2147.00         0.70         36.9 
     2148.00         0.62         19.5 
     2149.00         0.30         19.1 
     2150.00         0.23         23.8 
     2151.00         0.27         49.3 
     2152.00         0.20         76.7 
