~Version Information
 VERS.                                  2.0 : CWLS LAS VERSION
 WRAP.                                   NO : WRAPING MODE
 SWARE .                 MController 2.5.0N : SOFTWARE VERSION
~Well Information
 WELL.                            AMX 13-13 : WELL
 COMP.  Pioneer Natural Resources USA, Inc. : COMPANY
 FLD.                      Purgatoire River : FIELD
 LOC.                      NW/SW 13-32S-68W : LOCATION
 DATE.                          12/18-19/05 : DATE(S) LOGGED
 SRVC.       BLANCO Geological Services LLC : SERVICE COMPANY
 STAT.                                   CO : STATE
 CNTY.                           Las Animas : COUNTY
 CTRY.                                  USA : COUNTRY
 API.                          05-071-08630 : API NUMBER
 STRT.FT                             496.00 : START DEPTH
 STOP.FT                            2875.00 : STOP DEPTH
 STEP.FT                               1.00 : DEPTH INCREMENT
 NULL.                                -9999 : NULL VALUE
~Curve information
 DEPTH.FT                                   :
 ROP.MIN/FT                                 :
 GAS.UNITS                                  :
~ASCII Log data
# ...
      1296.0         0.23       1450.1 
      1297.0         0.33       1580.1 
      1298.0         0.30       1672.3 
      1299.0         0.33       1728.3 
      1300.0         0.33       1734.8 
      1301.0         0.28       1715.1 
      1302.0         0.23       1640.8 
      1303.0         0.27       1564.5 
      1304.0         0.20       1473.3 
      1305.0         0.27       1409.8 
      1306.0         0.33       1343.3 
      1307.0         0.43       1265.8 
      1308.0         0.53       1201.4 
      1309.0         0.40       1099.5 
      1310.0         0.27        993.3 
      1311.0         0.30        918.9 
      1312.0         0.35        863.9 
      1313.0         0.37        778.3 
      1314.0         0.33        583.0 
      1315.0         0.33        575.8 
      1316.0         4.15       7079.5 
      1317.0         0.40       1123.9 
      1318.0         0.27       1104.2 
      1319.0         0.20       1047.0 
      1320.0         0.20        990.8 
      1321.0         0.25        933.9 
      1322.0         0.27        869.2 
      1323.0         0.23        803.0 
      1324.0         0.20        738.3 
      1325.0         0.23        679.8 
      1326.0         0.17        622.0 
      1327.0         0.13        588.6 
      1328.0         0.13        570.8 
      1329.0         0.20        562.0 
      1330.0         0.33        574.2 
      1331.0         0.37        627.0 
      1332.0         0.37        685.2 
      1333.0         0.40        728.0 
      1334.0         0.42        762.3 
      1335.0         0.43        768.3 
      1336.0         0.40        748.6 
      1337.0         0.67        608.3 
      1338.0         0.50        726.1 
      1339.0         0.47        821.1 
      1340.0         0.53        821.1 
      1341.0         0.42        656.4 
      1342.0         0.37        510.1 
      1343.0         0.37        440.0 
      1344.0         0.40         95.1 
      1345.0         0.20         46.7 
      1346.0         3.45       2670.5 
      1347.0         0.40        833.6 
      1348.0         0.33        657.7 
      1349.0         0.37        554.2 
      1350.0         0.33        440.0 
      1351.0         0.20        110.3 
      1352.0         0.18         84.7 
      1353.0         0.17         85.7 
      1354.0         0.27        140.5 
      1355.0         0.40        257.0 
      1356.0         0.40        342.6 
      1357.0         0.47        374.5 
      1358.0         0.43        373.8 
      1359.0         0.43        363.5 
      1360.0         0.40        327.1 
      1361.0         0.42        235.7 
      1362.0         0.40        137.4 
      1363.0         0.43         78.5 
      1364.0         0.40         45.0 
      1365.0         0.50         34.6 
      1366.0         0.47         24.6 
      1367.0         0.50         19.4 
      1368.0         0.45         15.1 
      1369.0         0.43         24.3 
      1370.0         0.33         33.4 
      1371.0         0.27         79.7 
      1372.0         0.37        276.1 
      1373.0         0.33       1115.8 
      1374.0         0.23       1571.4 
      1375.0         0.30       2174.8 
      1376.0         1.72       2743.9 
      1377.0         0.20        846.1 
      1378.0         0.47        731.4 
      1379.0         0.30        542.0 
      1380.0         0.17        516.1 
      1381.0         0.37        520.2 
      1382.0         0.43        500.1 
      1383.0         0.43        440.0 
      1384.0         0.38        116.6 
      1385.0         0.40        150.8 
      1386.0         0.37        176.2 
      1387.0         0.30        189.4 
      1388.0         0.33        189.4 
      1389.0         0.37        196.1 
      1390.0         0.33        197.8 
      1391.0         0.33        193.4 
      1392.0         0.30        237.8 
      1393.0         0.27        292.7 
      1394.0         0.32        351.7 
      1395.0         0.33        392.8 
      1396.0         0.30        408.6 
      1397.0         0.33        408.6 
      1398.0         0.33        395.6 
      1399.0         0.27        375.2 
      1400.0         0.40        351.3 
      1401.0         0.47        283.4 
      1402.0         0.47        217.9 
      1403.0         0.42        185.1 
      1404.0         0.30        133.3 
      1405.0         0.33         94.0 
      1406.0         3.58       3700.5 
      1407.0         0.60        831.7 
      1408.0         0.50        440.0 
      1409.0         0.47        180.8 
      1410.0         0.37        149.1 
      1411.0         0.33        116.3 
      1412.0         0.32        128.6 
      1413.0         0.33        168.9 
      1414.0         0.30        212.8 
      1415.0         0.33        267.5 
      1416.0         0.33        317.6 
      1417.0         0.37        360.9 
      1418.0         0.40        396.8 
      1419.0         0.40        411.3 
      1420.0         0.43        406.8 
      1421.0         0.42        324.7 
      1422.0         0.13        239.1 
      1423.0         0.10        226.6 
      1424.0         0.07        219.7 
      1425.0         0.20        215.5 
      1426.0         0.33        204.9 
      1427.0         0.47        187.8 
      1428.0         0.50        165.9 
      1429.0         0.37        147.8 
      1430.0         0.37        142.1 
      1431.0         0.27        136.1 
      1432.0         0.23        115.7 
      1433.0         0.42        112.4 
      1434.0         0.47        196.8 
      1435.0         0.40        348.9 
      1436.0         3.92       3626.7 
      1437.0         0.17       1066.4 
      1438.0         0.40       1353.0 
      1439.0         0.50       1393.6 
      1440.0         0.58       1257.7 
      1441.0         0.60       1048.3 
      1442.0         0.60       1036.4 
      1443.0         0.60        742.7 
      1444.0         0.53        480.8 
      1445.0         0.40        160.0 
      1446.0         0.37        145.1 
      1447.0         0.38        144.1 
      1448.0         0.33        134.0 
      1449.0         0.27        124.6 
      1450.0         0.30        120.2 
      1451.0         0.33        120.2 
      1452.0         0.37        122.6 
      1453.0         0.33        122.5 
      1454.0         0.30        118.7 
      1455.0         0.30        120.0 
      1456.0         0.23        129.3 
      1457.0         0.45        133.0 
      1458.0         0.33        122.1 
      1459.0         0.17        113.2 
      1460.0         0.13        111.9 
      1461.0         0.10        110.0 
      1462.0         0.30        107.3 
      1463.0         0.13         91.6 
      1464.0         0.13         85.1 
      1465.0         0.07         82.7 
      1466.0         2.75       2688.6 
      1467.0         0.27       1327.0 
      1468.0         0.27       1114.5 
      1469.0         0.30        900.2 
      1470.0         0.30        694.2 
      1471.0         0.30        532.3 
      1472.0         0.23        458.6 
      1473.0         0.27        529.5 
      1474.0         0.33        582.7 
      1475.0         0.38        580.8 
      1476.0         0.33        486.4 
      1477.0         0.33        440.0 
      1478.0         0.27        116.2 
      1479.0         0.23         96.0 
      1480.0         0.20         86.5 
      1481.0         0.17         83.6 
      1482.0         0.20         86.4 
      1483.0         0.13        102.5 
      1484.0         0.13        124.3 
      1485.0         0.10        140.9 
      1486.0         0.10        155.4 
      1487.0         0.17        176.6 
      1488.0         0.27        257.2 
      1489.0         0.13        313.1 
      1490.0         0.10        349.3 
      1491.0         0.10        377.2 
      1492.0         0.10        393.2 
      1493.0         0.18        396.9 
      1494.0         0.23        393.5 
      1495.0         0.20        458.6 
