~Version Information
VERS.                      2.0: CWLS Log ASCII Standard - VERSION 2.0
WRAP.                       NO: One line per depth step
~Well Information Block
STRT.FT                -7.5000: 
STOP.FT              1310.7500: 
STEP.FT                 0.2500: 
NULL.                -999.2500: 
COMP.          Pioneer Natural Resources: COMPANY
WELL.          Challenger 31-29: WELL
FLD.           Purgatorie River: FIELD
LOC.           51' FNL & 1923' FEL------: LOCATION
STAT.                       CO: State
CNTY.               Las Animas: COUNTY
CTRY. USA : Country
SECT. 29 : Section
TOWN. 33S : Township
RANG. 65W : Range
SRVC.          Patterson Wireline: SERVICE COMPANY
DATE.          Wed Sep 21 12:11:38 2005: LOG DATE
API.           05 071 08514 00: UNIQUE WELL ID
~Curve Information Block
DEPT.FT            0 000 00 00: Depth
CCL.                          : Casing Collar Locator
TT3.usec                      : CBL 3' Travel Time
AMP3.mV                       : CBL 3' Amplitude
GR.GAPI                       : Gamma Ray
~Parameter Information Block
~A  Depth       CCL         TT3         AMP3         GR     
# ...
   428.0000      0.0000    304.6858     21.9951     49.5360
   428.2500      0.0000    304.5569     22.2146     52.0125
   428.5000      0.0000    304.3594     22.4892     55.8144
   428.7500      0.0000    304.1339     22.7734     59.4535
   429.0000      0.0000    303.9369     23.0126     61.8359
   429.2500      0.0000    303.8031     23.1779     62.5866
   429.5000      0.0000    303.7343     23.2779     62.5148
   429.7500      0.0000    303.7145     23.3409     63.0028
   430.0000      0.0000    303.7261     23.3934     64.4557
   430.2500      0.0000    303.7554     23.4465     65.6865
   430.5000      0.0000    303.7999     23.4914     65.0836
   430.7500      0.0000    303.8729     23.5039     62.2119
   431.0000      0.0000    303.9890     23.4648     58.2902
   431.2500      0.0000    304.1407     23.3779     55.2180
   431.5000      0.0000    304.2964     23.2698     54.1002
   431.7500      0.0000    304.4224     23.1725     54.6991
   432.0000      0.0000    304.5008     23.1116     56.1425
   432.2500      0.0000    304.5268     23.1041     57.6969
   432.5000      0.0000    304.5005     23.1553     58.8260
   432.7500      0.0000    304.4241     23.2574     59.2033
   433.0000      0.0000    304.3068     23.3919     59.0013
   433.2500      0.0000    304.1705     23.5362     58.7659
   433.5000      0.0000    304.0442     23.6702     58.8026
   433.7500      0.0000    303.9489     23.7818     58.9371
   434.0000      0.0000    303.8901     23.8667     58.9069
   434.2500      0.0000    303.8617     23.9224     58.6475
   434.5000      0.0000    303.8532     23.9452     58.1195
   434.7500      0.0000    303.8513     23.9360     57.2500
   435.0000      0.0000    303.8450     23.9048     56.1508
   435.2500      0.0000    303.8360     23.8612     55.0233
   435.5000      0.0000    303.8351     23.8070     53.8552
   435.7500      0.0000    303.8466     23.7424     52.6160
   436.0000      0.0000    303.8592     23.6789     51.6345
   436.2500      0.0000    303.8568     23.6324     51.2880
   436.5000      0.0000    303.8405     23.6017     51.4522
   436.7500      0.0000    303.8448     23.5594     51.8424
   437.0000      0.0000    303.9317     23.4699     52.8914
   437.2500      0.0000    304.2132     23.3193     55.7658
   437.5000      0.0000    304.9316     23.1256     61.3519
   437.7500      0.0000    306.5672     22.9202     69.4177
   438.0000      0.0000    309.6695     22.7236     78.6110
   438.2500      0.0000    314.1378     22.5415     86.8332
   438.5000      0.0000    318.5005     22.3789     91.8491
   438.7500      0.0000    320.5844     22.2450     92.4422
   439.0000      0.0000    319.6533     22.1452     89.3016
   439.2500      0.0000    318.0887     22.0746     84.3693
   439.5000      0.0000    321.1266     22.0235     79.2692
   439.7500      0.0000    335.5524     21.9821     74.8885
   440.0000      0.0000    367.5858     21.9434     72.2395
   440.2500      0.0000    417.5273     21.9121     72.6814
   440.5000      0.0000    472.4400     21.9179     76.9305
   440.7500      0.0000    507.1878     22.0092     84.3239
   441.0000      0.0000    501.1436     22.2165     93.0058
   441.2500      0.0000    456.8931     22.5204    100.4690
   441.5000      0.0000    398.4417     22.8665    104.5004
   441.7500      0.0000    350.4153     23.2051    104.9258
   442.0000      0.0000    322.3042     23.5020    104.7457
   442.2500      0.0000    310.3755     23.7187    108.3845
   442.5000      0.0000    307.6103     23.8095    117.8436
   442.7500      0.0000    309.4610     23.7530    130.6941
   443.0000      0.0000    313.5797     23.5869    142.1417
   443.2500      0.0000    317.7513     23.4064    148.8584
   443.5000      0.0000    319.5170     23.3133    150.7364
   443.7500      0.0000    317.8176     23.3447    149.5063
   444.0000      0.0000    314.3913     23.4373    146.5583
   444.2500      0.0000    313.3066     23.4470    142.5589
   444.5000      0.0000    319.8107     23.1989    138.3768
   444.7500      0.0000    339.0521     22.5306    135.0886
   445.0000      0.0000    372.6919     21.3700    132.8613
   445.2500      0.0000    415.1901     19.8594    130.7913
   445.5000      0.0000    456.4730     18.3746    128.3177
   445.7500      0.0000    491.6262     17.2803    126.1990
   446.0000      0.0000    525.8001     16.6337    125.4800
   446.2500      0.0000    567.5695     16.2229    125.8158
   446.5000      0.0000    621.0735     15.8698    125.4673
   446.7500      0.0000    685.8795     15.5701    123.0142
   447.0000     -2.0000    758.4753     15.3748    118.6760
   447.2500      2.0000    828.3098     15.2888    113.7451
   447.5000      0.0000    876.1210     15.3073    108.9623
   447.7500      0.0000    884.2618     15.4868    103.8197
   448.0000      0.0000    850.9277     15.9421     97.5486
   448.2500      0.0000    791.1662     16.7326     90.5574
   448.5000      0.0000    724.0388     17.7129     84.5009
   448.7500      0.0000    660.3109     18.5630     80.7176
   449.0000      0.0000    599.1851     19.0791     78.7453
   449.2500      0.0000    534.2190     19.3678     76.7504
   449.5000      0.0000    464.3728     19.6514     73.3683
   449.7500      0.0000    399.1892     19.9834     68.8362
   450.0000      0.0000    350.7534     20.2601     64.4143
   450.2500      0.0000    322.9480     20.4083     61.0941
   450.5000      0.0000    310.6912     20.4544     58.8389
   450.7500      0.0000    306.5136     20.4595     56.7753
   451.0000      0.0000    305.4047     20.4563     54.0467
   451.2500      0.0000    305.1639     20.4449     50.6457
   451.5000      0.0000    305.1343     20.4173     47.5459
   451.7500      0.0000    305.1688     20.3805     45.9508
   452.0000      0.0000    305.2149     20.3563     46.3151
   452.2500      0.0000    305.2473     20.3623     48.2348
   452.5000      0.0000    305.2480     20.3929     51.3065
   452.7500      0.0000    305.2183     20.4223     55.6177
   453.0000      0.0000    305.1786     20.4261     61.0201
   453.2500      0.0000    305.1573     20.3969     66.4121
   453.5000      0.0000    305.1750     20.3397     70.4683
   453.7500      0.0000    305.2361     20.2597     72.9068
   454.0000      0.0000    305.3765     20.1564     74.4298
   454.2500      0.0000    305.8271     20.0276     75.6103
   454.5000      0.0000    307.5998     19.8771     76.4190
   454.7500      0.0000    313.7954     19.7146     76.6066
   455.0000      0.0000    331.2969     19.5479     75.8757
   455.2500      0.0000    370.4802     19.3784     73.8820
   455.5000      0.0000    439.6039     19.2084     70.7846
   455.7500      0.0000    535.3899     19.0525     67.7875
   456.0000      0.0000    639.4702     18.9348     66.4859
   456.2500      0.0000    727.8080     18.8741     67.5073
   456.5000      0.0000    785.1035     18.8731     70.0706
   456.7500      0.0000    808.9562     18.9191     72.7458
   457.0000      0.0000    803.1517     18.9914     74.2236
   457.2500      0.0000    772.3912     19.0675     73.5360
   457.5000      0.0000    724.0997     19.1283     70.3745
   457.7500      0.0000    669.4236     19.1636     65.5634
   458.0000      0.0000    617.4895     19.1732     60.7951
   458.2500      0.0000    569.5042     19.1639     57.5511
   458.5000      0.0000    521.4692     19.1461     56.3958
   458.7500      0.0000    472.4941     19.1315     57.0702
   459.0000      0.0000    428.0403     19.1316     58.6854
   459.2500      0.0000    394.8047     19.1512     59.9406
   459.5000      0.0000    375.0619     19.1815     59.9483
   459.7500      0.0000    366.4535     19.2069     59.1488
   460.0000      0.0000    364.3263     19.2266     58.9734
   460.2500      0.0000    363.1619     19.2726     60.4576
   460.5000      0.0000    358.2170     19.4017     63.3846
   460.7500      0.0000    347.7786     19.6601     66.6560
   461.0000      0.0000    334.0540     20.0466     69.1080
   461.2500      0.0000    321.1146     20.5080     70.0267
