~Version Information
VERS.                      2.0: CWLS Log ASCII Standard - VERSION 2.0
WRAP.                       NO: One line per depth step
~Well Information Block
STRT.FT                -7.2500: 
STOP.FT              1273.5000: 
STEP.FT                 0.2500: 
NULL.                -999.2500: 
COMP.          Pioneer Natural Resources: COMPANY
WELL.            Keiko 14-6 Tr: WELL
FLD.           Purgatorie River: FIELD
LOC.           462' FSL & 1202' FWL--: LOCATION
PROV.                       CO: PROVINCE
CNTY.               Las Animas: COUNTRY
SRVC.          Patterson Wireline: SERVICE COMPANY
DATE.          Wed Jan 04 09:22:19 2006: LOG DATE
UWI.           05 071 08629 00: UNIQUE WELL ID
~Curve Information Block
DEPT.FT            0 000 00 00: Depth
CCL.                          : Casing Collar Locator
TT3.usec                      : CBL 3' Travel Time
AMP3.mV                       : CBL 3' Amplitude
GR.GAPI                       : Gamma Ray
~Parameter Information Block
~A  Depth       CCL         TT3         AMP3         GR     
# ...
   495.2500      0.0000    342.9097     11.5693     93.1320
   495.5000      0.0000    347.5253     11.5895     90.8436
   495.7500      0.0000    358.8978     11.4150     87.3308
   496.0000      0.0000    379.9743     11.0393     84.2941
   496.2500      0.0000    408.4861     10.6049     82.5037
   496.5000      0.0000    434.5653     10.3589     80.8354
   496.7500      0.0000    446.4740     10.4476     77.3506
   497.0000      0.0000    440.9829     10.7731     71.1669
   497.2500      0.0000    426.4494     11.1232     63.2587
   497.5000      0.0000    414.4201     11.4056     55.5785
   497.7500      0.0000    409.5878     11.6862     49.5399
   498.0000      0.0000    407.9167     12.0450     45.3971
   498.2500     -2.0000    402.4828     12.4854     42.7888
   498.5000      0.0000    390.3792     12.9741     41.4496
   498.7500      0.0000    374.5704     13.5367     41.2829
   499.0000      0.0000    360.0339     14.2855     41.9074
   499.2500      0.0000    349.4943     15.2810     42.5032
   499.5000      0.0000    343.1743     16.3171     42.4686
   499.7500      0.0000    341.0497     16.9559     42.1139
   500.0000      0.0000    344.0649     16.9101     42.3042
   500.2500      0.0000    353.7034     16.3185     43.4133
   500.5000      0.0000    370.6434     15.5465     44.8468
   500.7500      0.0000    392.8857     14.8266     45.4845
   501.0000      0.0000    414.9906     14.1815     44.5338
   501.2500      0.0000    430.6263     13.5732     42.1785
   501.5000      0.0000    436.6775     13.0024     39.5591
   501.7500      0.0000    434.4397     12.4987     38.0905
   502.0000      0.0000    427.2082     12.0868     38.6448
   502.2500      0.0000    418.0387     11.7733     41.1730
   502.5000      0.0000    409.8443     11.5469     44.9318
   502.7500      0.0000    406.1304     11.3880     48.9759
   503.0000      0.0000    410.5156     11.2761     52.5118
   503.2500      0.0000    425.0748     11.1956     54.9650
   503.5000      0.0000    448.5169     11.1360     55.8559
   503.7500      0.0000    475.4481     11.0885     54.7885
   504.0000      0.0000    498.1794     11.0429     51.7234
   504.2500      0.0000    510.9297     10.9890     47.1936
   504.5000      0.0000    513.0603     10.9251     42.0645
   504.7500      0.0000    507.8211     10.8605     37.1908
   505.0000      0.0000    498.3668     10.8054     33.4958
   505.2500      0.0000    486.9469     10.7591     32.1354
   505.5000      0.0000    477.9051     10.7121     34.0449
   505.7500      0.0000    477.7715     10.6570     39.0291
   506.0000      0.0000    489.7272     10.5942     45.4979
   506.2500      0.0000    509.7135     10.5310     51.4581
   506.5000      0.0000    530.5203     10.4802     55.9101
   506.7500      0.0000    548.8781     10.4576     59.3434
   507.0000      0.0000    566.0291     10.4767     62.9614
   507.2500      0.0000    581.3094     10.5437     67.3346
   507.5000      0.0000    588.2950     10.6574     71.6514
   507.7500      0.0000    579.9526     10.8095     74.4434
   508.0000      0.0000    556.8916     10.9858     75.0869
   508.2500      0.0000    528.1818     11.1714     74.3310
   508.5000      0.0000    503.9442     11.3540     73.4706
   508.7500      0.0000    488.6744     11.5251     73.4986
   509.0000      0.0000    481.1013     11.6781     74.9486
   509.2500      0.0000    477.8954     11.8095     77.7846
   509.5000      0.0000    476.3915     11.9194     81.1283
   509.7500      0.0000    475.0507     12.0085     83.6714
   510.0000      0.0000    472.9467     12.0718     84.7758
   510.2500      0.0000    469.5488     12.0951     84.9170
   510.5000      0.0000    464.9972     12.0621     84.8968
   510.7500      0.0000    460.1172     11.9695     84.9658
   511.0000      0.0000    455.5764     11.8363     84.8620
   511.2500      0.0000    450.9808     11.6941     84.3762
   511.5000      0.0000    445.1540     11.5651     83.6792
   511.7500      0.0000    437.3390     11.4508     83.3123
   512.0000      0.0000    427.9911     11.3412     83.9095
   512.2500      0.0000    418.5685     11.2288     85.7478
   512.5000      0.0000    410.6603     11.1113     88.4647
   512.7500      0.0000    405.0815     10.9855     91.2515
   513.0000      0.0000    401.5800     10.8469     93.3151
   513.2500      0.0000    399.2647     10.6974     94.2698
   513.5000      0.0000    397.1760     10.5495     94.2274
   513.7500      0.0000    394.4772     10.4186     93.3641
   514.0000      0.0000    390.3876     10.3112     91.3588
   514.2500      0.0000    384.3736     10.2208     87.8941
   514.5000      0.0000    376.7529     10.1355     83.9356
   514.7500      0.0000    369.1371     10.0480     81.7248
   515.0000      0.0000    363.9199      9.9572     83.0024
   515.2500      0.0000    362.8869      9.8659     87.5669
   515.5000      0.0000    366.0237      9.7819     93.5049
   515.7500      0.0000    371.5172      9.7181     98.3045
   516.0000      0.0000    376.9579      9.6849     99.9710
   516.2500      0.0000    380.7491      9.6811     97.9622
   516.5000      0.0000    382.6024      9.6954     93.4641
   516.7500      0.0000    382.9928      9.7157     88.5824
   517.0000      0.0000    382.3665      9.7371     85.0476
   517.2500      0.0000    380.8656      9.7621     83.3887
   517.5000      0.0000    378.7093      9.7941     82.9081
   517.7500      0.0000    376.6902      9.8301     82.3370
   518.0000      0.0000    375.9615      9.8630     80.7495
   518.2500      0.0000    377.2722      9.8925     78.0771
   518.5000      0.0000    381.0370      9.9276     74.9057
   518.7500      0.0000    389.0411      9.9734     72.0379
   519.0000      0.0000    405.5316     10.0195     70.3190
   519.2500      0.0000    434.3919     10.0507     70.3943
   519.5000      0.0000    473.9185     10.0680     71.9557
   519.7500      0.0000    516.3478     10.0942     73.3317
   520.0000      0.0000    554.3425     10.1573     72.6412
   520.2500      0.0000    586.0552     10.2754     69.7556
   520.5000      0.0000    612.7855     10.4517     66.7735
   520.7500      0.0000    635.4346     10.6746     66.2494
   521.0000      0.0000    654.9493     10.9169     69.0552
   521.2500      0.0000    672.4443     11.1430     73.9701
   521.5000      0.0000    686.7674     11.3206     78.9879
   521.7500      0.0000    694.4949     11.4274     82.7041
   522.0000      0.0000    694.2930     11.4506     84.6573
   522.2500      0.0000    690.5161     11.3911     85.0287
   522.5000      0.0000    690.6992     11.2686     84.5254
   522.7500      0.0000    698.5605     11.1132     84.3103
   523.0000      0.0000    710.3251     10.9500     85.3120
   523.2500      0.0000    718.7886     10.7913     87.1923
   523.5000      0.0000    719.8425     10.6416     88.1636
   523.7500      0.0000    714.5064     10.5004     86.1714
   524.0000      0.0000    706.4604     10.3601     80.5408
   524.2500      0.0000    699.0738     10.2119     72.6694
   524.5000      0.0000    693.9778     10.0544     65.1174
   524.7500      0.0000    691.1677      9.8945     59.7400
   525.0000      0.0000    689.8776      9.7392     56.4508
   525.2500      0.0000    689.3851      9.5928     53.8269
   525.5000      0.0000    689.2599      9.4608     50.9003
   525.7500      0.0000    689.2926      9.3516     48.1179
   526.0000      0.0000    689.3950      9.2734     46.5786
   526.2500      0.0000    689.5375      9.2316     46.7875
   526.5000      0.0000    689.6913      9.2299     48.3854
   526.7500      0.0000    689.7999      9.2715     50.6589
   527.0000      0.0000    689.8015      9.3624     52.8513
   527.2500      0.0000    689.6803      9.5104     54.2058
   527.5000      0.0000    689.4915      9.7206     54.2482
   527.7500      0.0000    689.4272      9.9942     53.1819
   528.0000      0.0000    690.0566     10.3305     51.7475
   528.2500      0.0000    692.6631     10.7261     50.5412
   528.5000      0.0000    699.0878     11.1650     49.6586
