~Version Information
VERS.                      2.0: CWLS Log ASCII Standard - VERSION 2.0
WRAP.                       NO: One line per depth step
~Well Information Block
STRT.FT               460.0000: 
STOP.FT              2311.7500: 
STEP.FT                 0.2500: 
NULL.                -999.2500: 
COMP.          Pioneer Natural Resources: COMPANY
WELL.          McDonald 33-31 R: WELL
FLD.           Purgatoire River: FIELD
LOC.           1386' FSL & 1926' FEL: LOCATION
STAT.                 Colorado: State
CNTY.               Las Animas: COUNTY
CTRY.                      USA: Country
SECT.                       31: Section
TOWN.                      32S: Township
RANG.                      66W: Range
SRVC.                Patterson: SERVICE COMPANY
DATE.          Fri Sep 23 00:08:18 2005: LOG DATE
API.           05 071 08533 00: API#
~Curve Information Block
DEPT.FT            0 000 00 00: Depth
SN.Ohm-m                      : IEL Short Normal
SP.mV                         : IEL Spontaneous Potential
DIR.Ohm-m                     : IEL Induction Resistivity
GR.GAPI                       : Gamma Ray
~Parameter Information Block
~A  Depth        SN          SP         DIR          GR     
# ...
  1666.0000      1.7661   -365.0581     10.3667     93.1089
  1666.2500      1.8379   -366.3005     10.4912     92.1445
  1666.5000      1.9488   -367.7071     10.5927     91.9332
  1666.7500      2.1094   -369.1383     10.6774     92.8614
  1667.0000      2.3088   -370.4702     10.7458     95.1691
  1667.2500      2.5072   -371.6131     10.7946     96.5817
  1667.5000      2.6580   -372.5204     10.8222     97.8983
  1667.7500      2.7404   -373.1867     10.8338     98.5015
  1668.0000      2.7661   -373.6370     10.8423     99.6594
  1668.2500      2.7595   -373.9122     10.8643    100.5360
  1668.5000      2.7368   -374.0537     10.9148    101.0745
  1668.7500      2.7035   -374.0931     11.0041    100.3550
  1669.0000      2.6592   -374.0490     11.1370     97.3560
  1669.2500      2.6034   -373.9307     11.3135     94.2145
  1669.5000      2.5384   -373.7471     11.5281     88.2008
  1669.7500      2.4724   -373.5145     11.7707     83.7247
  1670.0000      2.4177   -373.2606     12.0283     77.4315
  1670.2500      2.3840   -373.0228     12.2861     74.1715
  1670.5000      2.3701   -372.8413     12.5291     71.0096
  1670.7500      2.3627   -372.7490     12.7443     69.6828
  1671.0000      2.3468   -372.7634     12.9230     67.9435
  1671.2500      2.3172   -372.8805     13.0640     66.7212
  1671.5000      2.2818   -373.0757     13.1719     65.1176
  1671.7500      2.2536   -373.3098     13.2538     64.4911
  1672.0000      2.2399   -373.5399     13.3147     64.3375
  1672.2500      2.2364   -373.7326     13.3570     64.6489
  1672.5000      2.2298   -373.8756     13.3824     65.4839
  1672.7500      2.2046   -373.9844     13.3956     66.0747
  1673.0000      2.1501   -374.0981     13.4052     66.4071
  1673.2500      2.0626   -374.2666     13.4222     65.8818
  1673.5000      1.9444   -374.5316     13.4551     63.8390
  1673.7500      1.8018   -374.9080     13.5061     62.0852
  1674.0000      1.6447   -375.3755     13.5692     60.1785
  1674.2500      1.4867   -375.8833     13.6337     59.9284
  1674.5000      1.3474   -376.3685     13.6905     60.9332
  1674.7500      1.2522   -376.7792     13.7364     61.9647
  1675.0000      1.2227   -377.0945     13.7734     63.1126
  1675.2500      1.2626   -377.3332     13.8044     63.3911
  1675.5000      1.3499   -377.5467     13.8295     63.3268
  1675.7500      1.4475   -377.8011     13.8453     63.2316
  1676.0000      1.5242   -378.1562     13.8489     63.1201
  1676.2500      1.5676   -378.6469     13.8411     62.8672
  1676.5000      1.5789   -379.2738     13.8280     61.8594
  1676.7500      1.5653   -380.0024     13.8176     60.7767
  1677.0000      1.5392   -380.7697     13.8162     58.9234
  1677.2500      1.5190   -381.4948     13.8270     57.8340
  1677.5000      1.5230   -382.0925     13.8517     56.7834
  1677.7500      1.5564   -382.4891     13.8935     56.4940
  1678.0000      1.6049   -382.6379     13.9556     56.3917
  1678.2500      1.6459   -382.5327     14.0373     56.2959
  1678.5000      1.6669   -382.2139     14.1284     55.7994
  1678.7500      1.6719   -381.7668     14.2058     55.2247
  1679.0000      1.6737   -381.3078     14.2358     54.3903
  1679.2500      1.6806   -380.9630     14.1819     54.3196
  1679.5000      1.6888   -380.8420     14.0174     55.9943
  1679.7500      1.6842   -381.0153     13.7349     58.9241
  1680.0000      1.6485   -381.4989     13.3468     66.8026
  1680.2500      1.5676   -382.2516     12.8784     74.4482
  1680.5000      1.4453   -383.1852     12.3595     88.7053
  1680.7500      1.3103   -384.1843     11.8171     99.0231
  1681.0000      1.2023   -385.1316     11.2733    113.3460
  1681.2500      1.1428   -385.9319     10.7455    120.8947
  1681.5000      1.1215   -386.5295     10.2490    128.3257
  1681.7500      1.1098   -386.9142      9.7982    131.0500
  1682.0000      1.0848   -387.1174      9.4053    133.4305
  1682.2500      1.0470   -387.1999      9.0782    134.8737
  1682.5000      1.0211   -387.2346      8.8192    137.6079
  1682.7500      1.0358   -387.2914      8.6259    139.5943
  1683.0000      1.1002   -387.4252      8.4935    141.8710
  1683.2500      1.2017   -387.6688      8.4160    142.4766
  1683.5000      1.3240   -388.0301      8.3868    141.9581
  1683.7500      1.4561   -388.4923      8.3985    141.0694
  1684.0000      1.5842   -389.0175      8.4437    139.9681
  1684.2500      1.6849   -389.5511      8.5156    139.8075
  1684.5000      1.7318   -390.0312      8.6091    140.2913
  1684.7500      1.7042   -390.3994      8.7214    140.6142
  1685.0000      1.5943   -390.6143      8.8509    140.3017
  1685.2500      1.4173   -390.6618      8.9966    139.4674
  1685.5000      1.2162   -390.5602      9.1569    137.7225
  1685.7500      1.0460   -390.3568      9.3281    136.5305
  1686.0000      0.9453   -390.1160      9.5053    134.7935
  1686.2500      0.9202   -389.9029      9.6831    133.4779
  1686.5000      0.9516   -389.7693      9.8571    130.8745
  1686.7500      1.0076   -389.7452     10.0257    128.6443
  1687.0000      1.0508   -389.8385     10.1896    124.8702
  1687.2500      1.0514   -390.0426     10.3506    122.4494
  1687.5000      1.0054   -390.3438     10.5099    119.5038
  1687.7500      0.9423   -390.7259     10.6673    117.9336
  1688.0000      0.9082   -391.1678     10.8224    115.4057
  1688.2500      0.9355   -391.6369     10.9768    113.2606
  1688.5000      1.0252   -392.0820     11.1375    109.7993
  1688.7500      1.1540   -392.4317     11.3187    108.0172
  1689.0000      1.2947   -392.6013     11.5394    106.8632
  1689.2500      1.4312   -392.5092     11.8186    106.8599
  1689.5000      1.5525   -392.0958     12.1698    106.5739
  1689.7500      1.6431   -391.3414     12.5979    105.1460
  1690.0000      1.6919   -390.2756     13.0984     99.8392
  1690.2500      1.7103   -388.9742     13.6606     94.1092
  1690.5000      1.7260   -387.5476     14.2691     83.4990
  1690.7500      1.7549   -386.1223     14.9056     76.3858
  1691.0000      1.7866   -384.8227     15.5495     67.6996
  1691.2500      1.7976   -383.7569     16.1783     63.7558
  1691.5000      1.7712   -383.0092     16.7679     60.4218
  1691.7500      1.7073   -382.6367     17.2928     59.5865
  1692.0000      1.6210   -382.6685     17.7285     59.6821
  1692.2500      1.5361   -383.1037     18.0569     59.9890
  1692.5000      1.4726   -383.9088     18.2730     59.6808
  1692.7500      1.4387   -385.0154     18.3881     58.7673
  1693.0000      1.4305   -386.3232     18.4264     56.9272
  1693.2500      1.4379   -387.7078     18.4178     55.8559
  1693.5000      1.4480   -389.0335     18.3899     54.9984
  1693.7500      1.4473   -390.1705     18.3645     55.1366
  1694.0000      1.4282   -391.0086     18.3578     56.5477
  1694.2500      1.3997   -391.4703     18.3819     57.9371
  1694.5000      1.3856   -391.5161     18.4448     59.3171
  1694.7500      1.4064   -391.1475     18.5484     59.0932
  1695.0000      1.4572   -390.4052     18.6848     57.1036
  1695.2500      1.5110   -389.3646     18.8353     55.3132
  1695.5000      1.5432   -388.1275     18.9743     53.1984
  1695.7500      1.5493   -386.8108     19.0760     52.7831
  1696.0000      1.5403   -385.5321     19.1220     54.4337
  1696.2500      1.5269   -384.3940     19.1061     57.2050
  1696.5000      1.5133   -383.4714     19.0366     63.4384
  1696.7500      1.5016   -382.8043     18.9349     68.5705
  1697.0000      1.4953   -382.3973     18.8282     77.2657
  1697.2500      1.4987   -382.2259     18.7431     83.4190
  1697.5000      1.5156   -382.2464     18.6982     91.9143
  1697.7500      1.5483   -382.4085     18.7004     96.0080
  1698.0000      1.5966   -382.6649     18.7439     98.3759
  1698.2500      1.6557   -382.9783     18.8118     97.2594
  1698.5000      1.7149   -383.3248     18.8811     92.1990
  1698.7500      1.7584   -383.6904     18.9322     87.2745
  1699.0000      1.7689   -384.0654     18.9574     79.0865
  1699.2500      1.7328   -384.4369     18.9647     73.9770
