~Version Information
VERS.                      2.0: CWLS Log ASCII Standard - VERSION 2.0
WRAP.                       NO: One line per depth step
~Well Information Block
STRT.FT               575.0000: 
STOP.FT              1557.5000: 
STEP.FT                 0.1000: 
NULL.                -999.2500: 
COMP.          Pioneer Natural Resources: COMPANY
WELL.          McClaren 13-34 Tr: WELL
FLD.           Purgatoire River: FIELD
LOC.           1934' FSL & 826' FWL: LOCATION
PROV.                 Colorado: PROVINCE
CNTY.               Las Animas: COUNTRY
SRVC.                Patterson: SERVICE COMPANY
DATE.          Tue Jul 12 07:15:27 2005: LOG DATE
UWI.           05 071 08437 00: UNIQUE WELL ID
~Curve Information Block
DEPT.FT            0 000 00 00: Depth
DCAL.in                       : CDL Caliper
RHOB.g/cc                     : CDL Bulk Density
RHOC.g/cc                     : CDL Density Correction
DPOR.pu                       : CDL Density Porosity
GR.GAPI                       : Gamma Ray
NPOR.pu                       : Neutron Porosity
~Parameter Information Block
~A  Depth       DCAL        RHOB        RHOC        DPOR         GR         NPOR    
   575.0000      2.6935      2.2332      0.1257     25.2610    172.4935     26.2536
   575.1000      2.6935      2.2628      0.1749     23.4648    165.1543     27.3664
   575.2000      2.6935      2.2932      0.1958     21.6230    156.8109     27.6612
   575.3000      2.6913      2.3084      0.1634     20.7056    152.7215     27.0380
   575.4000      2.6913      2.3035      0.2146     21.0003    150.8722     25.6482
   575.5000      2.6914      2.2855      0.1594     22.0927    151.9537     24.5410
   575.6000      2.6914      2.2717      0.1475     22.9279    155.5066     23.8767
   575.7000      2.6914      2.2699      0.1762     23.0365    155.1423     23.6656
   575.8000      2.6920      2.2742      0.1617     22.7773    149.8058     24.1814
   575.9000      2.6920      2.2806      0.1688     22.3899    144.1883     24.3954
   576.0000      2.6884      2.2930      0.1390     21.6385    139.0293     24.0960
   576.1000      2.6884      2.3138      0.1969     20.3756    134.3901     24.3362
   576.2000      2.6884      2.3310      0.2110     19.3360    132.9903     24.7807
   576.3000      2.6874      2.3283      0.2049     19.4948    133.7735     24.9163
   576.4000      2.6874      2.3089      0.1929     20.6699    132.7591     24.8555
   576.5000      2.6913      2.2924      0.1649     21.6740    130.3602     24.4130
   576.6000      2.6913      2.2927      0.1698     21.6562    131.5284     23.9981
   576.7000      2.6913      2.3019      0.1976     21.0946    138.9089     24.2316
   576.8000      2.6909      2.2991      0.1881     21.2685    147.0529     24.7622
   576.9000      2.6909      2.2754      0.1884     22.7044    148.7189     24.8398
   577.0000      2.6876      2.2420      0.1447     24.7296    148.0910     24.3065
   577.1000      2.6876      2.2161      0.1360     26.2992    150.9149     23.7419
   577.2000      2.6876      2.2070      0.1166     26.8460    150.6350     23.6165
   577.3000      2.6872      2.2093      0.1633     26.7119    141.2784     23.9374
   577.4000      2.6872      2.2088      0.1551     26.7408    132.7364     23.9111
   577.5000      2.6884      2.2086      0.1183     26.7495    133.7100     23.2610
   577.6000      2.6884      2.2165      0.1718     26.2709    137.7233     22.8273
   577.7000      2.6884      2.2195      0.1553     26.0913    139.3975     23.0156
   577.8000      2.6928      2.2089      0.1360     26.7332    141.1740     23.4777
   577.9000      2.6928      2.1889      0.1452     27.9443    143.9237     23.6626
   578.0000      2.7011      2.1603      0.1328     29.6809    144.8544     23.5281
   578.1000      2.7011      2.1279      0.1304     31.6418    143.1279     23.6854
   578.2000      2.7011      2.1072      0.1136     32.8996    137.5453     24.5901
   578.3000      2.7055      2.1102      0.1140     32.7154    130.3741     25.5841
   578.4000      2.7055      2.1290      0.1887     31.5744    129.8276     25.9566
   578.5000      2.7060      2.1481      0.1652     30.4196    138.1475     26.2380
   578.6000      2.7060      2.1656      0.2019     29.3586    146.6428     26.3567
   578.7000      2.7060      2.1836      0.2012     28.2656    150.0241     25.7342
   578.8000      2.7056      2.1976      0.2438     27.4164    152.7916     25.2809
   578.9000      2.7056      2.2004      0.2663     27.2507    158.2346     26.3579
   579.0000      2.7077      2.1967      0.2476     27.4733    159.5983     27.5463
   579.1000      2.7077      2.1985      0.2932     27.3635    149.6429     26.0772
   579.2000      2.7077      2.1979      0.3061     27.4005    137.9340     23.1273
   579.3000      2.7134      2.1818      0.2690     28.3760    135.1730     21.8182
   579.4000      2.7134      2.1608      0.2479     29.6492    137.5267     22.4785
   579.5000      2.7215      2.1552      0.2547     29.9864    140.9891     23.6616
   579.6000      2.7215      2.1685      0.3042     29.1848    144.8731     24.2569
   579.7000      2.7215      2.1891      0.3094     27.9332    146.2456     23.7066
   579.8000      2.7277      2.2074      0.3282     26.8218    142.0368     22.4511
   579.9000      2.7277      2.2200      0.3275     26.0596    134.3749     22.0580
   580.0000      2.7272      2.2327      0.3197     25.2924    132.2085     23.3171
   580.1000      2.7272      2.2520      0.3710     24.1207    139.2810     25.0003
   580.2000      2.7272      2.2691      0.3820     23.0828    147.1585     25.6162
   580.3000      2.7242      2.2742      0.3897     22.7753    149.7757     25.6918
   580.4000      2.7242      2.2708      0.3618     22.9840    149.6482     26.2961
   580.5000      2.7224      2.2597      0.3805     23.6544    148.6727     26.4288
   580.6000      2.7224      2.2346      0.3658     25.1780    150.2186     24.8371
   580.7000      2.7224      2.2031      0.3101     27.0857    154.4235     22.9403
   580.8000      2.7244      2.1858      0.3145     28.1309    155.5245     22.3176
   580.9000      2.7244      2.1894      0.3266     27.9177    156.4598     22.8023
   581.0000      2.7298      2.2030      0.3572     27.0919    163.1012     23.7912
   581.1000      2.7298      2.2127      0.3311     26.5015    170.2315     24.8876
   581.2000      2.7298      2.2159      0.3420     26.3121    170.7234     25.3665
   581.3000      2.7326      2.2184      0.3387     26.1591    165.2965     24.8050
   581.4000      2.7326      2.2189      0.3648     26.1290    158.4101     23.7359
   581.5000      2.7342      2.2074      0.3776     26.8268    154.1736     22.9688
   581.6000      2.7342      2.1841      0.3418     28.2366    151.3634     22.9026
   581.7000      2.7342      2.1666      0.3296     29.2968    147.6236     23.4770
   581.8000      2.7369      2.1654      0.3410     29.3678    144.9021     24.2784
   581.9000      2.7369      2.1698      0.3478     29.1004    146.1128     24.8032
   582.0000      2.7388      2.1695      0.3408     29.1232    153.7669     24.8220
   582.1000      2.7388      2.1695      0.3227     29.1198    163.0027     24.6546
   582.2000      2.7388      2.1759      0.3382     28.7349    166.2614     24.7722
   582.3000      2.7364      2.1854      0.3349     28.1581    165.4225     25.1056
   582.4000      2.7364      2.1935      0.3386     27.6680    161.7492     25.1929
   582.5000      2.7311      2.1913      0.3680     27.7988    152.8854     25.2542
   582.6000      2.7311      2.1734      0.3405     28.8878    138.0070     25.6356
   582.7000      2.7311      2.1505      0.3131     30.2703    123.0013     26.2967
   582.8000      2.7297      2.1357      0.3222     31.1714    117.3957     26.5605
   582.9000      2.7297      2.1304      0.3153     31.4906    122.8652     25.8831
   583.0000      2.7323      2.1285      0.3450     31.6060    129.5802     25.2169
   583.1000      2.7323      2.1224      0.3308     31.9727    129.3947     25.6159
   583.2000      2.7323      2.1150      0.2985     32.4239    124.4693     26.9620
   583.3000      2.7337      2.1172      0.2943     32.2898    119.5024     28.6129
   583.4000      2.7337      2.1371      0.2885     31.0874    119.4259     29.4437
   583.5000      2.7318      2.1717      0.3460     28.9908    123.3567     28.8692
   583.6000      2.7318      2.2083      0.3563     26.7687    125.6303     28.1796
   583.7000      2.7318      2.2356      0.3447     25.1179    124.5715     28.6247
   583.8000      2.7279      2.2531      0.3456     24.0549    122.1462     29.7604
   583.9000      2.7279      2.2669      0.3842     23.2187    118.3194     30.2622
   584.0000      2.7255      2.2695      0.3932     23.0629    110.7971     29.4141
   584.1000      2.7255      2.2493      0.3655     24.2850     99.4631     28.4282
   584.2000      2.7255      2.2146      0.3611     26.3893     89.1115     28.5854
   584.3000      2.7266      2.1822      0.3169     28.3495     85.9168     29.1200
   584.4000      2.7266      2.1618      0.3197     29.5878     88.5199     29.1066
   584.5000      2.7308      2.1508      0.3375     30.2525     89.1421     28.9681
