~Version Information
 VERS.                                  2.0 : CWLS LAS VERSION
 WRAP.                                   NO : WRAPING MODE
 SWARE .                  MController 2.5.1 : SOFTWARE VERSION
~Well Information
 WELL.                        Loews41-32 Tr : WELL
 COMP.  Pioneer Natural Resources USA, Inc. : COMPANY
 FLD.                      Purgatoire River : FIELD
 LOC.             NW/NE Sec. 32, T32S, R67W : LOCATION
 DATE.                           02/20/2006 : DATE(S) LOGGED
 SRVC.                  Entrada GeoSciences : SERVICE COMPANY
 STAT.                             Colorado : STATE
 CNTY.                           Las Animas : COUNTY
 CTRY.                        United States : COUNTRY
 API.                          05-071-08690 : API NUMBER
 STRT.FT                             638.00 : START DEPTH
 STOP.FT                            1825.00 : STOP DEPTH
 STEP.FT                               1.00 : DEPTH INCREMENT
 NULL.                                -9999 : NULL VALUE
~Curve information
 DEPTH.FT                                   :
 ROP.MIN/FT                                 :
 GAS.UNITS                                  :
~ASCII Log data
# ...
     1438.00         0.50         46.1 
     1439.00         0.33         36.3 
     1440.00         0.27         34.3 
     1441.00         0.27         34.5 
     1442.00         0.25         34.0 
     1443.00         0.27         33.8 
     1444.00         0.27         33.3 
     1445.00         0.23         33.3 
     1446.00         0.30         33.9 
     1447.00         0.33         33.9 
     1448.00         0.37         33.4 
     1449.00         0.30         33.8 
     1450.00         0.33         33.2 
     1451.00         0.20         33.2 
     1452.00         0.40         32.6 
     1453.00         0.48         32.0 
     1454.00         0.33         31.4 
     1455.00         0.30         30.7 
     1456.00         0.33         30.6 
     1457.00         0.33         31.2 
     1458.00         0.37        103.6 
     1459.00         0.33        103.6 
     1460.00         0.37        152.1 
     1461.00         0.30        211.2 
     1462.00         0.27        250.1 
     1463.00         0.28        266.5 
     1464.00         0.27        267.6 
     1465.00         0.37        265.9 
     1466.00         0.33        239.0 
     1467.00         0.30        188.8 
     1468.00         0.30        123.0 
     1469.00         0.33         84.1 
     1470.00         0.33         67.3 
     1471.00         0.37         56.1 
     1472.00         0.37         44.7 
     1473.00         0.45         42.1 
     1474.00         0.33         40.3 
     1475.00         0.33         39.0 
     1476.00         0.30         37.8 
     1477.00         0.33         38.3 
     1478.00         0.37         38.0 
     1479.00         0.40         37.9 
     1480.00         0.33         37.6 
     1481.00         0.27         37.7 
     1482.00         0.30         37.5 
     1483.00         0.32         36.7 
     1484.00         0.43         36.6 
     1485.00         0.47         36.5 
     1486.00         0.33         35.7 
     1487.00         0.53         35.4 
     1488.00         0.27         35.4 
     1489.00         0.43         61.0 
     1490.00         0.43         89.7 
     1491.00         0.32        122.4 
     1492.00         0.30        147.5 
     1493.00         0.37        158.6 
     1494.00         0.30        162.2 
     1495.00         0.33        162.3 
     1496.00         0.30        140.6 
     1497.00         0.30        100.8 
     1498.00         0.30         88.7 
     1499.00         0.30         77.0 
     1500.00         0.30         67.4 
     1501.00         0.37         57.7 
     1502.00         0.45         48.6 
     1503.00         0.43         44.8 
     1504.00         0.27         43.2 
     1505.00         0.30         42.5 
     1506.00         0.30         42.3 
     1507.00         0.30         41.8 
     1508.00         0.27         41.6 
     1509.00         0.40         41.4 
     1510.00         0.27         41.5 
     1511.00         0.33         40.8 
     1512.00         0.30         40.4 
     1513.00         0.32         40.7 
     1514.00         0.30         40.7 
     1515.00         0.30         39.8 
     1516.00         0.53         38.8 
     1517.00         0.50         38.7 
     1518.00         0.33         86.3 
     1519.00         0.30         96.8 
     1520.00         0.40        152.5 
     1521.00         0.40        200.6 
     1522.00         0.22        200.6 
     1523.00         0.23        206.0 
     1524.00         0.23        199.1 
     1525.00         0.27        182.3 
     1526.00         0.27        153.4 
     1527.00         0.13        140.2 
     1528.00         0.13        116.7 
     1529.00         0.13         93.8 
     1530.00         0.13         88.6 
     1531.00         0.30         75.8 
     1532.00         0.43         74.8 
     1533.00         0.43         60.6 
     1534.00         0.53         54.0 
     1535.00         0.38         50.8 
     1536.00         0.37         50.6 
     1537.00         0.40         50.3 
     1538.00         0.33         49.8 
     1539.00         0.30         50.0 
     1540.00         0.27         49.0 
     1541.00         0.30         49.1 
     1542.00         0.27         47.6 
     1543.00         0.30         46.6 
     1544.00         0.30         45.6 
     1545.00         0.20         45.3 
     1546.00         0.18         44.3 
     1547.00         0.20         66.0 
     1548.00         0.27         66.0 
     1549.00         0.13         77.6 
     1550.00         0.20         97.5 
     1551.00         0.30        128.4 
     1552.00         0.30        161.1 
     1553.00         0.27        178.9 
     1554.00         0.20        196.0 
     1555.00         0.53        198.0 
     1556.00         0.27        175.6 
     1557.00         0.40        164.4 
     1558.00         0.40        109.6 
     1559.00         0.33         91.5 
     1560.00         0.42         70.7 
     1561.00         0.33         59.1 
     1562.00         0.27         58.7 
     1563.00         0.27         55.0 
     1564.00         0.33         52.0 
     1565.00         0.27         52.2 
     1566.00         0.30         50.6 
     1567.00         0.30         50.3 
     1568.00         0.23         50.1 
     1569.00         0.30         49.9 
     1570.00         0.23         49.9 
     1571.00         0.25         49.6 
     1572.00         0.37         50.0 
     1573.00         0.27         49.6 
     1574.00         0.33         49.2 
     1575.00         0.30         48.4 
     1576.00         0.33         48.1 
     1577.00         0.33         46.8 
     1578.00         0.40         74.6 
     1579.00         0.33        111.3 
     1580.00         0.33        147.8 
     1581.00         0.35        163.9 
     1582.00         0.30        178.4 
     1583.00         0.27        174.9 
     1584.00         0.17        156.7 
     1585.00         0.23        147.0 
     1586.00         0.20        132.3 
     1587.00         0.23        125.2 
     1588.00         0.13        111.1 
     1589.00         0.10        101.6 
     1590.00         0.10        101.6 
     1591.00         0.13         99.1 
     1592.00         0.13         94.3 
     1593.00         0.23         89.0 
     1594.00         0.27         79.7 
     1595.00         0.27         74.0 
     1596.00         0.27         72.1 
     1597.00         0.27         67.2 
     1598.00         0.32         65.6 
     1599.00         0.30         65.0 
     1600.00         0.20         65.0 
     1601.00         0.27         64.2 
     1602.00         0.63         65.3 
     1603.00         0.40         80.7 
     1604.00         0.33         85.1 
     1605.00         0.33         87.0 
     1606.00         0.33         86.9 
     1607.00         0.45         84.6 
     1608.00         0.40        145.2 
     1609.00         0.37        204.2 
     1610.00         0.40        238.9 
     1611.00         0.33        243.2 
     1612.00         0.30        239.9 
     1613.00         0.27        214.1 
     1614.00         0.23        208.1 
     1615.00         0.27        142.1 
     1616.00         0.42        106.6 
     1617.00         0.23         81.7 
     1618.00         0.23         74.1 
     1619.00         0.20         64.6 
     1620.00         0.17         58.7 
     1621.00         0.20         58.7 
     1622.00         0.17         58.0 
     1623.00         0.17         53.6 
     1624.00         0.27         53.5 
     1625.00         0.27         53.7 
     1626.00         0.27         54.8 
     1627.00         0.37         55.7 
     1628.00         0.33         56.5 
     1629.00         0.42         57.3 
     1630.00         0.43         57.3 
     1631.00         0.43         57.3 
     1632.00         0.33         56.8 
     1633.00         0.27         56.5 
     1634.00         0.30         56.0 
     1635.00         0.30         55.1 
     1636.00         0.33         54.9 
     1637.00         0.37         54.1 
