~Version Information
VERS.                      2.0: CWLS Log ASCII Standard - VERSION 2.0
WRAP.                       NO: One line per depth step
~Well Information Block
STRT.FT                10.0000: 
STOP.FT               715.0000: 
STEP.FT                 0.1000: 
NULL.                -999.2500: 
COMP.          Pioneer Natural Resources: COMPANY
WELL.           Belvedere 14-7: WELL
FLD.           Purgatorie River: FIELD
LOC.           786' FSL & 1283' FWL: LOCATION
PROV.                 Colorado: PROVINCE
CNTY.               Las Animas: COUNTRY
SRVC.                Patterson: SERVICE COMPANY
DATE.          Mon Nov 28 07:30:54 2005: LOG DATE
UWI.           05-071-08557               : UNIQUE WELL ID
~Curve Information Block
DEPT.FT            0 000 00 00: Depth
DCAL.in                       : CDL Caliper
RHOB.g/cc                     : CDL Bulk Density
RHOC.g/cc                     : CDL Density Correction
DPOR.pu                       : CDL Density Porosity
GR.GAPI                       : Gamma Ray
NPOR.pu                       : Neutron Porosity
~Parameter Information Block
~A  Depth       DCAL        RHOB        RHOC        DPOR         GR         NPOR    
# ...
   518.8000      7.9027      2.5761      0.0855      4.4796     77.1242     22.7198
   518.9000      7.9027      2.5648      0.0524      5.1646     76.2607     22.9400
   519.0000      7.9085      2.5515      0.0480      5.9708     76.3853     23.0975
   519.1000      7.9085      2.5319      0.0967      7.1556     77.6645     23.2518
   519.2000      7.9085      2.5088     -0.0052      8.5591     79.0039     23.5274
   519.3000      7.9056      2.5031     -0.0073      8.9049     79.0170     23.6948
   519.4000      7.9056      2.5266      0.0278      7.4779     77.2931     23.6982
   519.5000      7.8705      2.5760      0.0240      4.4849     74.4340     23.9195
   519.6000      7.8705      2.6474      0.0817      0.1555     72.2332     24.5564
   519.7000      7.8705      2.7264      0.1338     -4.6286     71.5808     25.4004
   519.8000      7.8507      2.7860      0.2180     -8.2425     71.2235     26.0907
   519.9000      7.8507      2.8080      0.2073     -9.5740     71.1254     26.2177
   520.0000      7.8471      2.7945      0.1950     -8.7596     72.8918     25.8672
   520.1000      7.8471      2.7667      0.1077     -7.0716     75.5894     25.7913
   520.2000      7.8471      2.7421      0.0622     -5.5805     75.2330     26.3026
   520.3000      7.8294      2.7120      0.0110     -3.7559     71.4974     26.6513
   520.4000      7.8294      2.6713     -0.0955     -1.2930     67.7832     26.1365
   520.5000      7.8356      2.6419     -0.0724      0.4902     65.6123     25.0175
   520.6000      7.8356      2.6397      0.0248      0.6228     66.1921     23.9135
   520.7000      7.8356      2.6534      0.1320     -0.2086     68.8586     23.0646
   520.8000      7.8561      2.6567      0.1232     -0.4055     71.1598     22.5579
   520.9000      7.8561      2.6409      0.0616      0.5506     72.9228     22.1702
   521.0000      7.8679      2.6205      0.0749      1.7888     73.9194     21.5086
   521.1000      7.8679      2.6084      0.0393      2.5228     72.7017     20.9320
   521.2000      7.8679      2.6046      0.0319      2.7489     71.1392     20.8593
   521.3000      7.8877      2.6006      0.0558      2.9955     71.9060     20.9093
   521.4000      7.8877      2.5978      0.0401      3.1652     74.3729     20.7160
   521.5000      7.9130      2.6038      0.0724      2.8027     77.5568     20.5355
   521.6000      7.9130      2.6109      0.0459      2.3686     79.8765     20.6816
   521.7000      7.9130      2.6060      0.0278      2.6637     79.4181     20.9942
   521.8000      7.9135      2.5889      0.0246      3.7000     78.0074     21.1980
   521.9000      7.9135      2.5756     -0.0231      4.5093     77.4193     21.2567
   522.0000      7.9224      2.5768      0.0191      4.4376     76.9050     21.1195
   522.1000      7.9224      2.5812      0.0387      4.1691     77.1201     20.7743
   522.2000      7.9224      2.5800      0.0213      4.2445     78.0167     20.5502
   522.3000      7.9178      2.5799      0.0212      4.2505     77.5848     20.5309
   522.4000      7.9178      2.5862     -0.0017      3.8642     75.3403     20.5820
   522.5000      7.9173      2.5953      0.0460      3.3125     73.5876     20.7999
   522.6000      7.9173      2.6006      0.0382      2.9915     74.1768     21.0891
   522.7000      7.9173      2.6024      0.0492      2.8858     74.9890     21.1350
   522.8000      7.9090      2.6003      0.0328      3.0151     73.8987     21.1332
   522.9000      7.9090      2.5863      0.0628      3.8628     72.0422     21.4676
   523.0000      7.8827      2.5590      0.0246      5.5146     70.9296     21.8016
   523.1000      7.8827      2.5336      0.0266      7.0531     70.7811     21.6048
   523.2000      7.8827      2.5221      0.0369      7.7545     71.2401     21.1668
   523.3000      7.8632      2.5254      0.0202      7.5534     70.9467     20.9673
   523.4000      7.8632      2.5481     -0.0221      6.1754     68.7833     20.9800
   523.5000      7.8397      2.5851      0.0660      3.9330     66.4470     20.8875
   523.6000      7.8397      2.6165      0.0621      2.0320     67.8876     20.6401
   523.7000      7.8397      2.6322      0.1132      1.0784     73.4886     20.4169
   523.8000      7.8290      2.6319      0.1065      1.0964     78.9475     20.1630
   523.9000      7.8290      2.6194      0.1016      1.8551     82.9262     19.8997
   524.0000      7.8217      2.6009      0.0813      2.9768     87.2764     19.7339
   524.1000      7.8217      2.5804      0.0789      4.2212     92.1949     19.6709
   524.2000      7.8217      2.5568      0.0967      5.6501     96.0348     19.9764
   524.3000      7.8192      2.5336      0.0640      7.0566     97.8598     20.7116
   524.4000      7.8192      2.5214      0.0415      7.7925     99.4141     21.3569
   524.5000      7.8719      2.5168      0.0559      8.0728    102.3110     21.6034
   524.6000      7.8719      2.5094     -0.0071      8.5239    105.6676     21.7047
   524.7000      7.8719      2.5049      0.0126      8.7956    107.8667     22.0235
   524.8000      7.9211      2.5094      0.0354      8.5210    108.7253     22.6846
   524.9000      7.9211      2.5168      0.0748      8.0733    109.5231     23.4262
   525.0000      7.8999      2.5207      0.0415      7.8379    109.7015     23.8602
   525.1000      7.8999      2.5219      0.0457      7.7617    106.7885     24.0026
   525.2000      7.8999      2.5206      0.0468      7.8404    101.9484     24.2718
   525.3000      7.9021      2.5128      0.0659      8.3148     99.3063     24.9712
   525.4000      7.9021      2.5038      0.0188      8.8625     98.6705     25.8610
   525.5000      7.9236      2.5115     -0.0231      8.3927     95.8122     26.4474
   525.6000      7.9236      2.5371      0.0517      6.8448     89.7002     26.7610
   525.7000      7.9236      2.5584      0.0643      5.5514     84.5493     27.2160
   525.8000      7.9272      2.5661      0.0338      5.0871     83.3501     27.7178
   525.9000      7.9272      2.5695      0.0297      4.8804     84.7111     27.8832
   526.0000      7.9036      2.5782     -0.0032      4.3495     85.9582     27.6901
   526.1000      7.9036      2.5915      0.0379      3.5452     86.4502     27.3056
   526.2000      7.9036      2.6000      0.0171      3.0330     86.8647     26.7978
   526.3000      7.8466      2.5993      0.0076      3.0734     87.7241     26.1201
   526.4000      7.8466      2.5917      0.0341      3.5337     89.8425     25.2427
   526.5000      7.8469      2.5789      0.0396      4.3093     94.3213     24.2977
   526.6000      7.8469      2.5610      0.0359      5.3922     98.3251     23.5942
   526.7000      7.8469      2.5432      0.0126      6.4711     98.9670     23.2098
   526.8000      7.8428      2.5384      0.0145      6.7623     97.9636     22.9242
   526.9000      7.8428      2.5455      0.1138      6.3340     96.8158     22.6810
   527.0000      7.8271      2.5431      0.0828      6.4808     96.6525     22.5625
   527.1000      7.8271      2.5235      0.0643      7.6642     98.3458     22.4483
   527.2000      7.8271      2.4988      0.0659      9.1609    101.4294     22.2436
   527.3000      7.8331      2.4778      0.0551     10.4386    105.8999     22.0357
   527.4000      7.8331      2.4609      0.0199     11.4595    111.1997     21.9033
   527.5000      7.8748      2.4467      0.0404     12.3204    114.2287     21.8712
   527.6000      7.8748      2.4375      0.0320     12.8812    113.3780     21.9870
   527.7000      7.8748      2.4380      0.0541     12.8487    111.2230     22.2677
   527.8000      7.8569      2.4440      0.0551     12.4870    109.9437     22.6339
   527.9000      7.8569      2.4448      0.0753     12.4374    108.4412     22.9929
   528.0000      7.8505      2.4391      0.0579     12.7825    105.0158     23.3095
   528.1000      7.8505      2.4439     -0.0116     12.4911    101.2263     23.5674
   528.2000      7.8505      2.4676      0.0705     11.0539    100.3702     23.8712
   528.3000      7.8836      2.4868      0.0922      9.8932    102.4976     24.2094
