~Version Information
VERS.                      2.0: CWLS Log ASCII Standard - VERSION 2.0
WRAP.                       NO: One line per depth step
~Well Information Block
STRT.FT               880.0000: 
STOP.FT              1995.0000: 
STEP.FT                 0.2500: 
NULL.                -999.2500: 
COMP.          Petrogulf Corporation: COMPANY
WELL.          Collister 17-31R: WELL
FLD.           Purgatorie River: FIELD
LOC.           962' FNL & 1520' FEL: LOCATION
PROV.                 Colorado: PROVINCE
CNTY.               Las Animas: COUNTRY
SRVC.                Patterson: SERVICE COMPANY
DATE.          Mon Sep 26 09:32:26 2005: LOG DATE
UWI.                          : UNIQUE WELL ID
~Curve Information Block
DEPT.FT            0 000 00 00: Depth
SP.mV                         : DIL Spontaneous Potential
RILD.Ohm-m                    : DIL Deep Resistivity
RILM.Ohm-m                    : DIL Medium Resistivity
RLL3.Ohm-m                    : DIL Shallow Resistivity
GR.GAPI                       : Gamma Ray
~Parameter Information Block
~A  Depth        SP         RILD        RILM        RLL3         GR     
# ...
  1972.0000    264.3226     17.3915     18.1521     18.3480   -999.2500
  1972.2500    264.3325     17.5318     18.7723     19.3762   -999.2500
  1972.5000    264.4564     17.4390     19.0749     18.9344   -999.2500
  1972.7500    264.4900     17.6763     19.7873     20.6666   -999.2500
  1973.0000    264.8439     18.0012     20.3768     26.8961   -999.2500
  1973.2500    265.1534     17.8317     20.8058     35.4701   -999.2500
  1973.5000    265.7462     17.5870     21.3531     34.9426   -999.2500
  1973.7500    266.2280     17.8192     21.5839     27.4107   -999.2500
  1974.0000    266.7969     17.6607     21.7342     23.6869   -999.2500
  1974.2500    267.5948     17.3628     22.1543     23.6103   -999.2500
  1974.5000    268.3802     16.7884     22.0571     23.9042   -999.2500
  1974.7500    269.1180     16.5148     22.1745     23.8430   -999.2500
  1975.0000    269.8745     16.0966     21.1059     23.6631   -999.2500
  1975.2500    270.3865     15.6803     19.8622     23.3866   -999.2500
  1975.5000    270.7846     15.0959     18.7667     22.2815   -999.2500
  1975.7500    271.3409     13.6866     17.1915     21.5475   -999.2500
  1976.0000    271.7223     12.3805     15.8302     19.3187   -999.2500
  1976.2500    271.7896     11.8017     14.4053     14.0175   -999.2500
  1976.5000    271.9238     11.4610     13.4734     10.6354   -999.2500
  1976.7500    271.5794     11.1478     12.8418     10.2382   -999.2500
  1977.0000    271.2792     10.5574     12.3833     10.9840   -999.2500
  1977.2500    271.0068     10.1760     12.1960     11.9674   -999.2500
  1977.5000    270.9056      9.8639     11.9090     12.7816   -999.2500
  1977.7500    270.9947      9.7530     11.4149     13.2332   -999.2500
  1978.0000    270.7864      9.5236     10.8655     13.0119   -999.2500
  1978.2500    270.2482      9.3776     10.5054     11.9829   -999.2500
  1978.5000    270.0359      9.2044     10.2469     10.8532   -999.2500
  1978.7500    270.4853      9.1342     10.0490     10.0857   -999.2500
  1979.0000    271.0636      9.0504      9.9989     10.0790   -999.2500
  1979.2500    271.3602      9.0052      9.8241     10.1329   -999.2500
  1979.5000    271.2650      9.4668     10.0077     10.2234   -999.2500
  1979.7500    271.1119      9.4515     10.1239     10.5900   -999.2500
  1980.0000    271.1664      9.3277     10.2356     10.8040   -999.2500
  1980.2500    271.0128      9.2058     10.3083     11.2300   -999.2500
  1980.5000    270.7276      9.0540     10.1987     11.5832   -999.2500
  1980.7500    270.3093      8.9822     10.0308     12.4052   -999.2500
  1981.0000    270.1553      8.8559      9.7630     12.3021   -999.2500
  1981.2500    270.1491      8.8779      9.5190     11.1477   -999.2500
  1981.5000    269.8983      8.8491      9.2611      9.9008   -999.2500
  1981.7500    269.3059      8.8908      9.0202      9.4807   -999.2500
  1982.0000    267.7383      8.8935      8.9433      9.3381   -999.2500
  1982.2500    237.7941      9.8678      8.9432      8.8752   -999.2500
  1982.5000     28.3844     47.4720      9.0215      9.1774   -999.2500
  1982.7500      0.0702     92.0464      9.1955      9.7474   -999.2500
  1983.0000   -999.2500    173.1423      9.3534     10.3508   -999.2500
  1983.2500   -999.2500    171.2116      9.4795     10.7310   -999.2500
  1983.5000   -999.2500    168.6593      9.4611     10.8373   -999.2500
  1983.7500   -999.2500    167.4155      9.4195     11.0918   -999.2500
  1984.0000   -999.2500    165.2662      9.4758     11.5298   -999.2500
  1984.2500   -999.2500    165.8187      9.4999     11.4736   -999.2500
  1984.5000   -999.2500    165.4493      9.4697     11.1269   -999.2500
  1984.7500   -999.2500    166.2990      9.4505     10.5652   -999.2500
  1985.0000   -999.2500    166.4256      9.4390     10.2951   -999.2500
  1985.2500   -999.2500    184.9587      9.3532     10.2079   -999.2500
  1985.5000   -999.2500   1098.0837      9.3056     10.3594   -999.2500
  1985.7500   -999.2500   3246.9753      9.2715     10.7258   -999.2500
  1986.0000   -999.2500 100000.0000     10.1809     10.8058   -999.2500
  1986.2500   -999.2500 100000.0000     52.3412     10.7414   -999.2500
  1986.5000   -999.2500 100000.0000    117.0868     10.4590   -999.2500
  1986.7500   -999.2500 100000.0000    454.4535     10.0925   -999.2500
  1987.0000   -999.2500 100000.0000    450.8152     10.1069   -999.2500
  1987.2500   -999.2500 100000.0000    450.9171     10.0228   -999.2500
  1987.5000   -999.2500 100000.0000    455.0144     10.1557   -999.2500
  1987.7500   -999.2500 100000.0000    464.1715     10.1745   -999.2500
  1988.0000   -999.2500 100000.0000    472.5999     10.4538   -999.2500
  1988.2500   -999.2500 100000.0000    479.7782     10.6211   -999.2500
  1988.5000   -999.2500 100000.0000    482.3708     10.7736   -999.2500
  1988.7500   -999.2500 100000.0000    477.1778     11.2672   -999.2500
  1989.0000   -999.2500 100000.0000    479.9005     14.5071   -999.2500
  1989.2500   -999.2500 100000.0000    480.9919     21.4374   -999.2500
  1989.5000   -999.2500   -999.2500    479.2738     24.7058   -999.2500
  1989.7500   -999.2500   -999.2500    478.1867     19.3238   -999.2500
  1990.0000   -999.2500   -999.2500    477.4941     14.5211   -999.2500
  1990.2500   -999.2500   -999.2500    473.0540     11.4987   -999.2500
  1990.5000   -999.2500   -999.2500    470.7173     10.1733   -999.2500
  1990.7500   -999.2500   -999.2500    469.1191      9.7096   -999.2500
  1991.0000   -999.2500   -999.2500    515.8520      9.5714   -999.2500
  1991.2500   -999.2500   -999.2500   2889.2014      9.0639   -999.2500
  1991.5000   -999.2500   -999.2500   7675.4111      0.2138   -999.2500
  1991.7500   -999.2500   -999.2500 100000.0000     -0.9970   -999.2500
  1992.0000   -999.2500   -999.2500 100000.0000   -999.2500   -999.2500
  1992.2500   -999.2500   -999.2500 100000.0000   -999.2500   -999.2500
  1992.5000   -999.2500   -999.2500 100000.0000   -999.2500   -999.2500
  1992.7500   -999.2500   -999.2500 100000.0000   -999.2500   -999.2500
  1993.0000   -999.2500   -999.2500 100000.0000   -999.2500   -999.2500
  1993.2500   -999.2500   -999.2500 100000.0000   -999.2500   -999.2500
  1993.5000   -999.2500   -999.2500 100000.0000   -999.2500   -999.2500
  1993.7500   -999.2500   -999.2500 100000.0000   -999.2500   -999.2500
  1994.0000   -999.2500   -999.2500 100000.0000   -999.2500   -999.2500
  1994.2500   -999.2500   -999.2500   -999.2500   -999.2500   -999.2500
  1994.5000   -999.2500   -999.2500   -999.2500   -999.2500   -999.2500
  1994.7500   -999.2500   -999.2500   -999.2500   -999.2500   -999.2500
  1995.0000   -999.2500   -999.2500   -999.2500   -999.2500   -999.2500
