~Version Information
VERS.                      2.0: CWLS Log ASCII Standard - VERSION 2.0
WRAP.                       NO: One line per depth step
~Well Information Block
STRT.FT                -9.0000: 
STOP.FT              1754.0000: 
STEP.FT                 0.2500: 
NULL.                -999.2500: 
COMP.          Pioneer Natural Resources: COMPANY
WELL.          Touchstone 11-32 Tr: WELL
FLD.           Purgatorie River: FIELD
LOC.           782' FNL & 840' FWL--: LOCATION
CNTY.               Las Animas: COUNTY
SRVC.          Patterson Wireline: SERVICE COMPANY
DATE.          Mon Mar 06 09:18:09 2006: LOG DATE
UWI.           05 071 08626 00: UNIQUE WELL ID
STAT.                       CO: STATE
~Curve Information Block
DEPT.FT            0 000 00 00: Depth
CCL.                          : Casing Collar Locator
TT3.usec                      : CBL 3' Travel Time
AMP3.mV                       : CBL 3' Amplitude
GR.GAPI                       : Gamma Ray
~Parameter Information Block
~A  Depth       CCL         TT3         AMP3         GR     
# ...
   326.0000      0.0000    803.6990      7.4533     88.4885
   326.2500      0.0000    803.0471      7.4557     88.7378
   326.5000      0.0000    798.3705      7.4368     90.3063
   326.7500      0.0000    788.2912      7.4067     91.7813
   327.0000      0.0000    775.0172      7.3662     92.1754
   327.2500      0.0000    763.2646      7.3113     91.8084
   327.5000      0.0000    757.2198      7.2436     92.1439
   327.7500      0.0000    757.8958      7.1725     94.3425
   328.0000      0.0000    762.7534      7.1097     97.8547
   328.2500      0.0000    767.7679      7.0609    100.8951
   328.5000      0.0000    770.3234      7.0230    102.3120
   328.7500      0.0000    770.6611      6.9902    102.5639
   329.0000      0.0000    770.8466      6.9617    103.0979
   329.2500      0.0000    772.4351      6.9432    105.1276
   329.5000      0.0000    775.2104      6.9410    108.6136
   329.7500      0.0000    777.9258      6.9562    112.1125
   330.0000      0.0000    779.7115      6.9831    113.8632
   330.2500      0.0000    780.5568      7.0111    113.0169
   330.5000      0.0000    780.8807      7.0283    109.8264
   330.7500      0.0000    781.0370      7.0278    105.3388
   331.0000      0.0000    781.1639      7.0141    101.1768
   331.2500      0.0000    781.2584      7.0014     98.9049
   331.5000      0.0000    781.2878      7.0041     99.0445
   331.7500      0.0000    781.2617      7.0262    100.7783
   332.0000      0.0000    781.2359      7.0608    102.6977
   332.2500      0.0000    781.2769      7.0950    103.8225
   332.5000      0.0000    781.4133      7.1181    104.0204
   332.7500      0.0000    781.6168      7.1276    103.6811
   333.0000      0.0000    781.8248      7.1326    103.2319
   333.2500      0.0000    781.9872      7.1466    102.9880
   333.5000      0.0000    782.1039      7.1749    103.0495
   333.7500      0.0000    782.2126      7.2113    102.9506
   334.0000      0.0000    782.3356      7.2475    101.5839
   334.2500      0.0000    782.4441      7.2835     97.8968
   334.5000      0.0000    782.4842      7.3249     91.8710
   334.7500      0.0000    782.3803      7.3711     84.8848
   335.0000      0.0000    781.9498      7.4121     79.0308
   335.2500      0.0000    780.7880      7.4352     75.7951
   335.5000      0.0000    778.4143      7.4349     75.2159
   335.7500      0.0000    774.9001      7.4157     76.3105
   336.0000      0.0000    771.4883      7.3919     78.1667
   336.2500      0.0000    770.0910      7.3806     80.4715
   336.5000      0.0000    771.5283      7.3918     83.1709
   336.7500      0.0000    774.3195      7.4235     85.9769
   337.0000      0.0000    775.5178      7.4635     88.3438
   337.2500      0.0000    773.0308      7.4865     89.9046
   337.5000      0.0000    768.3278      7.4512     90.9875
   337.7500      0.0000    768.1929      7.3217     92.5530
   338.0000      0.0000    782.3317      7.1067     95.1764
   338.2500      0.0000    815.3458      6.8777     98.0241
   338.5000      0.0000    859.8056      6.7384     99.2265
   338.7500      0.0000    899.6907      6.7599     97.4613
   339.0000      0.0000    922.2671      6.9369     93.2352
   339.2500      0.0000    926.3419      7.2071     88.8363
   339.5000      2.0000    920.2253      7.5141     86.9812
   339.7500      0.0000    913.6602      7.8461     88.8874
   340.0000      0.0000    909.4183      8.2310     93.1942
   340.2500      0.0000    899.5725      8.7127     96.8546
   340.5000      0.0000    872.0580      9.3037     97.4268
   340.7500      0.0000    824.9470      9.9277     94.9294
   341.0000      0.0000    772.6417     10.4323     91.6589
   341.2500      0.0000    733.7531     10.7144     89.8793
   341.5000      0.0000    714.4869     10.8118     89.4529
   341.7500      0.0000    707.8738     10.8377     88.1412
   342.0000      0.0000    706.2486     10.8603     84.4498
   342.2500      0.0000    708.5959     10.8782     79.4501
   342.5000      0.0000    716.4471     10.8731     75.4213
   342.7500      0.0000    727.6624     10.8409     73.6488
   343.0000      0.0000    736.4429     10.7872     74.1839
   343.2500      0.0000    737.9984     10.7190     76.6985
   343.5000      0.0000    732.1500     10.6443     80.4525
   343.7500      0.0000    723.0266     10.5724     83.8952
   344.0000      0.0000    715.4351     10.5120     85.3368
   344.2500      0.0000    711.1423     10.4661     84.2075
   344.5000      0.0000    708.4254     10.4313     81.4231
   344.7500      0.0000    705.1259     10.4036     78.5151
   345.0000      0.0000    701.4053     10.3839     76.4915
   345.2500      0.0000    699.1044     10.3741     75.5880
   345.5000      0.0000    698.9540     10.3692     75.9398
   345.7500      0.0000    699.0397     10.3581     77.9749
   346.0000      0.0000    696.3469     10.3339     81.7263
   346.2500      0.0000    690.0348     10.3003     86.0401
   346.5000      0.0000    682.7496     10.2662     89.1602
   346.7500      0.0000    678.0537     10.2381     90.1662
   347.0000      0.0000    677.0429     10.2157     89.4627
   347.2500      0.0000    678.4943     10.1943     88.1302
   347.5000      0.0000    681.9350     10.1689     87.4375
   347.7500      0.0000    688.7976     10.1366     88.6312
   348.0000      0.0000    699.3545     10.0965     92.1888
   348.2500      0.0000    709.0886     10.0508     97.0479
   348.5000      0.0000    709.6359     10.0062    101.0712
   348.7500      0.0000    694.0271      9.9709    102.5632
   349.0000      0.0000    661.1938      9.9497    101.3110
   349.2500      0.0000    617.2766      9.9425     98.3070
   349.5000      0.0000    575.1160      9.9493     94.8585
   349.7500      0.0000    551.0734      9.9707     92.0569
   350.0000      0.0000    556.7025     10.0045     90.5007
   350.2500      0.0000    590.1494     10.0458     89.8959
   350.5000      0.0000    637.1949     10.0912     89.1057
   350.7500      0.0000    682.0504     10.1421     87.1754
   351.0000      0.0000    716.6715     10.2008     84.2770
   351.2500      0.0000    740.8804     10.2642     81.1720
   351.5000      0.0000    756.8868     10.3189     78.0093
   351.7500      0.0000    765.7641     10.3455     74.3451
   352.0000      0.0000    768.5261     10.3320     70.2551
   352.2500      0.0000    768.6263     10.2842     66.7463
   352.5000      0.0000    771.5366     10.2208     64.8695
   352.7500      0.0000    781.0558     10.1577     64.7648
   353.0000      0.0000    796.0131     10.0997     65.6880
   353.2500      0.0000    810.6772     10.0444     66.7744
   353.5000      0.0000    818.9728      9.9910     67.6491
   353.7500      0.0000    819.4213      9.9433     68.3994
   354.0000      0.0000    815.9990      9.9068     69.1950
   354.2500      0.0000    813.5486      9.8823     70.1956
   354.5000      0.0000    813.1552      9.8630     71.5348
   354.7500      0.0000    813.3391      9.8387     72.7957
   355.0000      0.0000    814.5219      9.8026     72.6311
   355.2500      0.0000    819.4507      9.7545     69.7429
   355.5000      0.0000    829.2494      9.6976     64.5460
   355.7500      0.0000    841.6083      9.6352     59.2117
   356.0000      0.0000    853.4897      9.5697     55.6515
   356.2500      0.0000    863.8322      9.5039     53.8625
   356.5000      0.0000    872.8755      9.4420     52.4453
   356.7500      0.0000    880.1653      9.3867     50.2811
   357.0000      0.0000    884.4669      9.3348     47.4450
   357.2500      0.0000    885.5522      9.2773     44.9389
   357.5000      0.0000    885.1942      9.2094     43.9339
   357.7500      0.0000    885.7767      9.1376     45.1268
   358.0000      0.0000    888.0295      9.0765     48.4220
   358.2500      0.0000    890.5611      9.0358     52.9726
   358.5000      0.0000    891.5443      9.0127     57.4681
   358.7500      0.0000    890.4342      8.9943     60.5515
   359.0000      0.0000    888.0053      8.9666     61.2784
   359.2500      0.0000    885.1383      8.9209     59.5513
