~Version Information
VERS.                      2.0: CWLS Log ASCII Standard - VERSION 2.0
WRAP.                       NO: One line per depth step
~Well Information Block
STRT.FT                -5.5000: 
STOP.FT              2262.7500: 
STEP.FT                 0.2500: 
NULL.                -999.2500: 
COMP.          Pioneer Natural Resources: COMPANY
WELL.             Baa Baa 34-1: WELL
FLD.           Purgatorie River: FIELD
LOC.           617' FSL & 2289' FEL------: LOCATION
STAT.                       CO: State
CNTY.               Las Animas: COUNTY
CTRY. USA : Country
SECT. 1 : Section
TOWN. 33S : Township
RANG. 67W : Range
SRVC.          Patterson Wireline: SERVICE COMPANY
DATE.          Mon Sep 12 14:08:52 2005: LOG DATE
API.           05 071 08502 00: UNIQUE WELL ID
~Curve Information Block
DEPT.FT            0 000 00 00: Depth
LTEN.lb                       : Surface Line Tension
CCL.                          : Casing Collar Locator
TT3.usec                      : CBL 3' Travel Time
AMP3.mV                       : CBL 3' Amplitude
GR.GAPI                       : Gamma Ray
~Parameter Information Block
~A  Depth       LTEN        CCL         TT3         AMP3         GR     
# ...
   134.5000  -4531.8638      0.0000   1148.3391      6.4075     63.8310
   134.7500  -4533.1958      0.0000   1146.2639      6.3567     63.8271
   135.0000  -4529.1997      0.0000   1140.0889      6.3274     63.7899
   135.2500  -4537.1924      0.0000   1126.1350      6.3168     63.6947
   135.5000  -4533.1958      0.0000   1102.7123      6.3080     63.5646
   135.7500  -4537.1924      0.0000   1074.9812      6.2840     63.5569
   136.0000  -4538.5244      0.0000   1055.4036      6.2419     63.8483
   136.2500  -4530.5317      0.0000   1055.2930      6.1898     64.4281
   136.5000  -4535.8604      0.0000   1074.2988      6.1347     65.2115
   136.7500  -4533.1958      0.0000   1099.8445      6.0752     66.4713
   137.0000  -4530.5317      0.0000   1116.5394      6.0040     68.7998
   137.2500  -4533.1958      0.0000   1114.3741      5.9152     72.2298
   137.5000  -4531.8638      0.0000   1090.5096      5.8100     75.6961
   137.7500  -4533.1958      0.0000   1049.2224      5.7001     77.8012
   138.0000  -4534.5283      0.0000   1001.8146      5.6032     77.9737
   138.2500  -4533.1958      0.0000    962.8087      5.5311     76.8125
   138.5000  -4535.8604      0.0000    942.3424      5.4824     75.6818
   138.7500  -4534.5283      0.0000    940.4800      5.4482     75.9614
   139.0000  -4533.1958      0.0000    947.7252      5.4234     78.1700
   139.2500  -4535.8604      0.0000    951.6423      5.4084     81.5587
   139.5000  -4534.5283      0.0000    945.5640      5.4054     84.6660
   139.7500  -4538.5244      0.0000    932.3946      5.4156     86.3473
   140.0000  -4538.5244      0.0000    920.4810      5.4395     86.3584
   140.2500  -4531.8638      0.0000    917.4776      5.4762     85.2465
   140.5000  -4535.8604      0.0000    928.1973      5.5208     83.8635
   140.7500  -4534.5283      0.0000    954.1166      5.5639     82.7183
   141.0000  -4533.1958      0.0000    990.1959      5.5942     81.7165
   141.2500  -4533.1958      0.0000   1022.5403      5.6025     80.6971
   141.5000  -4533.1958      0.0000   1034.2129      5.5837     80.1033
   141.7500  -4537.1924      0.0000   1017.6152      5.5384     80.8447
   142.0000  -4538.5244      0.0000    981.2477      5.4755     83.5428
   142.2500  -4534.5283      0.0000    942.8500      5.4132     87.9221
   142.5000  -4538.5244      0.0000    915.9081      5.3724     92.7305
   142.7500  -4533.1958      0.0000    902.9077      5.3662     96.3290
   143.0000  -4530.5317      0.0000    898.9686      5.3931     97.6335
   143.2500  -4533.1958      0.0000    898.5982      5.4388     96.6700
   143.5000  -4535.8604      0.0000    898.8769      5.4839     94.3291
   143.7500  -4535.8604      0.0000    899.0096      5.5115     91.6012
   144.0000  -4534.5283      0.0000    899.0052      5.5127     88.9471
   144.2500  -4535.8604      0.0000    898.9829      5.4863     86.5411
   144.5000  -4534.5283      0.0000    899.0001      5.4346     85.1618
   144.7500  -4535.8604      0.0000    899.0685      5.3636     86.2225
   145.0000  -4529.1997      0.0000    899.1649      5.2887     90.2936
   145.2500  -4533.1958      0.0000    899.2454      5.2344     95.9307
   145.5000  -4535.8604      0.0000    899.2734      5.2208    100.5417
   145.7500  -4533.1958      0.0000    899.2397      5.2502    102.2663
   146.0000  -4538.5244      0.0000    899.1625      5.3096    100.9717
   146.2500  -4537.1924      0.0000    899.0699      5.3800     98.0212
   146.5000  -4533.1958      0.0000    898.9456      5.4433     95.2721
   146.7500  -4534.5283      0.0000    898.6322      5.4863     93.6838
   147.0000  -4533.1958      0.0000    897.7191      5.5039     92.6099
   147.2500  -4534.5283      0.0000    895.5703      5.4993     90.8886
   147.5000  -4530.5317      0.0000    891.6470      5.4800     88.7067
   147.7500  -4537.1924      0.0000    885.9402      5.4570     87.8152
   148.0000  -4533.1958      0.0000    879.0262      5.4427     89.7147
   148.2500  -4538.5244      0.0000    871.7006      5.4464     94.1031
   148.5000  -4535.8604      0.0000    864.7455      5.4702     99.1721
   148.7500  -4530.5317      0.0000    858.9487      5.5080    102.9899
   149.0000  -4539.8569      0.0000    854.9026      5.5491    104.5667
   149.2500  -4538.5244      0.0000    852.6442      5.5851    104.3298
   149.5000  -4530.5317      0.0000    851.6772      5.6120    104.0719
   149.7500  -4539.8569      0.0000    851.3819      5.6262    106.1031
   150.0000  -4534.5283      0.0000    851.3442      5.6198    111.6672
   150.2500  -4534.5283      0.0000    851.3972      5.5879    119.5792
   150.5000  -4538.5244      0.0000    851.5058      5.5382    126.3337
   150.7500  -4531.8638      0.0000    851.6813      5.4870    128.1294
   151.0000  -4537.1924      0.0000    851.9573      5.4444    123.7199
   151.2500  -4537.1924      0.0000    852.4238      5.4079    115.6732
   151.5000  -4531.8638      0.0000    853.2890      5.3722    108.4757
   151.7500  -4534.5283      0.0000    855.0055      5.3397    105.0665
   152.0000  -4529.1997      0.0000    858.3497      5.3202    105.1451
   152.2500  -4531.8638      0.0000    864.1033      5.3205    106.4532
   152.5000  -4531.8638      0.0000    872.2440      5.3341    107.1095
   152.7500  -4533.1958      0.0000    881.3611      5.3419    106.6669
   153.0000  -4535.8604      0.0000    889.1917      5.3260    105.5731
   153.2500  -4534.5283      0.0000    893.9248      5.2853    104.2903
   153.5000  -4533.1958      0.0000    895.0734      5.2384    102.9460
   153.7500  -4533.1958      0.0000    893.5218      5.2094    101.3518
   154.0000  -4535.8604      0.0000    891.1516      5.2112     99.0694
   154.2500  -4531.8638      0.0000    890.0107      5.2403     95.8362
   154.5000  -4533.1958      0.0000    891.0199      5.2872     92.3290
   154.7500  -4535.8604      0.0000    893.2745      5.3461     90.2379
   155.0000  -4539.8569      0.0000    894.7314      5.4110     90.9099
   155.2500  -4533.1958      0.0000    893.5204      5.4676     93.6604
   155.5000  -4534.5283      0.0000    888.8558      5.4983     95.8867
   155.7500  -4535.8604      0.0000    881.5303      5.4971     95.2867
   156.0000  -4539.8569      0.0000    873.8000      5.4754     91.8245
   156.2500  -4533.1958      0.0000    868.0394      5.4533     87.4163
   156.5000  -4537.1924      0.0000    864.9354      5.4469     84.0576
   156.7500  -4533.1958      0.0000    863.3361      5.4609     82.5400
   157.0000  -4535.8604      0.0000    862.2137      5.4903     82.5976
   157.2500  -4535.8604      0.0000    862.3151      5.5259     83.6103
   157.5000  -4537.1924      0.0000    865.4125      5.5602     84.9110
   157.7500  -4533.1958      0.0000    872.1476      5.5904     85.8126
   158.0000  -4533.1958      0.0000    880.9894      5.6167     85.9216
   158.2500  -4535.8604      0.0000    889.4413      5.6393     85.6746
   158.5000  -4537.1924      0.0000    896.3879      5.6555     86.3352
   158.7500  -4537.1924      0.0000    903.7238      5.6610     89.1465
   159.0000  -4534.5283      0.0000    915.8735      5.6531     94.1972
   159.2500  -4535.8604      0.0000    936.1013      5.6335     99.9598
   159.5000  -4533.1958      0.0000    960.8668      5.6076    104.0092
   159.7500  -4533.1958      0.0000    978.5101      5.5841    104.5217
   160.0000  -4534.5283      0.0000    977.5769      5.5724    101.4143
   160.2500  -4531.8638      0.0000    958.1600      5.5806     96.3533
   160.5000  -4530.5317      0.0000    933.3500      5.6124     91.9902
   160.7500  -4539.8569      0.0000    919.7708      5.6673     90.8885
   161.0000  -4537.1924      0.0000    927.3257      5.7388     94.1158
   161.2500  -4534.5283      0.0000    954.5502      5.8126    100.1765
   161.5000  -4537.1924      0.0000    990.5595      5.8717    105.5911
   161.7500  -4531.8638      0.0000   1022.9691      5.9117    107.2956
   162.0000  -4538.5244      0.0000   1044.3940      5.9503    105.0519
   162.2500  -4534.5283      0.0000   1049.7991      6.0130    101.6100
