~Version Information
VERS.                      2.0: CWLS Log ASCII Standard - VERSION 2.0
WRAP.                       NO: One line per depth step
~Well Information Block
STRT.FT                -4.0000: 
STOP.FT               675.2500: 
STEP.FT                 0.2500: 
NULL.                -999.2500: 
COMP.          Pioneer Natural Resources: COMPANY
WELL.          Razor Clam 23-27: WELL
FLD.           Purgatoire River: FIELD
LOC.           2499' FSL & 2636' FWL: LOCATION
CNTY.               Las Animas: COUNTY
SRVC.                         : SERVICE COMPANY
DATE.          Thu Mar 09 13:15:19 2006: LOG DATE
UWI.           05 071 08667 00: UNIQUE WELL ID
STAT.                       CO: STATE
~Curve Information Block
DEPT.FT            0 000 00 00: Depth
GR.GAPI                       : Gamma Ray
CCL.                          : Casing Collar Locator
TT3.usec                      : CBL 3' Travel Time
AMP3.mV                       : CBL 3' Amplitude
~Parameter Information Block
~A  Depth        GR         CCL         TT3         AMP3    
# ...
   197.0000    125.6252      0.0000    707.3026     18.4570
   197.2500    119.3917      0.0000    688.4547     18.8501
   197.5000    113.1709      0.0000    642.5507     19.3543
   197.7500    108.8530      0.0000    571.5972     19.7610
   198.0000    106.8855      0.0000    489.8498     19.8904
   198.2500    106.2251      0.0000    417.5983     19.7245
   198.5000    105.3059      0.0000    368.3574     19.4177
   198.7500    103.0794      0.0000    341.9946     19.1709
   199.0000     99.4714      0.0000    329.8298     19.0914
   199.2500     95.2097      0.0000    323.9045     19.1525
   199.5000     91.0875      0.0000    320.9927     19.2541
   199.7500     87.1375      0.0000    321.0382     19.3061
   200.0000     82.8207      0.0000    325.5687     19.2721
   200.2500     78.2276      0.0000    338.7675     19.1629
   200.5000     74.5028      0.0000    368.0603     19.0101
   200.7500     72.6573      0.0000    420.0724     18.8384
   201.0000     72.4484      0.0000    493.0977     18.6520
   201.2500     72.7981      0.0000    573.7383     18.4435
   201.5000     72.8594      0.0000    643.6200     18.2196
   201.7500     72.3752      0.0000    691.0641     18.0074
   202.0000     71.4723      0.0000    716.2889     17.8315
   202.2500     70.3996      0.0000    726.8352     17.6934
   202.5000     69.2011      0.0000    730.3713     17.5810
   202.7500     67.6573      0.0000    731.3857     17.4878
   203.0000     65.9551      0.0000    731.6875     17.4161
   203.2500     65.2722      0.0000    731.8337     17.3707
   203.5000     67.1722      0.0000    731.9658     17.3535
   203.7500     72.3531      0.0000    732.1107     17.3667
   204.0000     80.1278      0.0000    732.2572     17.4145
   204.2500     88.9904      0.0000    732.4106     17.4939
   204.5000     97.5221      0.0000    732.5907     17.5775
   204.7500    104.9324      0.0000    732.8047     17.6225
   205.0000    110.9831      0.0000    733.0287     17.6155
   205.2500    115.4647      0.0000    733.2095     17.5972
   205.5000    117.8893      0.0000    733.2898     17.6260
   205.7500    117.8402      0.0000    733.2471     17.7334
   206.0000    115.4684      0.0000    733.1199     17.9299
   206.2500    111.5153      0.0000    732.9871     18.2235
   206.5000    107.1248      0.0000    732.9098     18.5952
   206.7500    103.7468      0.0000    732.8962     18.9673
   207.0000    102.7711      0.0000    732.9177     19.2417
   207.2500    104.8122      0.0000    732.9380     19.3811
   207.5000    109.2470      0.0000    732.9144     19.4277
   207.7500    114.2205      0.0000    732.7920     19.4345
   208.0000    117.1733      0.0000    732.5255     19.4044
   208.2500    116.2663      0.0000    732.1264     19.3038
   208.5000    111.9911      0.0000    731.6783     19.1201
   208.7500    107.1219      0.0000    731.2831     18.8962
   209.0000    104.4972      0.0000    730.8589     18.7063
   209.2500    104.6139      0.0000    729.7228     18.5881
   209.5000    105.4593      0.0000    726.0104     18.5035
   209.7500    104.7399      0.0000    716.4891     18.3818
   210.0000    102.1595      0.0000    697.7595     18.1948
   210.2500     99.3201      0.0000    668.6841     17.9750
   210.5000     97.6234      0.0000    631.7599     17.7744
   210.7500     96.9445      0.0000    591.6959     17.6232
   211.0000     96.4258      0.0000    553.3820     17.5235
   211.2500     95.6207      0.0000    522.5116     17.4660
   211.5000     94.4196      0.0000    507.0724     17.4426
   211.7500     92.7320      0.0000    514.8370     17.4402
   212.0000     90.8941      0.0000    546.9020     17.4317
   212.2500     89.7612      0.0000    594.1425     17.3889
   212.5000     89.8913      0.0000    641.8669     17.3127
   212.7500     91.0343      0.0000    678.9120     17.2387
   213.0000     92.6032      0.0000    702.6129     17.2136
   213.2500     94.2169      0.0000    716.4081     17.2692
   213.5000     95.6490      0.0000    724.5523     17.4069
   213.7500     96.6295      0.0000    729.4053     17.5946
   214.0000     96.9105      0.0000    731.9386     17.7763
   214.2500     96.3413      0.0000    732.8535     17.8814
   214.5000     94.7239      0.0000    732.8487     17.8392
   214.7500     91.7759      0.0000    732.4046     17.6299
   215.0000     87.5663      0.0000    731.5110     17.3364
   215.2500     82.8716      0.0000    729.3755     17.1001
   215.5000     78.7897      0.0000    724.1769     16.9853
   215.7500     76.1581      0.0000    713.5445     16.8955
   216.0000     75.5381      0.0000    696.4901     16.6338
   216.2500     77.3367      0.0000    675.3162     16.0665
   216.5000     81.4963      0.0000    654.8880     15.2726
   216.7500     87.2331      0.0000    640.3814     14.5229
   217.0000     93.3408      0.0000    637.2432     14.0306
   217.2500     98.6371      0.0000    650.9946     13.7331
   217.5000    102.0826      0.0000    681.9709     13.4141
   217.7500    103.0055      0.0000    720.8333     12.9953
   218.0000    101.6288      0.0000    753.8831     12.5864
   218.2500     99.1852      0.0000    772.7969     12.2980
   218.5000     97.1622      1.3010    776.8893     12.1343
   218.7500     96.3289     -2.0000    767.2762     12.0596
   219.0000     96.4721      0.0000    741.7413     12.1176
   219.2500     96.9085      0.0000    697.0820     12.4675
   219.5000     97.0868      0.0000    638.2099     13.2649
   219.7500     96.7593      0.0000    584.2147     14.4485
   220.0000     95.9337      0.0000    559.7290     15.6847
   220.2500     95.0613      0.0000    575.5829     16.6136
   220.5000     95.0803      0.0000    619.5045     17.1159
   220.7500     96.5911      0.0000    667.5415     17.3083
   221.0000     98.7892      0.0000    702.4973     17.3779
   221.2500     99.6762      0.0000    721.1091     17.4767
   221.5000     97.5120      0.0000    728.6404     17.6719
   221.7500     91.9267      0.0000    731.2617     17.9076
   222.0000     83.8445      0.0000    732.7913     18.0431
   222.2500     74.8547      0.0000    734.8801     17.9731
   222.5000     66.7218      0.0000    737.7626     17.7055
   222.7500     61.1216      0.0000    740.5652     17.3166
   223.0000     59.4939      0.0000    741.9579     16.8571
   223.2500     62.8224      0.0000    741.4816     16.3208
   223.5000     71.2607      0.0000    740.4347     15.6905
   223.7500     83.8121      0.0000    741.1519     14.9774
   224.0000     98.1814      0.0000    745.1246     14.2202
   224.2500    111.0575      0.0000    751.5176     13.4748
   224.5000    119.3891      0.0000    757.4333     12.8123
   224.7500    122.1357      0.0000    760.0261     12.3122
   225.0000    120.5890      0.0000    758.6836     12.0412
   225.2500    116.8850      0.0000    755.1232     12.0276
   225.5000    112.6777      0.0000    751.5673     12.2471
   225.7500    109.0216      0.0000    749.1494     12.6269
   226.0000    106.3691      0.0000    747.8134     13.0589
   226.2500    104.3702      0.0000    747.0457     13.4356
   226.5000    102.3840      0.0000    746.4283     13.7103
   226.7500    100.3236      0.0000    745.7582     13.9254
   227.0000     98.5649      0.0000    744.9893     14.1571
   227.2500     97.2317      0.0000    744.1793     14.4257
   227.5000     96.0908      0.0000    743.4270     14.6728
   227.7500     95.0765      0.0000    742.7805     14.8272
   228.0000     94.3992      0.0000    742.1888     14.8750
   228.2500     94.1124      0.0000    741.5677     14.8614
   228.5000     94.1278      0.0000    740.9073     14.8451
   228.7500     94.5959      0.0000    740.2856     14.8663
   229.0000     95.4812      0.0000    739.7648     14.9489
   229.2500     95.8133      0.0000    739.3063     15.1101
   229.5000     94.3644      0.0000    738.8081     15.3614
   229.7500     91.2964      0.0000    738.1974     15.7001
   230.0000     88.3886      0.0000    737.4792     16.0973
   230.2500     87.4121      0.0000    736.7208     16.4896
