~Version Information
VERS.                      2.0: CWLS Log ASCII Standard - VERSION 2.0
WRAP.                       NO: One line per depth step
~Well Information Block
STRT.FT                 0.0000: 
STOP.FT              1528.0000: 
STEP.FT                 0.1000: 
NULL.                -999.2500: 
COMP.          Pioneer Natural Resources: COMPANY
WELL.             Andrew 23-15: WELL
FLD.           Purgatorie River: FIELD
LOC.           2137' FSL & 2292' FWL: LOCATION
PROV.                 Colorado: PROVINCE
CNTY.               Las Animas: COUNTRY
SRVC.                Patterson: SERVICE COMPANY
DATE.          Sat Aug 13 12:06:57 2005: LOG DATE
UWI.                          : UNIQUE WELL ID
~Curve Information Block
DEPT.FT            0 000 00 00: Depth
DCAL.in                       : CDL Caliper
RHOB.g/cc                     : CDL Bulk Density
RHOC.g/cc                     : CDL Density Correction
DPOR.pu                       : CDL Density Porosity
GR.GAPI                       : Gamma Ray
NPOR.pu                       : Neutron Porosity
~Parameter Information Block
~A  Depth       DCAL        RHOB        RHOC        DPOR         GR         NPOR    
# ...
  1516.8000      7.8032      2.4072      0.0358     14.7169   -999.2500   -999.2500
  1516.9000      7.8032      2.3963      0.0306     15.3756   -999.2500   -999.2500
  1517.0000      7.8059      2.4112      0.0426     14.4732   -999.2500   -999.2500
  1517.1000      7.8059      2.4338      0.1049     13.1046   -999.2500   -999.2500
  1517.2000      7.8059      2.4395      0.0878     12.7587   -999.2500   -999.2500
  1517.3000      7.7998      2.4300      0.0790     13.3342   -999.2500   -999.2500
  1517.4000      7.7998      2.4200      0.0717     13.9401   -999.2500   -999.2500
  1517.5000      7.7920      2.4129      0.0564     14.3723   -999.2500   -999.2500
  1517.6000      7.7920      2.4038      0.0340     14.9218   -999.2500   -999.2500
  1517.7000      7.7920      2.3920      0.0524     15.6365   -999.2500   -999.2500
  1517.8000      7.7854      2.3812      0.0023     16.2889   -999.2500   -999.2500
  1517.9000      7.7854      2.3797      0.0108     16.3833   -999.2500   -999.2500
  1518.0000      7.7813      2.3940      0.0216     15.5161   -999.2500   -999.2500
  1518.1000      7.7813      2.4170      0.0839     14.1197   -999.2500   -999.2500
  1518.2000      7.7813      2.4287      0.0931     13.4136   -999.2500   -999.2500
  1518.3000      7.7854      2.4207      0.0783     13.8947   -999.2500   -999.2500
  1518.4000      7.7854      2.4076      0.0516     14.6925   -999.2500   -999.2500
  1518.5000      7.7942      2.4040      0.0404     14.9072   -999.2500   -999.2500
  1518.6000      7.7942      2.4086      0.0590     14.6318   -999.2500   -999.2500
  1518.7000      7.7942      2.4104      0.0591     14.5203   -999.2500   -999.2500
  1518.8000      7.8163      2.4016      0.0395     15.0548   -999.2500   -999.2500
  1518.9000      7.8163      2.3854      0.0214     16.0361   -999.2500   -999.2500
  1519.0000      7.8138      2.3724      0.0027     16.8230   -999.2500   -999.2500
  1519.1000      7.8138      2.3724      0.0337     16.8250   -999.2500   -999.2500
  1519.2000      7.8138      2.3848      0.0478     16.0756   -999.2500   -999.2500
  1519.3000      7.8220      2.3945      0.0662     15.4844   -999.2500   -999.2500
  1519.4000      7.8220      2.3942      0.0137     15.5029   -999.2500   -999.2500
  1519.5000      7.8307      2.3935      0.0470     15.5458   -999.2500   -999.2500
  1519.6000      7.8307      2.3951      0.0617     15.4462   -999.2500   -999.2500
  1519.7000      7.8307      2.3934      0.0568     15.5486   -999.2500   -999.2500
  1519.8000      7.8203      2.3893      0.0658     15.8024   -999.2500   -999.2500
  1519.9000      7.8203      2.3858      0.0720     16.0120   -999.2500   -999.2500
  1520.0000      7.8211      2.3834      0.0448     16.1580   -999.2500   -999.2500
  1520.1000      7.8211      2.3805      0.0612     16.3316   -999.2500   -999.2500
  1520.2000      7.8211      2.3766      0.0256     16.5726   -999.2500   -999.2500
  1520.3000      7.8297      2.3742      0.0469     16.7138   -999.2500   -999.2500
  1520.4000      7.8297      2.3758      0.0592     16.6179   -999.2500   -999.2500
  1520.5000      7.8318      2.3798      0.0678     16.3770   -999.2500   -999.2500
  1520.6000      7.8318      2.3801      0.0851     16.3554   -999.2500   -999.2500
  1520.7000      7.8318      2.3755      0.0658     16.6352   -999.2500   -999.2500
  1520.8000      7.8117      2.3787      0.0291     16.4448   -999.2500   -999.2500
  1520.9000      7.8117      2.3981      0.0688     15.2638   -999.2500   -999.2500
  1521.0000      7.8117      2.4194      0.1074     13.9735   -999.2500   -999.2500
  1521.1000      7.8117      2.4266      0.0712     13.5386   -999.2500   -999.2500
  1521.2000      7.8117      2.4213      0.0892     13.8616   -999.2500   -999.2500
  1521.3000      7.8137      2.4114      0.0619     14.4600   -999.2500   -999.2500
  1521.4000      7.8137      2.4056      0.0562     14.8133   -999.2500   -999.2500
  1521.5000      7.8169      2.4074      0.0483     14.7033   -999.2500   -999.2500
  1521.6000      7.8169      2.4091      0.0629     14.5971   -999.2500   -999.2500
  1521.7000      7.8169      2.4013      0.0476     15.0722   -999.2500   -999.2500
  1521.8000      7.8195      2.3856      0.0295     16.0234   -999.2500   -999.2500
  1521.9000      7.8195      2.3715      0.0321     16.8816   -999.2500   -999.2500
  1522.0000      7.8172      2.3635      0.0362     17.3624   -999.2500   -999.2500
  1522.1000      7.8172      2.3628      0.0360     17.4049   -999.2500   -999.2500
  1522.2000      7.8172      2.3725      0.0191     16.8161   -999.2500   -999.2500
  1522.3000      7.8178      2.3896      0.0316     15.7824   -999.2500   -999.2500
  1522.4000      7.8178      2.3965      0.0816     15.3615   -999.2500   -999.2500
  1522.5000      7.8236      2.3830      0.0437     16.1811   -999.2500   -999.2500
  1522.6000      7.8236      2.3700      0.0252     16.9725   -999.2500   -999.2500
  1522.7000      7.8236      2.3773      0.0879     16.5274   -999.2500   -999.2500
  1522.8000      7.8148      2.3962      0.0530     15.3842   -999.2500   -999.2500
  1522.9000      7.8148      2.4134      0.0700     14.3414   -999.2500   -999.2500
  1523.0000      7.7843      2.4220      0.0843     13.8161   -999.2500   -999.2500
  1523.1000      7.7843      2.4182      0.0771     14.0481   -999.2500   -999.2500
  1523.2000      7.7843      2.4073      0.0574     14.7074   -999.2500   -999.2500
  1523.3000      7.8009      2.4046      0.0474     14.8737   -999.2500   -999.2500
  1523.4000      7.8009      2.4482      0.0490     12.2319   -999.2500   -999.2500
  1523.5000      7.7949      2.6869      0.0387     -2.2382   -999.2500   -999.2500
  1523.6000      7.7949      3.3748      0.0669    -43.9258   -999.2500   -999.2500
  1523.7000      7.7949      4.2550      0.5313    -97.2730   -999.2500   -999.2500
  1523.8000      7.7928      4.1070      1.8128    -88.3017   -999.2500   -999.2500
  1523.9000      7.7928      2.5036      0.0000      8.8745   -999.2500   -999.2500
  1524.0000      6.6692      0.8774   -999.2500    107.4310   -999.2500   -999.2500
  1524.1000      6.6692      0.1692   -999.2500    150.3496   -999.2500   -999.2500
  1524.2000      6.6692      0.0176   -999.2500    159.5403   -999.2500   -999.2500
  1524.3000     -1.6623      0.0010   -999.2500    160.5478   -999.2500   -999.2500
  1524.4000     -1.6623      0.0000   -999.2500    160.6061   -999.2500   -999.2500
  1524.5000     -2.7899   -999.2500   -999.2500   -999.2500   -999.2500   -999.2500
  1524.6000     -2.7899   -999.2500   -999.2500   -999.2500   -999.2500   -999.2500
  1524.7000     -2.7899   -999.2500   -999.2500   -999.2500   -999.2500   -999.2500
  1524.8000   -999.2500   -999.2500   -999.2500   -999.2500   -999.2500   -999.2500
  1524.9000   -999.2500   -999.2500   -999.2500   -999.2500   -999.2500   -999.2500
  1525.0000   -999.2500   -999.2500   -999.2500   -999.2500   -999.2500   -999.2500
  1525.1000   -999.2500   -999.2500   -999.2500   -999.2500   -999.2500   -999.2500
  1525.2000   -999.2500   -999.2500   -999.2500   -999.2500   -999.2500   -999.2500
  1525.3000   -999.2500   -999.2500   -999.2500   -999.2500   -999.2500   -999.2500
  1525.4000   -999.2500   -999.2500   -999.2500   -999.2500   -999.2500   -999.2500
  1525.5000   -999.2500   -999.2500   -999.2500   -999.2500   -999.2500   -999.2500
  1525.6000   -999.2500   -999.2500   -999.2500   -999.2500   -999.2500   -999.2500
  1525.7000   -999.2500   -999.2500   -999.2500   -999.2500   -999.2500   -999.2500
  1525.8000   -999.2500   -999.2500   -999.2500   -999.2500   -999.2500   -999.2500
  1525.9000   -999.2500   -999.2500   -999.2500   -999.2500   -999.2500   -999.2500
  1526.0000   -999.2500   -999.2500   -999.2500   -999.2500   -999.2500   -999.2500
  1526.1000   -999.2500   -999.2500   -999.2500   -999.2500   -999.2500   -999.2500
  1526.2000   -999.2500   -999.2500   -999.2500   -999.2500   -999.2500   -999.2500
  1526.3000   -999.2500   -999.2500   -999.2500   -999.2500   -999.2500   -999.2500
