~Version Information
VERS.                      2.0: CWLS Log ASCII Standard - VERSION 2.0
WRAP.                       NO: One line per depth step
~Well Information Block
STRT.FT                -8.2500: 
STOP.FT              1439.2500: 
STEP.FT                 0.2500: 
NULL.                -999.2500: 
COMP.          Pioneer Natural Resources: COMPANY
WELL.          Old Faithful 21-2: WELL
FLD.           Purgatorie River: FIELD
LOC.           806' FNL & 2509' FWL--: LOCATION
PROV.                       CO: PROVINCE
CNTY.               Las Animas: COUNTRY
SRVC.          Patterson Wireline: SERVICE COMPANY
DATE.          Mon Dec 12 11:21:25 2005: LOG DATE
UWI.           08 071 08617 00: UNIQUE WELL ID
~Curve Information Block
DEPT.FT            0 000 00 00: Depth
CCL.                          : Casing Collar Locator
TT3.usec                      : CBL 3' Travel Time
AMP3.mV                       : CBL 3' Amplitude
GR.GAPI                       : Gamma Ray
~Parameter Information Block
~A  Depth       CCL         TT3         AMP3         GR     
# ...
   360.2500      0.0000    726.5803     10.9323     83.9020
   360.5000      0.0000    724.1025     10.5796     90.1710
   360.7500      0.0000    722.8151     10.2317     98.8510
   361.0000      0.0000    724.4265      9.9195    108.8034
   361.2500      0.0000    728.1161      9.6538    118.5123
   361.5000      0.0000    731.9664      9.4250    127.0423
   361.7500      0.0000    734.6721      9.2167    133.8620
   362.0000      0.0000    735.5541      9.0165    137.7118
   362.2500      0.0000    733.8525      8.8245    136.3583
   362.5000      0.0000    729.1331      8.6564    128.4600
   362.7500      0.0000    722.2094      8.5323    115.7716
   363.0000      0.0000    714.7708      8.4584    102.6554
   363.2500      0.0000    707.9348      8.4257     92.9086
   363.5000      0.0000    701.5870      8.4282     87.2488
   363.7500      0.0000    695.2467      8.4723     83.7523
   364.0000      0.0000    689.2252      8.5626     80.0896
   364.2500      0.0000    684.7832      8.6870     75.2909
   364.5000      0.0000    683.3939      8.8231     70.1110
   364.7500      0.0000    686.0305      8.9564     66.3051
   365.0000      0.0000    692.8741      9.0908     65.5363
   365.2500      0.0000    703.1826      9.2373     68.5142
   365.5000      0.0000    715.2527      9.3932     74.4975
   365.7500      0.0000    726.7939      9.5343     81.3272
   366.0000      0.0000    735.8273      9.6392     86.4680
   366.2500      0.0000    741.5253      9.7150     88.6338
   366.5000      0.0000    744.2358      9.7896     88.3795
   366.7500      0.0000    744.7364      9.8793     86.9660
   367.0000      0.0000    743.6061      9.9710     84.9746
   367.2500      0.0000    741.3365     10.0319     82.2382
   367.5000      0.0000    738.7679     10.0381     78.7557
   367.7500      0.0000    736.8920      9.9981     75.1150
   368.0000      0.0000    735.9878      9.9530     72.0011
   368.2500      0.0000    735.3548      9.9496     69.7561
   368.5000      0.0000    734.1928     10.0124     68.4453
   368.7500      0.0000    732.3168     10.1379     67.8120
   369.0000      0.0000    729.8112     10.3084     67.1024
   369.2500      0.0000    726.6819     10.5073     65.4644
   369.5000      0.0000    723.1691     10.7226     62.6727
   369.7500      0.0000    719.7210     10.9408     59.2502
   370.0000      0.0000    716.4219     11.1415     56.0898
   370.2500      0.0000    713.0536     11.3018     54.2989
   370.5000      0.0000    709.8042     11.4049     54.9871
   370.7500      0.0000    707.3782     11.4471     58.4607
   371.0000      0.0000    706.4312     11.4407     63.5216
   371.2500      0.0000    707.1468     11.4104     67.9781
   371.5000      0.0000    709.0892     11.3776     70.1956
   371.7500      0.0000    711.1350     11.3495     70.2109
   372.0000      0.0000    711.9351     11.3267     69.3214
   372.2500      0.0000    711.0399     11.3205     68.6481
   372.5000      0.0000    709.5542     11.3546     68.1213
   372.7500      0.0000    709.3331     11.4537     66.6419
   373.0000      0.0000    711.0712     11.6368     63.0317
   373.2500      0.0000    712.3876     11.9205     57.1030
   373.5000      0.0000    706.7433     12.3192     50.2274
   373.7500      0.0000    684.4949     12.8346     44.7428
   374.0000      0.0000    637.6648     13.4441     42.3676
   374.2500      0.0000    567.2513     14.0960     43.0315
   374.5000      0.0000    486.6596     14.7208     45.2874
   374.7500      0.0000    415.1994     15.2555     47.7195
   375.0000      0.0000    365.9589     15.6664     49.8296
   375.2500      0.0000    340.0368     15.9511     51.8629
   375.5000      0.0000    331.3748     16.1186     54.2014
   375.7500      0.0000    334.8127     16.1742     56.9839
   376.0000      0.0000    349.0802     16.1190     60.0778
   376.2500      0.0000    373.3341     15.9546     63.2722
   376.5000      0.0000    402.7540     15.6749     66.5207
   376.7500      0.0000    430.4026     15.2696     70.0955
   377.0000      0.0000    455.0410     14.7519     74.4904
   377.2500      0.0000    485.3630     14.1706     80.0460
   377.5000      0.0000    534.3688     13.5679     86.5889
   377.7500      0.0000    608.3695     12.9483     93.4262
   378.0000      0.0000    699.1893     12.3263     99.7529
   378.2500      0.0000    787.1228     11.7696    105.2177
   378.5000      0.0000    854.6319     11.3508    110.2035
   378.7500      0.0000    897.3180     11.0869    115.4645
   379.0000     -2.0000    920.9728     10.9575    121.3368
   379.2500      0.0000    931.5747     10.9472    127.3040
   379.5000      0.0000    928.6124     11.0575    132.3997
   379.7500      0.0000    904.9922     11.3097    135.9786
   380.0000      0.0000    856.2552     11.7221    138.2116
   380.2500      0.0000    794.0756     12.2223    140.2023
   380.5000      0.0000    745.2252     12.5977    143.2652
   380.7500      0.0000    730.3727     12.6390    147.1953
   381.0000      0.0000    746.6422     12.3514    149.3837
   381.2500      0.0000    774.2098     11.9417    146.7236
   381.5000      0.0000    795.3598     11.6009    138.9572
   381.7500      0.0000    804.2833     11.3736    129.7424
   382.0000      0.0000    804.0747     11.2216    123.7925
   382.2500      0.0000    800.1494     11.1228    122.6507
   382.5000      0.0000    796.2833     11.0837    123.4986
   382.7500      0.0000    793.8055     11.1039    122.3248
   383.0000      0.0000    792.4954     11.1635    117.9908
   383.2500      0.0000    791.7696     11.2382    113.0154
   383.5000      0.0000    791.2234     11.3257    110.7616
   383.7500      0.0000    790.6104     11.4574    112.3501
   384.0000      0.0000    789.6401     11.6717    116.1562
   384.2500      0.0000    788.0223     11.9634    119.7133
   384.5000      0.0000    785.9728     12.2758    121.7788
   384.7500      0.0000    784.7712     12.5514    122.9783
   385.0000      0.0000    786.3738     12.7660    124.8989
   385.2500      0.0000    791.7380     12.9013    128.3619
   385.5000      0.0000    799.3293     12.9230    132.3186
   385.7500      0.0000    805.7649     12.8221    134.6953
   386.0000      0.0000    808.4532     12.6583    134.6358
   386.2500      0.0000    807.6191     12.5279    133.6115
   386.5000      0.0000    805.5065     12.4881    133.9025
   386.7500      0.0000    803.8297     12.5205    136.1640
   387.0000      0.0000    802.6196     12.5604    138.9535
   387.2500      0.0000    801.6127     12.5581    140.6057
   387.5000      0.0000    801.8414     12.5204    141.0051
   387.7500      0.0000    805.0407     12.4978    141.3175
   388.0000      0.0000    811.2029     12.5284    142.5282
   388.2500      0.0000    816.6993     12.6008    144.4851
   388.5000      0.0000    815.3683     12.6745    145.6015
   388.7500      0.0000    802.9565     12.7238    143.2878
   389.0000      0.0000    781.4091     12.7506    135.6795
   389.2500      0.0000    758.0863     12.7627    123.4161
   389.5000      0.0000    740.2491     12.7497    109.2602
   389.7500      0.0000    730.8469     12.6799     96.0607
   390.0000      0.0000    729.3444     12.5247     85.4910
   390.2500      0.0000    734.7869     12.2918     78.3052
   390.5000      0.0000    746.7021     12.0273     75.1343
   390.7500      0.0000    763.2617     11.7764     76.8456
   391.0000      0.0000    779.9775     11.5447     83.8957
   391.2500      0.0000    791.7346     11.3079     95.2224
   391.5000      0.0000    796.3718     11.0580    108.1214
   391.7500      0.0000    795.5668     10.8257    119.4453
   392.0000      0.0000    792.2289     10.6531    127.0178
   392.2500      0.0000    787.8958     10.5558    130.5007
   392.5000      0.0000    782.7352     10.5196    131.4239
   392.7500      0.0000    777.1591     10.5262    131.7694
   393.0000      0.0000    772.4869     10.5656    131.8574
   393.2500      0.0000    769.6639     10.6265    130.1717
   393.5000      0.0000    767.8417     10.6842    125.9149
