~Version Information
VERS.                      2.0: CWLS Log ASCII Standard - VERSION 2.0
WRAP.                       NO: One line per depth step
~Well Information Block
STRT.FT               240.0000: 
STOP.FT               902.0000: 
STEP.FT                 0.1000: 
NULL.                -999.2500: 
COMP.          Pioneer Natural Resources: COMPANY
WELL.          Bienville 31-28: WELL
FLD.           Purgatoire River: FIELD
LOC.           1212' FNL & 2271' FEL: LOCATION
PROV.                 Colorado: PROVINCE
CNTY.               Las Animas: COUNTRY
SRVC.                Patterson: SERVICE COMPANY
DATE.          Mon Jan 16 13:39:21 2006: LOG DATE
UWI.           05 071 08666 00: UNIQUE WELL ID
~Curve Information Block
DEPT.FT            0 000 00 00: Depth
DCAL.in                       : CDL Caliper
RHOB.g/cc                     : CDL Bulk Density
RHOC.g/cc                     : CDL Density Correction
DPOR.pu                       : CDL Density Porosity
GR.GAPI                       : Gamma Ray
NPOR.pu                       : Neutron Porosity
~Parameter Information Block
~A  Depth       DCAL        RHOB        RHOC        DPOR         GR         NPOR    
# ...
   758.4000      8.1154      2.4750      0.0542     10.6054     83.6535     29.7755
   758.5000      8.0066      2.4926      0.0879      9.5421     88.2266     29.5543
   758.6000      8.0066      2.4819      0.0007     10.1898     89.7241     28.8260
   758.7000      8.0066      2.4765     -0.0563     10.5180     91.3107     27.8684
   758.8000      7.9194      2.5050      0.0232      8.7885     93.9188     26.8580
   758.9000      7.9194      2.5408      0.0650      6.6161     91.8228     25.7194
   759.0000      7.8695      2.5515      0.0382      5.9673     82.2244     24.8201
   759.1000      7.8695      2.5502      0.0390      6.0479     72.7279     24.5888
   759.2000      7.8695      2.5492      0.0879      6.1114     72.2562     24.8049
   759.3000      7.8706      2.5343      0.0613      7.0107     79.1546     24.9481
   759.4000      7.8706      2.5135      0.0417      8.2740     84.7640     24.9424
   759.5000      7.8589      2.5131      0.0111      8.2971     85.7726     24.9133
   759.6000      7.8589      2.5274      0.0900      7.4290     86.5940     24.9154
   759.7000      7.8589      2.5297      0.0971      7.2882     89.9792     25.0925
   759.8000      7.8358      2.5211      0.0700      7.8148     94.1457     25.5195
   759.9000      7.8358      2.5170      0.0486      8.0579     99.2979     26.0637
   760.0000      7.8334      2.5085      0.1003      8.5786    105.1398     26.3495
   760.1000      7.8334      2.4868      0.0174      9.8925    107.9126     26.2899
   760.2000      7.8334      2.4716      0.0061     10.8121    105.1815     26.2519
   760.3000      7.8446      2.4735      0.0362     10.6981     97.8111     26.2188
   760.4000      7.8446      2.4837     -0.0114     10.0797     89.2969     25.9587
   760.5000      7.8523      2.4950      0.0264      9.3923     83.6991     25.5387
   760.6000      7.8523      2.5037      0.0183      8.8643     80.2167     25.0424
   760.7000      7.8523      2.5102      0.0821      8.4700     74.1294     24.4742
   760.8000      7.8657      2.5175      0.0314      8.0294     65.9824     23.7690
   760.9000      7.8657      2.5289      0.0901      7.3381     60.4379     23.0519
   761.0000      7.8808      2.5413      0.1121      6.5895     58.0927     22.4974
   761.1000      7.8808      2.5492      0.0876      6.1093     56.6660     21.8650
   761.2000      7.8808      2.5531      0.0567      5.8706     56.6708     20.9235
   761.3000      7.8451      2.5492      0.1039      6.1117     60.1733     20.0936
   761.4000      7.8451      2.5339      0.0600      7.0362     63.4559     19.7525
   761.5000      7.8457      2.5162      0.0683      8.1065     62.1654     19.7614
   761.6000      7.8457      2.5012      0.0494      9.0165     58.3508     20.0724
   761.7000      7.8457      2.4879      0.0249      9.8259     53.6213     20.5408
   761.8000      7.8540      2.4793      0.0408     10.3474     48.5336     20.6317
   761.9000      7.8540      2.4769      0.0561     10.4926     44.6714     20.3931
   762.0000      7.8552      2.4817      0.0342     10.1993     43.8008     20.4374
   762.1000      7.8552      2.4932      0.0384      9.5056     46.7653     20.6826
   762.2000      7.8552      2.4965      0.0632      9.3042     50.0357     20.6088
   762.3000      7.8503      2.4846      0.0394     10.0225     48.9019     20.3285
   762.4000      7.8503      2.4739      0.0005     10.6737     46.9697     20.1750
   762.5000      7.8523      2.4736      0.0445     10.6912     49.5198     20.1389
   762.6000      7.8523      2.4790      0.0316     10.3658     55.6013     20.2419
   762.7000      7.8523      2.4860      0.0458      9.9385     60.9637     20.4243
   762.8000      7.8567      2.4899      0.1001      9.7015     62.4432     20.5678
   762.9000      7.8567      2.4872      0.0582      9.8643     63.7673     21.0788
   763.0000      7.8612      2.4818      0.0406     10.1961     68.7983     22.2403
   763.1000      7.8612      2.4807      0.0167     10.2606     75.1547     23.5103
   763.2000      7.8612      2.4894      0.0409      9.7339     80.0387     24.2898
   763.3000      7.8655      2.5068      0.0329      8.6781     82.9806     24.7994
   763.4000      7.8655      2.5213      0.0960      7.8029     86.1441     25.3151
   763.5000      7.8855      2.5217      0.0597      7.7741     91.4221     25.7945
   763.6000      7.8855      2.5168      0.0627      8.0709     97.0376     26.3273
   763.7000      7.8855      2.5175      0.0626      8.0292     99.0339     26.7569
   763.8000      7.8527      2.5291      0.0435      7.3251     97.7024     26.7720
   763.9000      7.8527      2.5499      0.0989      6.0684     97.7506     26.6321
   764.0000      7.8443      2.5602      0.1003      5.4406     99.4278     26.6206
   764.1000      7.8443      2.5531      0.0423      5.8714     97.7835     26.5836
   764.2000      7.8443      2.5463      0.0794      6.2823     92.6090     26.4036
   764.3000      7.8384      2.5422      0.1232      6.5355     88.7767     26.1596
   764.4000      7.8384      2.5340      0.0726      7.0293     89.8492     25.8641
   764.5000      7.8423      2.5271      0.0930      7.4491     95.3097     25.6832
   764.6000      7.8423      2.5221      0.0420      7.7509     98.5137     25.6452
   764.7000      7.8423      2.5232      0.0583      7.6848     94.9202     25.3910
   764.8000      7.8407      2.5419      0.0222      6.5491     90.8305     24.7892
   764.9000      7.8407      2.5747      0.0216      4.5640     91.7538     23.8710
   765.0000      7.8331      2.5969      0.0761      3.2152     94.0216     23.0477
   765.1000      7.8331      2.5923      0.0862      3.4981     91.6638     22.8758
   765.2000      7.8331      2.5684      0.1107      4.9476     86.8807     23.1083
   765.3000      7.8550      2.5381      0.0922      6.7828     88.2474     23.5524
   765.4000      7.8550      2.5149      0.0226      8.1874     95.7863     24.3412
   765.5000      7.8538      2.5071      0.0878      8.6576    102.8053     25.0595
   765.6000      7.8538      2.5100      0.0640      8.4832    107.1014     25.3330
   765.7000      7.8538      2.5191      0.0186      7.9347    108.5135     25.3629
   765.8000      7.8357      2.5304      0.0613      7.2512    108.0868     25.5637
   765.9000      7.8357      2.5388      0.0545      6.7407    108.7931     26.0238
   766.0000      7.8701      2.5543      0.0364      5.8021    108.5777     26.5124
   766.1000      7.8701      2.5855      0.0715      3.9118    103.6626     26.9236
   766.2000      7.8701      2.6158      0.1319      2.0710     97.1580     27.2191
   766.3000      7.8912      2.6265      0.1508      1.4251     94.2489     27.1475
   766.4000      7.8912      2.6225      0.1423      1.6691     94.4995     26.6138
   766.5000      7.8534      2.6186      0.1276      1.9003     93.8304     25.9768
   766.6000      7.8534      2.6217      0.1181      1.7137     92.3727     25.7163
   766.7000      7.8534      2.6237      0.1214      1.5959     93.5354     25.8188
   766.8000      7.8347      2.6113      0.0891      2.3445     98.1465     25.8126
   766.9000      7.8347      2.5889      0.0484      3.7003    100.7327     25.6744
   767.0000      7.8351      2.5778      0.0369      4.3733     96.6741     25.9544
   767.1000      7.8351      2.5893      0.0797      3.6785     93.0912     26.5520
   767.2000      7.8351      2.6102      0.0987      2.4142     96.5995     26.6071
   767.3000      7.8799      2.6201      0.1108      1.8148    100.3431     26.0572
   767.4000      7.8799      2.6116      0.0891      2.3303     97.9602     25.6151
   767.5000      7.8590      2.5934      0.0609      3.4303     94.0977     25.5196
   767.6000      7.8590      2.5755      0.0491      4.5167     93.0505     25.5163
   767.7000      7.8590      2.5586      0.0391      5.5390     92.7821     25.5192
   767.8000      7.8390      2.5431      0.0517      6.4811     94.4856     25.6605
   767.9000      7.8390      2.5326      0.0035      7.1132    100.1904     25.7213
