~Version Information
VERS.                      2.0: CWLS Log ASCII Standard - VERSION 2.0
WRAP.                       NO: One line per depth step
~Well Information Block
STRT.FT                -8.2500: 
STOP.FT               686.7500: 
STEP.FT                 0.2500: 
NULL.                -999.2500: 
COMP.          Pioneer Natural Resources: COMPANY
WELL.           Quintessa 23-7: WELL
FLD.           Purgatorie River: FIELD
LOC.           1964' FSL & 2589' FWL--: LOCATION
PROV.                       CO: PROVINCE
CNTY.               Las Animas: COUNTRY
SRVC.          Patterson Wireline: SERVICE COMPANY
DATE.          Wed Nov 23 10:31:07 2005: LOG DATE
UWI.           05 071 08558 00: UNIQUE WELL ID
~Curve Information Block
DEPT.FT            0 000 00 00: Depth
CCL.                          : Casing Collar Locator
TT3.usec                      : CBL 3' Travel Time
AMP3.mV                       : CBL 3' Amplitude
GR.GAPI                       : Gamma Ray
~Parameter Information Block
~A  Depth       CCL         TT3         AMP3         GR     
# ...
   661.7500      0.0000    862.5240     15.1105     61.5272
   662.0000      0.0000    830.6633     15.2701     59.6440
   662.2500      0.0000    805.6722     15.4303     57.9125
   662.5000      0.0000    787.2939     15.5143     56.7897
   662.7500      0.0000    773.4853     15.4789     56.6008
   663.0000      0.0000    762.6165     15.3242     57.1691
   663.2500      0.0000    754.3951     15.0800     57.8329
   663.5000      0.0000    749.0167     14.7927     58.1137
   663.7500      0.0000    746.1571     14.5218     58.4107
   664.0000      0.0000    744.9683     14.3318     59.7740
   664.2500      0.0000    744.6772     14.2682     62.7910
   664.5000      0.0000    744.9951     14.3318     66.8810
   664.7500      0.0000    746.2300     14.4804     70.8527
   665.0000      0.0000    749.1747     14.6583     73.9493
   665.2500      0.0000    754.7578     14.8309     76.1521
   665.5000      0.0000    763.4890     14.9925     77.8096
   665.7500      0.0000    775.2761     15.1487     79.4517
   666.0000      0.0000    789.6102     15.2980     81.7103
   666.2500      0.0000    805.0214     15.4343     84.8970
   666.5000      0.0000    817.8784     15.5618     88.5709
   666.7500      0.0000    823.3251     15.6990     91.5713
   667.0000      0.0000    819.3036     15.8643     92.5496
   667.2500      0.0000    809.0861     16.0612     90.9996
   667.5000      0.0000    798.5248     16.2809     88.1048
   667.7500      0.0000    791.3798     16.5189     86.0223
   668.0000      0.0000    787.9052     16.7870     85.8735
   668.2500      0.0000    786.6458     17.1069     86.8187
   668.5000      0.0000    786.3002     17.4907     87.3597
   668.7500      0.0000    786.1765     17.9247     86.9892
   669.0000      0.0000    785.8490     18.3727     86.2120
   669.2500      0.0000    784.5022     18.7925     85.5385
   669.5000      0.0000    780.3598     19.1513     85.0954
   669.7500      0.0000    770.4011     19.4362     84.8189
   670.0000      0.0000    751.5679     19.6588     84.4072
   670.2500      0.0000    724.0681     19.8443     83.3112
   670.5000      0.0000    694.6019     20.0068     81.1205
   670.7500      0.0000    675.5582     20.1312     77.7766
   671.0000      0.0000    679.7068     20.1798     73.5140
   671.2500      0.0000    713.5760     20.1164     69.1435
   671.5000      0.0000    771.8824     19.9314     66.2842
   671.7500      0.0000    836.4687     19.6555     66.4861
   672.0000      0.0000    884.3884     19.3515     69.6527
   672.2500      0.0000    901.2245     19.0887     73.3676
   672.5000      0.0000    888.2901     18.9154     73.8253
   672.7500      0.0000    858.8476     18.8455     67.8051
   673.0000      0.0000    828.3679     18.8583     54.7717
   673.2500      0.0000    806.3054     18.9115     37.7471
   673.5000      0.0000    794.0232     18.9613     21.6607
   673.7500      0.0000    787.9146     18.9809     10.1587
   674.0000      0.0000    783.6771     18.9662      3.8412
   674.2500      0.0000    778.6459     18.9311      1.1593
   674.5000      0.0000    772.5242     18.8986      0.2770
   674.7500      0.0000    767.1209     18.8890      0.0517
   675.0000      0.0000    764.9011     18.9115      0.0070
   675.2500      0.0000    766.8638     18.9663      0.0000
   675.5000      0.0000    771.5424     19.0444   -999.2500
   675.7500      0.0000    776.3307     19.1198   -999.2500
   676.0000      0.0000    780.2064     19.1513   -999.2500
   676.2500      0.0000    785.6428     19.1097   -999.2500
   676.5000      0.0000    797.8693     19.0073   -999.2500
   676.7500      0.0000    820.6649     18.8929   -999.2500
   677.0000      0.0000    850.0391     18.8030   -999.2500
   677.2500      0.0000    869.7648     18.6881   -999.2500
   677.5000      0.0000    853.6854     18.3289   -999.2500
   677.7500      0.0000    777.4229     17.3072   -999.2500
   678.0000      0.0000    635.8760     15.1830   -999.2500
   678.2500      0.0000    453.8164     11.8959   -999.2500
   678.5000      0.0000    275.8922      8.0314   -999.2500
   678.7500      0.0000    140.1935      4.5414   -999.2500
   679.0000      0.0000     58.6909      2.1063   -999.2500
   679.2500      0.0000     20.0215      0.7895   -999.2500
   679.5000      0.0000      5.5149      0.2366   -999.2500
   679.7500      0.0000      1.2145      0.0562   -999.2500
   680.0000      0.0000      0.2077      0.0104   -999.2500
   680.2500      0.0000      0.0218      0.0014   -999.2500
   680.5000      0.0000   -999.2500   -999.2500   -999.2500
   680.7500      0.0000   -999.2500   -999.2500   -999.2500
   681.0000      0.0000   -999.2500   -999.2500   -999.2500
   681.2500      0.0000   -999.2500   -999.2500   -999.2500
   681.5000      0.0000   -999.2500   -999.2500   -999.2500
   681.7500      0.0000   -999.2500   -999.2500   -999.2500
   682.0000      0.0000   -999.2500   -999.2500   -999.2500
   682.2500      0.0000   -999.2500   -999.2500   -999.2500
   682.5000      0.0000   -999.2500   -999.2500   -999.2500
   682.7500      0.0000   -999.2500   -999.2500   -999.2500
   683.0000      0.0000   -999.2500   -999.2500   -999.2500
   683.2500      0.0000   -999.2500   -999.2500   -999.2500
   683.5000      0.0000   -999.2500   -999.2500   -999.2500
   683.7500      0.0000   -999.2500   -999.2500   -999.2500
   684.0000      0.0000   -999.2500   -999.2500   -999.2500
   684.2500      0.0000   -999.2500   -999.2500   -999.2500
   684.5000      0.0000   -999.2500   -999.2500   -999.2500
   684.7500      0.0000   -999.2500   -999.2500   -999.2500
   685.0000      0.0000   -999.2500   -999.2500   -999.2500
   685.2500      0.0000   -999.2500   -999.2500   -999.2500
   685.5000      0.0000   -999.2500   -999.2500   -999.2500
   685.7500      0.0000   -999.2500   -999.2500   -999.2500
   686.0000      0.0000   -999.2500   -999.2500   -999.2500
   686.2500   -999.2500   -999.2500   -999.2500   -999.2500
   686.5000   -999.2500   -999.2500   -999.2500   -999.2500
   686.7500   -999.2500   -999.2500   -999.2500   -999.2500
