~Version Information
VERS.                      2.0: CWLS Log ASCII Standard - VERSION 2.0
WRAP.                       NO: One line per depth step
~Well Information Block
STRT.FT               460.0000: 
STOP.FT              2311.7000: 
STEP.FT                 0.1000: 
NULL.                -999.2500: 
COMP.          Pioneer Natural Resources: COMPANY
WELL.          McDonald 33-31 R: WELL
FLD.           Purgatoire River: FIELD
LOC.           1386' FSL & 1926' FEL: LOCATION
STAT.                 Colorado: State
CNTY.               Las Animas: COUNTY
CTRY.                      USA: Country
SECT.                       31: Section
TOWN.                      32S: Township
RANG.                      66W: Range
SRVC.                Patterson: SERVICE COMPANY
DATE.          Sat Sep 24 09:00:13 2005: LOG DATE
API.           05 071 08533 00: API
~Curve Information Block
DEPT.FT            0 000 00 00: Depth
DCAL.in                       : CDL Caliper
RHOB.g/cc                     : CDL Bulk Density
RHOC.g/cc                     : CDL Density Correction
DPOR.pu                       : CDL Density Porosity
NPOR.pu                       : Neutron Porosity
GR.GAPI                       : Gamma Ray
~Parameter Information Block
~A  Depth       DCAL        RHOB        RHOC        DPOR        NPOR         GR     
# ...
   584.8000      8.0389      2.5379      0.0271      6.7953     18.5772     67.3142
   584.9000      8.0389      2.5203      0.0062      7.8609     18.4470     66.8983
   585.0000      8.0316      2.5219      0.0255      7.7630     17.9532     68.7001
   585.1000      8.0316      2.5368      0.0161      6.8586     17.2211     68.0976
   585.2000      8.0316      2.5544      0.0378      5.7935     16.8144     65.0101
   585.3000      8.0189      2.5601      0.0784      5.4491     16.8053     61.8021
   585.4000      8.0189      2.5427      0.0418      6.5035     16.8806     58.2967
   585.5000      8.0074      2.5043      0.0470      8.8277     16.9217     55.4176
   585.6000      8.0074      2.4625      0.0146     11.3614     16.9145     57.0767
   585.7000      8.0074      2.4436     -0.0348     12.5088     16.8688     64.5806
   585.8000      7.9967      2.4529      0.0212     11.9442     16.9638     75.0389
   585.9000      7.9967      2.4687      0.0358     10.9885     17.4408     83.3167
   586.0000      7.9883      2.4806      0.0264     10.2651     18.0908     85.8600
   586.1000      7.9883      2.4925      0.0690      9.5472     18.3513     82.5092
   586.2000      7.9883      2.5014      0.0754      9.0083     18.1171     76.3143
   586.3000      7.9851      2.5142      0.0755      8.2284     17.9533     73.0202
   586.4000      7.9851      2.5462      0.0819      6.2934     18.2838     72.7482
   586.5000      7.9872      2.5902      0.0922      3.6271     18.8556     72.3931
   586.6000      7.9872      2.6237      0.0936      1.5960     19.2338     72.5262
   586.7000      7.9872      2.6356      0.0999      0.8711     19.4141     73.6265
   586.8000      7.9924      2.6304      0.0859      1.1854     19.7249     75.6332
   586.9000      7.9924      2.6171      0.0821      1.9945     19.9875     79.6497
   587.0000      7.9992      2.6042      0.0420      2.7780     19.7190     84.8200
   587.1000      7.9992      2.5987      0.0423      3.1105     19.1686     86.0212
   587.2000      7.9992      2.5987      0.0203      3.1103     18.8772     80.0794
   587.3000      8.0077      2.5933      0.0426      3.4345     18.8145     69.6072
   587.4000      8.0077      2.5780     -0.0078      4.3631     18.7081     61.2557
   587.5000      8.0121      2.5670     -0.0420      5.0288     18.3380     60.4280
   587.6000      8.0121      2.5704      0.0639      4.8258     17.4099     63.2189
   587.7000      8.0121      2.5814      0.0304      4.1584     16.1149     62.8851
   587.8000      8.0120      2.5873      0.0879      3.7978     15.4978     60.4456
   587.9000      8.0120      2.5765      0.0401      4.4541     15.8307     59.5291
   588.0000      8.0100      2.5556      0.0407      5.7214     16.2239     61.6355
   588.1000      8.0100      2.5403      0.0230      6.6488     16.4521     66.8368
   588.2000      8.0100      2.5335      0.0377      7.0596     16.9507     72.8212
   588.3000      8.0061      2.5308      0.0044      7.2222     17.6218     76.5052
   588.4000      8.0061      2.5375     -0.0100      6.8177     18.2469     77.3447
   588.5000      8.0030      2.5585      0.0392      5.5440     18.8959     75.5312
   588.6000      8.0030      2.5874      0.0575      3.7961     19.5471     73.2819
   588.7000      8.0030      2.6156      0.0503      2.0832     19.9576     74.7079
   588.8000      8.0011      2.6313      0.0494      1.1349     20.0408     79.5866
   588.9000      8.0011      2.6233      0.0708      1.6186     20.3174     82.9192
   589.0000      7.9993      2.6019     -0.0037      2.9145     21.4214     82.8222
   589.1000      7.9993      2.5829      0.0486      4.0644     22.7674     82.2455
   589.2000      7.9993      2.5656     -0.0049      5.1137     22.9308     82.4007
   589.3000      8.0006      2.5557     -0.0143      5.7171     22.0028     81.7851
   589.4000      8.0006      2.5613      0.0144      5.3758     21.5181     78.9344
   589.5000      8.0047      2.5746      0.0064      4.5692     21.9614     75.2965
   589.6000      8.0047      2.5750      0.0561      4.5451     22.3562     74.1896
   589.7000      8.0047      2.5436      0.0240      6.4504     22.2286     74.8633
   589.8000      8.0032      2.4885     -0.0153      9.7853     22.4714     74.6130
   589.9000      8.0032      2.4351     -0.0174     13.0219     23.5770     74.5227
   590.0000      7.9962      2.3979     -0.0507     15.2805     24.8033     76.7033
   590.1000      7.9962      2.3802     -0.0338     16.3541     25.6530     81.8428
   590.2000      7.9962      2.3782     -0.0113     16.4703     26.0747     90.0384
   590.3000      8.0004      2.3815      0.0126     16.2752     25.8134     99.2563
   590.4000      8.0004      2.3805     -0.0019     16.3349     24.9831    106.2966
   590.5000      8.0264      2.3775      0.0225     16.5155     24.0445    109.1454
   590.6000      8.0264      2.3842      0.0330     16.1083     23.0780    112.2295
   590.7000      8.0264      2.4090      0.0678     14.6084     22.0941    119.2975
   590.8000      8.0620      2.4430      0.1132     12.5443     21.3913    124.9897
   590.9000      8.0620      2.4626      0.1570     11.3603     21.2490    127.4918
   591.0000      8.0892      2.4555      0.0895     11.7858     21.5397    129.3877
   591.1000      8.0892      2.4358      0.0476     12.9808     21.6817    130.7711
   591.2000      8.0892      2.4122      0.0813     14.4098     21.6930    132.8569
   591.3000      8.1046      2.3828      0.0329     16.1960     21.8351    137.5967
   591.4000      8.1046      2.3573      0.0023     17.7371     21.7083    142.0056
   591.5000      8.1136      2.3509      0.0324     18.1270     21.1391    140.2272
   591.6000      8.1136      2.3556      0.0867     17.8411     20.4957    133.5654
   591.7000      8.1136      2.3460      0.0906     18.4215     20.2787    129.6911
   591.8000      8.1199      2.3216      0.0698     19.9026     20.3218    133.7245
   591.9000      8.1199      2.3135      0.0365     20.3951     19.8908    142.7446
   592.0000      8.1230      2.3380      0.1330     18.9116     19.0088    145.0852
   592.1000      8.1230      2.3703      0.1592     16.9497     18.1360    135.3082
   592.2000      8.1230      2.3823      0.0962     16.2225     17.3900    124.3376
   592.3000      8.1228      2.3718      0.0917     16.8609     16.7892    121.6888
   592.4000      8.1228      2.3505      0.0500     18.1544     16.3181    125.1275
   592.5000      8.1202      2.3286      0.0429     19.4804     15.8157    128.4753
   592.6000      8.1202      2.3105      0.0322     20.5729     15.2605    129.7138
   592.7000      8.1202      2.2980      0.0411     21.3304     15.0420    130.5182
   592.8000      8.1168      2.2882      0.0433     21.9251     15.4492    133.4251
   592.9000      8.1168      2.2706      0.0958     22.9942     16.0029    136.5126
   593.0000      8.1117      2.2365      0.0344     25.0582     16.2864    136.0998
   593.1000      8.1117      2.1901     -0.0157     27.8712     16.4438    135.8216
   593.2000      8.1117      2.1395      0.0144     30.9370     16.3089    137.0048
   593.3000      8.1018      2.0970     -0.0427     33.5128     15.6576    132.9079
   593.4000      8.1018      2.0841     -0.0464     34.2944     14.8595    126.2022
   593.5000      8.0917      2.1091     -0.0117     32.7797     14.3306    125.5311
   593.6000      8.0917      2.1568      0.0596     29.8929     14.1510    130.9560
   593.7000      8.0917      2.2098      0.0766     26.6770     14.2094    135.6647
   593.8000      8.0838      2.2605      0.1393     23.6039     14.2732    134.0315
   593.9000      8.0838      2.3049      0.1612     20.9130     14.2597    127.7078
   594.0000      8.0767      2.3452      0.1559     18.4736     14.6017    121.3059
   594.1000      8.0767      2.3901      0.1295     15.7536     15.6316    117.4334
   594.2000      8.0767      2.4401      0.1794     12.7214     17.0124    117.6238
   594.3000      8.0738      2.4785      0.1632     10.3917     18.4602    121.8232
