~Version Information
VERS.                      2.0: CWLS Log ASCII Standard - VERSION 2.0
WRAP.                       NO: One line per depth step
~Well Information Block
STRT.FT               665.0000: 
STOP.FT              2193.5000: 
STEP.FT                 0.1000: 
NULL.                -999.2500: 
COMP.          Pioneer Natural Resources: COMPANY
WELL.          Bear Cub Federal 11-23: WELL
FLD.           Purgatoire River: FIELD
LOC.           1225' FNL & 1268' FWL--: LOCATION
CNTY.               Las Animas: COUNTY
SRVC.                Patterson: SERVICE COMPANY
DATE.          Tue Jun 20 09:14:02 2006: LOG DATE
UWI.           05 071 08509 00: UNIQUE WELL ID
STAT.                 Colorado: STATE
~Curve Information Block
DEPT.FT            0 000 00 00: Depth
DCAL.in                       : CDL Caliper
RHOB.g/cc                     : CDL Bulk Density
RHOC.g/cc                     : CDL Density Correction
DPOR.pu                       : CDL Density Porosity
NPOR.pu                       : Neutron Porosity
GR.GAPI                       : Gamma Ray
~Parameter Information Block
~A  Depth       DCAL        RHOB        RHOC        DPOR        NPOR         GR     
# ...
  1260.2000      7.9489      2.5703      0.0887      4.8326     23.1894     82.7036
  1260.3000      7.9444      2.5987      0.1224      3.1075     23.4180     81.6330
  1260.4000      7.9444      2.6081      0.1298      2.5372     23.5217     77.5229
  1260.5000      7.9420      2.6100      0.1340      2.4256     23.5913     74.5302
  1260.6000      7.9420      2.6194      0.1342      1.8575     23.6946     73.9570
  1260.7000      7.9420      2.6290      0.2066      1.2718     23.8542     75.7233
  1260.8000      7.9426      2.6220      0.1645      1.6969     23.9762     79.8170
  1260.9000      7.9426      2.5979      0.1329      3.1600     23.6740     81.4983
  1261.0000      7.9443      2.5733      0.0992      4.6510     23.1089     79.4068
  1261.1000      7.9443      2.5611      0.0503      5.3885     23.0682     78.9714
  1261.2000      7.9443      2.5536      0.1033      5.8412     23.4526     80.8266
  1261.3000      7.9488      2.5439      0.0124      6.4303     23.5187     81.5832
  1261.4000      7.9488      2.5482      0.0328      6.1673     23.2972     81.0125
  1261.5000      7.9556      2.5766      0.0359      4.4469     23.2348     77.6143
  1261.6000      7.9556      2.6100      0.1196      2.4241     23.2692     72.9222
  1261.7000      7.9556      2.6166      0.1429      2.0255     23.2347     72.7006
  1261.8000      7.9573      2.5892      0.1299      3.6826     23.4342     75.6216
  1261.9000      7.9573      2.5530      0.0914      5.8770     23.9558     78.3938
  1262.0000      7.9504      2.5349      0.0625      6.9771     24.3895     82.3631
  1262.1000      7.9504      2.5412      0.0846      6.5953     24.4136     85.3946
  1262.2000      7.9504      2.5645      0.0872      5.1805     23.8673     82.3077
  1262.3000      7.9450      2.5955      0.1187      3.3037     22.8506     74.7805
  1262.4000      7.9450      2.6156      0.1606      2.0871     21.9131     68.8547
  1262.5000      7.9447      2.6054      0.1301      2.7009     21.5219     66.7269
  1262.6000      7.9447      2.5736      0.0833      4.6274     21.4732     68.3593
  1262.7000      7.9447      2.5402      0.1057      6.6544     21.3911     74.0241
  1262.8000      7.9443      2.5150      0.0362      8.1812     21.2673     80.2850
  1262.9000      7.9443      2.5118      0.0289      8.3781     21.2566     83.3574
  1263.0000      7.9471      2.5294      0.1017      7.3070     21.4145     83.3674
  1263.1000      7.9471      2.5449      0.0849      6.3675     21.7548     81.9816
  1263.2000      7.9471      2.5502      0.0721      6.0456     21.9739     81.8303
  1263.3000      7.9555      2.5532      0.0782      5.8680     21.7246     85.0302
  1263.4000      7.9555      2.5535      0.0840      5.8514     21.2449     90.1513
  1263.5000      7.9646      2.5466      0.0737      6.2686     20.9327     93.6225
  1263.6000      7.9646      2.5386      0.0492      6.7542     20.8726     93.5303
  1263.7000      7.9646      2.5403      0.0841      6.6501     21.0286     89.7668
  1263.8000      7.9679      2.5479      0.0728      6.1853     21.3802     82.9246
  1263.9000      7.9679      2.5489      0.0544      6.1257     21.8807     76.1002
  1264.0000      7.9665      2.5418      0.0551      6.5583     22.2635     73.7718
  1264.1000      7.9665      2.5390      0.0627      6.7287     22.4830     74.6651
  1264.2000      7.9665      2.5474      0.1033      6.2186     22.8082     74.3426
  1264.3000      7.9639      2.5583      0.1145      5.5562     23.0191     73.0384
  1264.4000      7.9639      2.5596      0.1092      5.4772     22.8476     74.6955
  1264.5000      7.9586      2.5434      0.1188      6.4626     22.6945     79.7572
  1264.6000      7.9586      2.5199      0.0334      7.8843     22.7915     81.7300
  1264.7000      7.9586      2.5172      0.0489      8.0465     22.8379     76.9412
  1264.8000      7.9503      2.5384      0.0696      6.7665     22.7199     71.4245
  1264.9000      7.9503      2.5644      0.0600      5.1875     22.6285     70.5447
  1265.0000      7.9444      2.5907      0.0967      3.5958     22.7481     72.9559
  1265.1000      7.9444      2.6154      0.1276      2.0979     22.9745     76.7374
  1265.2000      7.9444      2.6294      0.1378      1.2461     23.0983     80.0563
  1265.3000      7.9432      2.6278      0.1288      1.3472     23.3438     81.7645
  1265.4000      7.9432      2.6139      0.1328      2.1866     23.8268     81.8339
  1265.5000      7.9459      2.6034      0.0750      2.8264     24.1968     79.3785
  1265.6000      7.9459      2.6058      0.1237      2.6818     24.2357     75.8328
  1265.7000      7.9459      2.6077      0.0918      2.5659     24.0942     75.6189
  1265.8000      7.9501      2.6040      0.0549      2.7887     24.1229     79.6106
  1265.9000      7.9501      2.6007      0.0794      2.9894     24.7067     82.4127
  1266.0000      7.9510      2.5849      0.0738      3.9428     25.8728     80.8418
  1266.1000      7.9510      2.5506      0.0238      6.0249     26.9502     81.2820
  1266.2000      7.9510      2.5305     -0.0169      7.2430     27.3004     88.1746
  1266.3000      7.9485      2.5494      0.0490      6.0977     27.3787     94.9957
  1266.4000      7.9485      2.5805      0.0901      4.2129     27.7211     97.9865
  1266.5000      7.9475      2.5953      0.0678      3.3159     28.0736    101.7234
  1266.6000      7.9475      2.5937      0.0803      3.4097     28.4813    109.0515
  1266.7000      7.9475      2.5727      0.1078      4.6866     29.1914    117.6573
  1266.8000      7.9520      2.5377      0.0465      6.8049     29.8128    122.5655
  1266.9000      7.9520      2.5158      0.0293      8.1353     29.9977    121.3319
  1267.0000      7.9609      2.5157      0.0665      8.1423     29.7139    117.9199
  1267.1000      7.9609      2.5250      0.0571      7.5774     29.2753    117.5925
  1267.2000      7.9609      2.5394      0.0746      6.7018     29.0857    122.5987
  1267.3000      7.9681      2.5572      0.0823      5.6239     28.9295    133.0746
  1267.4000      7.9681      2.5708      0.0734      4.8006     28.3957    142.8067
  1267.5000      7.9707      2.5664      0.1253      5.0672     27.6687    143.5408
  1267.6000      7.9707      2.5348      0.1016      6.9842     27.1568    137.1600
  1267.7000      7.9707      2.4923      0.0553      9.5591     26.9509    131.4035
  1267.8000      7.9683      2.4610      0.0459     11.4561     27.0518    132.0669
  1267.9000      7.9683      2.4431      0.0575     12.5412     27.4422    139.9761
  1268.0000      7.9671      2.4362      0.0423     12.9573     27.8997    150.8894
  1268.1000      7.9671      2.4417      0.0472     12.6269     28.1765    158.6562
  1268.2000      7.9671      2.4502      0.0718     12.1119     28.1020    160.3489
  1268.3000      7.9694      2.4557      0.0183     11.7749     27.4898    156.3277
  1268.4000      7.9694      2.4611      0.0974     11.4511     26.6585    148.4359
  1268.5000      7.9705      2.4675      0.0306     11.0633     26.4060    141.7878
  1268.6000      7.9705      2.4853      0.0901      9.9794     26.8829    140.5822
  1268.7000      7.9705      2.5128      0.1256      8.3148     27.4163    143.5794
  1268.8000      7.9678      2.5224      0.1488      7.7352     27.4128    146.0149
  1268.9000      7.9678      2.5050      0.0793      8.7863     26.8070    147.0930
  1269.0000      7.9607      2.4833      0.1050     10.1017     26.0638    147.9737
  1269.1000      7.9607      2.4636      0.0719     11.2995     25.7750    144.8082
  1269.2000      7.9607      2.4314      0.0872     13.2469     25.8209    136.9384
  1269.3000      7.9528      2.3899      0.0588     15.7619     25.6058    131.4808
  1269.4000      7.9528      2.3614      0.0674     17.4884     25.0105    132.5070
  1269.5000      7.9495      2.3536      0.0905     17.9653     24.1954    136.2682
  1269.6000      7.9495      2.3539      0.1029     17.9434     23.2672    141.2978
  1269.7000      7.9495      2.3527      0.1081     18.0163     22.5015    146.3115
