~Version Information
VERS.                                  2.0 : CWLS LAS VERSION
WRAP.                                   NO : WRAPING MODE
SWARE .                  MController 2.5.1 : SOFTWARE VERSION
~Well Information
WELL.                  Horesfeathers 24-34 : WELL
COMP.  Pioneer Natural Resources USA, Inc. : COMPANY
FLD.                      Purgatoire River : FIELD
LOC.                      SE/SW 34-32S-67W : LOCATION
DATE.                02/03/2006-02/05/2006 : DATE(S) LOGGED
SRVC.                  Entrada GeoSciences : SERVICE COMPANY
STAT.                             Colorado : STATE
CNTY.                           Las Animas : COUNTY
CTRY.                        United States : COUNTRY
API.                          05-071-xxxxx : API NUMBER
STRT.FT                             514.00 : START DEPTH
STOP.FT                            2575.00 : STOP DEPTH
STEP.FT                               1.00 : DEPTH INCREMENT
NULL.                                -9999 : NULL VALUE
~Curve information
DEPTH.FT                                   :
ROP.MIN/FT                                 :
GAS.UNITS                                  :
~ASCII Log data
# ...
     1544.00         0.20          6.9
     1545.00         0.27          7.1
     1546.00         0.20          8.0
     1547.00         0.30          8.9
     1548.00         0.40         11.7
     1549.00         0.40         23.6
     1550.00         0.27         29.9
     1551.00         0.33         42.6
     1552.00         0.53         57.4
     1553.00         0.40         67.0
     1554.00         0.37         58.7
     1555.00         0.37         57.2
     1556.00         0.35         40.9
     1557.00         0.33         15.5
     1558.00         0.33         18.6
     1559.00         0.37         18.1
     1560.00         0.40         16.8
     1561.00         0.20         15.5
     1562.00         0.20         15.2
     1563.00         0.23         14.2
     1564.00         0.23         12.6
     1565.00         0.23         12.3
     1566.00         0.17          9.9
     1567.00         0.10          9.6
     1568.00         0.13          8.3
     1569.00         0.15          7.8
     1570.00         0.37          7.4
     1571.00         0.20          6.3
     1572.00         0.23          6.2
     1573.00         0.23          7.1
     1574.00         0.23          7.4
     1575.00         0.23          7.9
     1576.00         0.30          9.0
     1577.00         0.43         10.0
     1578.00         0.37         14.6
     1579.00         0.30         23.3
     1580.00         0.30         31.8
     1581.00         0.55         59.9
     1582.00         0.60         95.0
     1583.00         0.40        114.2
     1584.00         0.37        126.9
     1585.00         0.33        133.9
     1586.00         0.35        116.6
     1587.00         0.30        106.1
     1588.00         0.50        134.2
     1589.00         0.47        141.6
     1590.00         0.30        139.1
     1591.00         0.27        126.8
     1592.00         0.23        120.2
     1593.00         0.20         81.9
     1594.00         0.23         46.3
     1595.00         0.27         29.3
     1596.00         0.23         33.0
     1597.00         0.35         64.8
     1598.00         0.27         71.7
     1599.00         0.20         72.1
     1600.00         0.27         71.6
     1601.00         0.27         64.9
     1602.00         0.23         66.9
     1603.00         0.27         69.4
     1604.00         0.27         80.7
     1605.00         0.43         93.7
     1606.00         0.13         96.7
     1607.00         0.20         98.2
     1608.00         0.27         97.2
     1609.00         0.28         97.4
     1610.00         0.23        122.0
     1611.00         0.30        139.5
     1612.00         0.23        137.1
     1613.00         0.25          8.5
     1614.00         0.27         10.3
     1615.00         0.17         12.9
     1616.00         0.17         22.4
     1617.00         0.23         46.7
     1618.00         0.20         46.7
     1619.00         0.20         97.4
     1620.00         0.20        106.2
     1621.00         0.23        108.3
     1622.00         0.27         99.4
     1623.00         0.23         96.8
     1624.00         0.23         55.6
     1625.00         0.73         26.0
     1626.00         0.18         10.8
     1627.00         0.20         14.7
     1628.00         0.17         15.5
     1629.00         0.20         20.7
     1630.00         0.17         26.3
     1631.00         0.20         27.6
     1632.00         0.17         31.8
     1633.00         0.20         39.8
     1634.00         0.20         43.7
     1635.00         0.20         48.0
     1636.00         0.17         51.0
     1637.00         0.20         54.5
     1638.00         0.23         55.0
     1639.00         0.20         53.9
     1640.00         0.30         52.1
     1641.00         0.33         52.3
     1642.00         0.27         52.8
     1643.00         0.30         52.2
     1644.00         0.20         47.2
     1645.00         0.17         45.8
     1646.00         0.17         39.9
     1647.00         0.30         38.9
     1648.00         0.43         57.2
     1649.00         0.45          9.3
     1650.00         0.37         23.0
     1651.00         0.33         34.1
     1652.00         0.40         34.6
     1653.00         0.33         25.5
     1654.00         0.33         14.7
     1655.00         0.60          9.8
     1656.00         0.30          6.2
     1657.00         0.27          9.0
     1658.00         0.32         22.2
     1659.00         0.23         29.9
     1660.00         0.23         47.1
     1661.00         0.23         61.2
     1662.00         0.23         69.4
     1663.00         0.17         72.5
     1664.00         0.27         72.2
     1665.00         0.20         72.1
     1666.00         0.20         69.9
     1667.00         0.20         65.4
     1668.00         0.27         61.9
     1669.00         0.23         55.4
     1670.00         0.23         54.3
     1671.00         0.40         51.6
     1672.00         0.35         48.9
     1673.00         0.33         43.5
     1674.00         0.30         38.8
     1675.00         0.27         40.4
     1676.00         0.23         46.9
     1677.00         0.27         75.1
     1678.00         0.20         91.7
     1679.00         0.20         99.0
     1680.00         0.20         95.4
     1681.00         0.13         95.4
     1682.00         0.23         88.4
     1683.00         0.23         84.7
     1684.00         0.23         83.2
     1685.00         0.20         66.4
     1686.00         0.25         58.5
     1687.00         0.20         39.9
     1688.00         0.20         23.5
     1689.00         0.27         17.7
     1690.00         0.23         13.6
     1691.00         0.27         13.1
     1692.00         0.20         12.6
     1693.00         0.30         13.9
     1694.00         0.20         13.6
     1695.00         0.27         14.3
     1696.00         0.27         18.5
     1697.00         0.33         28.2
     1698.00         0.37         34.9
     1699.00         0.28         38.3
     1700.00         0.27         39.1
     1701.00         0.47         39.2
     1702.00         0.28         38.8
     1703.00         0.20         37.5
     1704.00         0.23         38.0
     1705.00         0.30         34.2
     1706.00         0.33         31.5
     1707.00         0.27          6.2
     1708.00         0.27          7.3
     1709.00         0.23         13.9
     1710.00         0.23         15.1
     1711.00         0.13         20.1
     1712.00         0.23         21.7
     1713.00         0.30         23.1
     1714.00         0.27         22.3
     1715.00         0.18         22.0
     1716.00         0.23         19.2
     1717.00         0.20         18.4
     1718.00         0.17         17.9
     1719.00         0.23         15.7
     1720.00         0.27         11.6
     1721.00         0.30          8.6
     1722.00         0.30          7.3
     1723.00         0.33          7.3
     1724.00         0.33          8.2
     1725.00         0.33         10.7
     1726.00         0.27         14.5
     1727.00         0.20         19.8
     1728.00         0.45         29.0
     1729.00         0.30         30.6
     1730.00         0.27         32.3
     1731.00         0.40         32.9
     1732.00         0.27         29.2
     1733.00         0.27         29.0
     1734.00         0.27         27.7
     1735.00         0.30         26.2
     1736.00         0.37         26.8
     1737.00         0.37         10.7
     1738.00         0.33         20.6
     1739.00         0.30         23.8
     1740.00         0.30         23.2
     1741.00         0.32         20.6
     1742.00         0.23         18.8
     1743.00         0.23         15.5
     1744.00         0.17         15.0
     1745.00         0.23         14.1
     1746.00         0.27         11.1
     1747.00         0.23          9.5
     1748.00         0.23         11.0
     1749.00         0.27         13.7
