~Version Information
VERS.                      2.0: CWLS Log ASCII Standard - VERSION 2.0
WRAP.                       NO: One line per depth step
~Well Information Block
STRT.FT               310.0000: 
STOP.FT               815.0000: 
STEP.FT                 0.2500: 
NULL.                -999.2500: 
COMP.          Pioneer Natural Resources: COMPANY
WELL.           Weissach 32-32: WELL
FLD.           Purgatorie River: FIELD
LOC.           2193' FNL & 2256' FEL: LOCATION
STAT.                 Colorado: State
CNTY.               Las Animas: COUNTY
CTRY. USA : Country
SECT. 32 : Section
TOWN. 33S : Township
RANG. 65W : Range
SRVC.                Patterson: SERVICE COMPANY
DATE.          Mon Sep 26 09:20:51 2005: LOG DATE
API. 05-071-08523                         : UNIQUE WELL ID
~Curve Information Block
DEPT.FT            0 000 00 00: Depth
SN.Ohm-m                      : IEL Short Normal
SP.mV                         : IEL Spontaneous Potential
DIR.Ohm-m                     : IEL Induction Resistivity
GR.GAPI                       : Gamma Ray
~Parameter Information Block
~A  Depth        SN          SP         DIR          GR     
   310.0000   2000.0000   2000.0000     10.8658     92.5946
   310.2500   2000.0000   2000.0000     10.5640     72.9968
   310.5000   2000.0000   2000.0000     10.3683     71.7138
   310.7500   2000.0000   2000.0000      9.9818     79.7026
   311.0000   2000.0000   2000.0000      9.6554     57.2575
   311.2500   2000.0000   2000.0000      9.7642     62.3416
   311.5000   2000.0000   2000.0000     10.0514     62.8870
   311.7500   2000.0000   2000.0000     10.3279     64.6375
   312.0000   2000.0000   2000.0000     10.7019     87.6336
   312.2500   2000.0000   2000.0000     10.7067     87.0723
   312.5000   2000.0000   2000.0000     10.7978     98.1456
   312.7500   2000.0000   2000.0000     10.8530     92.8268
   313.0000   2000.0000   2000.0000     10.6483     83.6343
   313.2500   2000.0000   2000.0000     10.5939     84.1964
   313.5000   2000.0000   2000.0000     10.6180     82.4172
   313.7500   2000.0000   2000.0000     10.8488     87.4615
   314.0000   2000.0000   2000.0000     10.9387     95.6695
   314.2500   2000.0000   2000.0000     10.9759     92.1950
   314.5000   2000.0000   2000.0000     11.0879     68.8855
   314.7500   2000.0000   2000.0000     11.0445     62.5243
   315.0000   2000.0000   2000.0000     11.1025     47.0779
   315.2500   2000.0000   2000.0000     10.9454     48.1136
   315.5000   2000.0000   2000.0000     10.8968     36.9150
   315.7500   2000.0000   2000.0000     10.9793     36.2051
   316.0000   2000.0000   2000.0000     10.9133     30.6448
   316.2500   2000.0000   2000.0000     10.9461     30.5188
   316.5000   2000.0000   2000.0000     10.7761     40.1437
   316.7500   2000.0000   2000.0000     10.2817     38.4319
   317.0000   2000.0000   2000.0000      9.6803     45.9770
   317.2500   2000.0000   2000.0000     10.1046     44.9179
   317.5000   2000.0000   2000.0000     11.1263     34.9026
   317.7500   2000.0000   2000.0000     11.7618     35.1998
   318.0000   2000.0000   2000.0000     11.5886     25.6825
   318.2500   2000.0000   2000.0000     11.1702     26.4631
   318.5000   2000.0000   2000.0000     11.0828     25.5608
   318.7500   2000.0000   2000.0000     10.8832     26.0055
   319.0000   2000.0000   2000.0000     10.7285     30.8170
   319.2500   2000.0000   2000.0000     10.4010     29.8213
   319.5000   2000.0000   2000.0000      9.8953     30.0438
   319.7500   2000.0000   2000.0000     10.6024     27.4755
   320.0000   2000.0000   2000.0000     12.6822     39.4201
   320.2500   2000.0000   2000.0000     17.9436     35.5105
   320.5000   2000.0000   2000.0000     22.1316     31.4083
   320.7500   2000.0000   2000.0000     16.0257     40.5129
   321.0000   2000.0000   2000.0000     11.9598     43.3183
   321.2500   2000.0000   2000.0000     10.5877     42.2801
   321.5000   2000.0000   2000.0000     10.3359     39.5408
   321.7500   2000.0000   2000.0000     10.4911     42.1253
   322.0000   2000.0000   2000.0000     10.4719     37.2283
   322.2500   2000.0000   2000.0000     10.8544     28.4995
   322.5000   2000.0000   2000.0000     10.8970     33.2209
   322.7500   2000.0000   2000.0000     11.2748     41.5746
   323.0000   2000.0000   2000.0000     21.2246     47.1620
   323.2500   2000.0000   2000.0000 100000.0000     50.3818
   323.5000   2000.0000   2000.0000 100000.0000     36.0277
   323.7500   2000.0000   2000.0000 100000.0000     30.0058
   324.0000   2000.0000   2000.0000     11.5764     34.9959
   324.2500   2000.0000   2000.0000      6.0836     32.5695
   324.5000   2000.0000   2000.0000      7.1867     24.2536
   324.7500   2000.0000   2000.0000     11.9778     40.7423
   325.0000   2000.0000   2000.0000     14.7978     33.4667
   325.2500   2000.0000   2000.0000     23.3752     30.7690
   325.5000   2000.0000   2000.0000     60.5843     45.0735
   325.7500   2000.0000   2000.0000 100000.0000     44.4059
   326.0000   2000.0000   2000.0000 100000.0000     37.6338
   326.2500   2000.0000   2000.0000 100000.0000     51.0698
   326.5000   2000.0000   2000.0000      4.5839     54.1656
   326.7500   2000.0000   2000.0000      1.5499     52.1259
   327.0000   2000.0000   2000.0000      1.3957     46.3933
   327.2500   2000.0000   2000.0000      2.5536     50.4538
   327.5000   2000.0000   2000.0000      6.3241     61.8310
   327.7500   2000.0000   2000.0000     12.4793     57.4287
   328.0000   2000.0000   2000.0000     22.3741     45.0484
   328.2500   2000.0000   2000.0000     53.2366     44.7105
   328.5000   2000.0000   2000.0000     64.3117     50.1190
   328.7500   2000.0000   2000.0000 100000.0000     52.5893
   329.0000   2000.0000   2000.0000 100000.0000     38.5147
   329.2500   2000.0000   2000.0000 100000.0000     35.3632
   329.5000   2000.0000   2000.0000 100000.0000     40.0620
   329.7500   2000.0000   2000.0000    261.2373     33.1514
   330.0000   2000.0000   2000.0000     15.1651     45.3754
   330.2500   2000.0000   2000.0000     15.0586     48.2290
   330.5000   2000.0000   2000.0000     18.6258     43.1067
   330.7500   2000.0000   2000.0000     23.5565     46.5648
   331.0000   2000.0000   2000.0000     19.3318     35.0488
   331.2500   2000.0000   2000.0000     17.6650     41.6646
   331.5000   2000.0000   2000.0000     17.3150     49.2082
   331.7500   2000.0000   2000.0000     19.6797     51.6141
   332.0000   2000.0000   2000.0000     17.3183     44.7828
   332.2500   2000.0000   2000.0000     15.4204     57.1919
   332.5000   2000.0000   2000.0000     13.1993     67.9279
   332.7500   2000.0000   2000.0000     12.7111     79.1506
   333.0000   2000.0000   2000.0000     15.2160    101.1151
   333.2500   2000.0000   2000.0000     17.1544    112.9177
   333.5000   2000.0000   2000.0000     17.4941    118.9563
   333.7500   2000.0000   2000.0000     15.3225    101.8875
   334.0000   2000.0000   2000.0000     13.0549    118.0981
   334.2500   2000.0000   2000.0000     14.5058    132.3670
   334.5000   2000.0000   2000.0000     11.9463    125.0362
   334.7500   2000.0000   2000.0000     11.8993    138.4268
   335.0000   2000.0000   2000.0000     12.3084    171.4602
   335.2500   2000.0000   2000.0000     12.3330    146.3328
   335.5000   2000.0000   2000.0000     12.2223    141.6087
   335.7500   2000.0000   2000.0000     11.9486    149.0101
   336.0000   2000.0000   2000.0000     14.2953    133.6148
   336.2500   2000.0000   2000.0000     13.6011    126.2614
   336.5000   2000.0000   2000.0000     14.2001    126.7315
   336.7500   2000.0000   2000.0000     16.1807    125.8064
   337.0000   2000.0000   2000.0000     22.4296    120.0028
   337.2500   2000.0000   2000.0000     16.5350    101.0483
   337.5000   2000.0000   2000.0000     16.1544     90.6335
   337.7500   2000.0000   2000.0000     16.4256     87.1576
   338.0000   2000.0000   2000.0000     16.5730    104.7989
   338.2500   2000.0000   2000.0000     16.7398     96.4385
   338.5000   2000.0000   2000.0000     19.9513    110.5169
   338.7500   2000.0000   2000.0000     15.6722    123.3742
   339.0000   2000.0000   2000.0000     15.4770    146.0503
   339.2500   2000.0000   2000.0000     17.2361    147.7261
   339.5000   2000.0000   2000.0000     13.9344    133.4697
   339.7500   2000.0000   2000.0000     13.2762    138.5076
   340.0000   2000.0000   2000.0000     13.1195    145.3100
   340.2500   2000.0000   2000.0000     12.9761    133.5453
   340.5000   2000.0000   2000.0000     14.0344    135.2995
   340.7500   2000.0000   2000.0000     13.7564    149.3885
   341.0000   2000.0000   2000.0000     15.9954    160.0849
   341.2500   2000.0000   2000.0000     12.4541    145.3673
   341.5000   2000.0000   2000.0000     12.1404    150.3043
   341.7500   2000.0000   2000.0000     12.0919    149.8694
   342.0000   2000.0000   2000.0000     12.3676    151.5837
   342.2500   2000.0000   2000.0000     12.4967    139.7248
   342.5000   2000.0000   2000.0000     12.9811    151.2801
   342.7500   2000.0000   2000.0000     15.1179    147.3316
   343.0000   2000.0000   2000.0000     12.0201    142.2717
   343.2500   2000.0000   2000.0000     11.6019    141.8394
