~Version Information
VERS.                      2.0: CWLS Log ASCII Standard - VERSION 2.0
WRAP.                       NO: One line per depth step
~Well Information Block
STRT.FT                -8.5000: 
STOP.FT              2030.0000: 
STEP.FT                 0.2500: 
NULL.                -999.2500: 
COMP.          Pioneer Natural Resources: COMPANY
WELL.           Alabaster 11-8: WELL
FLD.           Purgatorie River: FIELD
LOC.           1249' FNL & 215' FWL--: LOCATION
PROV.                       CO: PROVINCE
CNTY.               Las Animas: COUNTRY
SRVC.          Patterson Wireline: SERVICE COMPANY
DATE.          Mon Jan 30 11:59:01 2006: LOG DATE
UWI.           05 071 08642 00: UNIQUE WELL ID
~Curve Information Block
DEPT.FT            0 000 00 00: Depth
CCL.                          : Casing Collar Locator
TT3.usec                      : CBL 3' Travel Time
AMP3.mV                       : CBL 3' Amplitude
GR.GAPI                       : Gamma Ray
~Parameter Information Block
~A  Depth       CCL         TT3         AMP3         GR     
# ...
   393.5000      0.0000    264.5118     77.0113    107.4130
   393.7500      0.0000    264.5100     77.0379    103.7021
   394.0000      0.0000    264.5045     77.0483    101.1350
   394.2500      0.0000    264.4968     77.0583     98.7068
   394.5000      0.0000    264.4866     77.0892     95.5396
   394.7500      0.0000    264.4743     77.1424     91.6327
   395.0000      0.0000    264.4628     77.1937     87.9260
   395.2500      0.0000    264.4558     77.2147     85.8187
   395.5000      0.0000    264.4550     77.1968     86.1409
   395.7500      0.0000    264.4595     77.1502     88.4440
   396.0000      0.0000    264.4673     77.0878     91.4661
   396.2500      0.0000    264.4762     77.0175     94.2145
   396.5000      0.0000    264.4847     76.9464     96.3475
   396.7500      0.0000    264.4924     76.8857     97.3665
   397.0000      0.0000    264.4990     76.8460     95.8874
   397.2500      0.0000    264.5045     76.8273     90.5464
   397.5000      0.0000    264.5092     76.8149     81.8725
   397.7500      0.0000    264.5134     76.7911     72.6389
   398.0000      0.0000    264.5182     76.7476     65.7617
   398.2500      0.0000    264.5245     76.6868     62.1840
   398.5000      0.0000    264.5336     76.6181     61.1817
   398.7500      0.0000    264.5475     76.5510     61.9685
   399.0000      0.0000    264.5734     76.4549     63.9798
   399.2500      0.0000    264.6371     76.1684     66.1452
   399.5000      0.0000    264.8015     75.3187     67.4835
   399.7500      0.0000    265.1694     73.4167     68.6255
   400.0000      0.0000    265.8454     70.1941     71.3942
   400.2500      0.0000    266.8603     65.9367     76.3686
   400.5000      0.0000    268.1129     61.4242     81.8386
   400.7500      0.0000    269.3924     57.4836     85.4712
   401.0000      0.0000    270.4797     54.5940     86.1729
   401.2500      0.0000    271.2501     52.8100     84.3190
   401.5000      0.0000    271.7038     51.8870     81.2802
   401.7500      2.0000    271.9178     51.4598     78.8546
   402.0000      0.0000    271.9715     51.2329     78.1001
   402.2500      0.0000    271.9016     51.1316     78.4440
   402.5000      0.0000    271.6930     51.4244     78.4594
   402.7500      0.0000    271.2846     52.7572     77.4708
   403.0000      0.0000    270.5874     55.8379     76.0559
   403.2500      0.0000    269.5382     60.7484     75.2598
   403.5000      0.0000    268.1881     66.5496     75.6661
   403.7500      0.0000    266.7411     71.8182     76.9903
   404.0000      0.0000    265.4680     75.6033     78.3401
   404.2500      0.0000    264.5548     77.7725     78.9661
   404.5000      0.0000    264.0229     78.6403     78.7768
   404.7500      0.0000    263.7757     78.5389     78.1818
   405.0000      0.0000    263.6992     77.6683     77.8140
   405.2500      0.0000    263.7320     76.0725     78.4256
   405.5000      0.0000    263.9079     73.6046     80.4472
   405.7500      0.0000    264.4223     69.9582     83.2362
   406.0000      0.0000    265.7358     64.8760     85.1985
   406.2500      0.0000    268.6104     58.4233     85.2247
   406.5000      0.0000    273.8715     51.0854     83.9884
   406.7500      0.0000    282.1577     43.5701     83.4102
   407.0000      0.0000    294.4973     36.4881     84.6334
   407.2500      0.0000    314.1385     30.1511     86.6330
   407.5000      0.0000    347.6010     24.5975     87.0329
   407.7500      0.0000    401.3693     19.7583     84.3339
   408.0000      0.0000    474.5571     15.5873     79.1794
   408.2500      0.0000    554.9044     12.0815     73.4129
   408.5000      0.0000    624.7535      9.2469     68.3093
   408.7500      0.0000    672.3966      7.0708     63.9919
   409.0000      0.0000    697.3856      5.5085     60.1798
   409.2500      0.0000    706.4099      4.4747     57.0056
   409.5000      0.0000    706.7253      3.8501     55.0531
   409.7500      0.0000    703.4802      3.5075     54.6986
   410.0000      0.0000    700.3514      3.3397     55.5834
   410.2500      0.0000    699.9386      3.2719     56.9297
   410.5000      0.0000    702.8646      3.2565     58.3507
   410.7500      0.0000    707.4999      3.2650     60.0446
   411.0000      0.0000    711.5718      3.2802     62.2231
   411.2500      0.0000    714.2048      3.2898     64.6573
   411.5000      0.0000    716.2452      3.2846     66.8387
   411.7500      0.0000    718.9370      3.2599     68.3542
   412.0000      0.0000    722.6127      3.2202     69.0200
   412.2500      0.0000    726.5490      3.1779     68.8320
   412.5000      0.0000    729.8289      3.1431     67.9995
   412.7500      0.0000    732.1111      3.1155     67.0651
   413.0000      0.0000    733.5171      3.0880     66.7609
   413.2500      0.0000    734.1953      3.0559     67.4105
   413.5000      0.0000    734.3869      3.0218     68.4102
   413.7500      0.0000    734.6188      2.9913     68.5249
   414.0000      0.0000    735.3417      2.9694     66.9833
   414.2500      0.0000    736.4738      2.9589     64.3488
   414.5000      0.0000    737.5666      2.9601     62.1932
   414.7500      0.0000    738.3111      2.9699     61.8977
   415.0000      0.0000    738.7222      2.9836     63.9161
   415.2500      0.0000    738.9669      2.9989     67.9688
   415.5000      0.0000    739.1756      3.0169     73.3583
   415.7500      0.0000    739.3809      3.0377     78.9911
   416.0000      0.0000    739.5464      3.0582     83.7388
   416.2500      0.0000    739.6224      3.0750     87.0412
   416.5000      0.0000    739.5976      3.0891     88.9755
   416.7500      0.0000    739.5092      3.1073     90.0236
   417.0000      0.0000    739.3972      3.1362     91.0217
   417.2500      0.0000    739.2075      3.1750     92.7428
   417.5000      0.0000    738.6737      3.2155     95.0052
   417.7500      0.0000    737.2878      3.2483     96.5654
   418.0000      0.0000    734.5336      3.2703     96.3006
   418.2500      0.0000    730.3639      3.2834     94.2551
   418.5000      0.0000    725.4874      3.2898     91.3216
   418.7500      0.0000    721.0125      3.2892     88.2432
   419.0000      0.0000    717.7103      3.2797     85.2686
   419.2500      0.0000    715.6533      3.2614     82.4791
   419.5000      0.0000    714.4817      3.2370     80.0120
   419.7500      0.0000    713.8315      3.2099     78.0613
   420.0000      0.0000    713.4984      3.1812     76.9676
   420.2500      0.0000    713.3745      3.1492     77.1385
   420.5000      0.0000    713.3741      3.1129     78.6180
   420.7500      0.0000    713.4301      3.0764     80.9791
   421.0000      0.0000    713.5145      3.0466     83.8512
   421.2500      0.0000    713.6349      3.0272     87.1065
   421.5000      0.0000    713.7931      3.0148     90.2219
   421.7500      0.0000    713.9503      3.0025     92.0314
   422.0000      0.0000    714.0453      2.9868     91.7994
   422.2500      0.0000    714.0571      2.9711     90.4083
   422.5000      0.0000    714.0338      2.9621     89.9580
   422.7500      0.0000    714.0413      2.9651     92.0349
   423.0000      0.0000    714.0687      2.9840     96.3223
   423.2500      0.0000    713.9672      3.0234    100.6623
   423.5000      0.0000    713.4631      3.0862    102.5497
   423.7500      0.0000    712.2728      3.1694    101.0384
   424.0000      0.0000    710.3214      3.2619     97.3536
   424.2500      0.0000    707.8600      3.3489     93.4357
   424.5000      0.0000    705.1635      3.4167     89.8084
   424.7500      0.0000    702.0494      3.4576     85.0561
   425.0000      0.0000    698.0386      3.4736     77.6123
   425.2500      0.0000    693.2062      3.4766     67.9519
   425.5000      0.0000    688.5446      3.4821     58.7992
   425.7500      0.0000    685.2399      3.5007     53.3825
   426.0000      0.0000    683.8311      3.5341     53.6518
   426.2500      0.0000    684.2506      3.5773     59.4737
   426.5000      0.0000    686.4178      3.6214     68.7019
   426.7500      0.0000    690.4309      3.6581     78.1811
