~Version Information
VERS.                      2.0: CWLS Log ASCII Standard - VERSION 2.0
WRAP.                       NO: One line per depth step
~Well Information Block
STRT.FT               480.0000: 
STOP.FT              1946.0000: 
STEP.FT                 0.2500: 
NULL.                -999.2500: 
COMP.          XTO Energy Inc.: COMPANY
WELL.          Golden Eagle 19-15: WELL
FLD.           Purgatoire River: FIELD
LOC.           1121' FSL & 2332' FEL--: LOCATION
CNTY.               Las Animas: COUNTY
SRVC.                Patterson: SERVICE COMPANY
DATE.          Sun Mar 12 15:00:51 2006: LOG DATE
UWI.           05 071 08717 00: UNIQUE WELL ID
STAT.                 Colorado: STATE
~Curve Information Block
DEPT.FT            0 000 00 00: Depth
SP.mV                         : DIL Spontaneous Potential
RILD.Ohm-m                    : DIL Deep Resistivity
RILM.Ohm-m                    : DIL Medium Resistivity
RLL3.Ohm-m                    : DIL Shallow Resistivity
GR.GAPI                       : Gamma Ray
~Parameter Information Block
~A  Depth        SP         RILD        RILM        RLL3         GR     
# ...
  1907.0000     37.0453      5.5960      6.5722      7.2291      0.0285
  1907.2500     37.0547      5.6334      6.6646      7.3198      0.0035
  1907.5000     37.0818      5.6654      6.7243      7.3219   -999.2500
  1907.7500     37.1173      5.6901      6.7556      7.2508   -999.2500
  1908.0000     37.1472      5.7035      6.7648      7.1379   -999.2500
  1908.2500     37.1613      5.7010      6.7562      7.0170   -999.2500
  1908.5000     37.1608      5.6786      6.7299      6.9105   -999.2500
  1908.7500     37.1583      5.6351      6.6822      6.8216   -999.2500
  1909.0000     37.1688      5.5723      6.6075      6.7356   -999.2500
  1909.2500     37.2006      5.4940      6.5027      6.6314   -999.2500
  1909.5000     37.2536      5.4052      6.3704      6.4933   -999.2500
  1909.7500     37.3213      5.3106      6.2197      6.3203   -999.2500
  1910.0000     37.3925      5.2145      6.0625      6.1265   -999.2500
  1910.2500     37.4540      5.1200      5.9095      5.9345   -999.2500
  1910.5000     37.4946      5.0295      5.7668      5.7650   -999.2500
  1910.7500     37.5097      4.9439      5.6359      5.6286   -999.2500
  1911.0000     37.5033      4.8637      5.5151      5.5241   -999.2500
  1911.2500     37.4844      4.7893      5.4021      5.4415   -999.2500
  1911.5000     37.4629      4.7215      5.2960      5.3700   -999.2500
  1911.7500     37.4456      4.6613      5.1978      5.3036   -999.2500
  1912.0000     37.4374      4.6095      5.1103      5.2437   -999.2500
  1912.2500     37.4413      4.5662      5.0369      5.1972   -999.2500
  1912.5000     37.4580      4.5307      4.9799      5.1711   -999.2500
  1912.7500     37.4845      4.5022      4.9396      5.1681   -999.2500
  1913.0000     37.5138      4.4799      4.9144      5.1843   -999.2500
  1913.2500     37.5358      4.4635      4.9014      5.2115   -999.2500
  1913.5000     37.5410      4.4528      4.8979      5.2416   -999.2500
  1913.7500     37.5242      4.4481      4.9020      5.2711   -999.2500
  1914.0000     37.4903      4.4495      4.9132      5.3018   -999.2500
  1914.2500     37.4563      4.4568      4.9316      5.3380   -999.2500
  1914.5000     37.4453      4.4694      4.9569      5.3820   -999.2500
  1914.7500     37.4705      4.4854      4.9878      5.4321   -999.2500
  1915.0000     37.5227      4.5028      5.0218      5.4830   -999.2500
  1915.2500     37.5743      4.5193      5.0561      5.5293   -999.2500
  1915.5000     37.6013      4.5334      5.0885      5.5678   -999.2500
  1915.7500     37.5998      4.5443      5.1177      5.5978   -999.2500
  1916.0000     37.5829      4.5521      5.1430      5.6196   -999.2500
  1916.2500     37.5657      4.5570      5.1637      5.6323   -999.2500
  1916.5000     37.5570      4.5590      5.1790      5.6343   -999.2500
  1916.7500     37.5587      4.5581      5.1882      5.6250   -999.2500
  1917.0000     37.5694      4.5544      5.1904      5.6059   -999.2500
  1917.2500     37.5880      4.5487      5.1852      5.5806   -999.2500
  1917.5000     37.6164      4.5418      5.1730      5.5530   -999.2500
  1917.7500     37.6571      4.5348      5.1548      5.5251   -999.2500
  1918.0000     37.7073      4.5285      5.1321      5.4971   -999.2500
  1918.2500     37.7584      4.5240      5.1069      5.4678   -999.2500
  1918.5000     37.7996      4.5228      5.0819      5.4368   -999.2500
  1918.7500     37.8225      4.5272      5.0599      5.4060   -999.2500
  1919.0000     37.8241      4.5400      5.0442      5.3800   -999.2500
  1919.2500     37.8067      4.5636      5.0386      5.3655   -999.2500
  1919.5000     37.7724      4.5999      5.0469      5.3705   -999.2500
  1919.7500     37.7173      4.6502      5.0729      5.4032   -999.2500
  1920.0000     37.6314      4.7156      5.1204      5.4714   -999.2500
  1920.2500     37.5087      4.7964      5.1932      5.5822   -999.2500
  1920.5000     37.3580      4.8925      5.2947      5.7428   -999.2500
  1920.7500     37.2020      5.0020      5.4281      5.9599   -999.2500
  1921.0000     37.0639      5.1224      5.5951      6.2392   -999.2500
  1921.2500     36.9524      5.2509      5.7945      6.5802   -999.2500
  1921.5000     36.8601      5.3860      6.0216      6.9703   -999.2500
  1921.7500     36.7751      5.5277      6.2672      7.3799   -999.2500
  1922.0000     36.6940      5.6780      6.5189      7.7643   -999.2500
  1922.2500     36.6236      5.8393      6.7641      8.0741   -999.2500
  1922.5000     36.5726      6.0137      6.9936      8.2719   -999.2500
  1922.7500     36.5436      6.2016      7.2046      8.3460   -999.2500
  1923.0000     36.5309      6.4014      7.4010      8.3151   -999.2500
  1923.2500     36.5232      6.6092      7.5924      8.2207   -999.2500
  1923.5000     36.5110      6.8191      7.7899      8.1116   -999.2500
  1923.7500     36.4916      7.0233      8.0034      8.0279   -999.2500
  1924.0000     36.4694      7.2126      8.2378      7.9922   -999.2500
  1924.2500     36.4521      7.3772      8.4923      8.0093   -999.2500
  1924.5000     36.4449      7.5072      8.7616      8.0724   -999.2500
  1924.7500     36.4444      7.5934      9.0378      8.1699   -999.2500
  1925.0000     36.4401      7.6273      9.3142      8.2908   -999.2500
  1925.2500     36.4223      7.6041      9.5863      8.4253   -999.2500
  1925.5000     36.3900      7.5273      9.8500      8.5639   -999.2500
  1925.7500     36.3480      7.4130     10.0996      8.6966   -999.2500
  1926.0000     36.3004      7.2851     10.3252      8.8136   -999.2500
  1926.2500     36.2466      7.1647     10.5138      8.9066   -999.2500
  1926.5000     36.1866      7.0600     10.6511      8.9707   -999.2500
  1926.7500     36.1256      6.9641     10.7245      9.0054   -999.2500
  1927.0000     36.0728      6.8612     10.7236      9.0143   -999.2500
  1927.2500     36.0345      6.7368     10.6399      9.0035   -999.2500
  1927.5000     36.0109      6.5842     10.4649      8.9767   -999.2500
  1927.7500     35.9995      6.4075     10.1898      8.9303   -999.2500
  1928.0000     36.0001      6.2180      9.8103      8.8488   -999.2500
  1928.2500     36.0162      6.0458      9.3345      8.7061   -999.2500
  1928.5000     36.0527      5.8887      8.7885      8.4736   -999.2500
  1928.7500     36.1114      5.7442      8.2135      8.1338   -999.2500
  1929.0000     36.1910      5.6317      7.6544      7.6929   -999.2500
  1929.2500     36.2883      5.5482      7.1484      7.1864   -999.2500
  1929.5000     36.3998      5.4842      6.7197      6.6729   -999.2500
  1929.7500     36.5209      5.4269      6.3788      6.2187   -999.2500
  1930.0000     36.6471      5.3658      6.1250      5.8782   -999.2500
  1930.2500     36.7721      5.2965      5.9496      5.6792   -999.2500
  1930.5000     36.8857      5.2233      5.8390      5.6178   -999.2500
  1930.7500     36.9742      5.1600      5.7773      5.6645   -999.2500
  1931.0000     36.9985      5.1329      5.7493      5.7772   -999.2500
  1931.2500     36.8187      5.1874      5.7436      5.9152   -999.2500
  1931.5000     36.0630      5.3972      5.7527      6.0483   -999.2500
  1931.7500     34.0837      5.8808      5.7729      6.1594   -999.2500
  1932.0000     30.2510      6.8142      5.8019      6.2413   -999.2500
  1932.2500     24.5790      8.5929      5.8373      6.2934   -999.2500
  1932.5000     18.0954     11.9128      5.8757      6.3180   -999.2500
  1932.7500     12.3470     18.2729      5.9129      6.3199   -999.2500
  1933.0000      8.3860     30.8861      5.9454      6.3053   -999.2500
  1933.2500      6.2628     56.1639      5.9705      6.2809   -999.2500
  1933.5000      5.3770    103.1488      5.9860      6.2517   -999.2500
  1933.7500      5.0893    171.1987      5.9908      6.2200   -999.2500
  1934.0000      5.0165    235.5154      5.9852      6.1855   -999.2500
  1934.2500      5.0022    281.5628      5.9733      6.1478   -999.2500
  1934.5000   -999.2500    335.1235      5.9662      6.1084   -999.2500
  1934.7500   -999.2500    464.9068      5.9889      6.0719   -999.2500
