~Version Information
VERS.                      2.0: CWLS Log ASCII Standard - VERSION 2.0
WRAP.                       NO: One line per depth step
~Well Information Block
STRT.FT               230.0000: 
STOP.FT              1028.0000: 
STEP.FT                 0.2500: 
NULL.                -999.2500: 
COMP.          Pioneer Natural Resources: COMPANY
WELL.              Gough 14-29: WELL
FLD.           Purgatoire River: FIELD
LOC.           1199' FSL & 676' FWL: LOCATION
PROV.                 Colorado: PROVINCE
CNTY.               Las Animas: COUNTRY
SRVC.                Patterson: SERVICE COMPANY
DATE.          Thu Dec 22 16:27:18 2005: LOG DATE
UWI.           05 071 08612 00: UNIQUE WELL ID
~Curve Information Block
DEPT.FT            0 000 00 00: Depth
SN.Ohm-m                      : IEL Short Normal
SP.mV                         : IEL Spontaneous Potential
DIR.Ohm-m                     : IEL Induction Resistivity
GR.GAPI                       : Gamma Ray
~Parameter Information Block
SNDERRM.mmho-m         10.0000: Medium Sonde Error Correction
~A  Depth        SN          SP         DIR          GR     
# ...
   431.0000   2000.0000   2000.0000     18.3186    124.3592
   431.2500   2000.0000   2000.0000     18.4890    123.3505
   431.5000   2000.0000   2000.0000     18.6641    122.0359
   431.7500   2000.0000   2000.0000     18.8324    120.8587
   432.0000   2000.0000   2000.0000     18.9849    118.3343
   432.2500   2000.0000   2000.0000     19.1094    116.8737
   432.5000   2000.0000   2000.0000     19.1949    117.2234
   432.7500   2000.0000   2000.0000     19.2401    119.8120
   433.0000   2000.0000   2000.0000     19.2547    125.7059
   433.2500   2000.0000   2000.0000     19.2482    128.8710
   433.5000   2000.0000   2000.0000     19.2179    129.1735
   433.7500   2000.0000   2000.0000     19.1465    125.9096
   434.0000   2000.0000   2000.0000     19.0172    117.9569
   434.2500   2000.0000   2000.0000     18.8392    113.0081
   434.5000   2000.0000   2000.0000     18.6594    110.2138
   434.7500   2000.0000   2000.0000     18.5436    112.6423
   435.0000   2000.0000   2000.0000     18.5395    121.1870
   435.2500   2000.0000   2000.0000     18.6471    127.4298
   435.5000   2000.0000   2000.0000     18.8173    132.7760
   435.7500   2000.0000   2000.0000     18.9801    132.4755
   436.0000   2000.0000   2000.0000     19.0889    127.5754
   436.2500   2000.0000   2000.0000     19.1522    123.0288
   436.5000   2000.0000   2000.0000     19.2283    116.8443
   436.7500   2000.0000   2000.0000     19.3881    114.2690
   437.0000   2000.0000   2000.0000     19.6746    114.1675
   437.2500   2000.0000   2000.0000     20.0825    116.8495
   437.5000   2000.0000   2000.0000     20.5643    123.6577
   437.7500   2000.0000   2000.0000     21.0506    128.4766
   438.0000   2000.0000   2000.0000     21.4736    133.6293
   438.2500   2000.0000   2000.0000     21.7831    134.9896
   438.5000   2000.0000   2000.0000     21.9516    133.9319
   438.7500   2000.0000   2000.0000     21.9671    131.5567
   439.0000   2000.0000   2000.0000     21.8233    126.5518
   439.2500   2000.0000   2000.0000     21.5164    122.9931
   439.5000   2000.0000   2000.0000     21.0546    118.5177
   439.7500   2000.0000   2000.0000     20.4687    116.6878
   440.0000   2000.0000   2000.0000     19.8094    116.2789
   440.2500   2000.0000   2000.0000     19.1280    117.6079
   440.5000   2000.0000   2000.0000     18.4589    121.8204
   440.7500   2000.0000   2000.0000     17.8138    126.0850
   441.0000   2000.0000   2000.0000     17.1912    134.5655
   441.2500   2000.0000   2000.0000     16.5921    141.1424
   441.5000   2000.0000   2000.0000     16.0282    150.8884
   441.7500   2000.0000   2000.0000     15.5202    156.5526
   442.0000   2000.0000   2000.0000     15.0864    163.5490
   442.2500   2000.0000   2000.0000     14.7311    167.4970
   442.5000   2000.0000   2000.0000     14.4422    172.6597
   442.7500   2000.0000   2000.0000     14.1989    175.4319
   443.0000   2000.0000   2000.0000     13.9874    177.8235
   443.2500   2000.0000   2000.0000     13.8114    177.6897
   443.5000   2000.0000   2000.0000     13.6906    174.1150
   443.7500   2000.0000   2000.0000     13.6486    169.3100
   444.0000   2000.0000   2000.0000     13.6988    159.0207
   444.2500   2000.0000   2000.0000     13.8371    151.0079
   444.5000   2000.0000   2000.0000     14.0441    139.5548
   444.7500   2000.0000   2000.0000     14.2928    133.7751
   445.0000   2000.0000   2000.0000     14.5583    130.0590
   445.2500   2000.0000   2000.0000     14.8225    131.5285
   445.5000   2000.0000   2000.0000     15.0722    138.8685
   445.7500   2000.0000   2000.0000     15.2956    145.6123
   446.0000   2000.0000   2000.0000     15.4790    155.2066
   446.2500   2000.0000   2000.0000     15.6061    159.8938
   446.5000   2000.0000   2000.0000     15.6593    163.5715
   446.7500   2000.0000   2000.0000     15.6228    163.9554
   447.0000   2000.0000   2000.0000     15.4872    162.3284
   447.2500   2000.0000   2000.0000     15.2532    160.5182
   447.5000   2000.0000   2000.0000     14.9311    157.7460
   447.7500   2000.0000   2000.0000     14.5387    155.9993
   448.0000   2000.0000   2000.0000     14.0988    153.2909
   448.2500   2000.0000   2000.0000     13.6352    151.5150
   448.5000   2000.0000   2000.0000     13.1694    149.7549
   448.7500   2000.0000   2000.0000     12.7176    149.7180
   449.0000   2000.0000   2000.0000     12.2895    151.5509
   449.2500   2000.0000   2000.0000     11.8884    153.6639
   449.5000   2000.0000   2000.0000     11.5115    157.2064
   449.7500   2000.0000   2000.0000     11.1523    159.3564
   450.0000   2000.0000   2000.0000     10.8054    162.0601
   450.2500   2000.0000   2000.0000     10.4701    163.7837
   450.5000   2000.0000   2000.0000     10.1514    166.8939
   450.7500   2000.0000   2000.0000      9.8576    169.4844
   451.0000   2000.0000   2000.0000      9.5966    174.1079
   451.2500   2000.0000   2000.0000      9.3754    177.6953
   451.5000   2000.0000   2000.0000      9.2012    183.8504
   451.7500   2000.0000   2000.0000      9.0826    188.1635
   452.0000   2000.0000   2000.0000      9.0286    193.6657
   452.2500   2000.0000   2000.0000      9.0454    195.8678
   452.5000   2000.0000   2000.0000      9.1338    196.4185
   452.7500   2000.0000   2000.0000      9.2886    195.2410
   453.0000   2000.0000   2000.0000      9.5001    191.6731
   453.2500   2000.0000   2000.0000      9.7562    187.7675
   453.5000   2000.0000   2000.0000     10.0425    178.2746
   453.7500   2000.0000   2000.0000     10.3425    169.1667
   454.0000   2000.0000   2000.0000     10.6403    152.5487
   454.2500   2000.0000   2000.0000     10.9277    141.0439
   454.5000   2000.0000   2000.0000     11.2116    126.1622
   454.7500   2000.0000   2000.0000     11.5158    119.2434
   455.0000   2000.0000   2000.0000     11.8731    114.2941
   455.2500   2000.0000   2000.0000     12.3107    114.1142
   455.5000   2000.0000   2000.0000     12.8387    116.7148
   455.7500   2000.0000   2000.0000     13.4452    119.4561
   456.0000   2000.0000   2000.0000     14.1024    124.3297
   456.2500   2000.0000   2000.0000     14.7732    127.8139
   456.5000   2000.0000   2000.0000     15.4151    132.5422
   456.7500   2000.0000   2000.0000     15.9805    134.8085
   457.0000   2000.0000   2000.0000     16.4235    136.7491
   457.2500   2000.0000   2000.0000     16.7178    137.5088
   457.5000   2000.0000   2000.0000     16.8764    138.3876
   457.7500   2000.0000   2000.0000     16.9553    138.5582
   458.0000   2000.0000   2000.0000     17.0347    137.4190
   458.2500   2000.0000   2000.0000     17.1857    135.6536
   458.5000   2000.0000   2000.0000     17.4432    132.0553
   458.7500   2000.0000   2000.0000     17.7993    129.2736
   459.0000   2000.0000   2000.0000     18.2172    124.3833
   459.2500   2000.0000   2000.0000     18.6562    120.4904
   459.5000   2000.0000   2000.0000     19.0893    114.0663
   459.7500   2000.0000   2000.0000     19.5105    110.0730
   460.0000   2000.0000   2000.0000     19.9345    105.9031
   460.2500   2000.0000   2000.0000     20.3947    104.7915
   460.5000   2000.0000   2000.0000     20.9341    105.2774
   460.7500   2000.0000   2000.0000     21.5876    106.2984
   461.0000   2000.0000   2000.0000     22.3608    107.5329
   461.2500   2000.0000   2000.0000     23.2193    107.7836
   461.5000   2000.0000   2000.0000     24.0996    107.4921
   461.7500   2000.0000   2000.0000     24.9402    107.0767
   462.0000   2000.0000   2000.0000     25.7134    105.9869
   462.2500   2000.0000   2000.0000     26.4249    104.6066
   462.5000   2000.0000   2000.0000     27.0858    101.2544
   462.7500   2000.0000   2000.0000     27.6907     98.4391
   463.0000   2000.0000   2000.0000     28.2240     94.3179
   463.2500   2000.0000   2000.0000     28.6807     92.1191
   463.5000   2000.0000   2000.0000     29.0736     89.8876
   463.7500   2000.0000   2000.0000     29.4243     88.8831
   464.0000   2000.0000   2000.0000     29.7517     87.1612
   464.2500   2000.0000   2000.0000     30.0660     85.2027
