~Version Information
VERS.                      2.0: CWLS Log ASCII Standard - VERSION 2.0
WRAP.                       NO: One line per depth step
~Well Information Block
STRT.FT                -8.2500: 
STOP.FT              1653.2500: 
STEP.FT                 0.2500: 
NULL.                -999.2500: 
COMP.          Pioneer Natural Resources: COMPANY
WELL.            Relay 12-7 Tr: WELL
FLD.           Purgatorie River: FIELD
LOC.           2025' FNL & 790' FWL--: LOCATION
PROV.                       CO: PROVINCE
CNTY.               Las Animas: COUNTRY
SRVC.          Patterson Wireline: SERVICE COMPANY
DATE.          Tue Jan 24 10:25:08 2006: LOG DATE
UWI.           05 071 08603 00: UNIQUE WELL ID
~Curve Information Block
DEPT.FT            0 000 00 00: Depth
CCL.                          : Casing Collar Locator
TT3.usec                      : CBL 3' Travel Time
AMP3.mV                       : CBL 3' Amplitude
GR.GAPI                       : Gamma Ray
~Parameter Information Block
~A  Depth       CCL         TT3         AMP3         GR     
# ...
   661.7500      0.0000    666.7396      5.3081     75.0539
   662.0000      0.0000    662.8032      5.3029     77.0546
   662.2500      0.0000    662.1489      5.2889     79.8612
   662.5000      0.0000    666.8660      5.2701     83.7235
   662.7500      0.0000    676.7170      5.2485     88.5852
   663.0000      0.0000    689.4603      5.2257     94.0141
   663.2500      0.0000    702.0102      5.2113     99.9810
   663.5000      0.0000    711.4589      5.2229    107.1797
   663.7500      0.0000    716.0527      5.2741    116.0756
   664.0000      0.0000    715.7739      5.3625    125.5398
   664.2500      0.0000    711.8973      5.4698    132.8038
   664.5000      0.0000    706.0817      5.5721    135.3044
   664.7500      0.0000    699.9307      5.6549    132.9205
   665.0000      0.0000    694.8019      5.7203    128.3512
   665.2500      0.0000    691.4237      5.7789    125.0826
   665.5000      0.0000    689.6952      5.8349    124.8611
   665.7500      0.0000    689.0207      5.8800    126.9946
   666.0000      0.0000    688.8110      5.9038    129.8120
   666.2500      0.0000    688.7085      5.9069    132.2305
   666.5000      0.0000    688.5647      5.8994    133.5751
   666.7500      0.0000    688.4222      5.8871    132.7449
   667.0000      0.0000    688.6566      5.8639    128.9277
   667.2500      0.0000    690.2245      5.8187    123.0580
   667.5000      0.0000    694.6848      5.7465    117.4445
   667.7500      0.0000    703.4048      5.6546    113.7555
   668.0000      0.0000    715.9510      5.5582    111.9040
   668.2500      0.0000    729.0209      5.4700    110.8244
   668.5000      0.0000    737.6387      5.3951    109.6912
   668.7500      0.0000    738.3530      5.3343    108.2630
   669.0000      0.0000    732.0221      5.2855    106.5486
   669.2500      0.0000    723.8667      5.2398    104.5335
   669.5000      0.0000    720.3993      5.1815    102.1325
   669.7500      0.0000    725.3137      5.0939     99.2535
   670.0000      0.0000    737.6594      4.9673     96.0679
   670.2500      0.0000    753.5458      4.8027     93.2260
   670.5000      0.0000    769.0331      4.6138     91.3420
   670.7500      0.0000    781.4195      4.4236     90.0745
   671.0000      0.0000    789.0679      4.2568     88.3003
   671.2500      0.0000    791.3936      4.1338     85.5363
   671.5000      0.0000    789.1246      4.0680     82.7683
   671.7500      0.0000    783.9224      4.0619     81.6066
   672.0000      0.0000    777.4876      4.1025     82.9126
   672.2500      0.0000    771.0386      4.1663     86.2753
   672.5000      0.0000    765.2212      4.2345     90.3720
   672.7500      0.0000    759.7689      4.3020     93.6714
   673.0000      0.0000    753.1992      4.3734     95.1026
   673.2500      0.0000    743.6041      4.4548     94.4970
   673.5000      0.0000    730.4707      4.5502     92.7068
   673.7500      0.0000    715.7571      4.6574     91.1917
   674.0000      0.0000    702.7547      4.7662     91.0136
   674.2500      0.0000    693.7466      4.8605     92.0974
   674.5000      0.0000    688.9127      4.9270     93.6068
   674.7500      0.0000    687.2615      4.9606     94.7622
   675.0000      0.0000    688.1685      4.9625     95.1281
   675.2500      0.0000    691.8951      4.9373     94.6207
   675.5000      0.0000    698.5744      4.8931     93.5451
   675.7500      0.0000    706.5238      4.8395     92.3180
   676.0000      0.0000    712.0011      4.7807     90.9939
   676.2500      0.0000    711.7198      4.7110     89.2742
   676.5000      0.0000    705.9852      4.6184     87.0427
   676.7500      0.0000    698.8419      4.4919     84.7293
   677.0000      0.0000    695.0688      4.3319     83.0056
   677.2500      0.0000    697.2303      4.1579     82.1583
   677.5000      0.0000    704.7036      4.0057     81.9744
   677.7500      0.0000    714.5050      3.9060     82.2257
   678.0000      0.0000    723.6244      3.8572     83.0186
   678.2500      0.0000    731.5422      3.8187     84.6206
   678.5000      0.0000    739.9957      3.7449     86.9922
   678.7500      0.0000    749.8828      3.6297     89.3032
   679.0000      0.0000    759.7132      3.5154     90.0125
   679.2500      0.0000    767.6333      3.4554     88.0784
   679.5000      0.0000    773.0709      3.4720     84.3608
   679.7500      2.0000    775.3917      3.5515     81.2891
   680.0000      0.0000    772.7620      3.6661     80.6939
   680.2500      0.0000    764.1938      3.8003     82.2993
   680.5000      0.0000    752.4788      3.9587     84.5905
   680.7500      0.0000    743.7034      4.1450     86.5746
   681.0000      0.0000    742.6738      4.3316     88.1071
   681.2500      0.0000    748.6780      4.4725     89.0829
   681.5000      0.0000    756.3925      4.5607     89.2808
   681.7500      0.0000    760.9686      4.6414     88.9231
   682.0000      0.0000    761.4795      4.7498     88.6907
   682.2500      0.0000    759.8104      4.8655     89.0548
   682.5000      0.0000    757.7328      4.9473     89.8455
   682.7500      0.0000    755.4969      4.9849     90.5513
   683.0000      0.0000    752.2101      5.0026     91.1064
   683.2500      0.0000    746.8726      5.0297     92.2754
   683.5000      0.0000    739.3746      5.0801     94.8497
   683.7500      0.0000    730.8659      5.1540     98.4470
   684.0000      0.0000    722.9378      5.2472    101.7520
   684.2500      0.0000    716.2593      5.3555    104.2694
   684.5000      0.0000    710.1988      5.4731    107.2456
   684.7500      0.0000    703.8802      5.5905    112.2199
   685.0000      0.0000    697.3605      5.6964    118.9071
   685.2500      0.0000    691.6024      5.7798    125.1778
   685.5000      0.0000    687.5037      5.8334    129.0153
   685.7500      0.0000    685.2007      5.8571    129.7282
   686.0000      0.0000    684.1994      5.8592    127.3658
   686.2500      0.0000    683.8917      5.8503    122.1359
   686.5000      0.0000    683.9003      5.8353    114.9289
   686.7500      0.0000    684.1025      5.8136    107.6723
   687.0000      0.0000    684.4734      5.7833    102.3395
   687.2500      0.0000    684.9417      5.7430     99.4005
   687.5000      0.0000    685.3775      5.6895     97.3053
   687.7500      0.0000    685.6727      5.6184     93.7408
   688.0000      0.0000    685.7904      5.5303     87.7981
   688.2500      0.0000    685.7581      5.4350     80.8596
   688.5000      0.0000    685.6395      5.3510     75.0806
   688.7500      0.0000    685.5005      5.2955     71.2792
   689.0000      0.0000    685.3777      5.2742     68.8591
   689.2500      0.0000    685.2793      5.2769     67.4585
   689.5000      0.0000    685.2133      5.2872     67.7170
   689.7500      0.0000    685.1979      5.2959     70.2871
   690.0000      0.0000    685.2354      5.3049     74.9005
   690.2500      0.0000    685.2936      5.3208     80.6814
   690.5000      0.0000    685.3258      5.3478     86.7260
   690.7500      0.0000    685.3046      5.3871     92.0890
   691.0000      0.0000    685.2330      5.4399     95.8564
   691.2500      0.0000    685.1344      5.5089     97.7398
   691.5000      0.0000    685.0388      5.5941     98.3256
   691.7500      0.0000    684.9809      5.6894     98.4444
   692.0000      0.0000    684.9957      5.7856     98.3176
   692.2500      0.0000    685.0930      5.8780     97.2916
   692.5000      0.0000    685.2335      5.9694     94.4759
   692.7500      0.0000    685.3530      6.0629     89.8208
   693.0000      0.0000    685.4182      6.1557     84.4046
   693.2500      0.0000    685.4401      6.2409     79.4633
   693.5000      0.0000    685.4218      6.3168     75.5720
   693.7500      0.0000    685.3223      6.3915     73.0944
   694.0000      0.0000    685.0972      6.4770     72.8811
   694.2500      0.0000    684.7606      6.5781     75.7643
   694.5000      0.0000    684.3804      6.6864     81.3909
   694.7500      0.0000    684.0246      6.7857     88.0342
   695.0000      0.0000    683.7278      6.8614     93.7605
