~Version Information
VERS.                      2.0: CWLS Log ASCII Standard - VERSION 2.0
WRAP.                       NO: One line per depth step
~Well Information Block
STRT.FT                -6.7500: 
STOP.FT              2034.2500: 
STEP.FT                 0.2500: 
NULL.                -999.2500: 
COMP.          Evergreen Operating Corp.: COMPANY
WELL.           Big Pine 32-15: WELL
FLD.           Purgatorie River: FIELD
LOC.           2590 FNL & 1442 FEL--: LOCATION
STAT.                       CO: State
CNTY.               Las Animas: COUNTY
CTRY. USA : Country
SECT. 15 : Section
TOWN. 33S : township
RANG. 67W : Range
SRVC.          Patterson Wireline, Inc.: SERVICE COMPANY
DATE.          Mon Mar 24 12:45:01 2003: LOG DATE
API.           05 071 07772 00: UNIQUE WELL ID
~Curve Information Block
DEPT.FT            0 000 00 00: Depth
HVOLTA.V                      : Head Voltage Apparent
CCL.                          : Casing Collar Locator
TT3.usec                      : CBL 3' Travel Time
AMP3.mV                       : CBL 3' Amplitude
GR.GAPI                       : Gamma Ray
~Parameter Information Block
~A  Depth      HVOLTA       CCL         TT3         AMP3         GR     
# ...
  1617.2500    121.2383      0.0000    704.9595      5.5285    130.0505
  1617.5000    121.5136      0.0000    705.0455      5.1537    128.0856
  1617.7500    121.3275      0.0000    705.0589      4.7800    124.9525
  1618.0000    121.5376      0.0000    704.9182      4.4407    122.5519
  1618.2500    121.4374      0.0000    704.6527      4.0949    122.2674
  1618.5000    121.5459      0.0000    704.3300      3.8243    123.8972
  1618.7500    121.4388      0.0000    704.0086      3.6897    126.2466
  1619.0000    121.5431      0.0000    703.7162      3.6201    128.4808
  1619.2500    121.3797      0.0000    703.5067      3.5931    130.6275
  1619.5000    121.6798      0.0000    703.5018      3.5865    133.0722
  1619.7500    121.4916      0.0000    703.8390      3.5442    135.8951
  1620.0000    121.6530      0.0000    704.5808      3.5001    138.5708
  1620.2500    121.3550      0.0000    705.6771      3.4411    140.2390
  1620.5000    121.6331      0.0000    707.7802      3.3149    140.2193
  1620.7500    121.4662      0.0000    712.0818      3.2149    138.1375
  1621.0000    121.6825      0.0000    715.9687      3.1833    133.7692
  1621.2500    121.4127      0.0000    713.4945      3.1488    127.4707
  1621.5000    121.4902      0.0000    705.7747      3.1345    120.9131
  1621.7500    121.6035      0.0000    701.3156      3.1664    116.6330
  1622.0000    121.6791      0.0000    702.6269      3.1968    116.2643
  1622.2500    121.4381      0.0000    704.5493      3.1655    119.2915
  1622.5000    121.6235      0.0000    704.6558      3.0119    123.5983
  1622.7500    121.8411      0.0000    703.3950      2.7978    127.0197
  1623.0000    121.5775      0.0000    698.8661      2.6767    128.5686
  1623.2500    121.4374      0.0000    691.2753      2.6871    128.6108
  1623.5000    121.6599      0.0000    686.1083      2.8178    128.0892
  1623.7500    121.5211      0.0000    687.4423      3.0723    127.6015
  1624.0000    121.5740      0.0000    693.1131      3.2665    127.0524
  1624.2500    121.4140      0.0000    698.2933      3.1754    126.0186
  1624.5000    121.6523      0.0000    700.8064      2.9537    124.4434
  1624.7500    121.4923      0.0000    701.4802      2.9166    122.8335
  1625.0000    121.6001      0.0000    701.4388      3.0176    121.5340
  1625.2500    121.4388      0.0000    701.0754      3.0140    120.1147
  1625.5000    121.5747      0.0000    700.7690      2.9628    117.7430
  1625.7500    121.5136      0.0000    701.4560      3.0914    113.8050
  1626.0000    121.5211      0.0000    704.3541      3.3346    108.1268
  1626.2500    121.4085      0.0000    709.1470      3.4804    101.3503
  1626.5000    121.5960      0.0000    712.7328      3.5529     95.4303
  1626.7500    121.4614      0.0000    712.4466      3.6064     93.0880
  1627.0000    121.5191      0.0000    709.3261      3.5447     96.1243
  1627.2500    121.4394      0.0000    706.4178      3.3881    104.0366
  1627.5000    121.5740      0.0000    706.3004      3.2483    114.0867
  1627.7500    121.4662      0.0000    708.8449      3.1304    122.6039
  1628.0000    121.6283      0.0000    710.3992      3.0474    126.7484
  1628.2500    121.4099      0.0000    709.0959      3.0304    125.9147
  1628.5000    121.7079      0.0000    707.8686      3.0369    121.8022
  1628.7500    121.5205      0.0000    707.4205      3.0673    116.8857
  1629.0000    121.5692      0.0000    704.1891      3.1076    112.6403
  1629.2500    121.4635      0.0000    698.1802      3.0270    109.0183
  1629.5000    121.6248      0.0000    693.9643      2.8533    105.2864
  1629.7500    121.4381      0.0000    693.9433      2.8211    101.3952
  1630.0000    121.5740      0.0000    696.1119      2.9762     98.8234
  1630.2500    121.4669      0.0000    697.8463      3.1764     99.8759
  1630.5000    121.5726      0.0000    698.5815      3.3871    105.6320
  1630.7500    121.5466      0.0000    698.8224      3.5371    114.4327
  1631.0000    121.6859      0.0000    698.8311      3.4486    122.6200
  1631.2500    121.5431      0.0000    698.6970      3.2236    126.9590
  1631.5000    121.6035      0.0000    698.6152      3.2214    126.6571
  1631.7500    121.6001      0.0000    698.6766      3.4882    123.5614
  1632.0000    121.5397      0.0000    698.7529      3.6506    120.5877
  1632.2500    121.5184      0.0000    698.7455      3.5062    119.7701
  1632.5000    121.4642      0.0000    698.7332      3.3289    121.3572
  1632.7500    121.5740      0.0000    698.8230      3.4147    124.0556
  1633.0000    121.5479      0.0000    699.0086      3.6710    125.9038
  1633.2500    121.4594      0.0000    699.2219      3.8895    125.5766
  1633.5000    121.6502      0.0000    699.4115      4.1417    123.5230
  1633.7500    121.4655      0.0000    699.5640      4.6252    121.8008
  1634.0000    121.6557      0.0000    699.6111      5.3071    122.5102
  1634.2500    121.5479      0.0000    699.2006      5.9630    126.2738
  1634.5000    121.5136      0.0000    697.7792      6.5058    132.0580
  1634.7500    121.4909      0.0000    695.6188      7.0738    138.0104
  1635.0000    121.6811      0.0000    694.5224      7.7698    142.3502
  1635.2500    121.5191      0.0000    695.8282      8.4732    144.1174
  1635.5000    121.4422      0.0000    698.3804      8.9589    143.7774
  1635.7500    121.6846      0.0000    700.3023      9.1529    142.9869
  1636.0000    121.5967      0.0000    701.0629      9.1285    143.2846
  1636.2500    121.4916      0.0000    700.7943      8.8101    144.9616
  1636.5000    121.5726      0.0000    699.3281      8.0667    147.1456
  1636.7500    121.4085      0.0000    697.0366      7.1446    148.8056
  1637.0000    121.6262      0.0000    695.7966      6.4502    149.7118
  1637.2500    121.4065      0.0000    697.0347      5.9599    150.3832
  1637.5000    121.6578      0.0000    699.7356      5.3656    150.9077
  1637.7500    121.6530      0.0000    702.6666      4.6390    150.1774
  1638.0000    121.6791      0.0000    706.3183      3.9842    146.9431
  1638.2500    121.4600      0.0000    710.1274      3.4728    141.5439
  1638.5000    121.3756      0.0000    710.3196      3.1022    135.8588
  1638.7500    121.5713      0.0000    705.1148      2.9065    131.3069
  1639.0000    121.5411      0.0000    699.3649      2.7884    127.4829
  1639.2500    121.5211      0.0000    698.1060      2.6381    123.1466
  1639.5000    121.5122      0.0000    700.3081      2.5589    118.2462
  1639.7500    121.5733      0.0000    702.6868      2.6219    114.5139
  1640.0000    121.6276      0.0000    704.3591      2.7744    114.0454
  1640.2500    121.4058     -5.0000    708.0679      3.0369    117.4496
  1640.5000    121.5994      0.0000    717.1848      3.3190    123.2063
  1640.7500    121.5472      2.3822    727.4520      3.3976    128.6711
  1641.0000    121.3000      0.0000    729.0919      3.3130    131.8553
  1641.2500    121.0844      0.0000    721.0403      3.2868    132.3431
  1641.5000    121.4339      0.0000    713.4689      3.3578    130.5022
  1641.7500    121.6537      0.0000    716.7657      3.4430    126.3705
  1642.0000    121.6846      0.0000    730.1335      3.4871    120.0292
  1642.2500    121.4662      0.0000    742.1255      3.4181    112.8058
  1642.5000    121.5452      0.0000    745.1476      3.2243    107.2042
  1642.7500    121.6489      0.0000    740.3162      3.0920    105.3338
  1643.0000    121.5692      0.0000    730.3632      3.1871    107.5869
  1643.2500    121.4902      0.0000    718.4246      3.3633    112.7624
  1643.5000    121.5726      0.0000    708.8523      3.4434    119.2715
  1643.7500    121.6241      0.0000    703.7544      3.5359    126.2079
  1644.0000    121.6516      0.0000    701.9407      3.6824    133.3643
  1644.2500    121.4058      0.0000    701.5790      3.6788    140.3752
  1644.5000    121.6241      0.0000    701.6915      3.5311    146.2586
  1644.7500    121.5795      0.0000    701.9007      3.4924    150.1911
  1645.0000    121.6241      0.0000    702.1191      3.5756    152.3131
