~Version Information
VERS.                      2.0: CWLS Log ASCII Standard - VERSION 2.0
WRAP.                       NO: One line per depth step
~Well Information Block
STRT.FT               330.0000: 
STOP.FT              1972.5000: 
STEP.FT                 0.1000: 
NULL.                -999.2500: 
COMP.          Pioneer Natural Resources: COMPANY
WELL.           Willys 32-8 Tr: WELL
FLD.           Purgatoire River: FIELD
LOC.           1843' FNL & 2355' FEL: LOCATION
CNTY.               Las Animas: COUNTY
SRVC.                Patterson: SERVICE COMPANY
DATE.          Thu Feb 09 10:31:59 2006: LOG DATE
UWI.           05 071 08688 00: UNIQUE WELL ID
STAT.                 Colorado: STATE
~Curve Information Block
DEPT.FT            0 000 00 00: Depth
DCAL.in                       : CDL Caliper
RHOB.g/cc                     : CDL Bulk Density
RHOC.g/cc                     : CDL Density Correction
DPOR.pu                       : CDL Density Porosity
GR.GAPI                       : Gamma Ray
~Parameter Information Block
~A  Depth       DCAL        RHOB        RHOC        DPOR         GR     
# ...
  1315.6000      7.9459      2.5627      0.0041      5.2890    116.1448
  1315.7000      7.9459      2.5513      0.0304      5.9793    115.5314
  1315.8000      7.9387      2.5332      0.0109      7.0799    112.3244
  1315.9000      7.9387      2.5263      0.0072      7.4986    111.0751
  1316.0000      7.9369      2.5392      0.0355      6.7151    110.6612
  1316.1000      7.9369      2.5632      0.0580      5.2591    109.6907
  1316.2000      7.9369      2.5888      0.0917      3.7094    108.6003
  1316.3000      7.9112      2.6121      0.0744      2.2945    109.4276
  1316.4000      7.9112      2.6256      0.1123      1.4800    114.9136
  1316.5000      7.9000      2.6204      0.1179      1.7968    119.9756
  1316.6000      7.9000      2.6092      0.0352      2.4733    119.7011
  1316.7000      7.9000      2.6135      0.1093      2.2119    120.0401
  1316.8000      7.8983      2.6256      0.1179      1.4798    123.7390
  1316.9000      7.8983      2.6220      0.1047      1.6988    126.3807
  1317.0000      7.8931      2.6015      0.0471      2.9403    127.2113
  1317.1000      7.8931      2.5760      0.1250      4.4863    125.5240
  1317.2000      7.8931      2.5519     -0.0129      5.9465    120.9630
  1317.3000      7.9078      2.5443      0.0038      6.4090    117.9250
  1317.4000      7.9078      2.5622      0.0159      5.3213    117.3127
  1317.5000      7.9057      2.5968      0.0425      3.2223    117.1594
  1317.6000      7.9057      2.6239      0.0925      1.5829    118.5944
  1317.7000      7.9057      2.6178      0.0714      1.9490    120.8003
  1317.8000      7.9068      2.5927     -0.0406      3.4756    120.3506
  1317.9000      7.9068      2.5807      0.0187      4.2029    120.9100
  1318.0000      7.9127      2.5759      0.0209      4.4905    127.4768
  1318.1000      7.9127      2.5628      0.0431      5.2866    135.4783
  1318.2000      7.9127      2.5512      0.0315      5.9879    136.9160
  1318.3000      7.9115      2.5563      0.0388      5.6760    130.4645
  1318.4000      7.9115      2.5761      0.0173      4.4806    121.0020
  1318.5000      7.8975      2.5862      0.1207      3.8661    113.3472
  1318.6000      7.8975      2.5741      0.0173      4.5972    110.9449
  1318.7000      7.8975      2.5681      0.0238      4.9659    114.1064
  1318.8000      7.8993      2.5887      0.0589      3.7142    119.8295
  1318.9000      7.8993      2.6179      0.1116      1.9448    124.9080
  1319.0000      7.8893      2.6345      0.0890      0.9371    126.6241
  1319.1000      7.8893      2.6403      0.1201      0.5879    121.8185
  1319.2000      7.8893      2.6369      0.0959      0.7955    111.1576
  1319.3000      7.8708      2.6203      0.0811      1.7971    100.4385
  1319.4000      7.8708      2.6005      0.0219      2.9979     94.9379
  1319.5000      7.8618      2.5887      0.0156      3.7179     96.6640
  1319.6000      7.8618      2.5774      0.0252      4.3994    101.1543
  1319.7000      7.8618      2.5670     -0.0330      5.0294    101.8972
  1319.8000      7.8677      2.5764      0.0072      4.4582    100.8070
  1319.9000      7.8677      2.6032      0.0986      2.8356    103.6142
  1320.0000      7.8782      2.6243      0.0900      1.5577    109.3878
  1320.1000      7.8782      2.6310      0.1076      1.1498    113.7121
  1320.2000      7.8782      2.6248      0.1087      1.5253    116.7032
  1320.3000      7.8918      2.6012      0.0886      2.9604    120.8241
  1320.4000      7.8918      2.5653     -0.0153      5.1339    125.3271
  1320.5000      7.9234      2.5400      0.0153      6.6678    127.1688
  1320.6000      7.9234      2.5348      0.0370      6.9824    125.1887
  1320.7000      7.9234      2.5447      0.0037      6.3797    120.7380
  1320.8000      7.9940      2.5553      0.0747      5.7371    117.4245
  1320.9000      7.9940      2.5398      0.0758      6.6782    118.8888
  1321.0000      7.9393      2.4992     -0.0646      9.1381    123.3931
  1321.1000      7.9393      2.4589      0.0178     11.5832    125.6548
  1321.2000      7.9393      2.4220     -0.0563     13.8205    124.7200
  1321.3000      7.9437      2.3786      0.0104     16.4455    123.7512
  1321.4000      7.9437      2.3242      0.0284     19.7459    121.0485
  1321.5000      7.9028      2.2676     -0.0389     23.1781    115.3380
  1321.6000      7.9028      2.2060      0.0595     26.9083    111.9593
  1321.7000      7.9028      2.1108      0.0371     32.6811    112.4041
  1321.8000      7.8994      1.9858     -0.0505     40.2533    109.8634
  1321.9000      7.8994      1.8768     -0.0488     46.8626    104.2132
  1322.0000      7.9066      1.8020     -0.0478     51.3913    102.5672
  1322.1000      7.9066      1.7434      0.0289     54.9478    103.4909
  1322.2000      7.9066      1.6907      0.0424     58.1423    102.3906
  1322.3000      7.9521      1.6465      0.0714     60.8193     98.9593
  1322.4000      7.9521      1.6163      0.0358     62.6475     92.7813
  1322.5000      8.0212      1.6199      0.0121     62.4302     85.0497
  1322.6000      8.0212      1.6750      0.0768     59.0882     78.5410
  1322.7000      8.0212      1.7722      0.1247     53.1987     72.7806
  1322.8000      7.9249      1.8857      0.1343     46.3194     65.9686
  1322.9000      7.9249      1.9938      0.1805     39.7686     58.1759
  1323.0000      7.8968      2.0901      0.1689     33.9339     50.9099
  1323.1000      7.8968      2.1746      0.2057     28.8144     46.6120
  1323.2000      7.8968      2.2319      0.2461     25.3403     45.2039
  1323.3000      7.8572      2.2387      0.2294     24.9267     44.9761
  1323.4000      7.8572      2.1858      0.1525     28.1340     45.6320
  1323.5000      7.8455      2.0903     -0.0508     33.9227     46.4315
  1323.6000      7.8455      1.9870     -0.1090     40.1847     46.9099
  1323.7000      7.8455      1.9000     -0.1135     45.4538     47.7266
  1323.8000      7.9062      1.8361     -0.0780     49.3277     47.0383
  1323.9000      7.9062      1.7912     -0.0531     52.0479     44.1814
  1324.0000      7.9034      1.7547     -0.0206     54.2584     43.4646
  1324.1000      7.9034      1.7213      0.0699     56.2835     45.7602
  1324.2000      7.9034      1.6902      0.0845     58.1708     48.1911
  1324.3000      7.8974      1.6583      0.0730     60.1053     51.0639
  1324.4000      7.8974      1.6261      0.0477     62.0539     54.4087
  1324.5000      7.9299      1.5986      0.0293     63.7228     56.7249
  1324.6000      7.9299      1.5704      0.0580     65.4313     58.6058
  1324.7000      7.9299      1.5254      0.0456     68.1598     61.1660
  1324.8000      7.9303      1.4638      0.0301     71.8906     63.7684
  1324.9000      7.9303      1.4035     -0.0157     75.5455     65.9896
  1325.0000      7.9181      1.3521     -0.0152     78.6583     67.3553
  1325.1000      7.9181      1.3146     -0.0714     80.9314     67.2041
  1325.2000      7.9181      1.3093     -0.0335     81.2557     67.2455
  1325.3000      7.9208      1.3484      0.0388     78.8870     69.4329
  1325.4000      7.9208      1.4324      0.0597     73.7941     71.6102
  1325.5000      8.0199      1.5570      0.1186     66.2453     72.3933
  1325.6000      8.0199      1.7065      0.1871     57.1816     75.3587
  1325.7000      8.0199      1.8578      0.3659     48.0099     81.7097
  1325.8000      8.2260      1.9870      0.4299     40.1835     88.8910
  1325.9000      8.2260      2.0775      0.4418     34.6999     95.5930
  1326.0000      8.3861      2.1386      0.3506     30.9942    102.4543
  1326.1000      8.3861      2.2006      0.2364     27.2371    111.0130
  1326.2000      8.3861      2.2740      0.1967     22.7865    118.5561
  1326.3000      8.2740      2.3499      0.1873     18.1855    120.3977
  1326.4000      8.2740      2.4303      0.2231     13.3145    118.8659
  1326.5000      7.9616      2.5100      0.3623      8.4875    121.7284
  1326.6000      7.9616      2.5583      0.3693      5.5558    127.5942
  1326.7000      7.9616      2.5613      0.1955      5.3737    128.6793
