~Version Information
VERS.                      2.0: CWLS Log ASCII Standard - VERSION 2.0
WRAP.                       NO: One line per depth step
~Well Information Block
STRT.FT               260.0000: 
STOP.FT               713.2500: 
STEP.FT                 0.2500: 
NULL.                -999.2500: 
COMP.          Pioneer Natural Resources: COMPANY
WELL.           Quintessa 23-7: WELL
FLD.           Purgatoire River: FIELD
LOC.           1964' FSL & 2589' FWL--: LOCATION
PROV.                 Colorado: PROVINCE
CNTY.               Las Animas: COUNTRY
SRVC.                Patterson: SERVICE COMPANY
DATE.          Fri Nov 18 16:07:34 2005: LOG DATE
UWI.           05 071 08558 00: UNIQUE WELL ID
~Curve Information Block
DEPT.FT            0 000 00 00: Depth
SN.Ohm-m                      : IEL Short Normal
SP.mV                         : IEL Spontaneous Potential
DIR.Ohm-m                     : IEL Induction Resistivity
GR.GAPI                       : Gamma Ray
~Parameter Information Block
~A  Depth        SN          SP         DIR          GR     
   260.0000   2000.0000   2100.0000 100000.0000     70.6159
   260.2500   2000.0000   2100.0000 100000.0000     75.3829
   260.5000   2000.0000   2100.0000 100000.0000     80.2578
   260.7500   2000.0000   2100.0000 100000.0000     81.2414
   261.0000   2000.0000   2100.0000 100000.0000     79.2385
   261.2500   2000.0000   2100.0000 100000.0000     76.5319
   261.5000   2000.0000   2100.0000 100000.0000     73.1105
   261.7500   2000.0000   2100.0000 100000.0000     72.4981
   262.0000   2000.0000   2100.0000 100000.0000     74.4113
   262.2500   2000.0000   2100.0000 100000.0000     76.9397
   262.5000   2000.0000   2100.0000 100000.0000     81.3095
   262.7500   2000.0000   2100.0000 100000.0000     84.0594
   263.0000   2000.0000   2100.0000 100000.0000     87.3814
   263.2500   2000.0000   2100.0000 100000.0000     89.0356
   263.5000   2000.0000   2100.0000 100000.0000     91.4064
   263.7500   2000.0000   2100.0000 100000.0000     93.5907
   264.0000   2000.0000   2100.0000 100000.0000     98.3192
   264.2500   2000.0000   2100.0000 100000.0000    102.0242
   264.5000   2000.0000   2100.0000 100000.0000    106.8466
   264.7500   2000.0000   2100.0000 100000.0000    108.6599
   265.0000   2000.0000   2100.0000 100000.0000    108.2262
   265.2500   2000.0000   2100.0000 100000.0000    105.5861
   265.5000   2000.0000   2100.0000 100000.0000     98.4560
   265.7500   2000.0000   2100.0000 100000.0000     92.2592
   266.0000   2000.0000   2100.0000 100000.0000     82.3868
   266.2500   2000.0000   2100.0000     27.0651     76.3961
   266.5000   2000.0000   2100.0000      6.2315     69.9193
   266.7500   2000.0000   2100.0000      3.9209     68.1344
   267.0000   2000.0000   2100.0000      3.5161     70.2279
   267.2500   2000.0000   2100.0000      4.1116     74.8211
   267.5000   2000.0000   2100.0000      6.3539     85.3232
   267.7500   2000.0000   2100.0000     15.5788     93.4688
   268.0000   2000.0000   2100.0000 100000.0000    105.0538
   268.2500   2000.0000   2100.0000 100000.0000    111.4333
   268.5000   2000.0000   2100.0000 100000.0000    118.7649
   268.7500   2000.0000   2100.0000 100000.0000    122.6027
   269.0000   2000.0000   2100.0000     91.2061    127.3611
   269.2500   2000.0000   2100.0000     17.3443    129.6989
   269.5000   2000.0000   2100.0000      9.9665    131.3141
   269.7500   2000.0000   2100.0000      7.5795    131.1361
   270.0000   2000.0000   2100.0000      6.6401    129.9558
   270.2500   2000.0000   2100.0000      6.3250    129.2887
   270.5000   2000.0000   2100.0000      6.3409    129.0929
   270.7500   2000.0000   2100.0000      6.5478    129.3335
   271.0000   2000.0000   2100.0000      6.8536    129.4676
   271.2500   2000.0000   2100.0000      7.1752    129.0357
   271.5000   2000.0000   2100.0000      7.4382    127.5875
   271.7500   2000.0000   2100.0000      7.6093    126.4293
   272.0000   2000.0000   2100.0000      7.7244    125.2037
   272.2500   2000.0000   2100.0000      7.8720    125.0542
   272.5000   2000.0000   2100.0000      8.1402    125.7928
   272.7500   2000.0000   2100.0000      8.5614    126.5529
   273.0000   2000.0000   2100.0000      9.0721    127.3271
   273.2500   2000.0000   2100.0000      9.5091    127.4773
   273.5000   2000.0000   2100.0000      9.6932    127.7840
   273.7500   2000.0000   2100.0000      9.5667    128.5714
   274.0000   2000.0000   2100.0000      9.2319    130.9852
   274.2500   2000.0000   2100.0000      8.8496    133.1766
   274.5000   2000.0000   2100.0000      8.5398    136.4267
   274.7500   2000.0000   2100.0000      8.3591    138.0260
   275.0000   2000.0000   2100.0000      8.3167    139.1894
   275.2500   2000.0000   2100.0000      8.3919    139.3282
   275.5000   2000.0000   2100.0000      8.5452    138.9868
   275.7500   2000.0000   2100.0000      8.7303    138.2602
   276.0000   2000.0000   2100.0000      8.9059    135.5160
   276.2500   2000.0000   2100.0000      9.0449    132.1137
   276.5000   2000.0000   2100.0000      9.1367    125.0710
   276.7500   2000.0000   2100.0000      9.1858    120.2789
   277.0000   2000.0000   2100.0000      9.2064    115.6388
   277.2500   2000.0000   2100.0000      9.2162    115.2385
   277.5000   2000.0000   2100.0000      9.2303    118.4086
   277.7500   2000.0000   2100.0000      9.2570    121.9813
   278.0000   2000.0000   2100.0000      9.2959    127.4825
   278.2500   2000.0000   2100.0000      9.3385    130.5172
   278.5000   2000.0000   2100.0000      9.3722    133.9194
   278.7500   2000.0000   2100.0000      9.3877    135.5779
   279.0000   2000.0000   2100.0000      9.3868    137.2225
   279.2500   2000.0000   2100.0000      9.3856    137.5880
   279.5000   2000.0000   2100.0000      9.4120    136.6980
   279.7500   2000.0000   2100.0000      9.4979    135.1493
   280.0000   2000.0000   2100.0000      9.6712    131.9619
   280.2500   2000.0000   2100.0000      9.9485    129.6620
   280.5000   2000.0000   2100.0000     10.3314    125.7807
   280.7500   2000.0000   2100.0000     10.8059    122.1620
   281.0000   2000.0000   2100.0000     11.3434    114.1139
   281.2500   2000.0000   2100.0000     11.9057    107.4596
   281.5000   2000.0000   2100.0000     12.4506     98.3231
   281.7500   2000.0000   2100.0000     12.9380     94.5264
   282.0000   2000.0000   2100.0000     13.3315     93.3124
   282.2500   2000.0000   2100.0000     13.6002     94.7671
   282.5000   2000.0000   2100.0000     13.7228     98.2215
   282.7500   2000.0000   2100.0000     13.6969    100.5918
   283.0000   2000.0000   2100.0000     13.5456    104.4498
   283.2500   2000.0000   2100.0000     13.3116    107.8619
   283.5000   2000.0000   2100.0000     13.0433    114.8305
   283.7500   2000.0000   2100.0000     12.7804    120.2694
   284.0000   2000.0000   2100.0000     12.5470    127.6497
   284.2500   2000.0000   2100.0000     12.3514    130.7023
   284.5000   2000.0000   2100.0000     12.1937    131.0582
   284.7500   2000.0000   2100.0000     12.0741    128.6779
   285.0000   2000.0000   2100.0000     11.9983    123.2551
   285.2500   2000.0000   2100.0000     11.9740    119.9765
   285.5000   2000.0000   2100.0000     12.0029    117.2777
   285.7500   2000.0000   2100.0000     12.0722    117.0227
   286.0000   2000.0000   2100.0000     12.1525    118.2210
   286.2500   2000.0000   2100.0000     12.2022    119.7129
   286.5000   2000.0000   2100.0000     12.1778    122.5864
   286.7500   2000.0000   2100.0000     12.0461    124.5822
   287.0000   2000.0000   2100.0000     11.7936    127.1709
   287.2500   2000.0000   2100.0000     11.4306    128.6713
   287.5000   2000.0000   2100.0000     10.9886    130.9497
   287.7500   2000.0000   2100.0000     10.5113    132.3966
   288.0000   2000.0000   2100.0000     10.0448    133.7791
   288.2500   2000.0000   2100.0000      9.6280    133.9928
   288.5000   2000.0000   2100.0000      9.2869    133.8287
   288.7500   2000.0000   2100.0000      9.0303    133.9129
   289.0000   2000.0000   2100.0000      8.8501    134.3839
   289.2500   2000.0000   2100.0000      8.7236    134.1943
   289.5000   2000.0000   2100.0000      8.6218    131.4388
   289.7500   2000.0000   2100.0000      8.5192    127.6465
   290.0000   2000.0000   2100.0000      8.4048    120.7070
   290.2500   2000.0000   2100.0000      8.2845    117.0723
   290.5000   2000.0000   2100.0000      8.1759    115.7575
   290.7500   2000.0000   2100.0000      8.0981    118.0963
   291.0000   2000.0000   2100.0000      8.0626    125.1165
   291.2500   2000.0000   2100.0000      8.0692    130.6310
   291.5000   2000.0000   2100.0000      8.1079    137.6568
   291.7500   2000.0000   2100.0000      8.1647    140.6517
   292.0000   2000.0000   2100.0000      8.2299    142.3811
   292.2500   2000.0000   2100.0000      8.3043    142.0637
   292.5000   2000.0000   2100.0000      8.3981    140.3744
   292.7500   2000.0000   2100.0000      8.5257    139.0580
   293.0000   2000.0000   2100.0000      8.6967    137.6599
   293.2500   2000.0000   2100.0000      8.9118    137.2148
