~Version Information
VERS.                      2.0: CWLS Log ASCII Standard - VERSION 2.0
WRAP.                       NO: One line per depth step
~Well Information Block
STRT.FT               520.0000: 
STOP.FT              2555.2500: 
STEP.FT                 0.2500: 
NULL.                -999.2500: 
COMP.          Pioneer Natural Resources: COMPANY
WELL.          Horsefeathers 24-34: WELL
FLD.           Purgatoire River: FIELD
LOC.           183' FSL & 1570' FWL--: LOCATION
CNTY.               Las Animas: COUNTY
SRVC.                Patterson: SERVICE COMPANY
DATE.          Sun Feb 05 17:35:59 2006: LOG DATE
UWI.           05 071 08675 00: UNIQUE WELL ID
STAT.                 Colorado: STATE
~Curve Information Block
DEPT.FT            0 000 00 00: Depth
SN.Ohm-m                      : IEL Short Normal
SP.mV                         : IEL Spontaneous Potential
DIR.Ohm-m                     : IEL Induction Resistivity
GR.GAPI                       : Gamma Ray
~Parameter Information Block
NPORSHIFT.              0.0000: NPORSHIFT
~A  Depth        SN          SP         DIR          GR     
# ...
  2396.0000     17.3165     81.9419     14.0968     97.5190
  2396.2500     17.0473     81.9963     14.0886     97.3314
  2396.5000     16.6934     81.9657     14.0467     94.5286
  2396.7500     16.3510     81.8478     14.0015     92.3288
  2397.0000     16.0770     81.6585     13.9855     90.2820
  2397.2500     15.8897     81.4315     14.0241     90.0258
  2397.5000     15.7845     81.2120     14.1289     90.8194
  2397.7500     15.7523     81.0470     14.2944     91.5741
  2398.0000     15.7882     80.9715     14.5004     92.0811
  2398.2500     15.8878     80.9965     14.7211     91.8069
  2398.5000     16.0399     81.1019     14.9345     91.1637
  2398.7500     16.2239     81.2384     15.1271     91.2651
  2399.0000     16.4131     81.3390     15.2936     92.7990
  2399.2500     16.5832     81.3362     15.4332     94.4711
  2399.5000     16.7239     81.1799     15.5462     96.8614
  2399.7500     16.8445     80.8499     15.6345     97.8391
  2400.0000     16.9706     80.3581     15.7034     98.1700
  2400.2500     17.1290     79.7430     15.7640     97.8835
  2400.5000     17.3292     79.0561     15.8310     97.3765
  2400.7500     17.5571     78.3497     15.9182     97.3590
  2401.0000     17.7863     77.6660     16.0328     98.1160
  2401.2500     17.9960     77.0329     16.1736     98.9040
  2401.5000     18.1801     76.4646     16.3334     99.3465
  2401.7500     18.3415     75.9659     16.5027     98.4561
  2402.0000     18.4804     75.5369     16.6717     95.1010
  2402.2500     18.5870     75.1769     16.8294     92.0113
  2402.5000     18.6466     74.8864     16.9602     87.3078
  2402.7500     18.6505     74.6671     17.0446     84.6425
  2403.0000     18.6050     74.5202     17.0654     81.7181
  2403.2500     18.5283     74.4442     17.0178     80.6008
  2403.5000     18.4436     74.4338     16.9142     80.6201
  2403.7500     18.3759     74.4779     16.7796     82.1240
  2404.0000     18.3507     74.5600     16.6413     86.8030
  2404.2500     18.3923     74.6581     16.5201     91.1045
  2404.5000     18.5175     74.7460     16.4288     97.8304
  2404.7500     18.7290     74.7929     16.3777    101.6575
  2405.0000     19.0215     74.7642     16.3804    105.7771
  2405.2500     19.4037     74.6219     16.4582    107.4542
  2405.5000     19.9172     74.3260     16.6401    108.3703
  2405.7500     20.6311     73.8377     16.9605    107.7970
  2406.0000     21.6150     73.1244     17.4560    105.2668
  2406.2500     22.9156     72.1661     18.1608    102.9402
  2406.5000     24.5495     70.9630     19.1034     99.5004
  2406.7500     26.5081     69.5405     20.3008     97.3061
  2407.0000     28.7636     67.9520     21.7530     93.0236
  2407.2500     31.2696     66.2757     23.4350     88.7667
  2407.5000     33.9555     64.6076     25.2862     80.3792
  2407.7500     36.7102     63.0510     27.2009     74.3866
  2408.0000     39.3501     61.7049     29.0254     66.7100
  2408.2500     41.6061     60.6537     30.5721     63.2011
  2408.5000     43.1825     59.9616     31.6592     60.8324
  2408.7500     43.8835     59.6694     32.1635     61.2190
  2409.0000     43.7040     59.7966     32.0579     64.5997
  2409.2500     42.7979     60.3424     31.4050     68.5193
  2409.5000     41.3612     61.2892     30.3197     76.5196
  2409.7500     39.5422     62.6029     28.9309     83.1098
  2410.0000     37.4370     64.2333     27.3602     94.3990
  2410.2500     35.1384     66.1145     25.7131    102.1822
  2410.5000     32.7729     68.1667     24.0729    112.5628
  2410.7500     30.4957     70.3007     22.4997    117.8097
  2411.0000     28.4506     72.4248     21.0355    122.6440
  2411.2500     26.7230     74.4540     19.7100    124.0152
  2411.5000     25.3188     76.3185     18.5407    124.2530
  2411.7500     24.1833     77.9700     17.5297    123.9994
  2412.0000     23.2464     79.3839     16.6632    124.0771
  2412.2500     22.4596     80.5577     15.9171    124.4901
  2412.5000     21.8041     81.5052     15.2674    125.0555
  2412.7500     21.2800     82.2489     14.7010    125.3064
  2413.0000     20.8951     82.8123     14.2187    126.3704
  2413.2500     20.6611     83.2124     13.8338    128.1538
  2413.5000     20.5932     83.4565     13.5658    132.2916
  2413.7500     20.7038     83.5417     13.4354    135.0112
  2414.0000     20.9934     83.4582     13.4623    136.4036
  2414.2500     21.4464     83.1958     13.6641    134.1373
  2414.5000     22.0371     82.7522     14.0567    124.9848
  2414.7500     22.7487     82.1410     14.6522    115.5954
  2415.0000     23.5963     81.3982     15.4545     98.8903
  2415.2500     24.6431     80.5845     16.4527     87.6279
  2415.5000     25.9792     79.7817     17.6088     72.9701
  2415.7500     27.6574     79.0844     18.8456     65.5554
  2416.0000     29.6194     78.5856     20.0371     58.3714
  2416.2500     31.6775     78.3611     21.0216     56.1303
  2416.5000     33.5839     78.4542     21.6487     56.8489
  2416.7500     35.1372     78.8663     21.8462     60.5751
  2417.0000     36.2492     79.5543     21.6590     71.7338
  2417.2500     36.9445     80.4379     21.2262     82.4263
  2417.5000     37.3301     81.4120     20.7178    100.6234
  2417.7500     37.5622     82.3643     20.2795    112.0842
  2418.0000     37.8109     83.1915     20.0113    125.2974
  2418.2500     38.2256     83.8118     19.9730    130.4154
  2418.5000     38.9268     84.1724     20.2028    131.7089
  2418.7500     40.0401     84.2513     20.7352    128.2984
  2419.0000     41.7543     84.0553     21.6146    117.8759
  2419.2500     44.3471     83.6156     22.9004    108.7560
  2419.5000     48.1244     82.9828     24.6669     94.5429
  2419.7500     53.2580     82.2210     26.9960     85.7237
  2420.0000     59.6035     81.4029     29.9565     73.5919
  2420.2500     66.6448     80.6031     33.5610     65.8838
  2420.5000     73.6468     79.8906     37.6897     55.1257
  2420.7500     79.9397     79.3205     42.0070     49.3790
  2421.0000     85.1497     78.9261     45.9615     44.7704
  2421.2500     89.2269     78.7131     48.9736     44.9889
  2421.5000     92.2861     78.6578     50.7375     50.0036
  2421.7500     94.4220     78.7114     51.3612     55.6890
  2422.0000     95.6457     78.8092     51.2151     65.5947
  2422.2500     95.9550     78.8836     50.6927     71.5563
  2422.5000     95.4430     78.8772     50.0908     76.9956
  2422.7500     94.3472     78.7530     49.6024     77.4821
  2423.0000     93.0117     78.4997     49.3326     74.0047
  2423.2500     91.7821     78.1305     49.3104     70.0096
  2423.5000     90.8736     77.6785     49.5122     63.4167
  2423.7500     90.2672     77.1892     49.8915     59.1146
  2424.0000     89.6987     76.7141     50.3872     52.7325
  2424.2500     88.7461     76.3058     50.8848     48.4947
  2424.5000     86.9478     76.0155     51.1556     42.7613
  2424.7500     83.9001     75.8922     50.8418     39.9537
  2425.0000     79.3560     75.9806     49.5502     37.9302
  2425.2500     73.3562     76.3174     47.0581     37.9371
  2425.5000     66.3179     76.9254     43.4969     39.2926
  2425.7500     58.9504     77.8057     39.3294     40.8526
  2426.0000     51.9863     78.9320     35.1131     44.4461
  2426.2500     45.9058     80.2481     31.2643     48.0178
  2426.5000     40.8376     81.6725     27.9790     55.3859
  2426.7500     36.6524     83.1088     25.2817     61.4103
  2427.0000     33.1301     84.4616     23.1057     71.1812
  2427.2500     30.0862     85.6534     21.3538     77.4763
  2427.5000     27.4214     86.6395     19.9310     85.4784
  2427.7500     25.1128     87.4160     18.7597     89.4656
  2428.0000     23.1774     88.0209     17.7832     93.2613
  2428.2500     21.6313     88.5253     16.9613     94.4100
  2428.5000     20.4595     89.0184     16.2609     94.5314
  2428.7500     19.6025     89.5875     15.6475     94.1118
  2429.0000     18.9644     90.2974     15.0808     93.8511
  2429.2500     18.4353     91.1742     14.5182     94.2806
