~Version Information
VERS.                      2.0: CWLS Log ASCII Standard - VERSION 2.0
WRAP.                       NO: One line per depth step
~Well Information Block
STRT.FT               480.0000: 
STOP.FT              1946.0000: 
STEP.FT                 0.1000: 
NULL.                -999.2500: 
COMP.          XTO Energy Inc.: COMPANY
WELL.          Golden Eagle 19-15: WELL
FLD.           Purgatoire River: FIELD
LOC.           1121' FSL & 2332' FEL--: LOCATION
CNTY.               Las Animas: COUNTY
SRVC.                Patterson: SERVICE COMPANY
DATE.          Mon Mar 13 10:27:20 2006: LOG DATE
UWI.           05 071 08717 00: UNIQUE WELL ID
STAT.                 Colorado: STATE
~Curve Information Block
DEPT.FT            0 000 00 00: Depth
DCAL.in                       : CDL Caliper
RHOB.g/cc                     : CDL Bulk Density
RHOC.g/cc                     : CDL Density Correction
DPOR.pu                       : CDL Density Porosity
NPOR.pu                       : Neutron Porosity
GR.GAPI                       : Gamma Ray
~Parameter Information Block
~A  Depth       DCAL        RHOB        RHOC        DPOR        NPOR         GR     
# ...
  1056.0000      8.0795      2.3400      0.2072     18.7881     19.5577    123.0915
  1056.1000      8.0795      2.3946      0.2286     15.4813     19.1688    121.7117
  1056.2000      8.0795      2.4301      0.2353     13.3297     19.1177    119.6287
  1056.3000      8.0873      2.4510      0.3093     12.0614     19.3209    120.0745
  1056.4000      8.0873      2.4653      0.2105     11.1949     19.5984    122.7219
  1056.5000      8.0943      2.4787      0.2155     10.3826     19.8500    125.9252
  1056.6000      8.0943      2.4837      0.2013     10.0809     19.9116    127.9879
  1056.7000      8.0943      2.4762      0.1418     10.5361     19.6997    129.5706
  1056.8000      8.0997      2.4667      0.1561     11.1111     19.4722    133.4616
  1056.9000      8.0997      2.4555      0.1370     11.7897     19.5996    137.2013
  1057.0000      8.1024      2.4308      0.1073     13.2818     20.0718    136.3379
  1057.1000      8.1024      2.3951      0.0419     15.4510     20.5314    131.2064
  1057.2000      8.1024      2.3694     -0.0042     17.0054     20.6747    125.2825
  1057.3000      8.1031      2.3729      0.0298     16.7914     20.4423    119.8728
  1057.4000      8.1031      2.4032      0.0310     14.9593     19.9032    115.5446
  1057.5000      8.1018      2.4374      0.0816     12.8875     19.2025    115.4064
  1057.6000      8.1018      2.4567      0.0941     11.7166     18.7595    118.0155
  1057.7000      8.1018      2.4673      0.0570     11.0722     18.9387    118.5630
  1057.8000      8.1000      2.4702      0.1646     10.8948     19.3103    119.4454
  1057.9000      8.1000      2.4501      0.1349     12.1142     19.3384    124.5689
  1058.0000      8.0999      2.4229      0.0586     13.7611     19.2997    130.4702
  1058.1000      8.0999      2.4222      0.0794     13.8033     19.5547    132.7585
  1058.2000      8.0999      2.4433      0.1154     12.5263     19.9600    132.6971
  1058.3000      8.1023      2.4591      0.1007     11.5686     20.0605    134.0252
  1058.4000      8.1023      2.4558      0.1280     11.7678     19.6812    135.9521
  1058.5000      8.1036      2.4357      0.0742     12.9876     19.2175    133.6684
  1058.6000      8.1036      2.4158      0.0496     14.1950     18.8679    126.9685
  1058.7000      8.1036      2.4131      0.0365     14.3572     18.5574    121.5441
  1058.8000      8.1033      2.4290      0.0754     13.3940     18.3576    119.1879
  1058.9000      8.1033      2.4426      0.0946     12.5676     18.2339    117.2121
  1059.0000      8.1052      2.4327      0.0848     13.1679     18.1100    114.7437
  1059.1000      8.1052      2.4056      0.0629     14.8099     18.1073    111.7948
  1059.2000      8.1052      2.3874      0.0048     15.9173     18.2333    109.0184
  1059.3000      8.1106      2.3948      0.0051     15.4680     18.3536    109.8722
  1059.4000      8.1106      2.4143      0.0610     14.2833     18.5884    115.0510
  1059.5000      8.1176      2.4291      0.0820     13.3875     18.8992    123.7893
  1059.6000      8.1176      2.4462      0.0938     12.3528     18.9406    132.1774
  1059.7000      8.1176      2.4719      0.1134     10.7936     18.8265    133.5035
  1059.8000      8.1216      2.4954      0.1492      9.3708     18.8799    128.1617
  1059.9000      8.1216      2.5069      0.1765      8.6735     19.0569    121.2350
  1060.0000      8.1217      2.5154      0.1624      8.1572     19.1302    115.7999
  1060.1000      8.1217      2.5339      0.1955      7.0367     19.2465    114.3770
  1060.2000      8.1217      2.5570      0.2111      5.6363     19.6126    117.1226
  1060.3000      8.1214      2.5707      0.1760      4.8071     20.0491    120.8642
  1060.4000      8.1214      2.5692      0.1666      4.8998     20.4569    121.9060
  1060.5000      8.1233      2.5584      0.1238      5.5538     20.5636    117.9543
  1060.6000      8.1233      2.5489      0.1303      6.1277     20.0705    112.9541
  1060.7000      8.1233      2.5402      0.0727      6.6535     19.5257    112.7916
  1060.8000      8.1225      2.5243      0.0733      7.6154     19.6485    118.2084
  1060.9000      8.1225      2.5045      0.0313      8.8170     20.3692    125.4954
  1061.0000      8.1104      2.4929      0.0449      9.5212     21.1671    130.3694
  1061.1000      8.1104      2.4898      0.0301      9.7113     21.6461    131.4124
  1061.2000      8.1104      2.4916      0.0442      9.6025     21.5673    130.9838
  1061.3000      8.0918      2.4900      0.0626      9.6946     20.9653    130.9861
  1061.4000      8.0918      2.4647      0.0468     11.2285     20.2700    133.0959
  1061.5000      8.0823      2.4161     -0.0041     14.1743     19.9691    137.1788
  1061.6000      8.0823      2.3717      0.0195     16.8664     20.2704    139.7066
  1061.7000      8.0823      2.3414      0.0190     18.7039     20.8431    138.2067
  1061.8000      8.0801      2.3164     -0.0142     20.2166     21.0584    133.9789
  1061.9000      8.0801      2.3014     -0.0453     21.1285     20.8509    131.7999
  1062.0000      8.0741      2.2996     -0.0158     21.2358     20.4613    135.4466
  1062.1000      8.0741      2.2888      0.0460     21.8880     19.8635    143.4812
  1062.2000      8.0741      2.2506      0.0073     24.2088     19.2643    151.3434
  1062.3000      8.0620      2.1961      0.0205     27.5081     19.0264    157.6078
  1062.4000      8.0620      2.1428      0.0390     30.7408     18.9435    160.3626
  1062.5000      8.0510      2.1009      0.0140     33.2801     18.7386    155.2045
  1062.6000      8.0510      2.0907      0.0449     33.8966     18.5141    144.1950
  1062.7000      8.0510      2.1339      0.0931     31.2793     18.2463    134.4619
  1062.8000      8.0452      2.2154      0.2625     26.3407     17.9625    130.2406
  1062.9000      8.0452      2.2825      0.3720     22.2742     17.9754    130.2024
  1063.0000      8.0399      2.3023      0.3755     21.0748     18.1966    131.5638
  1063.1000      8.0399      2.2905      0.3641     21.7901     18.3343    133.5284
  1063.2000      8.0399      2.2758      0.3182     22.6797     18.5461    136.5864
  1063.3000      8.0346      2.2716      0.2690     22.9354     18.8824    140.3702
  1063.4000      8.0346      2.2654      0.2874     23.3084     19.1059    141.0602
  1063.5000      8.0348      2.2290      0.1851     25.5182     19.0271    136.8647
  1063.6000      8.0348      2.1582      0.1043     29.8071     18.7247    132.9332
  1063.7000      8.0348      2.0942      0.0105     33.6857     18.4274    131.8669
  1063.8000      8.0376      2.0888      0.1072     34.0110     18.2383    131.8829
  1063.9000      8.0376      2.1475      0.1545     30.4555     18.1827    132.6322
  1064.0000      8.0335      2.2370      0.1679     25.0319     18.2349    133.5160
  1064.1000      8.0335      2.3251      0.1927     19.6899     18.3319    133.4664
  1064.2000      8.0335      2.3960      0.2224     15.3960     18.5990    133.8545
  1064.3000      8.0323      2.4545      0.2716     11.8488     19.2171    134.3322
  1064.4000      8.0323      2.5061      0.3345      8.7210     20.2138    132.8992
  1064.5000      8.0394      2.5384      0.3854      6.7666     21.5078    130.3876
  1064.6000      8.0394      2.5501      0.2883      6.0533     22.7986    127.9213
  1064.7000      8.0394      2.5609      0.2561      5.4017     23.5871    128.7318
  1064.8000      8.0444      2.5647      0.2284      5.1709     23.5665    133.1522
  1064.9000      8.0444      2.5352      0.1013      6.9604     23.1222    131.9399
  1065.0000      8.0400      2.4749      0.0213     10.6112     22.9267    123.1835
  1065.1000      8.0400      2.4080      0.0333     14.6656     23.1705    117.3949
  1065.2000      8.0400      2.3465      0.0181     18.3964     23.3675    119.0458
  1065.3000      8.0297      2.2972     -0.0603     21.3835     23.0876    125.4211
  1065.4000      8.0297      2.2688     -0.0476     23.1027     22.5631    131.9837
  1065.5000      8.0228      2.2594     -0.0347     23.6728     21.7669    132.7411
