~Version Information
VERS.                      2.0: CWLS Log ASCII Standard - VERSION 2.0
WRAP.                       NO: One line per depth step
~Well Information Block
STRT.FT               196.3000: 
STOP.FT              1631.0000: 
STEP.FT                 0.1000: 
NULL.                -999.2500: 
COMP.          Petrogulf Corporation: COMPANY
WELL.             State 16-44R: WELL
FLD.           Purgatoire River: FIELD
LOC.           632' FSL & 223' FEL--: LOCATION
PROV.                 Colorado: PROVINCE
CNTY.               Las Animas: COUNTRY
SRVC.                Patterson: SERVICE COMPANY
DATE.          Fri Oct 21 14:20:18 2005: LOG DATE
UWI.           05 071 08457 00: UNIQUE WELL ID
~Curve Information Block
DEPT.FT            0 000 00 00: Depth
DCAL.in                       : CDL Caliper
RHOB.g/cc                     : CDL Bulk Density
RHOC.g/cc                     : CDL Density Correction
DPOR.pu                       : CDL Density Porosity
NPOR.pu                       : Neutron Porosity
GR.GAPI                       : Gamma Ray
~Parameter Information Block
~A  Depth       DCAL        RHOB        RHOC        DPOR        NPOR         GR     
# ...
   945.1000      8.6802      1.3442      0.0607     79.1420     34.9045     20.8008
   945.2000      8.6802      1.3425      0.0465     79.2454     34.5605     19.7210
   945.3000      8.5676      1.3420      0.0322     79.2713     34.5009     21.7257
   945.4000      8.5676      1.3409      0.0383     79.3420     34.4492     23.3880
   945.5000      8.5167      1.3332      0.0356     79.8080     34.4511     23.6597
   945.6000      8.5167      1.3170      0.0380     80.7883     34.8024     23.1385
   945.7000      8.5167      1.2992      0.0069     81.8641     35.3462     21.4011
   945.8000      8.5325      1.2878      0.0290     82.5572     35.5663     19.1705
   945.9000      8.5325      1.2804      0.0121     83.0051     35.3809     19.6801
   946.0000      8.5829      1.2725      0.0170     83.4836     35.3801     23.2716
   946.1000      8.5829      1.2692      0.0109     83.6873     35.8645     26.6407
   946.2000      8.5829      1.2853      0.0267     82.7104     36.4931     28.6657
   946.3000      8.6540      1.3349      0.0472     79.7002     36.6993     31.2609
   946.4000      8.6540      1.4205      0.0988     74.5169     36.2739     35.7496
   946.5000      8.7000      1.5300      0.1540     67.8804     35.4903     42.3399
   946.6000      8.7000      1.6444      0.1964     60.9483     34.7007     50.9768
   946.7000      8.7000      1.7503      0.2112     54.5272     33.9996     60.0827
   946.8000      8.6088      1.8431      0.2480     48.9042     33.3464     66.5898
   946.9000      8.6088      1.9227      0.2272     44.0812     32.7594     70.1448
   947.0000      8.3679      1.9964      0.2174     39.6092     32.3383     74.7112
   947.1000      8.3679      2.0718      0.2027     35.0412     32.0822     81.1593
   947.2000      8.3679      2.1455      0.1637     30.5773     31.8586     86.6547
   947.3000      8.1357      2.2064      0.1206     26.8872     31.8513     90.7490
   947.4000      8.1357      2.2412      0.1126     24.7748     32.3399     93.4048
   947.5000      8.0091      2.2469      0.0920     24.4300     32.7028     98.3814
   947.6000      8.0091      2.2406      0.0678     24.8140     32.2361    110.6533
   947.7000      8.0091      2.2473      0.0341     24.4039     31.2302    123.0930
   947.8000      7.9623      2.2808      0.0305     22.3739     30.2632    124.9873
   947.9000      7.9623      2.3363      0.0522     19.0140     29.6982    115.4734
   948.0000      7.9519      2.3940      0.1214     15.5156     29.4750    103.1266
   948.1000      7.9519      2.4306      0.1421     13.2979     29.0861     98.1104
   948.2000      7.9519      2.4438      0.1207     12.4981     28.2852    101.9076
   948.3000      7.9512      2.4531      0.0683     11.9360     27.2772    109.4127
   948.4000      7.9512      2.4648      0.1335     11.2262     26.3367    117.0802
   948.5000      7.9459      2.4728      0.0543     10.7378     25.7765    121.4540
   948.6000      7.9459      2.4872      0.0350      9.8648     25.6532    121.3951
   948.7000      7.9459      2.5091      0.0628      8.5413     25.7094    119.4485
   948.8000      7.9352      2.5171      0.0651      8.0555     25.7034    119.0014
   948.9000      7.9352      2.5063      0.0272      8.7078     25.5124    120.6832
   949.0000      7.9267      2.4998     -0.0046      9.1057     25.0837    119.7294
   949.1000      7.9267      2.5148      0.0025      8.1931     24.5181    114.3297
   949.2000      7.9267      2.5425      0.0393      6.5123     24.0178    109.5626
   949.3000      7.9239      2.5625      0.0745      5.3010     23.8327    109.8336
   949.4000      7.9239      2.5642      0.0664      5.2029     23.9299    112.0105
   949.5000      7.9261      2.5576      0.0422      5.6005     23.9762    109.1607
   949.6000      7.9261      2.5623      0.0369      5.3158     23.7980    101.3915
   949.7000      7.9261      2.5795      0.0635      4.2733     23.5236     95.2225
   949.8000      7.9285      2.5972      0.0437      3.2029     23.2977     94.9344
   949.9000      7.9285      2.6108      0.0857      2.3734     23.0453     97.2837
   950.0000      7.9271      2.6186      0.0643      1.9004     22.7984     95.2327
   950.1000      7.9271      2.6230      0.0507      1.6363     22.5655     90.0021
   950.2000      7.9271      2.6294      0.0560      1.2481     22.1482     86.8568
   950.3000      7.9251      2.6338      0.0721      0.9809     21.5429     85.1979
   950.4000      7.9251      2.6333      0.0563      1.0122     21.0700     82.8794
   950.5000      7.9248      2.6367      0.0319      0.8076     21.1213     80.9857
   950.6000      7.9248      2.6441      0.0542      0.3595     21.4974     81.1126
   950.7000      7.9248      2.6441      0.0423      0.3585     21.7792     80.6453
   950.8000      7.9250      2.6398      0.0160      0.6184     22.1236     77.8447
   950.9000      7.9250      2.6377      0.0596      0.7435     22.6672     75.4483
   951.0000      7.9259      2.6269      0.0934      1.4019     23.1432     75.0381
   951.1000      7.9259      2.6066      0.0121      2.6310     23.5305     77.8275
   951.2000      7.9259      2.5941      0.0243      3.3859     24.0777     83.2544
   951.3000      7.9264      2.5901      0.0712      3.6284     24.5864     91.0548
   951.4000      7.9264      2.5823      0.0482      4.1058     24.6267    101.1882
   951.5000      7.9243      2.5724      0.0540      4.7037     24.2355    104.7875
   951.6000      7.9243      2.5637      0.0705      5.2332     23.5952     98.9432
   951.7000      7.9243      2.5549      0.0184      5.7636     23.0092     94.9373
   951.8000      7.9218      2.5601      0.0277      5.4503     22.7147     94.9192
   951.9000      7.9218      2.5862      0.0710      3.8680     22.5017     90.8551
   952.0000      7.9208      2.6146      0.0948      2.1442     22.4937     81.9504
   952.1000      7.9208      2.6265      0.0801      1.4233     22.9219     74.4142
   952.2000      7.9208      2.6198      0.0783      1.8289     23.4212     73.9164
   952.3000      7.9194      2.6061      0.0410      2.6609     23.5765     83.0688
   952.4000      7.9194      2.5976      0.0509      3.1747     23.1297     93.8313
   952.5000      7.9133      2.5925      0.0759      3.4879     22.2108     94.3082
   952.6000      7.9133      2.5836      0.0411      4.0229     21.6186     87.2533
   952.7000      7.9133      2.5739      0.0687      4.6121     21.6870     83.9797
   952.8000      7.9024      2.5681      0.0616      4.9607     21.7600     89.1996
   952.9000      7.9024      2.5670      0.0730      5.0331     21.5588     99.1619
   953.0000      7.8948      2.5716      0.0718      4.7526     21.6249    106.6515
   953.1000      7.8948      2.5861      0.0496      3.8722     22.2639    107.7139
   953.2000      7.8948      2.6053      0.0953      2.7095     22.9946    102.9898
   953.3000      7.8927      2.6098      0.1135      2.4365     23.1677     93.7394
   953.4000      7.8927      2.5912      0.1102      3.5626     22.8099     84.7269
   953.5000      7.8940      2.5695      0.0613      4.8777     22.5692     83.6168
   953.6000      7.8940      2.5680      0.0532      4.9692     22.9915     88.6252
   953.7000      7.8940      2.5877      0.0699      3.7754     23.6668     89.4050
   953.8000      7.8919      2.6254      0.0804      1.4939     23.8712     83.4203
   953.9000      7.8919      2.6849      0.0684     -2.1142     23.6341     78.2071
   954.0000      7.8833      2.7552      0.1473     -6.3749     23.4380     80.2465
   954.1000      7.8833      2.8132      0.1658     -9.8897     23.3732     84.4655
   954.2000      7.8833      2.8560      0.1580    -12.4836     23.2291     81.3105
   954.3000      7.8727      2.8929      0.1591    -14.7236     23.0721     71.5943
   954.4000      7.8727      2.9222      0.1449    -16.4964     22.9642     63.4238
   954.5000      7.8669      2.9339      0.1422    -17.2076     22.6397     61.1032
   954.6000      7.8669      2.9240      0.0761    -16.6046     21.9428     61.6287
