~Version Information
VERS.                      2.0: CWLS Log ASCII Standard - VERSION 2.0
WRAP.                       NO: One line per depth step
~Well Information Block
STRT.FT               240.0000: 
STOP.FT              1342.0000: 
STEP.FT                 0.1000: 
NULL.                -999.2500: 
COMP.          Pioneer Natural Resources: COMPANY
WELL.          Lorencito 9-4-34-66: WELL
FLD.           Purgatoire River: FIELD
LOC.           2540' FSL & 438' FEL: LOCATION
STAT.                 Colorado: State
CNTY.               Las Animas: COUNTY
CTRY. USA : Country
SECT. 4 : Section
TOWN. 34S : Township
RANG. 68W : range
SRVC.                Patterson: SERVICE COMPANY
DATE.          Thu Sep 15 13:16:59 2005: LOG DATE
API.           05 071 08498 00: UNIQUE WELL ID
~Curve Information Block
DEPT.FT            0 000 00 00: Depth
DCAL.in                       : CDL Caliper
RHOB.g/cc                     : CDL Bulk Density
RHOC.g/cc                     : CDL Density Correction
DPOR.pu                       : CDL Density Porosity
GR.GAPI                       : Gamma Ray
NPOR.pu                       : Neutron Porosity
~Parameter Information Block
~A  Depth       DCAL        RHOB        RHOC        DPOR         GR         NPOR    
# ...
   816.0000      8.0879      2.5614      0.0721      5.3723    106.2714     26.7634
   816.1000      8.0879      2.5687      0.1149      4.9298    111.4068     26.5670
   816.2000      8.0879      2.5607      0.0851      5.4107    120.7362     25.8594
   816.3000      8.0666      2.5655      0.0854      5.1225    125.5965     25.5900
   816.4000      8.0666      2.5917      0.1351      3.5308    125.1580     26.1567
   816.5000      8.0516      2.6055      0.1799      2.6978    123.5956     26.8650
   816.6000      8.0516      2.5870      0.1031      3.8173    119.4070     27.2457
   816.7000      8.0516      2.5630      0.0997      5.2720    109.9948     27.0165
   816.8000      8.0529      2.5625      0.0759      5.3023    102.1324     25.9475
   816.9000      8.0529      2.5798      0.1363      4.2520    101.9589     24.8912
   817.0000      8.0521      2.5888      0.1628      3.7121    107.1649     24.7692
   817.1000      8.0521      2.5790      0.0909      4.3053    112.6467     25.3138
   817.2000      8.0521      2.5620      0.0746      5.3344    115.6011     26.0986
   817.3000      8.0519      2.5488      0.0401      6.1339    117.2938     26.7508
   817.4000      8.0519      2.5419      0.0648      6.5493    119.7663     26.8142
   817.5000      8.0668      2.5366      0.0312      6.8746    123.3384     26.4367
   817.6000      8.0668      2.5275      0.0459      7.4215    128.1877     26.2381
   817.7000      8.0668      2.5214     -0.0196      7.7911    132.7960     26.2261
   817.8000      8.0855      2.5298      0.0465      7.2845    131.0072     25.7411
   817.9000      8.0855      2.5398      0.0213      6.6818    124.5612     24.9258
   818.0000      8.1083      2.5330     -0.0009      7.0923    120.3062     24.5349
   818.1000      8.1083      2.5231     -0.0232      7.6889    114.7132     24.8487
   818.2000      8.1083      2.5257      0.0529      7.5342    106.1580     25.5354
   818.3000      8.1324      2.5287      0.0177      7.3499    103.4317     26.2243
   818.4000      8.1324      2.5281      0.0316      7.3876    111.6998     26.4438
   818.5000      8.1307      2.5379      0.0282      6.7924    122.1761     26.1044
   818.6000      8.1307      2.5516      0.0138      5.9615    123.9431     25.7845
   818.7000      8.1307      2.5473      0.0158      6.2240    118.7582     25.7000
   818.8000      8.1156      2.5285     -0.0076      7.3625    115.5232     25.5251
   818.9000      8.1156      2.5084      0.0257      8.5843    116.5782     24.9715
   819.0000      8.1353      2.4794      0.0329     10.3384    117.2753     24.6745
   819.1000      8.1353      2.4438     -0.0481     12.4940    117.7496     24.8075
   819.2000      8.1353      2.4220     -0.0289     13.8188    120.2982     24.5384
   819.3000      8.1322      2.4185     -0.0226     14.0329    123.3426     24.1832
   819.4000      8.1322      2.4268     -0.0242     13.5296    124.4915     24.4677
   819.5000      8.1323      2.4396      0.0313     12.7511    124.7266     24.9220
   819.6000      8.1323      2.4468      0.0348     12.3160    125.2346     25.0039
   819.7000      8.1323      2.4521      0.0383     11.9933    125.3463     24.8474
   819.8000      8.0954      2.4703      0.0274     10.8917    126.3363     24.5174
   819.9000      8.0954      2.4945      0.0809      9.4223    129.7276     24.2926
   820.0000      8.1113      2.4983      0.0905      9.1921    133.0725     24.3923
   820.1000      8.1113      2.4771      0.0779     10.4777    132.0628     24.4142
   820.2000      8.1113      2.4582      0.0606     11.6244    127.7298     24.2223
   820.3000      8.1017      2.4588      0.0679     11.5860    127.2700     23.8672
   820.4000      8.1017      2.4727      0.0654     10.7469    130.1680     23.3839
   820.5000      8.0676      2.4884      0.1383      9.7928    129.6065     23.4528
   820.6000      8.0676      2.4938      0.1351      9.4665    127.1117     24.4517
   820.7000      8.0676      2.4891      0.1118      9.7486    128.2515     25.5214
   820.8000      8.0442      2.4916      0.0691      9.6026    132.5733     25.8060
   820.9000      8.0442      2.5093      0.1082      8.5282    135.9320     25.5460
   821.0000      8.0362      2.5238      0.1234      7.6497    136.2829     25.2310
   821.1000      8.0362      2.5155      0.1159      8.1520    135.3238     25.0510
   821.2000      8.0362      2.4944      0.0736      9.4330    133.5388     24.9820
   821.3000      8.0472      2.4857      0.0818      9.9548    131.1738     24.8001
   821.4000      8.0472      2.4954      0.0875      9.3690    131.0966     24.7911
   821.5000      8.0592      2.5084      0.0738      8.5791    133.2519     25.0841
   821.6000      8.0592      2.5127      0.1311      8.3205    138.2861     25.2527
   821.7000      8.0592      2.5058      0.0756      8.7409    143.7975     25.2914
   821.8000      8.0769      2.4906      0.0795      9.6634    142.4807     25.3542
   821.9000      8.0769      2.4722      0.0631     10.7776    136.6227     25.1042
   822.0000      8.0824      2.4590      0.0623     11.5761    134.7589     24.7004
   822.1000      8.0824      2.4579      0.0514     11.6434    136.8618     24.7154
   822.2000      8.0824      2.4708      0.0709     10.8608    138.2605     24.8692
   822.3000      8.0760      2.4838      0.1305     10.0745    137.1161     24.6502
   822.4000      8.0760      2.4812      0.0469     10.2330    134.9703     24.6095
   822.5000      8.0954      2.4748      0.0382     10.6202    137.5186     25.0389
   822.6000      8.0954      2.4877      0.0744      9.8392    145.1050     24.8981
   822.7000      8.0954      2.5230      0.0864      7.6965    147.4862     24.2010
   822.8000      8.0737      2.5643      0.1290      5.1916    139.9073     24.1829
   822.9000      8.0737      2.5941      0.1227      3.3903    131.3447     25.1175
   823.0000      8.0568      2.6056      0.1194      2.6939    129.7381     25.9209
   823.1000      8.0568      2.6025      0.1124      2.8791    129.8660     25.4660
   823.2000      8.0568      2.5886      0.1446      3.7225    124.3517     24.3986
   823.3000      8.0614      2.5657      0.1056      5.1092    116.0274     23.9375
   823.4000      8.0614      2.5403      0.0769      6.6504    112.4882     23.9466
   823.5000      8.0695      2.5202      0.0018      7.8684    114.7502     24.0453
   823.6000      8.0695      2.5100      0.0113      8.4873    117.3648     24.1014
   823.7000      8.0695      2.5103      0.0210      8.4675    118.3928     24.0287
   823.8000      8.1065      2.5267      0.0020      7.4722    119.8074     24.2724
   823.9000      8.1065      2.5594      0.0693      5.4884    120.3825     24.8882
   824.0000      8.1580      2.5869      0.0707      3.8221    116.5103     25.0443
   824.1000      8.1580      2.5911      0.0650      3.5723    110.9455     24.6428
   824.2000      8.1580      2.5735      0.0829      4.6347    108.5029     24.2895
   824.3000      8.1357      2.5458      0.0556      6.3162    106.4928     23.8696
   824.4000      8.1357      2.5276      0.0064      7.4180    103.1971     23.4017
   824.5000      8.1112      2.5329     -0.0225      7.0965    102.1770     23.5903
   824.6000      8.1112      2.5499      0.0425      6.0686    103.1248     24.1459
   824.7000      8.1112      2.5616      0.0337      5.3564    103.3212     23.7907
   824.8000      8.1162      2.5747      0.0086      4.5653    102.5502     22.5189
   824.9000      8.1162      2.5972      0.0725      3.1985     99.9943     21.4535
   825.0000      8.1174      2.6177      0.0633      1.9601     95.7886     21.1934
   825.1000      8.1174      2.6218      0.0983      1.7113     93.3249     21.4651
   825.2000      8.1174      2.6104      0.0515      2.4029     93.0893     21.5985
   825.3000      8.1185      2.6025      0.0643      2.8808     93.4846     21.2743
   825.4000      8.1185      2.6116      0.0764      2.3286     94.3985     20.7813
   825.5000      8.1047      2.6265      0.0651      1.4251     94.1773     20.3313
