~Version Information
VERS.                      2.0: CWLS Log ASCII Standard - VERSION 2.0
WRAP.                       NO: One line per depth step
~Well Information Block
STRT.FT                -9.5000: 
STOP.FT              1401.5000: 
STEP.FT                 0.2500: 
NULL.                -999.2500: 
COMP.          Pioneer Natural Resources: COMPANY
WELL.             John K 12-28: WELL
FLD.           Purgatorie River: FIELD
LOC.           1476' FNL & 465' FWL--: LOCATION
CNTY.               Las Animas: COUNTY
SRVC.          Patterson Wireline: SERVICE COMPANY
DATE.          Fri Apr 28 08:36:46 2006: LOG DATE
UWI.           05 071 08723 00: UNIQUE WELL ID
STAT.                       CO: STATE
~Curve Information Block
DEPT.FT            0 000 00 00: Depth
CCL.                          : Casing Collar Locator
TT3.usec                      : CBL 3' Travel Time
AMP3.mV                       : CBL 3' Amplitude
GR.GAPI                       : Gamma Ray
~Parameter Information Block
~A  Depth       CCL         TT3         AMP3         GR     
# ...
   459.5000      0.0000    813.0034     11.1757    126.6951
   459.7500      0.0000    812.8231     11.2027    131.3917
   460.0000      0.0000    811.1001     11.2215    133.1913
   460.2500      0.0000    807.9823     11.2337    133.1806
   460.5000      0.0000    803.9711     11.2379    133.4592
   460.7500      0.0000    799.3511     11.2323    135.8302
   461.0000      0.0000    793.0795     11.2239    140.2505
   461.2500      0.0000    782.6132     11.2288    144.1678
   461.5000      0.0000    765.9152     11.2568    144.1115
   461.7500      0.0000    744.9376     11.3003    138.5489
   462.0000      0.0000    727.4705     11.3410    129.2366
   462.2500      0.0000    723.3936     11.3681    119.8230
   462.5000      0.0000    736.3311     11.3885    113.0586
   462.7500      0.0000    759.3413     11.4199    109.0609
   463.0000      0.0000    780.4860     11.4747    106.1038
   463.2500      0.0000    792.0745     11.5478    102.9681
   463.5000      0.0000    794.1006     11.6202    100.4943
   463.7500      0.0000    790.9360     11.6764    100.8847
   464.0000      0.0000    786.5985     11.7172    105.1947
   464.2500      0.0000    782.6789     11.7567    111.5171
   464.5000      0.0000    779.3397     11.8055    116.2925
   464.7500      0.0000    777.1370     11.8607    117.5975
   465.0000      0.0000    777.4006     11.9118    116.4057
   465.2500      0.0000    781.0187     11.9539    114.5933
   465.5000      0.0000    787.1436     11.9884    112.8706
   465.7500      0.0000    793.0787     12.0124    111.0190
   466.0000      0.0000    795.7983     12.0120    109.1867
   466.2500      0.0000    794.1985     11.9704    108.0632
   466.5000      0.0000    789.9582     11.8831    107.9197
   466.7500      0.0000    785.8588     11.7629    108.2373
   467.0000      0.0000    783.2146     11.6354    108.6560
   467.2500      0.0000    781.2202     11.5308    109.6820
   467.5000      0.0000    778.6179     11.4754    111.8515
   467.7500      0.0000    775.3125     11.4809    114.6881
   468.0000      0.0000    772.1749     11.5384    117.1528
   468.2500      0.0000    769.8958     11.6258    118.7672
   468.5000      0.0000    768.4401     11.7211    119.6045
   468.7500      0.0000    767.2772     11.8098    119.5898
   469.0000      0.0000    765.7964     11.8826    118.5738
   469.2500      0.0000    763.7059     11.9327    116.9027
   469.5000      0.0000    761.2706     11.9589    115.3799
   469.7500      0.0000    759.0553     11.9671    114.7750
   470.0000      0.0000    757.2930     11.9671    115.5811
   470.2500      0.0000    755.7828     11.9692    117.7382
   470.5000      0.0000    754.5549     11.9830    120.1608
   470.7500      0.0000    754.2705     12.0091    121.3339
   471.0000      0.0000    755.6432     12.0303    121.2907
   471.2500      0.0000    758.5927     12.0188    122.3714
   471.5000      0.0000    762.1698     11.9600    126.9173
   471.7500      0.0000    765.2949     11.8670    134.4344
   472.0000      0.0000    767.4177     11.7676    141.7711
   472.2500      0.0000    768.4831     11.6814    145.8884
   472.5000      0.0000    768.4614     11.6131    145.9760
   472.7500      0.0000    767.0989     11.5611    143.2264
   473.0000      0.0000    764.2160     11.5247    139.3247
   473.2500      0.0000    760.3082     11.5017    135.5836
   473.5000      0.0000    756.7090     11.4884    133.1624
   473.7500      0.0000    754.8387     11.4845    132.9283
   474.0000      0.0000    754.7916     11.4930    134.1878
   474.2500      0.0000    754.3498     11.5156    134.1664
   474.5000      0.0000    749.5045     11.5517    130.1094
   474.7500      0.0000    736.8497     11.6010    122.1216
   475.0000      0.0000    716.6061     11.6611    113.1628
   475.2500      0.0000    692.8544     11.7240    106.1176
   475.5000      0.0000    669.0422     11.7790    101.4414
   475.7500      0.0000    643.3334     11.8203     97.5953
   476.0000      0.0000    611.2311     11.8479     93.0681
   476.2500      0.0000    573.2693     11.8639     87.6950
   476.5000      0.0000    536.8588     11.8736     82.4251
   476.7500      0.0000    510.0494     11.8875     78.1477
   477.0000      0.0000    496.2330     11.9168     74.6469
   477.2500      0.0000    494.9416     11.9651     70.6255
   477.5000      0.0000    504.6342     12.0292     64.8472
   477.7500      0.0000    522.4883     12.1062     57.3208
   478.0000      0.0000    542.4647     12.1946     49.4688
   478.2500      0.0000    556.9434     12.2888     43.3601
   478.5000      0.0000    561.9719     12.3804     40.7532
   478.7500      0.0000    559.0229     12.4612     42.4074
   479.0000      0.0000    551.1306     12.5227     47.9340
   479.2500      0.0000    541.0844     12.5497     56.2829
   479.5000      0.0000    533.8437     12.5186     66.5572
   479.7500      0.0000    535.9191     12.4050     78.2430
   480.0000      0.0000    550.8779     12.1957     90.3408
   480.2500      0.0000    577.9818     11.9036    100.4236
   480.5000      0.0000    614.4689     11.5763    105.4101
   480.7500      0.0000    655.8597     11.2846    103.9146
   481.0000      0.0000    694.9606     11.0910     97.5701
   481.2500      0.0000    724.5963     11.0183     89.9092
   481.5000      0.0000    741.8127     11.0461     84.2553
   481.7500      0.0000    747.6237     11.1358     82.3018
   482.0000      0.0000    742.7615     11.2587     83.7540
   482.2500      0.0000    724.9387     11.4051     87.3076
   482.5000      0.0000    692.0295     11.5730     92.5094
   482.7500      0.0000    648.5695     11.7510    100.4474
   483.0000      0.0000    606.7228     11.9160    112.0017
   483.2500      0.0000    577.9679     12.0492    125.3833
   483.5000      0.0000    565.5463     12.1596    136.0390
   483.7500      0.0000    567.5499     12.2762    139.7553
   484.0000      0.0000    583.6219     12.3856    136.0882
   484.2500      0.0000    613.7449     12.3862    128.2674
   484.5000      0.0000    652.5135     12.1669    119.7873
   484.7500      0.0000    689.9350     11.7568    111.8981
   485.0000      0.0000    718.8536     11.3372    104.3071
   485.2500      0.0000    738.8742     11.0795     97.0136
   485.5000      0.0000    751.6682     11.0167     90.7680
   485.7500     -2.0000    754.0880     11.0776     86.3896
   486.0000      0.0000    737.7979     11.1921     84.2791
   486.2500      0.0000    696.8431     11.3581     84.3827
   486.5000      0.0000    634.7261     11.6378     86.2131
   486.7500      0.0000    562.6827     12.0910     88.7727
   487.0000      0.0000    492.9082     12.6900     90.5451
   487.2500      0.0000    434.5255     13.3074     89.9938
   487.5000      0.0000    392.5368     13.8055     86.6159
   487.7500      0.0000    367.1910     14.1196     81.6435
   488.0000      0.0000    354.9088     14.2563     77.3739
   488.2500      0.0000    351.4611     14.2527     75.5111
   488.5000      0.0000    355.2631     14.1510     76.0939
   488.7500      0.0000    368.8903     13.9863     77.9589
   489.0000      0.0000    398.1048     13.7822     80.1384
   489.2500      0.0000    447.6894     13.5627     82.9384
   489.5000      0.0000    515.2402     13.3626     87.8823
   489.7500      0.0000    588.5790     13.2154     96.4666
   490.0000      0.0000    651.5364     13.1328    108.5170
   490.2500      0.0000    694.0280     13.1024    121.6645
   490.5000      0.0000    716.5180     13.1047    132.9168
   490.7500      0.0000    725.9076     13.1271    141.0074
   491.0000      0.0000    729.1163     13.1654    146.9025
   491.2500      0.0000    730.1263     13.2154    151.9362
   491.5000      0.0000    730.4312     13.2698    156.0452
   491.7500      0.0000    730.3470     13.3219    158.0912
   492.0000      0.0000    729.5420     13.3714    157.1571
   492.2500      0.0000    726.4721     13.4237    152.9142
   492.5000      0.0000    717.0583     13.4819    145.4601
   492.7500      0.0000    694.2658     13.5427    135.6284
