~Version Information
VERS.                      2.0: CWLS Log ASCII Standard - VERSION 2.0
WRAP.                       NO: One line per depth step
~Well Information Block
STRT.FT                31.2500: 
STOP.FT               700.7500: 
STEP.FT                 0.2500: 
NULL.                -999.2500: 
COMP.          XTO Energy Inc.: COMPANY
WELL.          Golden Eagle 20-14: WELL
FLD.           Purgatrorie River: FIELD
LOC.           587' FSL & 2478' FWL--: LOCATION
STAT.                       CO: State
CNTY.               Las Animas: COUNTY
CTRY. USA : Country
SECT. 20 : Section
TOWN. 33S : Township
RANG. 67W : Range
SRVC.          Patterson Wireline: SERVICE COMPANY
DATE.          Sat Dec 10 15:54:00 2005: LOG DATE
API.           05 071 08614 00: UNIQUE WELL ID
~Curve Information Block
DEPT.FT            0 000 00 00: Depth
CCL.                          : Casing Collar Locator
TT3.usec                      : CBL 3' Travel Time
AMP3.mV                       : CBL 3' Amplitude
GR.GAPI                       : Gamma Ray
~Parameter Information Block
~A  Depth       CCL         TT3         AMP3         GR     
# ...
   198.7500      0.0000    894.0000      2.3685    136.6106
   199.0000      0.0000    894.0000      2.3720    143.1249
   199.2500      0.0000    894.0000      2.3753    145.9009
   199.5000      0.0000    894.0000      2.3759    145.1117
   199.7500      0.6732    894.0000      2.3712    142.6860
   200.0000     -0.5890    894.0000      2.3633    140.6541
   200.2500      0.0000    894.0000      2.3596    139.1362
   200.5000      0.0000    894.0000      2.3661    136.4116
   200.7500      0.0000    894.0000      2.3816    131.5673
   201.0000      0.0000    894.0000      2.3995    126.2626
   201.2500      0.0000    894.0000      2.4129    123.1119
   201.5000      0.0000    894.0000      2.4187    123.0468
   201.7500      0.0000    894.0000      2.4172    125.0010
   202.0000      0.0000    894.0000      2.4109    127.4577
   202.2500      0.0000    894.0000      2.4030    129.7030
   202.5000      0.0000    894.0000      2.3964    131.9825
   202.7500      0.0000    894.0000      2.3918    134.7363
   203.0000      0.0000    894.0000      2.3881    137.7000
   203.2500      0.0000    894.0000      2.3862    139.9500
   203.5000      0.0000    894.0000      2.3883    140.6988
   203.7500      0.0000    894.0000      2.3941    139.6831
   204.0000      0.0000    894.0000      2.3987    137.2027
   204.2500      0.0000    894.0000      2.3970    134.4066
   204.5000      0.0000    894.0000      2.3888    132.9165
   204.7500      0.0000    894.0000      2.3789    133.1395
   205.0000      0.0000    894.0000      2.3719    133.1141
   205.2500      0.0000    894.0000      2.3696    129.8451
   205.5000      0.0000    894.0000      2.3710    122.0447
   205.7500      0.0000    894.0000      2.3726    111.4813
   206.0000      0.0000    894.0000      2.3713    101.6345
   206.2500      0.0000    894.0000      2.3664     95.2642
   206.5000      0.0000    894.0000      2.3595     93.1256
   206.7500      0.0000    894.0000      2.3526     94.2781
   207.0000      0.0000    894.0000      2.3466     97.0046
   207.2500      0.0000    894.0000      2.3417     99.5680
   207.5000      0.0000    894.0000      2.3399    100.6282
   207.7500      0.0000    894.0000      2.3445     99.5394
   208.0000      0.0000    894.0000      2.3572     96.8349
   208.2500      0.0000    894.0000      2.3750     94.4900
   208.5000      0.0000    894.0000      2.3914     94.8569
   208.7500      0.0000    894.0000      2.4011     98.4740
   209.0000      0.0000    894.0000      2.4022    103.0671
   209.2500      0.0000    894.0000      2.3958    105.2906
   209.5000      0.0000    894.0000      2.3859    103.6045
   209.7500      0.0000    894.0000      2.3785     99.4809
   210.0000      0.0000    894.0000      2.3779     96.0793
   210.2500      0.0000    894.0000      2.3829     96.0116
   210.5000      0.0000    894.0000      2.3883    100.1800
   210.7500      0.0000    894.0000      2.3910    108.1237
   211.0000      0.0000    894.0000      2.3915    118.6291
   211.2500      0.0000    894.0000      2.3924    129.6214
   211.5000      0.0000    894.0000      2.3959    138.3548
   211.7500      0.0000    894.0000      2.4024    143.0698
   212.0000      0.0000    894.0000      2.4094    144.6734
   212.2500      0.0000    894.0000      2.4119    145.9998
   212.5000      0.0000    894.0000      2.4054    149.0004
   212.7500      0.0000    894.0000      2.3899    152.8652
   213.0000      0.0000    894.0000      2.3703    154.9980
   213.2500      0.0000    894.0000      2.3524    153.6058
   213.5000      0.0000    894.0000      2.3396    149.2326
   213.7500      0.0000    894.0000      2.3327    143.8239
   214.0000      0.0000    894.0000      2.3298    138.7283
   214.2500      0.0000    894.0000      2.3278    134.1086
   214.5000      0.0000    894.0000      2.3243    129.9040
   214.7500      0.0000    894.0000      2.3195    126.2492
   215.0000      0.0000    894.0000      2.3151    122.7113
   215.2500      0.0000    894.0000      2.3130    118.2642
   215.5000      0.0000    894.0000      2.3143    112.8019
   215.7500      0.0000    894.0000      2.3209    107.9642
   216.0000      0.0000    894.0000      2.3346    105.7083
   216.2500      0.0000    894.0000      2.3557    106.4018
   216.5000      0.0000    894.0000      2.3799    108.7063
   216.7500      0.0000    894.0000      2.3997    110.9314
   217.0000      0.0000    894.0000      2.4096    112.2501
   217.2500      0.0000    894.0000      2.4114    113.0452
   217.5000      0.0000    894.0000      2.4121    114.4590
   217.7500      0.0000    894.0000      2.4160    117.3758
   218.0000      0.0000    894.0000      2.4199    121.5314
   218.2500      0.0000    894.0000      2.4165    125.5403
   218.5000      0.0000    894.0000      2.4039    127.8887
   218.7500      0.0000    894.0000      2.3877    128.0144
   219.0000      0.0000    894.0000      2.3768    126.4447
   219.2500      0.0000    894.0000      2.3753    123.9067
   219.5000      0.0000    894.0000      2.3796    120.4896
   219.7500      0.0000    894.0000      2.3829    115.9794
   220.0000      0.0000    894.0000      2.3818    110.8800
   220.2500      0.0000    894.0000      2.3787    106.5076
   220.5000      0.0000    894.0000      2.3781    104.0141
   220.7500      0.0000    894.0000      2.3815    103.7460
   221.0000      0.0000    894.0000      2.3850    105.4229
   221.2500      0.0000    894.0000      2.3824    108.4082
   221.5000      0.0000    894.0000      2.3721    111.8635
   221.7500      0.6815    894.0000      2.3594    115.1533
   222.0000      0.0000    894.0000      2.3523    118.3168
   222.2500      0.0000    894.0000      2.3542    122.0125
   222.5000      0.0000    894.0000      2.3613    126.7025
   222.7500      0.0000    894.0000      2.3671    131.7889
   223.0000      0.0000    894.0000      2.3692    135.7996
   223.2500      0.0000    894.0000      2.3695    137.7521
   223.5000      0.0000    894.0000      2.3702    138.1704
   223.7500      0.0000    894.0000      2.3708    138.2645
   224.0000      0.0000    894.0000      2.3695    138.1535
   224.2500      0.0000    894.0000      2.3644    136.5222
   224.5000      0.0000    894.0000      2.3553    132.2128
   224.7500      0.0000    894.0000      2.3448    125.9465
   225.0000      0.0000    894.0000      2.3370    120.5067
   225.2500      0.0000    894.0000      2.3337    119.0164
   225.5000      0.0000    894.0000      2.3335    122.5600
   225.7500      0.0000    894.0000      2.3341    129.4255
   226.0000      0.0000    894.0000      2.3337    136.4838
   226.2500      0.0000    894.0000      2.3319    140.8430
   226.5000      0.0000    894.0000      2.3300    140.6433
   226.7500      0.0000    894.0000      2.3301    135.5173
   227.0000      0.0000    894.0000      2.3340    126.5399
   227.2500      0.0000    894.0000      2.3396    115.3958
   227.5000      0.0000    894.0000      2.3421    103.8434
   227.7500     -0.9082    894.0000      2.3386     93.9798
   228.0000      2.0000    894.0000      2.3323     88.1422
   228.2500      0.0000    894.0000      2.3295     87.8661
   228.5000     -1.0425    894.0000      2.3344     92.8112
   228.7500      0.0000    894.0000      2.3463    100.7546
   229.0000      0.0000    894.0000      2.3594    108.9291
   229.2500      0.0000    894.0000      2.3673    115.7759
   229.5000      0.0000    894.0000      2.3680    121.3069
   229.7500      0.0000    894.0000      2.3643    125.7723
   230.0000      0.0000    894.0000      2.3600    128.6017
   230.2500      0.0000    894.0000      2.3560    129.0865
   230.5000      0.0000    894.0000      2.3519    127.5860
   230.7500      0.0000    894.0000      2.3479    125.5358
   231.0000      0.0000    894.0000      2.3462    124.3428
   231.2500      0.0000    894.0000      2.3476    124.3493
   231.5000      0.0000    894.0000      2.3506    124.7421
   231.7500      0.0000    894.0000      2.3523    124.5020
   232.0000      0.6726    894.0000      2.3511    123.4131
