~Version Information
VERS.                      2.0: CWLS Log ASCII Standard - VERSION 2.0
WRAP.                       NO: One line per depth step
~Well Information Block
STRT.FT               480.0000: 
STOP.FT              1946.0000: 
STEP.FT                 0.2500: 
NULL.                -999.2500: 
COMP.          XTO Energy Inc.: COMPANY
WELL.          Golden Eagle 19-15: WELL
FLD.           Purgatoire River: FIELD
LOC.           1121' FSL & 2332' FEL--: LOCATION
CNTY.               Las Animas: COUNTY
SRVC.                Patterson: SERVICE COMPANY
DATE.          Sun Mar 12 15:00:51 2006: LOG DATE
UWI.           05 071 08717 00: UNIQUE WELL ID
STAT.                 Colorado: STATE
~Curve Information Block
DEPT.FT            0 000 00 00: Depth
SP.mV                         : DIL Spontaneous Potential
RILD.Ohm-m                    : DIL Deep Resistivity
RILM.Ohm-m                    : DIL Medium Resistivity
RLL3.Ohm-m                    : DIL Shallow Resistivity
GR.GAPI                       : Gamma Ray
~Parameter Information Block
~A  Depth        SP         RILD        RILM        RLL3         GR     
# ...
  1431.0000     16.1071     10.7486     10.0458     12.3762    114.0761
  1431.2500     15.9266     11.0082     10.4369     13.0291    111.0775
  1431.5000     15.7128     11.3125     10.9056     13.8123    106.1991
  1431.7500     15.5322     11.6557     11.4474     14.7234    102.3856
  1432.0000     15.4867     12.0287     12.0579     15.7816     95.9557
  1432.2500     15.6405     12.4207     12.7308     17.0395     91.7886
  1432.5000     15.9655     12.8185     13.4560     18.5805     86.7874
  1432.7500     16.3410     13.2058     14.2152     20.4927     84.4179
  1433.0000     16.6148     13.5622     14.9763     22.8140     81.7646
  1433.2500     16.6947     13.8675     15.6872     25.4595     80.3009
  1433.5000     16.6005     14.1108     16.2726     28.1619     78.6674
  1433.7500     16.4311     14.2968     16.6451     30.4735     78.3697
  1434.0000     16.2862     14.4419     16.7378     31.8660     80.2129
  1434.2500     16.2097     14.5640     16.5444     31.9120     83.5361
  1434.5000     16.1926     14.6741     16.1354     30.4743     91.6149
  1434.7500     16.2130     14.7766     15.6319     27.7973     98.2107
  1435.0000     16.2667     14.8733     15.1578     24.4427    107.7180
  1435.2500     16.3611     14.9643     14.8026     21.0995    112.6299
  1435.5000     16.4985     15.0448     14.6104     18.3698    116.4588
  1435.7500     16.6803     15.1031     14.5859     16.6296    116.1681
  1436.0000     16.9180     15.1259     14.7078     16.0004    111.4342
  1436.2500     17.2124     15.1106     14.9406     16.3972    106.0730
  1436.5000     17.5204     15.0723     15.2440     17.5922     96.7401
  1436.7500     17.7644     15.0415     15.5780     19.2658     90.7990
  1437.0000     17.8828     15.0533     15.9097     21.0485     83.4975
  1437.2500     17.8608     15.1354     16.2202     22.5822     80.0421
  1437.5000     17.7140     15.3013     16.5112     23.6048     77.3215
  1437.7500     17.4721     15.5469     16.8033     24.0303     77.1262
  1438.0000     17.1969     15.8499     17.1260     23.9775     78.4733
  1438.2500     16.9921     16.1722     17.5048     23.7190     79.5588
  1438.5000     16.9540     16.4666     17.9507     23.5683     79.7540
  1438.7500     17.1000     16.6869     18.4499     23.7507     78.4337
  1439.0000     17.3572     16.7978     18.9539     24.3178     75.0790
  1439.2500     17.6252     16.7809     19.3725     25.1335     73.0336
  1439.5000     17.8545     16.6369     19.5840     25.9261     71.6473
  1439.7500     18.0737     16.3862     19.4755     26.3780     71.8996
  1440.0000     18.3399     16.0657     18.9987     26.2214     73.7129
  1440.2500     18.6603     15.7206     18.2020     25.3165     76.1400
  1440.5000     18.9769     15.3926     17.2097     23.6945     82.6952
  1440.7500     19.2288     15.1099     16.1694     21.5524     89.1561
  1441.0000     19.4056     14.8823     15.2083     19.2025    100.2032
  1441.2500     19.5335     14.7002     14.4137     16.9925    106.6053
  1441.5000     19.6322     14.5380     13.8310     15.2243    112.1419
  1441.7500     19.7013     14.3598     13.4699     14.0954    112.7634
  1442.0000     19.7404     14.1275     13.3117     13.6731    110.3557
  1442.2500     19.7698     13.8090     13.3190     13.8990    107.7003
  1442.5000     19.8204     13.3868     13.4454     14.6165    103.7543
  1442.7500     19.8995     12.8623     13.6448     15.6116    101.5372
  1443.0000     19.9812     12.2595     13.8795     16.6583     98.6596
  1443.2500     20.0535     11.6253     14.1246     17.5602     96.7914
  1443.5000     20.1643     11.0247     14.3687     18.1843     94.0153
  1443.7500     20.3868     10.5309     14.6111     18.4783     92.5512
  1444.0000     20.7204     10.2167     14.8547     18.4694     92.0628
  1444.2500     21.0394     10.1541     15.0970     18.2420     93.2874
  1444.5000     21.1594     10.4323     15.3219     17.9019     96.5308
  1444.7500     20.9644     11.2056     15.4955     17.5396     98.2457
  1445.0000     20.4830     12.8115     15.5694     17.2064     98.2625
  1445.2500     19.8582     16.1463     15.4901     16.9068     96.6601
  1445.5000     19.2502     24.4281     15.2135     16.6041     93.7162
  1445.7500     18.7588     62.9064     14.7192     16.2332     92.7284
  1446.0000     18.4178 100000.0000     14.0244     15.7195     94.3971
  1446.2500     18.2320 100000.0000     13.1860     15.0028     97.9251
  1446.5000     18.1990 100000.0000     12.2874     14.0643    105.8153
  1446.7500     18.3005 100000.0000     11.4141     12.9448    111.4160
  1447.0000     18.4942 100000.0000     10.6321     11.7419    117.7788
  1447.2500     18.7293 100000.0000      9.9793     10.5842    119.9060
  1447.5000     18.9725 100000.0000      9.4678      9.5921    120.5917
  1447.7500     19.2136 100000.0000      9.0925      8.8442    120.5064
  1448.0000     19.4482 100000.0000      8.8401      8.3635    121.1723
  1448.2500     19.6637 100000.0000      8.6960      8.1227    122.3672
  1448.5000     19.8411 100000.0000      8.6506      8.0631    124.6504
  1448.7500     19.9629 100000.0000      8.7044      8.1160    125.9111
  1449.0000     20.0287 100000.0000      8.8736      8.2240    126.4763
  1449.2500     20.0727 100000.0000      9.1973      8.3575    125.6129
  1449.5000     20.1574 100000.0000      9.7493      8.5242    122.2904
  1449.7500     20.3319 100000.0000     10.6611      8.7663    118.8610
  1450.0000     20.5946     73.2519     12.1785      9.1431    112.4367
  1450.2500     20.8908     24.6291     14.8074      9.7048    107.8496
  1450.5000     21.1320     14.0394     19.7342     10.4674    101.9331
  1450.7500     21.2273      9.0063     30.1449     11.4024     99.5147
  1451.0000     21.1375      5.8857     54.4255     12.4429     98.7534
  1451.2500     20.9158      3.8077     82.5561     13.5060     99.5828
  1451.5000     20.6679      2.4447     42.6293     14.5212    100.9173
  1451.7500     20.4399      1.5795     15.3815     15.4530    101.0385
  1452.0000     20.1448      1.0405      6.5438     16.3035    100.1473
  1452.2500     19.6029      0.7038      3.2667     17.0911     99.5067
  1452.5000     18.6346      0.4897      1.8265     17.8072     99.4063
  1452.7500     17.0858      0.3512      1.1079     18.3731     99.9830
  1453.0000     14.7741      0.2619      0.7156     18.6296    101.5329
  1453.2500     11.4560      0.2066      0.4877     18.3816    102.9022
  1453.5000      6.8954      0.1749      0.3499     17.4948    105.1972
  1453.7500      1.0243      0.1596      0.2646     16.0051    106.5317
  1454.0000     -5.8440      0.1550      0.2113     14.1810    107.4433
  1454.2500    -12.8456      0.1566      0.1782     12.4958    107.1042
  1454.5000    -18.6546      0.1605      0.1583     11.5053    105.6841
  1454.7500    -21.9743      0.1645      0.1474     11.6698    104.6969
  1455.0000    -22.2006      0.1691      0.1431     13.1914    103.5517
  1455.2500    -19.7496      0.1778      0.1437     15.9341    102.7214
  1455.5000    -15.7902      0.1960      0.1484     19.4627    100.9457
  1455.7500    -11.6363      0.2307      0.1570     23.1876     99.7121
  1456.0000     -8.2229      0.2923      0.1698     26.5465     98.7483
  1456.2500     -5.8681      0.3995      0.1874     29.1402     98.8238
  1456.5000     -4.3388      0.5963      0.2112     30.7662     99.3645
  1456.7500     -3.1947      1.0216      0.2421     31.3592     99.6952
  1457.0000     -2.2476      2.4039      0.2805     30.9034    100.0837
  1457.2500     -1.7810    203.5272      0.3251     29.3898     99.9956
  1457.5000     -2.3361 100000.0000      0.3738     26.8452     97.7312
  1457.7500     -4.2976 100000.0000      0.4262     23.4024     93.6228
  1458.0000     -7.6855 100000.0000      0.4888     19.3467     82.8840
  1458.2500    -12.2644 100000.0000      0.5781     15.0915     73.6102
  1458.5000    -17.7276 100000.0000      0.7278     11.0825     59.7825
  1458.7500    -23.6798 100000.0000      1.0111      7.6801     52.5343
