~Version Information
VERS.                      2.0: CWLS Log ASCII Standard - VERSION 2.0
WRAP.                       NO: One line per depth step
~Well Information Block
STRT.FT               892.0000: 
STOP.FT              2094.0000: 
STEP.FT                 0.1000: 
NULL.                -999.2500: 
COMP.          Pioneer Natural Resources: COMPANY
WELL.          Greenwood 43-29 Tr: WELL
FLD.           Purgatoire River: FIELD
LOC.           1478' FSL & 744' FEL: LOCATION
STAT.                 Colorado: State
CNTY.               Las Animas: COUNTY
CTRY. USA : Country
SECT. 29 : Section
TOWN. 32S : Township
RANG. 67W : Range
SRVC.                Patterson: SERVICE COMPANY
DATE.          Wed Aug 31 10:39:20 2005: LOG DATE
API.           05 071 08478 00: UNIQUE WELL ID
~Curve Information Block
DEPT.FT            0 000 00 00: Depth
DCAL.in                       : CDL Caliper
RHOB.g/cc                     : CDL Bulk Density
RHOC.g/cc                     : CDL Density Correction
DPOR.pu                       : CDL Density Porosity
GR.GAPI                       : Gamma Ray
NPOR.pu                       : Neutron Porosity
~Parameter Information Block
~A  Depth       DCAL        RHOB        RHOC        DPOR         GR         NPOR    
# ...
  1448.8000      8.1257      2.5552      0.0968      5.7454    121.2256     28.6229
  1448.9000      8.1257      2.5487      0.1731      6.1414    119.1154     28.3940
  1449.0000      8.1248      2.5264      0.1018      7.4937    124.3444     28.0454
  1449.1000      8.1248      2.5112      0.0303      8.4097    126.8322     27.9375
  1449.2000      8.1248      2.5235      0.0824      7.6677    124.4712     27.7292
  1449.3000      8.1345      2.5505      0.0787      6.0305    124.2466     27.2934
  1449.4000      8.1345      2.5679      0.0908      4.9759    130.7967     27.4575
  1449.5000      8.1606      2.5679      0.0741      4.9764    142.6168     28.1865
  1449.6000      8.1606      2.5502      0.0913      6.0473    150.4257     28.5295
  1449.7000      8.1606      2.4986      0.1244      9.1759    145.9030     28.7954
  1449.8000      8.1476      2.3992      0.0551     15.1996    135.3880     29.2469
  1449.9000      8.1476      2.2668     -0.0105     23.2255    130.9833     29.3423
  1450.0000      8.1532      2.1344     -0.0545     31.2504    131.0555     29.6324
  1450.1000      8.1532      2.0285     -0.0591     37.6641    127.6220     30.6019
  1450.2000      8.1532      1.9365     -0.0073     43.2425    119.2895     31.5134
  1450.3000      8.1557      1.8197     -0.0685     50.3200    107.1180     31.7537
  1450.4000      8.1557      1.6831     -0.0979     58.6018     97.9570     31.4486
  1450.5000      8.1669      1.5889     -0.1379     64.3121    100.6072     31.1059
  1450.6000      8.1669      1.5898     -0.0863     64.2522    109.5796     31.4252
  1450.7000      8.1669      1.6839      0.0542     58.5502    112.0450     32.3194
  1450.8000      8.1787      1.8347      0.1155     49.4108    105.0816     33.1803
  1450.9000      8.1787      1.9904      0.2035     39.9735     98.6288     33.6756
  1451.0000      8.2616      2.1093      0.2286     32.7712    100.1010     33.4439
  1451.1000      8.2616      2.2055      0.1898     26.9387    106.5531     32.4785
  1451.2000      8.2616      2.3194      0.2074     20.0357    113.2458     31.5705
  1451.3000      8.4775      2.4382      0.2620     12.8389    118.6469     31.3723
  1451.4000      8.4775      2.5153      0.1287      8.1607    122.8863     31.3098
  1451.5000      8.4986      2.5569     -0.0169      5.6400    125.9159     30.6180
  1451.6000      8.4986      2.5936      0.1202      3.4171    126.5007     29.6568
  1451.7000      8.4986      2.6129      0.0904      2.2463    124.7549     29.1665
  1451.8000      8.2033      2.6018      0.0739      2.9190    124.5975     29.1502
  1451.9000      8.2033      2.5770      0.0378      4.4216    125.8544     29.0454
  1452.0000      8.1214      2.5549      0.0388      5.7624    124.4317     28.4513
  1452.1000      8.1214      2.5409      0.0177      6.6138    120.9298     27.7174
  1452.2000      8.1214      2.5425     -0.0011      6.5162    120.1135     27.0683
  1452.3000      8.1157      2.5625      0.0153      5.3060    124.1318     26.6725
  1452.4000      8.1157      2.5876      0.0374      3.7798    130.2921     27.0215
  1452.5000      8.1091      2.6102      0.0394      2.4146    136.5330     27.7434
  1452.6000      8.1091      2.6334      0.0874      1.0069    139.2283     27.9089
  1452.7000      8.1091      2.6557      0.0839     -0.3482    135.3770     27.2498
  1452.8000      8.1066      2.6718      0.1098     -1.3224    131.0515     26.1126
  1452.9000      8.1066      2.6730      0.1060     -1.3925    130.1699     25.1977
  1453.0000      8.0997      2.6523      0.1384     -0.1390    127.1518     25.0237
  1453.1000      8.0997      2.6205      0.0290      1.7901    121.3648     25.3180
  1453.2000      8.0997      2.5989      0.0158      3.0979    121.2933     25.7841
  1453.3000      8.1090      2.5883      0.0101      3.7423    128.7489     26.0726
  1453.4000      8.1090      2.5790      0.0732      4.3043    136.2177     25.5447
  1453.5000      8.1031      2.5702      0.0460      4.8394    137.6071     24.4827
  1453.6000      8.1031      2.5638      0.0692      5.2222    130.5540     23.9864
  1453.7000      8.1031      2.5618      0.0665      5.3442    118.1719     24.7603
  1453.8000      8.1143      2.5632      0.0937      5.2606    110.0765     26.1090
  1453.9000      8.1143      2.5610      0.1141      5.3954    111.1010     26.5813
  1454.0000      8.0774      2.5503      0.1115      6.0452    114.3892     26.4469
  1454.1000      8.0774      2.5396      0.0083      6.6927    117.3675     26.8264
  1454.2000      8.0774      2.5362      0.0647      6.8944    126.1350     27.3116
  1454.3000      8.0729      2.5351      0.0592      6.9633    135.2676     27.3972
  1454.4000      8.0729      2.5348      0.0579      6.9818    136.3354     27.2397
  1454.5000      8.1013      2.5342      0.0603      7.0208    134.0158     26.5302
  1454.6000      8.1013      2.5367     -0.0013      6.8659    134.2796     25.2838
  1454.7000      8.1013      2.5493      0.0902      6.1008    133.5758     24.4087
  1454.8000      8.1016      2.5594      0.0720      5.4889    130.6734     24.3136
  1454.9000      8.1016      2.5563      0.0566      5.6799    132.8928     24.7234
  1455.0000      8.1348      2.5465      0.0812      6.2712    139.3537     25.7009
  1455.1000      8.1348      2.5368      0.0635      6.8612    141.2466     26.7379
  1455.2000      8.1348      2.5355      0.0339      6.9395    137.5336     27.0199
  1455.3000      8.1354      2.5524      0.0143      5.9173    132.2950     26.6905
  1455.4000      8.1354      2.5823      0.0949      4.1053    126.3175     25.9446
  1455.5000      8.1255      2.6062      0.0742      2.6560    120.0547     24.9129
  1455.6000      8.1255      2.6102      0.0958      2.4092    117.5309     24.3004
  1455.7000      8.1255      2.6029      0.0357      2.8549    120.3923     24.2105
  1455.8000      8.1234      2.6106      0.0336      2.3858    119.9519     23.9950
  1455.9000      8.1234      2.6335      0.1014      1.0012    110.4793     23.6388
  1456.0000      8.0943      2.6383      0.1640      0.7114    101.1535     23.9267
  1456.1000      8.0943      2.6184      0.0830      1.9123     99.2579     24.9037
  1456.2000      8.0943      2.6118      0.0515      2.3129    100.8636     25.5008
  1456.3000      8.0430      2.6349      0.1086      0.9176    104.7842     25.1219
  1456.4000      8.0430      2.6480      0.1438      0.1242    112.8681     24.6211
  1456.5000      8.0346      2.6213      0.0452      1.7398    121.9863     25.0680
  1456.6000      8.0346      2.5878      0.0228      3.7675    128.8866     26.0689
  1456.7000      8.0346      2.5859      0.0177      3.8861    132.8111     26.0602
  1456.8000      8.0629      2.6042      0.0348      2.7748    132.5269     24.6381
  1456.9000      8.0629      2.6065      0.0468      2.6371    129.1861     23.3077
  1457.0000      8.0799      2.5849      0.0154      3.9465    127.6078     23.1065
  1457.1000      8.0799      2.5696      0.0090      4.8755    128.9976     23.6514
  1457.2000      8.0799      2.5762      0.0136      4.4700    129.7859     24.3873
  1457.3000      8.0857      2.5867      0.0532      3.8335    129.6455     25.1227
  1457.4000      8.0857      2.5872     -0.0101      3.8070    130.4911     25.4337
  1457.5000      8.1000      2.5897      0.0022      3.6532    129.2883     25.4242
  1457.6000      8.1000      2.6079      0.0025      2.5540    125.4146     26.0860
  1457.7000      8.1000      2.6401      0.0334      0.5992    123.1291     26.8446
  1457.8000      8.0914      2.6718      0.0675     -1.3204    123.8914     26.1481
  1457.9000      8.0914      2.6774      0.0934     -1.6623    126.5876     24.3865
  1458.0000      8.0902      2.6491      0.0134      0.0549    129.1372     22.8621
  1458.1000      8.0902      2.6101      0.0564      2.4204    128.3750     22.2586
  1458.2000      8.0902      2.5784     -0.0181      4.3407    123.4762     22.1980
  1458.3000      8.0832      2.5559      0.0136      5.7034    116.8489     21.4273
