~Version Information
VERS.                      2.0: CWLS Log ASCII Standard - VERSION 2.0
WRAP.                       NO: One line per depth step
~Well Information Block
STRT.FT               547.0000: 
STOP.FT              1685.5000: 
STEP.FT                 0.1000: 
NULL.                -999.2500: 
COMP.          Pioneer Natural Resources: COMPANY
WELL.           Pedri 42-33 Tr: WELL
FLD.           Purgatorie River: FIELD
LOC.           1933' FNL & 662' FEL: LOCATION
PROV.                 Colorado: PROVINCE
CNTY.               Las Animas: COUNTRY
SRVC.                Patterson: SERVICE COMPANY
DATE.          Mon Dec 19 13:36:44 2005: LOG DATE
UWI.                          : UNIQUE WELL ID
~Curve Information Block
DEPT.FT            0 000 00 00: Depth
DCAL.in                       : CDL Caliper
RHOB.g/cc                     : CDL Bulk Density
RHOC.g/cc                     : CDL Density Correction
DPOR.pu                       : CDL Density Porosity
GR.GAPI                       : Gamma Ray
~Parameter Information Block
~A  Depth       DCAL        RHOB        RHOC        DPOR         GR     
# ...
  1588.6000      8.0488      2.6904      0.1506     -2.4508    157.6528
  1588.7000      8.0488      2.6696      0.1214     -1.1869    155.9741
  1588.8000      8.0268      2.6341      0.1060      0.9663    153.0808
  1588.9000      8.0268      2.5997      0.0303      3.0468    151.4873
  1589.0000      7.9917      2.5809      0.0660      4.1878    149.9887
  1589.1000      7.9917      2.5720      0.0540      4.7289    144.7343
  1589.2000      7.9917      2.5674      0.0505      5.0078    136.7128
  1589.3000      7.9923      2.5651      0.0529      5.1464    132.3808
  1589.4000      7.9923      2.5626      0.0516      5.2983    135.9743
  1589.5000      8.0178      2.5649      0.0219      5.1550    144.9599
  1589.6000      8.0178      2.5684      0.0988      4.9428    152.9031
  1589.7000      8.0178      2.5607      0.0388      5.4113    154.9741
  1589.8000      8.0153      2.5502      0.0556      6.0457    153.0504
  1589.9000      8.0153      2.5508      0.0656      6.0140    152.7526
  1590.0000      8.0365      2.5593      0.1067      5.4944    154.5663
  1590.1000      8.0365      2.5744      0.0946      4.5799    156.4537
  1590.2000      8.0365      2.5998      0.1154      3.0422    155.4535
  1590.3000      8.0316      2.6248      0.1421      1.5290    150.6834
  1590.4000      8.0316      2.6337      0.1510      0.9858    146.3947
  1590.5000      8.0434      2.6228      0.0861      1.6486    143.1217
  1590.6000      8.0434      2.6038      0.0939      2.8028    137.9652
  1590.7000      8.0434      2.5961      0.0727      3.2665    133.5177
  1590.8000      8.0037      2.5973      0.1358      3.1926    132.3237
  1590.9000      8.0037      2.5945      0.0639      3.3613    131.4871
  1591.0000      7.9784      2.6012      0.0667      2.9602    128.7454
  1591.1000      7.9784      2.6266      0.1366      1.4189    125.0223
  1591.2000      7.9784      2.6558      0.1254     -0.3494    121.5923
  1591.3000      7.9561      2.6755      0.1648     -1.5447    117.6833
  1591.4000      7.9561      2.6811      0.1370     -1.8858    112.2440
  1591.5000      7.9444      2.6746      0.1300     -1.4911    106.7354
  1591.6000      7.9444      2.6664      0.0517     -0.9920    102.6200
  1591.7000      7.9444      2.6676      0.0593     -1.0644     99.0330
  1591.8000      7.8869      2.6755      0.0554     -1.5469     94.3233
  1591.9000      7.8869      2.6820      0.0400     -1.9397     88.6464
  1592.0000      7.9499      2.6894      0.0277     -2.3881     82.8108
  1592.1000      7.9499      2.7039      0.0310     -3.2676     77.0562
  1592.2000      7.9499      2.7233      0.0768     -4.4411     72.5041
  1592.3000      8.0075      2.7326      0.1130     -5.0059     71.7400
  1592.4000      8.0075      2.7178      0.0952     -4.1099     73.9753
  1592.5000      7.9946      2.6897      0.0533     -2.4069     75.2665
  1592.6000      7.9946      2.6719      0.0368     -1.3297     74.3580
  1592.7000      7.9946      2.6651      0.0843     -0.9142     74.9835
  1592.8000      8.0070      2.6511      0.1009     -0.0641     82.5257
  1592.9000      8.0070      2.6261      0.0664      1.4489     94.7896
  1593.0000      7.9711      2.6027      0.0835      2.8679    105.9231
  1593.1000      7.9711      2.5882      0.0579      3.7464    114.1437
  1593.2000      7.9711      2.5815      0.1071      4.1525    119.0796
  1593.3000      7.9271      2.5780      0.1281      4.3648    122.4451
  1593.4000      7.9271      2.5750      0.0848      4.5480    127.3512
  1593.5000      7.9267      2.5742      0.1231      4.5911    134.5546
  1593.6000      7.9267      2.5768      0.0780      4.4365    142.5800
  1593.7000      7.9267      2.5819      0.1130      4.1278    149.8616
  1593.8000      7.9479      2.5930      0.0945      3.4517    153.6072
  1593.9000      7.9479      2.6203      0.0770      1.8029    152.7736
  1594.0000      7.9793      2.6563      0.1492     -0.3845    151.4743
  1594.1000      7.9793      2.6693      0.1835     -1.1693    152.5887
  1594.2000      7.9793      2.6486      0.1057      0.0836    153.9006
  1594.3000      8.0048      2.6203      0.1023      1.7990    152.3221
  1594.4000      8.0048      2.6060      0.0779      2.6637    145.3042
  1594.5000      8.0335      2.6051      0.0987      2.7189    134.4546
  1594.6000      8.0335      2.6120      0.0575      2.3058    127.1232
  1594.7000      8.0335      2.6249      0.0750      1.5222    128.4632
  1594.8000      8.0486      2.6364      0.0810      0.8214    132.4876
  1594.9000      8.0486      2.6390      0.0655      0.6689    128.7195
  1595.0000      8.0138      2.6353      0.0478      0.8883    116.6971
  1595.1000      8.0138      2.6369      0.0562      0.7952    103.6868
  1595.2000      8.0138      2.6541      0.0341     -0.2493     95.1297
  1595.3000      8.0183      2.6825      0.0741     -1.9705     92.2856
  1595.4000      8.0183      2.7020      0.0684     -3.1488     91.9860
  1595.5000      7.9437      2.7041      0.0783     -3.2793     90.2258
  1595.6000      7.9437      2.7008      0.0408     -3.0770     84.8745
  1595.7000      7.9437      2.6950      0.1182     -2.7272     76.5291
  1595.8000      7.9085      2.6829      0.0359     -1.9941     71.9000
  1595.9000      7.9085      2.6783      0.0524     -1.7124     74.5984
  1596.0000      7.8811      2.6821      0.1327     -1.9453     79.5024
  1596.1000      7.8811      2.6752      0.0900     -1.5301     82.1473
  1596.2000      7.8811      2.6533      0.0900     -0.1981     84.3065
  1596.3000      7.9185      2.6280      0.0133      1.3353     87.5291
  1596.4000      7.9185      2.6108      0.0378      2.3753     89.9750
  1596.5000      7.9773      2.5951      0.0554      3.3264     91.8458
  1596.6000      7.9773      2.5711      0.0226      4.7790     93.6771
  1596.7000      7.9773      2.5489      0.0115      6.1300     96.5804
  1596.8000      8.0090      2.5406      0.0183      6.6325    102.7649
  1596.9000      8.0090      2.5440      0.0633      6.4235    109.3979
  1597.0000      7.9857      2.5507      0.0785      6.0205    113.9384
  1597.1000      7.9857      2.5564      0.0689      5.6755    118.1552
  1597.2000      7.9857      2.5598      0.0803      5.4673    120.9782
  1597.3000      7.9497      2.5620      0.0922      5.3358    121.6501
  1597.4000      7.9497      2.5688      0.1068      4.9200    121.8416
  1597.5000      7.9427      2.5791      0.1226      4.2982    123.4297
  1597.6000      7.9427      2.5857      0.0866      3.8947    127.3388
  1597.7000      7.9427      2.5885      0.1079      3.7281    131.3288
  1597.8000      7.9211      2.5862      0.0728      3.8639    133.2667
  1597.9000      7.9211      2.5743      0.1082      4.5859    133.4154
  1598.0000      7.9704      2.5539      0.0489      5.8212    133.1793
  1598.1000      7.9704      2.5384      0.0417      6.7640    132.6456
  1598.2000      7.9704      2.5421      0.0101      6.5412    131.1204
  1598.3000      8.0299      2.5625      0.0435      5.3021    130.5012
  1598.4000      8.0299      2.5833      0.0357      4.0420    132.3978
  1598.5000      7.9970      2.5916      0.0789      3.5381    135.1234
  1598.6000      7.9970      2.5818      0.0771      4.1320    134.0645
  1598.7000      7.9970      2.5612      0.0739      5.3823    127.9743
  1598.8000      7.9678      2.5441      0.0737      6.4175    121.7804
  1598.9000      7.9678      2.5308      0.0881      7.2268    119.5934
  1599.0000      7.9831      2.5136      0.0368      8.2673    122.1661
  1599.1000      7.9831      2.5000      0.0165      9.0905    126.4726
  1599.2000      7.9831      2.5026     -0.0010      8.9360    128.5394
  1599.3000      8.0008      2.5166      0.0912      8.0853    129.8337
  1599.4000      8.0008      2.5327      0.0643      7.1069    133.5746
  1599.5000      8.0236      2.5511      0.1185      5.9932    137.4753
  1599.6000      8.0236      2.5676      0.1298      4.9968    139.0802
  1599.7000      8.0236      2.5807      0.1174      4.1989    140.5002
