~Version Information
VERS.                      2.0: CWLS Log ASCII Standard - VERSION 2.0
WRAP.                       NO: One line per depth step
~Well Information Block
STRT.FT               350.0000: 
STOP.FT              2803.2000: 
STEP.FT                 0.1000: 
NULL.                -999.2500: 
COMP.          Pioneer Natural Resources: COMPANY
WELL.          Grey Goose 33-30: WELL
FLD.           Purgatoire River: FIELD
LOC.           2136' FSL & 2065' FEL--: LOCATION
STAT.                 Colorado: State
CNTY.               Las Animas: COUNTY
CTRY. USA : Country
SECT. 30 : Section
TOWN. 32S : Township
RANG. 67W : Range
SRVC.                Patterson: SERVICE COMPANY
DATE.          Fri Nov 04 09:27:53 2005: LOG DATE
API.           05 071 08546 00: UNIQUE WELL ID
~Curve Information Block
DEPT.FT            0 000 00 00: Depth
DCAL.in                       : CDL Caliper
DPOR.pu                       : CDL Density Porosity
NPOR.pu                       : Neutron Porosity
RHOB.g/cc                     : CDL Bulk Density
RHOC.g/cc                     : CDL Density Correction
GR.GAPI                       : Gamma Ray
~Parameter Information Block
~A  Depth       DCAL        DPOR        NPOR        RHOB        RHOC         GR     
# ...
  2471.6000      7.9783      7.3818     22.6820      2.5282      0.0176     77.3389
  2471.7000      7.9783      7.9111     22.5422      2.5195      0.0208     78.1155
  2471.8000      7.9768      8.0329     22.6348      2.5175      0.0148     86.5882
  2471.9000      7.9768      7.8384     23.1255      2.5207     -0.0173     92.3316
  2472.0000      7.9745      7.4434     23.6640      2.5272      0.0661     93.1423
  2472.1000      7.9745      7.4970     23.8178      2.5263      0.0194     98.1910
  2472.2000      7.9745      7.6907     23.6294      2.5231     -0.0114    108.1980
  2472.3000      7.9757      7.2574     23.3555      2.5303      0.0241    116.3022
  2472.4000      7.9757      6.3737     23.2024      2.5448      0.0468    118.8930
  2472.5000      7.9786      5.7841     23.4030      2.5546      0.0535    115.0828
  2472.6000      7.9786      5.8590     23.8679      2.5533      0.0481    106.7008
  2472.7000      7.9786      6.0112     24.2714      2.5508      0.0047     98.8439
  2472.8000      7.9786      5.6827     24.2009      2.5562      0.0387     94.3557
  2472.9000      7.9786      5.4671     23.6247      2.5598      0.0445     91.8024
  2473.0000      7.9772      5.9718     23.3359      2.5515      0.0507     92.6996
  2473.1000      7.9772      7.1026     23.9992      2.5328      0.0340     96.8504
  2473.2000      7.9772      8.1434     25.1510      2.5156      0.0240     98.8809
  2473.3000      7.9764      8.1595     26.0558      2.5154     -0.0070     97.4232
  2473.4000      7.9764      7.4733     26.6309      2.5267      0.0370     98.1185
  2473.5000      7.9767      7.5813     27.0211      2.5249      0.0397    102.5369
  2473.6000      7.9767      8.8267     27.3188      2.5044      0.0098    105.2238
  2473.7000      7.9767      9.9592     27.4761      2.4857     -0.0161    107.3627
  2473.8000      7.9792     10.0382     27.3023      2.4844      0.0143    114.2690
  2473.9000      7.9792      9.4083     26.8003      2.4948      0.0385    122.4541
  2474.0000      7.9801      8.8536     26.1064      2.5039      0.0597    124.5837
  2474.1000      7.9801      8.6035     25.4705      2.5080      0.0491    122.2390
  2474.2000      7.9801      8.2799     25.2626      2.5134      0.0286    121.8409
  2474.3000      7.9786      7.3769     25.2673      2.5283      0.0243    122.0154
  2474.4000      7.9786      5.7852     25.0962      2.5545      0.0461    117.9322
  2474.5000      7.9784      4.2528     25.0386      2.5798      0.0836    109.6287
  2474.6000      7.9784      3.4468     24.9519      2.5931      0.0673     99.3679
  2474.7000      7.9784      3.0684     24.1557      2.5994      0.0618     92.7192
  2474.8000      7.9794      2.9543     23.0864      2.6013      0.0956     93.2860
  2474.9000      7.9794      3.0075     22.5357      2.6004      0.0364     95.0673
  2475.0000      7.9785      2.5606     22.3309      2.6077      0.0724     92.9489
  2475.1000      7.9785      1.9877     22.2784      2.6172      0.0870     92.3390
  2475.2000      7.9785      1.9768     22.5757      2.6174      0.0473     97.0115
  2475.3000      7.9753      1.9858     23.0683      2.6172      0.0626     97.8176
  2475.4000      7.9753      1.6248     23.1915      2.6232      0.0805     88.4264
  2475.5000      7.9730      1.4179     22.8580      2.6266      0.0831     76.9249
  2475.6000      7.9730      1.7745     22.6627      2.6207      0.0738     72.4000
  2475.7000      7.9730      2.3915     23.0178      2.6105      0.0411     75.2648
  2475.8000      7.9729      3.0199     23.4495      2.6002      0.0615     78.2679
  2475.9000      7.9729      4.0129     23.3398      2.5838      0.0485     75.3200
  2476.0000      7.9745      5.3282     22.7517      2.5621      0.0248     71.4242
  2476.1000      7.9745      6.3604     22.0772      2.5451      0.0233     71.6574
  2476.2000      7.9745      6.7441     21.5335      2.5387     -0.0109     70.9758
  2476.3000      7.9772      6.4919     21.3896      2.5429      0.0148     68.8310
  2476.4000      7.9772      5.8963     21.7175      2.5527      0.0064     71.2343
  2476.5000      7.9791      5.2767     22.0110      2.5629      0.0040     76.9231
  2476.6000      7.9791      4.6549     21.9148      2.5732     -0.0080     80.0720
  2476.7000      7.9791      3.9138     21.6869      2.5854      0.0902     78.2346
  2476.8000      7.9768      3.3874     21.5282      2.5941      0.0828     74.8195
  2476.9000      7.9768      3.2184     21.1877      2.5969      0.0351     73.8224
  2477.0000      7.9725      2.8934     20.7289      2.6023      0.0416     72.1839
  2477.1000      7.9725      2.4038     20.7311      2.6103      0.0619     69.7996
  2477.2000      7.9725      2.2846     21.2804      2.6123      0.0414     70.6719
  2477.3000      7.9709      2.4805     21.8506      2.6091      0.0315     70.5461
  2477.4000      7.9709      2.7740     22.2801      2.6042      0.0455     67.8862
  2477.5000      7.9712      3.3628     22.6416      2.5945      0.0527     70.7155
  2477.6000      7.9712      4.4083     23.0542      2.5773      0.0156     79.7453
  2477.7000      7.9712      6.0287     23.8180      2.5505      0.0389     84.9197
  2477.8000      7.9707      7.9971     24.9023      2.5180     -0.0342     86.0362
  2477.9000      7.9707      9.8650     25.9553      2.4872     -0.0078     92.8856
  2478.0000      7.9709     11.6791     26.9127      2.4573     -0.0212    103.8252
  2478.1000      7.9709     13.4295     27.9737      2.4284     -0.0210    109.0430
  2478.2000      7.9709     14.7832     29.0552      2.4061     -0.0212    108.0837
  2478.3000      7.9747     15.3100     29.6088      2.3974     -0.0008    107.2548
  2478.4000      7.9747     14.5475     29.4779      2.4100     -0.0235    110.9395
  2478.5000      7.9796     12.7566     29.0816      2.4395      0.0635    118.2045
  2478.6000      7.9796     10.9106     28.6681      2.4700      0.0279    126.1541
  2478.7000      7.9796      9.5538     28.4628      2.4924      0.0772    132.0388
  2478.8000      7.9805      9.1194     28.6301      2.4995      0.1195    134.2877
  2478.9000      7.9805      9.7377     28.8889      2.4893      0.1220    133.2694
  2479.0000      7.9744     10.4928     28.9743      2.4769      0.1384    131.5494
  2479.1000      7.9744     10.5790     29.0007      2.4754      0.1680    130.4465
  2479.2000      7.9744     10.2457     29.0121      2.4809      0.1684    128.7474
  2479.3000      7.9712      9.7672     28.8692      2.4888      0.1404    128.2864
  2479.4000      7.9712      9.4133     28.6386      2.4947      0.1317    130.2623
  2479.5000      7.9684     10.1020     28.7509      2.4833      0.1105    134.3735
  2479.6000      7.9684     11.9066     29.2057      2.4535      0.0569    139.9496
  2479.7000      7.9684     13.6333     29.4243      2.4251      0.0621    140.9721
  2479.8000      7.9592     14.2622     29.5028      2.4147      0.0305    137.8928
  2479.9000      7.9592     13.7840     29.7030      2.4226      0.0829    135.8567
  2480.0000      7.9530     12.9266     29.7257      2.4367      0.0456    131.4823
  2480.1000      7.9530     11.9241     29.7124      2.4533      0.0634    124.9276
  2480.2000      7.9530     11.0456     29.9876      2.4677      0.1043    124.1553
  2480.3000      7.9515     11.3560     30.0901      2.4626      0.1168    126.8113
  2480.4000      7.9515     12.8892     29.6763      2.4373      0.0488    122.7598
  2480.5000      7.9501     13.8173     29.0712      2.4220      0.0685    111.3419
  2480.6000      7.9501     12.6304     28.5177      2.4416      0.0747    102.0007
  2480.7000      7.9501      9.8996     28.0126      2.4867      0.1295    103.2304
  2480.8000      7.9487      7.8754     27.8642      2.5201      0.1434    111.8232
  2480.9000      7.9487      8.0203     28.4832      2.5177      0.1681    120.4797
  2481.0000      7.9486      9.4814     29.4795      2.4936      0.0691    127.3090
  2481.1000      7.9486     10.5755     29.8181      2.4755      0.0454    129.7256
