~Version Information
VERS.                      2.0: CWLS Log ASCII Standard - VERSION 2.0
WRAP.                       NO: One line per depth step
~Well Information Block
STRT.FT               660.0000: 
STOP.FT              2488.5000: 
STEP.FT                 0.1000: 
NULL.                -999.2500: 
COMP.          Petrogulf Corporation: COMPANY
WELL.          Montoya 18-11V-B: WELL
FLD.           Purgatorie River: FIELD
LOC.           848' FNL & 619' FWL: LOCATION
PROV.                 Colorado: PROVINCE
CNTY.               Las Animas: COUNTRY
SRVC.                Patterson: SERVICE COMPANY
DATE.          Wed Oct 05 07:28:13 2005: LOG DATE
UWI.                          : UNIQUE WELL ID
~Curve Information Block
DEPT.FT            0 000 00 00: Depth
DCAL.in                       : CDL Caliper
RHOB.g/cc                     : CDL Bulk Density
RHOC.g/cc                     : CDL Density Correction
DPOR.pu                       : CDL Density Porosity
GR.GAPI                       : Gamma Ray
NPOR.pu                       : Neutron Porosity
~Parameter Information Block
~A  Depth       DCAL        RHOB        RHOC        DPOR         GR         NPOR    
# ...
  2349.6000      7.9024      2.5788      0.1201      4.3132     83.6325     27.2436
  2349.7000      7.9024      2.5380      0.0566      6.7884     80.9932     27.1657
  2349.8000      7.8783      2.4964      0.0499      9.3093     81.2580     27.1261
  2349.9000      7.8783      2.4556      0.0431     11.7804     81.8876     27.0049
  2350.0000      7.8736      2.4191     -0.0360     13.9964     81.4456     26.9142
  2350.1000      7.8736      2.3997      0.0112     15.1672     81.3122     26.8297
  2350.2000      7.8736      2.4009      0.0030     15.0998     82.4236     26.7188
  2350.3000      7.9077      2.4194      0.0161     13.9734     83.4449     26.6887
  2350.4000      7.9077      2.4486      0.0644     12.2053     84.3239     26.7652
  2350.5000      7.9193      2.4760      0.0763     10.5445     88.1617     27.1057
  2350.6000      7.9193      2.4897      0.1163      9.7125     95.8919     27.9385
  2350.7000      7.9193      2.4854      0.1052      9.9739    101.8707     28.9335
  2350.8000      7.9247      2.4757      0.0769     10.5643    101.7544     29.6100
  2350.9000      7.9247      2.4762      0.0680     10.5347     99.9175     29.9133
  2351.0000      7.9230      2.4836      0.0942     10.0873    100.9614     30.0331
  2351.1000      7.9230      2.4850      0.0969      9.9993    104.0178     29.9783
  2351.2000      7.9230      2.4783      0.0782     10.4090    107.4179     29.7788
  2351.3000      7.9385      2.4734      0.0627     10.7034    109.7858     29.5653
  2351.4000      7.9385      2.4758      0.0753     10.5570    108.4310     29.2895
  2351.5000      7.9683      2.4715      0.1056     10.8166    103.1681     29.0784
  2351.6000      7.9683      2.4405      0.0865     12.6963     96.9661     28.9421
  2351.7000      7.9683      2.3717      0.0361     16.8680     91.7173     28.7661
  2351.8000      7.9820      2.2616      0.0031     23.5397     88.4224     28.7128
  2351.9000      7.9820      2.1184     -0.0468     32.2177     86.3803     28.8898
  2352.0000      7.9889      1.9674     -0.0616     41.3709     83.9489     29.4529
  2352.1000      7.9889      1.8344     -0.1439     49.4322     80.0231     30.5356
  2352.2000      7.9889      1.7199     -0.1524     56.3688     73.7320     31.7809
  2352.3000      8.0129      1.5946     -0.1323     63.9657     67.5685     32.7567
  2352.4000      8.0129      1.4508     -0.1827     72.6765     64.1911     33.3047
  2352.5000      8.1975      1.3370     -0.1349     79.5762     60.8033     33.5313
  2352.6000      8.1975      1.2942     -0.0268     82.1726     54.7779     33.7624
  2352.7000      8.1975      1.3100      0.0512     81.2098     50.4128     34.2099
  2352.8000      8.4863      1.3574      0.0765     78.3390     52.2140     34.7561
  2352.9000      8.4863      1.4299      0.0886     73.9449     57.8098     35.1770
  2353.0000      8.5661      1.5284      0.0974     67.9772     62.8007     35.4807
  2353.1000      8.5661      1.6416      0.0974     61.1173     66.8623     35.6921
  2353.2000      8.5661      1.7542      0.1169     54.2899     72.8978     35.5249
  2353.3000      8.4061      1.8649      0.1423     47.5819     80.9631     34.9190
  2353.4000      8.4061      1.9804      0.1932     40.5826     87.4757     34.2928
  2353.5000      8.3561      2.0947      0.2088     33.6525     90.7563     33.9623
  2353.6000      8.3561      2.1933      0.2224     27.6793     93.2012     33.8770
  2353.7000      8.3561      2.2703      0.1330     23.0099     98.2634     33.8931
  2353.8000      8.2273      2.3258      0.1510     19.6491    107.5601     33.9268
  2353.9000      8.2273      2.3602      0.1325     17.5644    118.7350     33.7419
  2354.0000      8.1262      2.3846      0.1233     16.0846    125.5389     33.1792
  2354.1000      8.1262      2.4113      0.1326     14.4674    125.6533     32.7167
  2354.2000      8.1262      2.4360      0.1356     12.9680    122.7788     32.7116
  2354.3000      7.9916      2.4462      0.1462     12.3525    120.1723     32.6169
  2354.4000      7.9916      2.4453      0.0887     12.4038    118.9836     31.9508
  2354.5000      7.9643      2.4479      0.0957     12.2508    119.6747     30.9603
  2354.6000      7.9643      2.4506      0.0649     12.0830    121.0024     30.0091
  2354.7000      7.9643      2.4447      0.0128     12.4444    120.4698     29.5136
  2354.8000      7.9559      2.4418     -0.0134     12.6201    117.3548     29.7246
  2354.9000      7.9559      2.4545      0.0447     11.8473    112.0150     30.2315
  2355.0000      7.9634      2.4749      0.0213     10.6096    105.2429     30.4133
  2355.1000      7.9634      2.4914      0.0266      9.6093     99.0009     30.0711
  2355.2000      7.9634      2.5026      0.0350      8.9345     94.8027     29.4917
  2355.3000      7.9693      2.5139      0.0255      8.2471     93.1229     28.9352
  2355.4000      7.9693      2.5219      0.0765      7.7621     93.2932     28.4509
  2355.5000      7.9785      2.5144      0.0709      8.2191     94.9778     28.1073
  2355.6000      7.9785      2.4986      0.0238      9.1766     98.1621     27.9351
  2355.7000      7.9785      2.4902      0.0692      9.6835    102.6921     28.0358
  2355.8000      7.9564      2.4832      0.0348     10.1063    107.9234     28.4255
  2355.9000      7.9564      2.4651      0.0509     11.2050    111.6617     28.7558
  2356.0000      7.9783      2.4441     -0.0038     12.4759    114.5200     28.7887
  2356.1000      7.9783      2.4377     -0.0010     12.8637    117.4259     28.7107
  2356.2000      7.9783      2.4410      0.0352     12.6667    116.8195     28.7994
  2356.3000      8.0017      2.4429     -0.0113     12.5524    112.7703     28.9786
  2356.4000      8.0017      2.4470      0.0149     12.3054    111.7295     28.9934
  2356.5000      8.0021      2.4512      0.0528     12.0489    115.4941     28.8961
  2356.6000      8.0021      2.4462      0.0422     12.3539    118.9492     28.8692
  2356.7000      8.0021      2.4353      0.0254     13.0137    118.8806     29.0134
  2356.8000      8.0091      2.4274      0.0331     13.4935    117.3827     29.2575
  2356.9000      8.0091      2.4227      0.0207     13.7781    117.3578     29.2909
  2357.0000      8.0258      2.4197     -0.0137     13.9587    117.6616     28.9415
  2357.1000      8.0258      2.4173      0.0140     14.1001    117.2984     28.4614
  2357.2000      8.0258      2.4109      0.0337     14.4882    118.9267     28.3118
  2357.3000      8.0284      2.4021      0.0253     15.0253    121.8580     28.7049
  2357.4000      8.0284      2.3978      0.0552     15.2863    121.8226     29.3310
  2357.5000      8.0639      2.3995      0.0530     15.1826    119.4720     29.6357
  2357.6000      8.0639      2.4028      0.0712     14.9834    119.6944     29.3892
  2357.7000      8.0639      2.4000      0.0309     15.1525    122.5684     28.7771
  2357.8000      8.0961      2.3932      0.0129     15.5652    123.9932     28.0907
  2357.9000      8.0961      2.3893      0.0524     15.7970    124.6804     27.4560
  2358.0000      8.1418      2.3857      0.0647     16.0160    128.6367     26.9180
  2358.1000      8.1418      2.3788      0.0537     16.4382    133.8314     26.7624
  2358.2000      8.1418      2.3668      0.0334     17.1645    136.2508     27.2696
  2358.3000      8.1321      2.3434      0.0563     18.5820    136.2733     28.2105
  2358.4000      8.1321      2.3083      0.0278     20.7094    136.8014     29.0143
  2358.5000      8.1010      2.2715      0.0533     22.9411    139.3961     29.5590
  2358.6000      8.1010      2.2393      0.0328     24.8885    140.1804     30.0727
  2358.7000      8.1010      2.2179      0.0079     26.1887    137.0152     30.6256
  2358.8000      8.0702      2.2141      0.0538     26.4202    134.9570     31.2010
  2358.9000      8.0702      2.2328      0.0638     25.2835    137.8211     31.8371
  2359.0000      8.1245      2.2771      0.0978     22.5981    142.3233     32.4919
  2359.1000      8.1245      2.3326      0.1376     19.2373    142.2290     33.1118
