~Version Information
VERS.                      2.0: CWLS Log ASCII Standard - VERSION 2.0
WRAP.                       NO: One line per depth step
~Well Information Block
STRT.FT               770.0000: 
STOP.FT              2171.0000: 
STEP.FT                 0.1000: 
NULL.                -999.2500: 
COMP.          Pioneer Natural Resources: COMPANY
WELL.              Kermit 32-7: WELL
FLD.           Purgatoire River: FIELD
LOC.           2002' FNL & 2103' FEL: LOCATION
PROV.                 Colorado: PROVINCE
CNTY.               Las Animas: COUNTRY
SRVC.                Patterson: SERVICE COMPANY
DATE.          Thu Jan 12 03:02:28 2006: LOG DATE
UWI.           05 071 08647 00: UNIQUE WELL ID
~Curve Information Block
DEPT.FT            0 000 00 00: Depth
DCAL.in                       : CDL Caliper
RHOB.g/cc                     : CDL Bulk Density
RHOC.g/cc                     : CDL Density Correction
DPOR.pu                       : CDL Density Porosity
GR.GAPI                       : Gamma Ray
NPOR.pu                       : Neutron Porosity
~Parameter Information Block
~A  Depth       DCAL        RHOB        RHOC        DPOR         GR         NPOR    
# ...
  1595.6000      8.0306      2.6110      0.2847      2.3637    168.0454     26.1430
  1595.7000      8.0306      2.6504      0.2196     -0.0240    166.5682     25.4583
  1595.8000      8.0652      2.6794      0.2606     -1.7829    164.3531     25.3882
  1595.9000      8.0652      2.7004      0.3399     -3.0525    160.2185     26.0670
  1596.0000      7.9804      2.6878      0.2688     -2.2883    156.3978     26.7922
  1596.1000      7.9804      2.6485      0.1686      0.0899    153.9263     26.9482
  1596.2000      7.9804      2.6187      0.0987      1.8960    151.4181     26.5708
  1596.3000      7.9036      2.6026      0.1314      2.8699    147.9032     26.0274
  1596.4000      7.9036      2.5844      0.0497      3.9742    144.8757     25.6876
  1596.5000      7.8743      2.5725      0.0657      4.6998    142.6637     25.6146
  1596.6000      7.8743      2.5788      0.1075      4.3167    140.3791     25.7901
  1596.7000      7.8743      2.5875      0.1203      3.7887    138.1748     26.2320
  1596.8000      7.9234      2.5796      0.1046      4.2695    136.5246     26.6061
  1596.9000      7.9234      2.5676      0.0615      4.9916    139.7339     26.8987
  1597.0000      7.9540      2.5689      0.0846      4.9133    150.0135     27.4290
  1597.1000      7.9540      2.5715      0.1089      4.7606    160.3770     27.9782
  1597.2000      7.9540      2.5671      0.0611      5.0242    164.4984     28.2323
  1597.3000      7.9081      2.5614      0.1206      5.3701    163.0114     27.9500
  1597.4000      7.9081      2.5537      0.0791      5.8386    162.4476     27.1364
  1597.5000      7.9140      2.5504      0.0665      6.0387    166.9588     26.5611
  1597.6000      7.9140      2.5532      0.0718      5.8671    169.9297     26.5006
  1597.7000      7.9140      2.5469      0.0636      6.2494    165.2974     26.5724
  1597.8000      7.9193      2.5296      0.0471      7.2973    154.8855     26.9037
  1597.9000      7.9193      2.5171      0.0733      8.0559    146.0294     27.6813
  1598.0000      7.9223      2.5129      0.0735      8.3065    143.9682     28.4314
  1598.1000      7.9223      2.5145      0.0827      8.2119    148.2806     28.5829
  1598.2000      7.9223      2.5242      0.0703      7.6240    155.0853     28.2545
  1598.3000      7.9310      2.5417      0.0696      6.5652    160.5659     27.9040
  1598.4000      7.9310      2.5695      0.0914      4.8807    163.4447     27.5608
  1598.5000      7.9030      2.6089      0.2177      2.4903    164.4200     27.3028
  1598.6000      7.9030      2.6419      0.2313      0.4912    165.1088     27.3982
  1598.7000      7.9030      2.6468      0.2411      0.1920    162.5278     27.7175
  1598.8000      7.8903      2.6240      0.1693      1.5778    156.6846     27.8289
  1598.9000      7.8903      2.6009      0.0709      2.9763    156.4034     27.6673
  1599.0000      7.8983      2.5998      0.1129      3.0448    161.9771     27.6101
  1599.1000      7.8983      2.6126      0.1125      2.2674    163.8581     27.7675
  1599.2000      7.8983      2.6288      0.0907      1.2838    160.3202     27.9591
  1599.3000      7.9256      2.6442      0.1300      0.3499    157.3545     28.1691
  1599.4000      7.9256      2.6502      0.1317     -0.0103    157.0249     28.3501
  1599.5000      7.9256      2.6430      0.1302      0.4244    157.3339     28.2528
  1599.6000      7.9256      2.6231      0.1487      1.6289    157.8668     27.9658
  1599.7000      7.9256      2.5918      0.1140      3.5292    156.6783     27.8893
  1599.8000      7.9291      2.5596      0.0576      5.4772    154.4980     27.9090
  1599.9000      7.9291      2.5402      0.0140      6.6557    155.3380     27.8782
  1600.0000      7.9448      2.5352      0.0226      6.9563    160.2105     28.0719
  1600.1000      7.9448      2.5348      0.0840      6.9826    164.7592     28.5578
  1600.2000      7.9448      2.5264      0.0561      7.4921    166.1002     28.7571
  1600.3000      7.9573      2.5086      0.0316      8.5698    165.4828     28.3418
  1600.4000      7.9573      2.4940      0.0249      9.4549    163.4127     27.9628
  1600.5000      7.9550      2.4964      0.0246      9.3075    162.0328     28.2156
  1600.6000      7.9550      2.5124      0.1113      8.3424    164.0916     28.7779
  1600.7000      7.9550      2.5293      0.0576      7.3168    169.7427     28.7795
  1600.8000      8.0136      2.5423      0.0577      6.5273    177.7238     28.2949
  1600.9000      8.0136      2.5488      0.0823      6.1327    183.4680     28.0447
  1601.0000      7.9908      2.5524      0.1047      5.9138    179.0754     27.8042
  1601.1000      7.9908      2.5550      0.0696      5.7548    164.8129     27.0102
  1601.2000      7.9908      2.5500      0.1386      6.0589    150.1080     25.9182
  1601.3000      8.0048      2.5263      0.1454      7.4966    143.1305     25.3439
  1601.4000      8.0048      2.4818      0.0598     10.1962    143.9016     25.5944
  1601.5000      7.9802      2.4347      0.0832     13.0455    145.1139     26.1276
  1601.6000      7.9802      2.4060      0.0267     14.7852    145.2456     26.5377
  1601.7000      7.9802      2.4020      0.0134     15.0310    149.2466     26.7193
  1601.8000      7.9128      2.4113      0.0341     14.4666    154.3757     26.5365
  1601.9000      7.9128      2.4229      0.0455     13.7645    154.5013     26.1474
  1602.0000      7.9162      2.4432      0.0750     12.5352    155.0005     25.8739
  1602.1000      7.9162      2.4884      0.1070      9.7960    161.9956     26.0475
  1602.2000      7.9162      2.5582      0.2764      5.5636    168.4989     26.7245
  1602.3000      7.9507      2.6166      0.3310      2.0265    163.1153     27.6090
  1602.4000      7.9507      2.6239      0.3683      1.5814    149.3332     28.3169
  1602.5000      7.9700      2.5801      0.2663      4.2371    146.4151     28.5131
  1602.6000      7.9700      2.5191      0.1985      7.9338    158.6516     28.4043
  1602.7000      7.9700      2.4815      0.0975     10.2145    169.3076     28.3817
  1602.8000      8.0225      2.4912      0.0837      9.6235    172.2500     28.3977
  1602.9000      8.0225      2.5367      0.1104      6.8690    171.8779     28.3390
  1603.0000      8.0546      2.5918      0.1677      3.5261    169.7973     28.1456
  1603.1000      8.0546      2.6372      0.2061      0.7739    169.8020     27.5977
  1603.2000      8.0546      2.6546      0.2563     -0.2760    172.9149     26.9216
  1603.3000      8.0445      2.6450      0.2123      0.3039    173.3931     26.9075
  1603.4000      8.0445      2.6231      0.2895      1.6291    168.3574     27.5187
  1603.5000      7.9681      2.5892      0.2010      3.6830    159.6393     27.8784
  1603.6000      7.9681      2.5495      0.1653      6.0890    152.0257     27.7556
  1603.7000      7.9681      2.5200      0.1783      7.8773    149.3944     27.7748
  1603.8000      7.9799      2.5146      0.0488      8.2080    150.8585     28.1971
  1603.9000      7.9799      2.5431      0.1399      6.4814    152.7021     28.5184
  1604.0000      8.0130      2.5984      0.1429      3.1295    151.2254     28.3606
  1604.1000      8.0130      2.6606      0.2241     -0.6412    149.8317     28.0777
  1604.2000      8.0130      2.7069      0.2973     -3.4504    155.6341     28.2736
  1604.3000      7.9586      2.7301      0.3413     -4.8539    168.3984     28.7940
  1604.4000      7.9586      2.7415      0.2794     -5.5483    178.4953     29.3135
  1604.5000      7.9317      2.7404      0.2927     -5.4780    177.8893     30.0110
  1604.6000      7.9317      2.7128      0.1482     -3.8032    170.5595     30.8370
  1604.7000      7.9317      2.6677      0.1008     -1.0698    165.6050     31.5163
  1604.8000      7.9237      2.6309      0.0141      1.1592    163.3075     31.7633
  1604.9000      7.9237      2.6229     -0.0143      1.6430    156.9027     31.6074
  1605.0000      7.9174      2.6533      0.0462     -0.2010    146.0468     31.6866
  1605.1000      7.9174      2.7074      0.1146     -3.4777    136.4655     32.0183
