~Version Information
VERS.                      2.0: CWLS Log ASCII Standard - VERSION 2.0
WRAP.                       NO: One line per depth step
~Well Information Block
STRT.FT                 0.0000: 
STOP.FT              1201.0000: 
STEP.FT                 0.2500: 
NULL.                -999.2500: 
COMP.          Pioneer Natural Resources: COMPANY
WELL.             Margaux 11-1: WELL
FLD.           Purgatoire River: FIELD
LOC.           1154' FNL & 472' FWL --------: LOCATION
PROV.                 Colorado: PROVINCE
CNTY.               Las Animas: COUNTRY
SRVC.                         : SERVICE COMPANY
DATE.          Thu Jan 05 11:16:55 2006: LOG DATE
UWI.                          : UNIQUE WELL ID
~Curve Information Block
DEPT.FT            0 000 00 00: Depth
CCL.                          : Casing Collar Locator
TT3.usec                      : CBL 3' Travel Time
AMP3.mV                       : CBL 3' Amplitude
AMP5.mV                       : CBL 5' Amplitude
GR.GAPI                       : Gamma Ray
~Parameter Information Block
~A  Depth       CCL         TT3         AMP3        AMP5         GR     
# ...
   168.0000      0.0000    787.3979     10.3446      3.4243     85.0488
   168.2500      0.0000    793.8652     10.4364      3.5075     77.6451
   168.5000      0.0000    796.5054     10.6850      3.3519     70.9464
   168.7500      0.0000    793.5398     11.0142      3.0189     66.1974
   169.0000      0.0000    786.8438     11.3242      2.6357     63.9795
   169.2500      0.0000    780.0763     11.5430      2.3214     64.2363
   169.5000      0.0000    775.5441     11.6368      2.1555     66.5407
   169.7500      0.0000    773.3087     11.5960      2.1673     70.2196
   170.0000      0.0000    772.4222     11.4289      2.3348     74.2988
   170.2500      0.0000    772.0909     11.1647      2.5979     77.7358
   170.5000      0.0000    771.8357     10.8521      2.8696     79.9709
   170.7500      0.0000    771.1426     10.5564      3.0487     81.2369
   171.0000      0.0000    769.3564     10.3477      3.0698     82.4464
   171.2500      0.0000    766.0960     10.2652      2.9672     84.7602
   171.5000      0.0000    761.8873     10.2890      2.8590     88.7585
   171.7500      0.0000    758.2035     10.3569      2.8453     93.6188
   172.0000      0.0000    756.6216     10.4128      2.9324     97.3417
   172.2500      0.0000    757.7684     10.4250      3.0653     98.2129
   172.5000      0.0000    760.9465     10.3668      3.2165     96.1155
   172.7500      0.0000    764.6774     10.2073      3.4145     92.3788
   173.0000      0.0000    767.6880      9.9416      3.6759     88.5775
   173.2500      0.0000    769.5573      9.6193      3.9217     85.6460
   173.5000      0.0000    770.6063      9.3267      3.9872     83.8406
   173.7500      0.0000    771.4600      9.1322      3.7300     83.0666
   174.0000      0.0000    773.0245      9.0482      3.1505     83.0302
   174.2500      0.0000    777.1072      9.0338      2.4183     83.2456
   174.5000      0.0000    786.9576      9.0165      1.7699     83.1746
   174.7500      0.0000    806.2741      8.9281      1.3591     82.3840
   175.0000      0.0000    836.2109      8.7560      1.2068     80.4652
   175.2500      0.0000    872.6122      8.5613      1.2746     77.2365
   175.5000      0.0000    906.9849      8.4025      1.5428     73.4108
   175.7500      0.0000    931.1728      8.2526      1.9916     70.4775
   176.0000      0.0000    941.5663      8.0476      2.5302     69.3031
   176.2500      0.0000    939.8976      7.8007      2.9837     69.3455
   176.5000      0.0000    931.2911      7.5979      3.1714     69.6575
   176.7500      0.0000    921.0532      7.4939      3.0143     70.0626
   177.0000      2.0000    911.8401      7.4679      2.5909     71.0823
   177.2500      0.0000    903.1036      7.4747      2.1050     73.2822
   177.5000      0.0000    892.4771      7.5111      1.7751     76.8116
   177.7500      0.0000    877.0125      7.6338      1.7053     81.1066
   178.0000      0.0000    854.6678      7.9080      1.8277     85.0125
   178.2500      0.0000    826.3610      8.3171      1.9679     87.5674
   178.5000      0.0000    796.0421      8.7410      1.9974     88.6655
   178.7500      0.0000    768.7000      9.0676      1.9478     88.8128
   179.0000      0.0000    748.9840      9.3037      1.9809     88.4714
   179.2500      0.0000    740.1026      9.5287      2.2433     87.8746
   179.5000      0.0000    741.8676      9.7628      2.7425     87.1834
   179.7500      0.0000    750.1303      9.9296      3.3435     86.4156
   180.0000      0.0000    759.3887      9.9451      3.8540     85.1628
   180.2500      0.0000    766.1322      9.8136      4.1139     82.6697
   180.5000      0.0000    769.7776      9.6300      4.0422     78.4711
   180.7500      0.0000    771.3391      9.4986      3.6608     72.9330
   181.0000      0.0000    771.9067      9.4574      3.1064     67.0248
   181.2500      0.0000    772.0232      9.4742      2.5984     61.6916
   181.5000      0.0000    771.8323      9.4998      2.3300     57.5618
   181.7500      0.0000    771.3483      9.5121      2.3361     55.0477
   182.0000      0.0000    770.5159      9.5176      2.4783     54.4654
   182.2500      0.0000    769.0451      9.5250      2.5919     55.9561
   182.5000      0.0000    766.3437      9.5235      2.6371     59.2110
   182.7500      0.0000    761.9251      9.4828      2.6702     63.2885
   183.0000      0.0000    756.1046      9.3728      2.7014     66.8771
   183.2500      0.0000    750.0721      9.1883      2.6607     68.9240
   183.5000      0.0000    744.8812      8.9614      2.5171     69.0952
   183.7500      0.0000    740.5269      8.7512      2.3632     67.7671
   184.0000      0.0000    736.4293      8.6114      2.3269     65.7959
   184.2500      0.0000    732.4930      8.5556      2.4149     64.2350
   184.5000      0.0000    729.0709      8.5528      2.4892     63.8560
   184.7500      0.0000    726.0392      8.5645      2.4172     64.7468
   185.0000      0.0000    722.5044      8.5920      2.2324     66.4700
   185.2500      0.0000    717.7217      8.6706      2.1212     68.5918
   185.5000      0.0000    712.3429      8.8049      2.2419     70.8908
   185.7500      0.0000    708.5256      8.9227      2.5612     73.1581
   186.0000      0.0000    708.3460      8.9178      2.8752     75.0267
   186.2500      0.0000    712.0189      8.7499      2.9848     76.0434
   186.5000      0.0000    718.0961      8.4976      2.8420     75.7745
   186.7500      0.0000    725.3712      8.3147      2.5403     74.0058
   187.0000      0.0000    733.9105      8.3269      2.2038     71.1503
   187.2500      0.0000    744.1413      8.5447      1.9183     68.3842
   187.5000      0.0000    755.7119      8.8564      1.7432     66.9013
   187.7500      0.0000    767.9568      9.1052      1.7292     66.9719
   188.0000      0.0000    780.9034      9.1828      1.9045     68.0273
   188.2500      0.0000    794.3532      9.0632      2.2537     69.5385
   188.5000      0.0000    805.6245      8.7833      2.7003     71.3958
   188.7500      0.0000    810.0510      8.4170      3.1025     73.4272
   189.0000      0.0000    805.3763      8.0546      3.3019     74.8646
   189.2500      0.0000    794.7212      7.7722      3.2210     74.7330
   189.5000      0.0000    783.8934      7.5991      2.9342     73.0321
   189.7500      0.0000    776.6148      7.5162      2.6339     71.1778
   190.0000      0.0000    773.1138      7.4915      2.4952     70.7644
   190.2500      0.0000    771.9769      7.5094      2.5422     72.0061
   190.5000      0.0000    772.1486      7.5622      2.6489     73.6940
   190.7500      0.0000    773.8016      7.6315      2.6832     74.5008
   191.0000      0.0000    778.6420      7.6937      2.6429     74.1004
   191.2500      0.0000    789.5759      7.7383      2.6272     73.2670
   191.5000      0.0000    808.7715      7.7751      2.6859     73.2193
   191.7500      0.0000    834.5927      7.8212      2.7432     74.8044
   192.0000      0.0000    860.4794      7.8817      2.7028     77.9111
   192.2500      0.0000    878.0525      7.9434      2.5945     81.4034
   192.5000      0.0000    881.7897      7.9944      2.5614     83.6150
   192.7500      0.0000    871.0937      8.0500      2.6917     83.1156
   193.0000      0.0000    849.6617      8.1441      2.9010     79.3976
   193.2500      0.0000    824.0220      8.2903      3.0103     73.3024
   193.5000      0.0000    801.1106      8.4607      2.9323     66.8635
   193.7500      0.0000    785.1733      8.6088      2.7568     62.2786
   194.0000      0.0000    776.4472      8.7045      2.6446     60.5826
   194.2500      0.0000    772.6531      8.7405      2.6485     61.1503
   194.5000      0.0000    771.3150      8.7162      2.6612     62.4698
   194.7500      0.0000    770.9083      8.6333      2.5442     63.3993
   195.0000      0.0000    770.8209      8.5099      2.2922     63.7589
   195.2500      0.0000    770.8970      8.3865      2.0558     63.8790
   195.5000      0.0000    771.0859      8.3056      2.0051     63.8617
   195.7500      0.0000    771.3110      8.2796      2.1853     63.4896
