~Version Information
 VERS.                                  2.0 : CWLS LAS VERSION
 WRAP.                                   NO : WRAPING MODE
 SWARE .                 MController 2.5.0J : SOFTWARE VERSION
~Well Information
 WELL.                     Collister 17-31R : WELL
 COMP.                Petrogulf Corporation : COMPANY
 FLD.                      Purgatoire River : FIELD
 LOC.                NW/NE Sec 17 T33S R67W : LOCATION
 DATE.                             09/25/05 : DATE(S) LOGGED
 SRVC.       BLANCO Geological Services LLC : SERVICE COMPANY
 STAT.                                   CO : STATE
 CNTY.                           Las Animas : COUNTY
 CTRY.                                  USA : COUNTRY
 API.                       05-071-08436-00 : API NUMBER
 STRT.FT                             861.00 : START DEPTH
 STOP.FT                            2010.00 : STOP DEPTH
 STEP.FT                               1.00 : DEPTH INCREMENT
 NULL.                                -9999 : NULL VALUE
~Curve information
 DEPTH.FT                                   :
 ROP.MIN/FT                                 :
 GAS.UNITS                                  :
~ASCII Log data
# ...
      1661.0         0.23         22.4 
      1662.0         0.27         22.3 
      1663.0         0.43         22.1 
      1664.0         0.43         21.9 
      1665.0         0.32         21.7 
      1666.0         0.33         21.6 
      1667.0         0.37         21.6 
      1668.0         0.33         21.6 
      1669.0         0.27         21.9 
      1670.0         0.27         21.8 
      1671.0         0.43         22.1 
      1672.0         0.43         21.8 
      1673.0         0.43         22.0 
      1674.0         0.35         21.1 
      1675.0         0.30         19.6 
      1676.0         0.30         19.5 
      1677.0         0.30         20.8 
      1678.0         1.73         55.2 
      1679.0         0.25         41.6 
      1680.0         0.47         34.9 
      1681.0         0.40         28.4 
      1682.0         0.37         25.5 
      1683.0         0.30         24.5 
      1684.0         0.33         23.9 
      1685.0         0.33         23.4 
      1686.0         0.33         23.0 
      1687.0         0.32         22.1 
      1688.0         0.30         21.8 
      1689.0         0.23         21.8 
      1690.0         0.23         22.4 
      1691.0         0.27         22.6 
      1692.0         0.27         22.6 
      1693.0         0.23         22.1 
      1694.0         0.37         21.8 
      1695.0         0.30         21.7 
      1696.0         0.37         21.5 
      1697.0         0.35         21.4 
      1698.0         0.33         21.2 
      1699.0         0.33         21.4 
      1700.0         0.23         21.2 
      1701.0         0.23         21.2 
      1702.0         0.20         21.2 
      1703.0         0.23         21.6 
      1704.0         0.33         22.5 
      1705.0         0.27         22.6 
      1706.0         0.27         21.6 
      1707.0         0.28         19.9 
      1708.0         0.27         19.3 
      1709.0         0.27         21.9 
      1710.0         1.20         56.3 
      1711.0         0.33         56.1 
      1712.0         0.40         48.3 
      1713.0         0.38         36.7 
      1714.0         0.33         30.3 
      1715.0         0.37         28.3 
      1716.0         0.40         26.4 
      1717.0         0.43         25.5 
      1718.0         0.37         24.1 
      1719.0         0.27         24.5 
      1720.0         0.30         24.3 
      1721.0         0.27         24.7 
      1722.0         0.27         24.9 
      1723.0         0.28         24.4 
      1724.0         0.27         24.2 
      1725.0         0.27         23.7 
      1726.0         0.30         23.5 
      1727.0         0.30         23.0 
      1728.0         0.30         22.6 
      1729.0         0.33         22.4 
      1730.0         0.33         22.1 
      1731.0         0.37         22.9 
      1732.0         0.33         22.7 
      1733.0         0.38         22.6 
      1734.0         0.37         22.5 
      1735.0         0.33         22.2 
      1736.0         0.33         22.1 
      1737.0         0.37         21.8 
      1738.0         0.37         21.0 
      1739.0         0.37         21.0 
      1740.0         0.33         21.4 
      1741.0         0.33         21.1 
      1742.0         2.55         41.6 
      1743.0         0.33         41.4 
      1744.0         0.50         37.4 
      1745.0         0.38         30.4 
      1746.0         0.37         26.5 
      1747.0         0.43         23.7 
      1748.0         0.23         22.3 
      1749.0         0.27         22.6 
      1750.0         0.23         23.3 
      1751.0         0.30         23.0 
      1752.0         0.27         22.9 
      1753.0         0.23         23.0 
      1754.0         0.27         22.2 
      1755.0         0.27         21.5 
      1756.0         0.28         21.5 
      1757.0         0.23         22.0 
      1758.0         0.27         21.5 
      1759.0         0.37         21.0 
      1760.0         0.27         20.4 
      1761.0         0.27         20.7 
      1762.0         0.23         20.5 
      1763.0         0.23         20.5 
      1764.0         0.40         20.7 
      1765.0         0.47         20.3 
      1766.0         0.35         20.5 
      1767.0         0.37         20.6 
      1768.0         0.30         20.4 
      1769.0         0.33         20.1 
      1770.0         0.37         18.9 
      1771.0         0.33         18.4 
      1772.0         1.92         44.5 
      1773.0         0.50         42.0 
      1774.0         0.50         32.6 
      1775.0         0.53         26.6 
      1776.0         0.37         23.7 
      1777.0         0.33         22.7 
      1778.0         0.47         22.7 
      1779.0         0.28         22.8 
      1780.0         0.23         22.4 
      1781.0         0.30         21.8 
      1782.0         0.50         21.7 
      1783.0         0.27         21.3 
      1784.0         0.20         20.4 
      1785.0         0.27         20.9 
      1786.0         0.33         20.5 
      1787.0         0.23         20.7 
      1788.0         0.20         20.6 
      1789.0         0.20         20.4 
      1790.0         0.17         20.5 
      1791.0         0.17         20.6 
      1792.0         0.17         20.4 
      1793.0         0.22         20.1 
      1794.0         0.23         20.4 
      1795.0         0.23         20.4 
      1796.0         0.20         20.5 
      1797.0         0.20         19.9 
      1798.0         0.23         19.6 
      1799.0         0.20         18.5 
      1800.0         0.17         18.0 
      1801.0         0.20         17.4 
      1802.0         1.65         43.0 
      1803.0         0.33         41.2 
      1804.0         0.43         34.7 
      1805.0         0.43         29.0 
      1806.0         0.33         24.8 
      1807.0         0.37         23.4 
      1808.0         0.37         22.4 
      1809.0         0.30         22.8 
      1810.0         0.30         22.9 
      1811.0         0.22         22.7 
      1812.0         0.20         22.5 
      1813.0         0.20         22.1 
      1814.0         0.30         21.7 
      1815.0         0.20         21.5 
      1816.0         0.23         21.0 
      1817.0         0.20         21.1 
      1818.0         0.20         20.9 
      1819.0         0.20         20.5 
      1820.0         0.23         20.4 
      1821.0         0.23         20.2 
      1822.0         0.23         19.9 
      1823.0         0.20         20.6 
      1824.0         0.20         20.8 
      1825.0         0.20         20.8 
      1826.0         0.28         20.4 
      1827.0         0.27         20.6 
      1828.0         0.30         19.9 
      1829.0         0.23         19.1 
      1830.0         0.30         18.4 
      1831.0         0.23         18.0 
      1832.0         1.80         44.1 
      1833.0         0.38         39.1 
      1834.0         0.30         35.3 
      1835.0         0.17         31.7 
      1836.0         0.20         29.4 
      1837.0         0.20         27.4 
      1838.0         0.27         26.1 
      1839.0         0.20         24.3 
      1840.0         0.17         23.1 
      1841.0         0.23         22.7 
      1842.0         0.23         22.4 
      1843.0         0.23         22.4 
      1844.0         0.27         22.1 
      1845.0         0.27         22.1 
      1846.0         0.28         21.6 
      1847.0         0.23         21.4 
      1848.0         0.23         21.3 
      1849.0         0.27         20.9 
      1850.0         0.23         20.9 
      1851.0         0.23         20.7 
      1852.0         0.27         20.4 
      1853.0         0.23         20.0 
      1854.0         0.17         20.2 
      1855.0         0.20         20.1 
      1856.0         0.20         19.8 
      1857.0         0.23         19.4 
      1858.0         0.20         18.6 
      1859.0         0.20         17.6 
      1860.0         0.23         17.1 
