~Version Information
VERS.                      2.0: CWLS Log ASCII Standard - VERSION 2.0
WRAP.                       NO: One line per depth step
~Well Information Block
STRT.FT               650.0000: 
STOP.FT              2053.7000: 
STEP.FT                 0.1000: 
NULL.                -999.2500: 
COMP.          Pioneer Natural Resources: COMPANY
WELL.           Alabaster 11-8: WELL
FLD.           Purgatoire River: FIELD
LOC.           1249' FNL & 215' FWL--: LOCATION
PROV.                 Colorado: PROVINCE
CNTY.               Las Animas: COUNTRY
SRVC.                Patterson: SERVICE COMPANY
DATE.          Thu Jan 19 09:16:54 2006: LOG DATE
UWI.           05 071 08642 00: UNIQUE WELL ID
~Curve Information Block
DEPT.FT            0 000 00 00: Depth
DCAL.in                       : CDL Caliper
RHOB.g/cc                     : CDL Bulk Density
RHOC.g/cc                     : CDL Density Correction
DPOR.pu                       : CDL Density Porosity
NPOR.pu                       : Neutron Porosity
GR.GAPI                       : Gamma Ray
~Parameter Information Block
~A  Depth       DCAL        RHOB        RHOC        DPOR        NPOR         GR     
   650.0000      8.1113      2.4098     -0.1993     14.5600     44.1023     78.3599
   650.1000      8.1113      2.4077     -0.1674     14.6837     43.7014     79.8841
   650.2000      8.1113      2.4204     -0.1287     13.9161     43.4728     80.0309
   650.3000      8.1107      2.4232     -0.1670     13.7442     43.5865     79.3221
   650.4000      8.1107      2.4106     -0.1513     14.5120     43.9613     78.0529
   650.5000      8.1093      2.3906     -0.1480     15.7205     44.5289     75.6135
   650.6000      8.1093      2.3710     -0.1634     16.9080     45.0850     74.3841
   650.7000      8.1093      2.3619     -0.1900     17.4604     45.2882     76.4423
   650.8000      8.1089      2.3696     -0.1641     16.9931     45.3491     81.1110
   650.9000      8.1089      2.3831     -0.1591     16.1735     45.6718     87.2528
   651.0000      8.1097      2.3892     -0.1923     15.8077     45.8891     89.2633
   651.1000      8.1097      2.3923     -0.1671     15.6155     45.6551     81.9009
   651.2000      8.1097      2.3962     -0.1569     15.3825     45.3995     70.8962
   651.3000      8.1108      2.3901     -0.1679     15.7493     45.4941     63.3808
   651.4000      8.1108      2.3790     -0.2145     16.4228     45.5745     60.5339
   651.5000      8.1120      2.3750     -0.1464     16.6677     45.1755     62.2903
   651.6000      8.1120      2.3666     -0.1541     17.1737     44.6814     67.0062
   651.7000      8.1120      2.3448     -0.2074     18.4969     44.7601     71.3995
   651.8000      8.1127      2.3251     -0.2519     19.6904     45.0804     75.1349
   651.9000      8.1127      2.3250     -0.2372     19.6967     45.0249     78.5703
   652.0000      8.1125      2.3392     -0.1890     18.8360     44.7078     77.9521
   652.1000      8.1125      2.3528     -0.2153     18.0126     44.5549     72.2511
   652.2000      8.1125      2.3545     -0.1654     17.9113     44.6481     67.9011
   652.3000      8.1116      2.3395     -0.1756     18.8191     44.7486     68.2533
   652.4000      8.1116      2.3247     -0.1906     19.7129     44.7214     67.5735
   652.5000      8.1113      2.3269     -0.1734     19.5827     44.5732     63.7579
   652.6000      8.1113      2.3350     -0.1996     19.0889     44.4331     60.9614
   652.7000      8.1113      2.3282     -0.1539     19.5059     44.2200     60.2779
   652.8000      8.1112      2.3050     -0.2122     20.9083     43.6923     61.9898
   652.9000      8.1112      2.2899     -0.2552     21.8217     42.8919     67.2784
   653.0000      8.1106      2.2996     -0.1927     21.2365     42.1718     71.7707
   653.1000      8.1106      2.3196     -0.1817     20.0219     41.9328     70.0713
   653.2000      8.1106      2.3303     -0.1750     19.3759     42.1446     64.4998
   653.3000      8.1111      2.3344     -0.2195     19.1289     42.4018     58.6820
   653.4000      8.1111      2.3514     -0.2057     18.1000     42.5754     52.8990
   653.5000      8.1140      2.3863     -0.1679     15.9825     42.6832     48.9457
   653.6000      8.1140      2.4160     -0.1343     14.1811     42.5500     47.8364
   653.7000      8.1140      2.4218     -0.1923     13.8283     41.9873     48.6476
   653.8000      8.1151      2.4101     -0.1525     14.5420     41.0226     51.4226
   653.9000      8.1151      2.3879     -0.1571     15.8871     40.2338     54.0681
   654.0000      8.1131      2.3678     -0.1920     17.1044     40.1487     51.7484
   654.1000      8.1131      2.3699     -0.1984     16.9755     40.3426     43.9298
   654.2000      8.1131      2.3877     -0.1373     15.8994     39.9257     36.2808
   654.3000      8.1127      2.3933     -0.1104     15.5551     38.7760     32.4857
   654.4000      8.1127      2.3882     -0.2250     15.8691     37.8067     33.2518
   654.5000      8.1152      2.3947     -0.1958     15.4717     37.8742     37.0891
   654.6000      8.1152      2.4110     -0.1851     14.4856     38.8473     39.4115
   654.7000      8.1152      2.4249     -0.1598     13.6425     39.7831     37.7324
   654.8000      8.1169      2.4321     -0.1753     13.2047     39.8695     35.2665
   654.9000      8.1169      2.4275     -0.1754     13.4853     39.4798     34.8784
   655.0000      8.1170      2.4181     -0.2643     14.0569     39.1914     34.6679
   655.1000      8.1170      2.4255     -0.2125     13.6035     38.8143     34.1803
   655.2000      8.1170      2.4593     -0.1616     11.5568     38.3501     34.0759
   655.3000      8.1173      2.5020     -0.1201      8.9697     38.1902     33.4394
   655.4000      8.1173      2.5175     -0.0792      8.0325     38.2910     32.9267
   655.5000      8.1181      2.4902     -0.1456      9.6855     38.4185     32.9333
   655.6000      8.1181      2.4522     -0.1812     11.9860     38.2396     31.7989
   655.7000      8.1181      2.4420     -0.2324     12.6079     37.3480     30.5813
   655.8000      8.1188      2.4635     -0.1796     11.3053     36.4614     32.5805
   655.9000      8.1188      2.4961     -0.1719      9.3303     36.5273     35.8677
   656.0000      8.1191      2.5220     -0.1555      7.7584     37.2438     36.6667
   656.1000      8.1191      2.5360     -0.1631      6.9081     37.9669     36.1194
   656.2000      8.1191      2.5410     -0.1736      6.6044     38.5982     36.9152
   656.3000      8.1188      2.5372     -0.1787      6.8355     39.3884     38.1545
   656.4000      8.1188      2.5233     -0.1555      7.6773     40.2057     38.0465
   656.5000      8.1197      2.5135     -0.2248      8.2719     40.5471     37.9385
   656.6000      8.1197      2.5190     -0.1807      7.9391     40.2492     39.8366
   656.7000      8.1197      2.5226     -0.1294      7.7226     39.7573     42.0942
   656.8000      8.1220      2.5136     -0.2015      8.2654     39.7813     40.7484
   656.9000      8.1220      2.5073     -0.1715      8.6490     40.5896     36.8757
   657.0000      8.1239      2.5070     -0.1736      8.6666     41.6921     35.0637
   657.1000      8.1239      2.5039     -0.1764      8.8574     42.4967     37.3022
   657.2000      8.1239      2.4935     -0.1435      9.4871     43.0093     43.3922
   657.3000      8.1248      2.4784     -0.1977     10.3995     43.5082     50.6595
   657.4000      8.1248      2.4723     -0.2023     10.7712     44.0501     55.2582
   657.5000      8.1235      2.4779     -0.1485     10.4289     44.4371     57.8249
   657.6000      8.1235      2.4729     -0.1460     10.7322     44.6016     61.4140
   657.7000      8.1235      2.4488     -0.1724     12.1952     44.7879     67.0178
   657.8000      8.1215      2.4263     -0.1907     13.5546     45.0701     74.8720
   657.9000      8.1215      2.4131     -0.1912     14.3571     45.2899     82.8225
   658.0000      8.1222      2.4012     -0.1970     15.0759     45.3509     87.3259
   658.1000      8.1222      2.3863     -0.1781     15.9846     45.4492     86.9340
   658.2000      8.1222      2.3625     -0.1884     17.4222     45.7666     82.5976
   658.3000      8.1232      2.3447     -0.2662     18.5028     46.1972     78.1687
   658.4000      8.1232      2.3538     -0.2042     17.9520     46.3131     76.9751
   658.5000      8.1235      2.3733     -0.1510     16.7722     46.0395     78.8621
   658.6000      8.1235      2.3796     -0.1940     16.3900     45.8951     81.9076
   658.7000      8.1235      2.3797     -0.2230     16.3790     46.0937     83.0213
   658.8000      8.1227      2.3863     -0.2074     15.9831     46.2719     80.1573
   658.9000      8.1227      2.3908     -0.1691     15.7121     45.9270     75.0356
   659.0000      8.1209      2.3818     -0.1685     16.2570     45.3008     72.8750
   659.1000      8.1209      2.3657     -0.2258     17.2313     45.1983     76.9722
   659.2000      8.1209      2.3563     -0.2525     17.7987     45.5254     84.9128
   659.3000      8.1203      2.3554     -0.2090     17.8519     45.7008     91.2363
   659.4000      8.1203      2.3586     -0.2160     17.6621     45.6283     92.6157
   659.5000      8.1215      2.3670     -0.2334     17.1507     45.4264     90.8572
