~Version Information
VERS.                      2.0: CWLS Log ASCII Standard - VERSION 2.0
WRAP.                       NO: One line per depth step
~Well Information Block
STRT.FT               615.0000: 
STOP.FT              1607.0000: 
STEP.FT                 0.1000: 
NULL.                -999.2500: 
COMP.          Pioneer Natural Resources: COMPANY
WELL.          Galloway 32-13 Tr: WELL
FLD.           Purgatoire River: FIELD
LOC.           1910' FNL & 2002' FEL: LOCATION
PROV.                 Colorado: PROVINCE
CNTY.               Las Animas: COUNTRY
SRVC.                Patterson: SERVICE COMPANY
DATE.          Mon Nov 14 07:13:22 2005: LOG DATE
UWI.           05 071 08608 00: UNIQUE WELL ID
~Curve Information Block
DEPT.FT            0 000 00 00: Depth
DCAL.in                       : CDL Caliper
RHOB.g/cc                     : CDL Bulk Density
RHOC.g/cc                     : CDL Density Correction
DPOR.pu                       : CDL Density Porosity
GR.GAPI                       : Gamma Ray
NPOR.pu                       : Neutron Porosity
~Parameter Information Block
~A  Depth       DCAL        RHOB        RHOC        DPOR         GR         NPOR    
# ...
  1008.6000      7.9441      2.6873      0.1126     -2.2590     95.2379     25.3719
  1008.7000      7.9441      2.6794      0.1208     -1.7801    107.0783     26.8833
  1008.8000      7.9031      2.6525      0.0898     -0.1501    114.7778     27.9352
  1008.9000      7.9031      2.6163      0.0784      2.0408    118.7192     28.2473
  1009.0000      7.8779      2.5747      0.0546      4.5626    124.2636     27.8703
  1009.1000      7.8779      2.5373      0.0451      6.8289    132.8880     27.6318
  1009.2000      7.8779      2.5121      0.0394      8.3580    141.4266     28.0640
  1009.3000      7.9015      2.4985     -0.0119      9.1835    142.0499     28.6540
  1009.4000      7.9015      2.4944      0.0096      9.4285    133.9045     28.9599
  1009.5000      7.9407      2.4900      0.0320      9.6988    124.6978     29.0677
  1009.6000      7.9407      2.4790     -0.0213     10.3621    119.7747     29.1398
  1009.7000      7.9407      2.4734     -0.0110     10.7049    118.7648     29.2523
  1009.8000      7.9555      2.4851      0.0307      9.9922    122.1278     29.2339
  1009.9000      7.9555      2.5148      0.0488      8.1947    128.9603     29.0315
  1010.0000      7.9518      2.5519      0.0819      5.9477    133.3277     28.9224
  1010.1000      7.9518      2.5796      0.0804      4.2667    131.1669     28.8105
  1010.2000      7.9518      2.5885      0.0805      3.7250    122.7410     28.1756
  1010.3000      7.9600      2.5860      0.0132      3.8766    112.2052     27.2731
  1010.4000      7.9600      2.5918      0.0246      3.5293    103.4258     27.0822
  1010.5000      7.9475      2.6134      0.0646      2.2192     98.5293     27.8432
  1010.6000      7.9475      2.6455      0.0477      0.2710     99.5031     28.7871
  1010.7000      7.9475      2.6753      0.0615     -1.5358    102.3366     29.2343
  1010.8000      7.9413      2.6801      0.0523     -1.8236    103.3642     29.2507
  1010.9000      7.9413      2.6666     -0.0052     -1.0045    105.8946     28.7353
  1011.0000      7.9444      2.6747     -0.0151     -1.4943    110.5613     27.6315
  1011.1000      7.9444      2.7153      0.0563     -3.9579    111.6766     26.9339
  1011.2000      7.9444      2.7566      0.1023     -6.4605    107.0535     27.4006
  1011.3000      7.9505      2.7802      0.0470     -7.8920    102.4593     28.3352
  1011.4000      7.9505      2.8015      0.0268     -9.1818    100.4051     28.8306
  1011.5000      7.9476      2.8277      0.0164    -10.7704     97.4507     28.6304
  1011.6000      7.9476      2.8378      0.0727    -11.3817     92.9492     28.2256
  1011.7000      7.9476      2.8178      0.0205    -10.1705     88.9558     28.2743
  1011.8000      7.9448      2.7919      0.0040     -8.5984     88.6896     28.5126
  1011.9000      7.9448      2.7825      0.0202     -8.0300     93.4309     28.3723
  1012.0000      7.9472      2.7816     -0.0042     -7.9781     99.0357     27.9499
  1012.1000      7.9472      2.7768     -0.0116     -7.6868    102.1062     27.6371
  1012.2000      7.9472      2.7614      0.0320     -6.7520    102.6856     27.4738
  1012.3000      7.9440      2.7324      0.0141     -4.9928    102.0022     27.0550
  1012.4000      7.9440      2.6962     -0.0080     -2.7989    102.1889     26.2754
  1012.5000      7.9445      2.6626     -0.0322     -0.7653    104.0863     25.9042
  1012.6000      7.9445      2.6439     -0.0249      0.3673    104.7922     26.6675
  1012.7000      7.9445      2.6475      0.0004      0.1532    100.9193     27.7089
  1012.8000      7.9455      2.6618      0.0523     -0.7124     94.8049     27.6012
  1012.9000      7.9455      2.6722      0.0129     -1.3482     93.2641     26.6105
  1013.0000      7.9485      2.6795      0.0171     -1.7855     97.6604     25.6333
  1013.1000      7.9485      2.6819      0.1048     -1.9334    102.6556     24.8852
  1013.2000      7.9485      2.6730      0.0240     -1.3919    105.1050     24.8931
  1013.3000      7.9496      2.6573      0.0534     -0.4431    106.3479     25.9541
  1013.4000      7.9496      2.6371      0.0420      0.7846    109.2934     27.1366
  1013.5000      7.9483      2.6130     -0.0409      2.2399    113.1154     27.8077
  1013.6000      7.9483      2.5934      0.0272      3.4289    114.2671     27.9940
  1013.7000      7.9483      2.5839      0.0070      4.0033    111.8119     27.5422
  1013.8000      7.9517      2.5838     -0.0107      4.0142    110.0271     26.8699
  1013.9000      7.9517      2.5818      0.0129      4.1308    113.1141     26.6853
  1014.0000      7.9470      2.5709      0.0169      4.7964    119.6156     26.8375
  1014.1000      7.9470      2.5548      0.0390      5.7677    125.9202     26.8608
  1014.2000      7.9470      2.5379      0.0453      6.7958    129.9558     26.9269
  1014.3000      7.9179      2.5283      0.0180      7.3752    129.6497     27.3706
  1014.4000      7.9179      2.5365      0.0427      6.8794    124.6024     27.8969
  1014.5000      7.9045      2.5571      0.0662      5.6310    118.0098     27.9721
  1014.6000      7.9045      2.5788      0.0612      4.3152    113.3150     27.5540
  1014.7000      7.9045      2.6022      0.0783      2.8944    111.2917     27.1483
  1014.8000      7.9039      2.6293      0.1023      1.2531    109.5831     26.9515
  1014.9000      7.9039      2.6515      0.1324     -0.0934    106.4159     26.9110
  1015.0000      7.9117      2.6577      0.1010     -0.4682    101.1944     27.4077
  1015.1000      7.9117      2.6421      0.0630      0.4814     95.9395     28.2499
  1015.2000      7.9117      2.6165      0.0122      2.0291     94.3417     28.0723
  1015.3000      7.8821      2.6061      0.0129      2.6611     96.9803     26.6056
  1015.4000      7.8821      2.6158      0.0333      2.0747    100.9524     25.2938
  1015.5000      7.8669      2.6211      0.0588      1.7539    103.4961     24.7898
  1015.6000      7.8669      2.6028      0.0020      2.8607    103.1758     25.0973
  1015.7000      7.8669      2.5763      0.0050      4.4670    100.0089     26.3161
  1015.8000      7.8703      2.5623      0.0169      5.3170     97.5146     27.6070
  1015.9000      7.8703      2.5617      0.0498      5.3541    100.4109     28.3119
  1016.0000      7.8684      2.5757      0.0730      4.5053    107.8298     28.2102
  1016.1000      7.8684      2.6094      0.0691      2.4585    111.0076     26.9206
  1016.2000      7.8684      2.6546      0.1048     -0.2759    105.0693     24.9046
  1016.3000      7.8633      2.6870      0.1184     -2.2400     96.7509     23.4391
  1016.4000      7.8633      2.6807      0.1272     -1.8626     94.3199     23.1860
  1016.5000      7.8655      2.6407      0.0355      0.5622     97.6335     23.8098
  1016.6000      7.8655      2.6079     -0.0001      2.5492     98.7233     24.3578
  1016.7000      7.8655      2.6045      0.0441      2.7579     94.8211     24.3429
  1016.8000      7.8680      2.6115      0.0078      2.3347     92.3412     23.8122
  1016.9000      7.8680      2.6110      0.0266      2.3659     92.2152     22.7635
  1017.0000      7.8781      2.6096      0.0269      2.4510     91.5894     21.6599
  1017.1000      7.8781      2.6143      0.0404      2.1624     91.5686     21.3136
  1017.2000      7.8781      2.6122      0.1043      2.2898     91.9356     22.0314
  1017.3000      7.8860      2.6012     -0.0116      2.9590     91.2268     23.5575
  1017.4000      7.8860      2.6019      0.0714      2.9151     89.1274     25.3798
  1017.5000      7.8652      2.6154      0.0721      2.0995     87.1599     26.7361
  1017.6000      7.8652      2.6264      0.0327      1.4298     89.7251     27.2706
  1017.7000      7.8652      2.6265      0.0914      1.4224     97.7776     27.0188
  1017.8000      7.8750      2.6136      0.0448      2.2040    108.1357     25.7992
  1017.9000      7.8750      2.6025      0.0286      2.8791    116.1862     24.1273
  1018.0000      7.8881      2.6084      0.0652      2.5221    115.5062     22.9694
  1018.1000      7.8881      2.6178      0.1002      1.9494    108.7419     22.6606
