~Version Information
VERS.                      2.0: CWLS Log ASCII Standard - VERSION 2.0
WRAP.                       NO: One line per depth step
~Well Information Block
STRT.FT               580.0000: 
STOP.FT              1029.0000: 
STEP.FT                 0.1000: 
NULL.                -999.2500: 
COMP.          Pioneer Natural Resources: COMPANY
WELL.             Quartz 13-22: WELL
FLD.           Purgatoire River: FIELD
LOC.           1933' FSL & 675' FWL: LOCATION
PROV.                 Colorado: PROVINCE
CNTY.               Las Animas: COUNTRY
SRVC.                Patterson: SERVICE COMPANY
DATE.          Fri Dec 16 10:30:09 2005: LOG DATE
UWI.           05 071 08638 00: UNIQUE WELL ID
~Curve Information Block
DEPT.FT            0 000 00 00: Depth
DCAL.in                       : CDL Caliper
RHOB.g/cc                     : CDL Bulk Density
RHOC.g/cc                     : CDL Density Correction
DPOR.pu                       : CDL Density Porosity
GR.GAPI                       : Gamma Ray
NPOR.pu                       : Neutron Porosity
~Parameter Information Block
~A  Depth       DCAL        RHOB        RHOC        DPOR         GR         NPOR    
# ...
   810.4000      7.9190      2.4170      0.0465     14.1207    115.6111     18.7370
   810.5000      7.9012      2.3506      0.0705     18.1469    102.9122     17.2477
   810.6000      7.9012      2.2553     -0.0195     23.9214     91.4041     15.8695
   810.7000      7.9012      2.1399     -0.0440     30.9162     90.0168     15.0370
   810.8000      7.8795      2.0154     -0.1008     38.4631     94.2915     14.6028
   810.9000      7.8795      1.8935     -0.1086     45.8514     93.8789     14.3646
   811.0000      7.9038      1.7892     -0.1491     52.1708     87.4061     14.1982
   811.1000      7.9038      1.7111     -0.1549     56.9028     79.3632     13.8420
   811.2000      7.9038      1.6534     -0.0682     60.3985     73.2468     13.3551
   811.3000      7.9301      1.6037     -0.0597     63.4135     69.6139     12.9756
   811.4000      7.9301      1.5588     -0.0236     66.1319     64.4377     12.6374
   811.5000      7.9324      1.5200      0.0289     68.4824     56.7926     12.2260
   811.6000      7.9324      1.4876      0.0164     70.4492     51.1500     12.0015
   811.7000      7.9324      1.4662      0.0169     71.7453     48.2293     12.2406
   811.8000      7.9193      1.4548      0.0313     72.4351     46.0843     12.6951
   811.9000      7.9193      1.4400      0.0372     73.3344     45.5521     12.9446
   812.0000      7.9550      1.4110     -0.0055     75.0914     48.3482     12.9208
   812.1000      7.9550      1.3717     -0.0289     77.4739     52.7051     12.8110
   812.2000      7.9550      1.3350     -0.0444     79.6955     56.0373     12.8639
   812.3000      8.0496      1.3101     -0.0106     81.2075     59.0513     13.1759
   812.4000      8.0496      1.2980     -0.0469     81.9388     59.1880     13.4833
   812.5000      8.0181      1.2995     -0.0390     81.8513     53.8160     13.5299
   812.6000      8.0181      1.3136     -0.0234     80.9910     50.0381     13.4752
   812.7000      8.0181      1.3345      0.0146     79.7278     51.4637     13.5931
   812.8000      8.0055      1.3510      0.0273     78.7287     54.4244     13.9267
   812.9000      8.0055      1.3585      0.0000     78.2747     56.6408     14.2283
   813.0000      8.0047      1.3659     -0.0145     77.8217     55.8473     14.3440
   813.1000      8.0047      1.3809      0.0435     76.9180     52.5787     14.5795
   813.2000      8.0047      1.3990      0.0852     75.8206     51.7210     15.2109
   813.3000      8.0301      1.4175      0.0904     74.6976     55.3408     16.1219
   813.4000      8.0301      1.4453      0.0631     73.0108     59.8175     17.0657
   813.5000      8.0100      1.4944      0.0677     70.0334     62.0204     17.9104
   813.6000      8.0100      1.5672      0.0977     65.6267     62.4317     18.7219
   813.7000      8.0100      1.6620      0.0935     59.8789     62.1588     19.8419
   813.8000      7.9942      1.7857      0.1349     52.3815     64.1107     21.4128
   813.9000      7.9942      1.9412      0.1786     42.9549     69.8538     23.0516
   814.0000      7.9321      2.1137      0.2734     32.5044     77.0191     24.0563
   814.1000      7.9321      2.2777      0.3001     22.5644     85.9581     24.1214
   814.2000      7.9321      2.4065      0.3538     14.7555     96.4506     23.8204
   814.3000      7.9086      2.4846      0.2966     10.0265    103.2561     23.8051
   814.4000      7.9086      2.5207      0.2448      7.8394    105.7293     24.3797
   814.5000      7.9456      2.5313      0.1980      7.1926    109.1354     25.4071
   814.6000      7.9456      2.5325      0.1069      7.1239    113.2788     26.3390
   814.7000      7.9456      2.5375      0.0868      6.8210    113.6133     26.8256
   814.8000      7.9486      2.5445      0.0599      6.3946    108.1789     26.9536
   814.9000      7.9486      2.5554      0.0413      5.7304     99.9155     26.7599
   815.0000      7.9359      2.5773      0.1113      4.4058     94.2897     25.9663
   815.1000      7.9359      2.5973      0.0886      3.1915     93.0555     24.7001
   815.2000      7.9359      2.6011      0.0809      2.9610     94.6463     23.5279
   815.3000      7.8918      2.5901      0.0661      3.6311     97.6451     22.7934
   815.4000      7.8918      2.5683      0.0643      4.9488     98.7612     22.5164
   815.5000      7.8827      2.5356      0.0800      6.9361     95.6160     22.5054
   815.6000      7.8827      2.4986      0.0150      9.1775     93.1691     22.3469
   815.7000      7.8827      2.4752     -0.0395     10.5933     93.6211     21.9529
   815.8000      7.8657      2.4794     -0.0317     10.3423     94.1680     21.8854
   815.9000      7.8657      2.5001      0.0817      9.0873     96.4961     22.3047
   816.0000      7.9629      2.5122      0.0720      8.3502    102.4897     22.6193
   816.1000      7.9629      2.5180      0.0702      7.9994    109.6463     22.6099
   816.2000      7.9629      2.5324      0.0720      7.1294    114.1346     22.5868
   816.3000      7.9667      2.5443      0.1224      6.4058    115.6553     22.7274
   816.4000      7.9667      2.5403      0.0630      6.6488    112.5740     23.0615
   816.5000      7.9421      2.5364      0.0159      6.8845    104.5621     23.6739
   816.6000      7.9421      2.5474      0.0734      6.2173     97.7341     24.4857
   816.7000      7.9421      2.5605      0.0570      5.4238     94.4592     24.8682
   816.8000      7.8768      2.5618      0.0539      5.3479     91.8903     24.3799
   816.9000      7.8768      2.5527      0.0338      5.8967     91.9565     23.5871
   817.0000      7.9276      2.5460      0.0147      6.3029     95.7942     23.2894
   817.1000      7.9276      2.5553      0.0004      5.7394     98.3605     23.4324
   817.2000      7.9276      2.5783      0.0373      4.3455     96.8743     23.5847
   817.3000      7.9215      2.6016      0.0436      2.9312     95.5581     23.5818
   817.4000      7.9215      2.6127      0.0422      2.2593     96.5532     23.3996
   817.5000      7.9407      2.5933      0.0739      3.4375     96.1478     23.2589
   817.6000      7.9407      2.5501     -0.0190      6.0575     91.6251     23.4753
   817.7000      7.9407      2.5242     -0.0367      7.6249     84.3854     23.9387
   817.8000      7.9365      2.5256      0.0135      7.5393     78.7990     24.0218
   817.9000      7.9365      2.5289      0.0180      7.3374     81.3299     23.5214
   818.0000      7.9268      2.5295      0.0133      7.3046     92.0196     22.9144
   818.1000      7.9268      2.5387      0.0579      6.7454     99.9715     22.3834
   818.2000      7.9268      2.5552      0.0108      5.7440    100.2163     21.8835
   818.3000      7.9137      2.5700      0.0619      4.8498     97.7823     21.5746
   818.4000      7.9137      2.5799      0.0435      4.2455     95.6215     21.4472
   818.5000      7.8872      2.5906      0.0567      3.5988     93.2827     21.3099
   818.6000      7.8872      2.5982      0.0944      3.1392     93.2168     21.1024
   818.7000      7.8872      2.5886      0.0817      3.7207    100.0126     20.9803
   818.8000      7.8844      2.5572      0.0853      5.6240    108.8372     21.1418
   818.9000      7.8844      2.5135      0.0068      8.2720    112.8515     21.4415
   819.0000      7.8728      2.4766      0.0012     10.5092    114.6372     21.6059
   819.1000      7.8728      2.4616      0.0047     11.4181    116.1319     21.6328
   819.2000      7.8728      2.4670      0.0099     11.0924    116.3609     21.7639
   819.3000      7.9091      2.4750      0.0107     10.6059    118.3850     21.9574
   819.4000      7.9091      2.4703      0.0358     10.8925    123.8825     21.7836
   819.5000      7.9384      2.4519      0.0175     12.0049    130.0257     21.1697
   819.6000      7.9384      2.4270      0.0529     13.5175    135.3463     20.5146
   819.7000      7.9384      2.4068     -0.0039     14.7390    138.6845     20.0849
   819.8000      7.9407      2.4030      0.0069     14.9678    137.3599     19.9791
   819.9000      7.9407      2.4108      0.0659     14.4990    137.1193     20.2601
