~Version Information
VERS.                      2.0: CWLS Log ASCII Standard - VERSION 2.0
WRAP.                       NO: One line per depth step
~Well Information Block
STRT.FT               547.0000: 
STOP.FT              1685.5000: 
STEP.FT                 0.2500: 
NULL.                -999.2500: 
COMP.          Pioneer Natural Resources: COMPANY
WELL.           Pedri 42-33 Tr: WELL
FLD.           Purgatorie River: FIELD
LOC.           1933' FNL & 662' FEL: LOCATION
PROV.                 Colorado: PROVINCE
CNTY.               Las Animas: COUNTRY
SRVC.                Patterson: SERVICE COMPANY
DATE.          Mon Dec 19 10:09:44 2005: LOG DATE
UWI.                          : UNIQUE WELL ID
~Curve Information Block
DEPT.FT            0 000 00 00: Depth
DIR.Ohm-m                     : IEL Induction Resistivity
GR.GAPI                       : Gamma Ray
~Parameter Information Block
~A  Depth       DIR          GR     
# ...
  1271.7500     14.3764    115.7997
  1272.0000     13.9240    123.0552
  1272.2500     13.4976    127.5064
  1272.5000     13.1023    130.8904
  1272.7500     12.7364    129.9478
  1273.0000     12.3931    124.2759
  1273.2500     12.0682    119.1930
  1273.5000     11.7631    112.7950
  1273.7500     11.4827    110.4749
  1274.0000     11.2303    109.6445
  1274.2500     11.0054    109.7154
  1274.5000     10.8063    108.6942
  1274.7500     10.6335    106.8512
  1275.0000     10.4926    103.4515
  1275.2500     10.3905    101.8832
  1275.5000     10.3300    101.7066
  1275.7500     10.3045    102.9729
  1276.0000     10.2986    106.4927
  1276.2500     10.2933    109.8797
  1276.5000     10.2735    116.3940
  1276.7500     10.2329    121.1574
  1277.0000     10.1766    127.6096
  1277.2500     10.1189    131.0963
  1277.5000     10.0790    135.4045
  1277.7500     10.0762    137.7085
  1278.0000     10.1266    139.5487
  1278.2500     10.2419    139.3940
  1278.5000     10.4293    137.8589
  1278.7500     10.6915    136.7186
  1279.0000     11.0246    135.2984
  1279.2500     11.4169    134.5249
  1279.5000     11.8488    134.2997
  1279.7500     12.2960    135.4597
  1280.0000     12.7348    139.1376
  1280.2500     13.1466    141.5782
  1280.5000     13.5190    141.7911
  1280.7500     13.8462    138.2731
  1281.0000     14.1309    128.1205
  1281.2500     14.3851    119.8956
  1281.5000     14.6290    108.7529
  1281.7500     14.8858    103.5486
  1282.0000     15.1751    100.5655
  1282.2500     15.5043    101.9376
  1282.5000     15.8612    107.3026
  1282.7500     16.2174    111.2341
  1283.0000     16.5456    115.1493
  1283.2500     16.8409    116.1755
  1283.5000     17.1286    116.4800
  1283.7500     17.4479    116.6542
  1284.0000     17.8273    117.7292
  1284.2500     18.2707    119.2836
  1284.5000     18.7653    122.8444
  1284.7500     19.3024    125.3664
  1285.0000     19.8948    127.3384
  1285.2500     20.5804    126.6403
  1285.5000     21.4086    123.2776
  1285.7500     22.4186    120.7235
  1286.0000     23.6243    117.7063
  1286.2500     25.0164    115.8857
  1286.5000     26.5902    112.2494
  1286.7500     28.3786    109.1015
  1287.0000     30.4589    104.0856
  1287.2500     32.9121    100.9960
  1287.5000     35.7523     96.8591
  1287.7500     38.8712     94.1106
  1288.0000     42.0396     89.1518
  1288.2500     44.9796     85.0692
  1288.5000     47.4827     78.7016
  1288.7500     49.5172     75.4233
  1289.0000     51.2504     73.4004
  1289.2500     52.9404     73.8021
  1289.5000     54.7604     75.0479
  1289.7500     56.6747     75.0053
  1290.0000     58.4496     72.8797
  1290.2500     59.7861     70.7742
  1290.5000     60.4802     68.3997
  1290.7500     60.5034     67.8496
  1291.0000     59.9701     68.1106
  1291.2500     59.0643     68.5124
  1291.5000     57.9859     69.1448
  1291.7500     56.9185     69.6547
  1292.0000     56.0099     70.4751
  1292.2500     55.3685     70.8082
  1292.5000     55.0806     70.6895
  1292.7500     55.2238     70.3616
  1293.0000     55.8598     70.1824
  1293.2500     56.9903     70.5965
  1293.5000     58.4948     72.0463
  1293.7500     60.0893     73.2715
  1294.0000     61.3800     74.6814
  1294.2500     62.0514     74.8174
  1294.5000     62.0813     73.0886
  1294.7500     61.7658     70.4636
  1295.0000     61.5191     64.7302
  1295.2500     61.6454     60.3505
  1295.5000     62.2472     54.0120
  1295.7500     63.2544     50.1209
  1296.0000     64.4856     44.3738
  1296.2500     65.6870     40.4632
  1296.5000     66.5402     35.2952
  1296.7500     66.6908     33.2205
  1297.0000     65.8344     33.1064
  1297.2500     63.8245     34.7020
  1297.5000     60.7059     37.9968
  1297.7500     56.6572     39.9239
  1298.0000     51.9323     41.8237
  1298.2500     46.8578     42.5700
  1298.5000     41.8186     43.6516
  1298.7500     37.1732     44.9928
  1299.0000     33.1503     49.1850
  1299.2500     29.8147     53.9291
  1299.5000     27.1075     63.8535
  1299.7500     24.9167     71.7366
  1300.0000     23.1322     84.1338
  1300.2500     21.6696     92.1215
  1300.5000     20.4672    102.7391
  1300.7500     19.4711    108.4933
  1301.0000     18.6255    115.2335
  1301.2500     17.8729    119.1423
  1301.5000     17.1601    125.4010
  1301.7500     16.4493    129.8904
  1302.0000     15.7296    135.7079
  1302.2500     15.0231    137.8944
  1302.5000     14.3775    137.6333
  1302.7500     13.8468    135.1849
  1303.0000     13.4733    128.8703
  1303.2500     13.2778    123.4693
  1303.5000     13.2618    114.7634
  1303.7500     13.4144    109.4891
  1304.0000     13.7192    104.4823
  1304.2500     14.1555    104.3069
  1304.5000     14.6966    109.6653
  1304.7500     15.3062    116.2355
  1305.0000     15.9412    127.5016
  1305.2500     16.5658    133.9998
  1305.5000     17.1694    140.4300
  1305.7500     17.7747    142.6183
  1306.0000     18.4262    143.5394
  1306.2500     19.1668    142.4158
  1306.5000     20.0183    136.6601
  1306.7500     20.9757    129.4949
  1307.0000     22.0132    114.5826
  1307.2500     23.0890    103.2592
  1307.5000     24.1446     86.7366
  1307.7500     25.1011     77.1842
  1308.0000     25.8691     66.5473
  1308.2500     26.3766     62.4673
  1308.5000     26.6024     60.8992
  1308.7500     26.5849     62.5672
  1309.0000     26.3950     68.8844
  1309.2500     26.0935     75.8344
  1309.5000     25.7035     90.5139
  1309.7500     25.2133    102.3782
  1310.0000     24.6025    119.9448
  1310.2500     23.8718    129.0176
  1310.5000     23.0546    135.8304
  1310.7500     22.2076    135.6979
  1311.0000     21.3885    130.2085
  1311.2500     20.6408    124.4535
  1311.5000     19.9881    114.9683
  1311.7500     19.4356    109.2043
  1312.0000     18.9723    103.1098
  1312.2500     18.5725    101.5418
  1312.5000     18.1982    103.4024
  1312.7500     17.8079    107.0336
  1313.0000     17.3697    114.4286
  1313.2500     16.8707    119.4063
  1313.5000     16.3171    124.9272
  1313.7500     15.7243    126.6786
  1314.0000     15.1075    126.7136
  1314.2500     14.4789    125.7508
  1314.5000     13.8520    124.2645
  1314.7500     13.2460    123.8594
  1315.0000     12.6845    124.5978
  1315.2500     12.1900    125.9114
  1315.5000     11.7785    128.4969
  1315.7500     11.4563    130.1732
  1316.0000     11.2207    132.4257
  1316.2500     11.0634    134.2737
  1316.5000     10.9735    138.9099
  1316.7500     10.9399    143.4367
  1317.0000     10.9526    150.6453
  1317.2500     11.0018    153.9816
  1317.5000     11.0761    154.8175
  1317.7500     11.1618    152.8239
  1318.0000     11.2465    147.7949
  1318.2500     11.3223    143.8385
  1318.5000     11.3894    137.0417
  1318.7500     11.4544    131.6521
  1319.0000     11.5276    122.3414
  1319.2500     11.6195    116.1062
  1319.5000     11.7375    109.3795
  1319.7500     11.8809    108.1514
  1320.0000     12.0375    111.3633
  1320.2500     12.1854    115.1619
  1320.5000     12.3017    119.4597
  1320.7500     12.3721    120.3082
  1321.0000     12.3949    119.7073
  1321.2500     12.3748    119.4120
  1321.5000     12.3143    120.2548
  1321.7500     12.2103    121.4467
  1322.0000     12.0568    123.4367
  1322.2500     11.8518    124.7325
  1322.5000     11.6005    126.6394
  1322.7500     11.3149    127.7974
  1323.0000     11.0095    129.1452
  1323.2500     10.6976    129.9519
  1323.5000     10.3877    131.8476
  1323.7500     10.0840    133.8673
  1324.0000      9.7892    137.5149
  1324.2500      9.5083    139.6655
  1324.5000      9.2498    141.4723
  1324.7500      9.0246    141.5423
  1325.0000      8.8423    140.3509
  1325.2500      8.7092    139.1738
  1325.5000      8.6283    137.6232
  1325.7500      8.6009    137.0832
  1326.0000      8.6283    137.3638
  1326.2500      8.7125    138.0581
  1326.5000      8.8547    138.5021
  1326.7500      9.0531    137.6458
  1327.0000      9.3013    135.0891
  1327.2500      9.5866    133.8656
