~Version Information
VERS.                      2.0: CWLS Log ASCII Standard - VERSION 2.0
WRAP.                       NO: One line per depth step
~Well Information Block
STRT.FT                -7.0000: 
STOP.FT              1155.0000: 
STEP.FT                 0.2500: 
NULL.                -999.2500: 
COMP.          Pioneer Natural Resources: COMPANY
WELL.          Whitecoat 14-36: WELL
FLD.           Purgatorie River: FIELD
LOC.           606' FSL & 260' FWL--: LOCATION
PROV.                       CO: PROVINCE
CNTY.               Las Animas: COUNTRY
SRVC.          Patterson Wireline: SERVICE COMPANY
DATE.          Mon Dec 12 12:56:49 2005: LOG DATE
UWI.           08 071 08593 00: UNIQUE WELL ID
~Curve Information Block
DEPT.FT            0 000 00 00: Depth
CCL.                          : Casing Collar Locator
TT3.usec                      : CBL 3' Travel Time
AMP3.mV                       : CBL 3' Amplitude
GR.GAPI                       : Gamma Ray
~Parameter Information Block
~A  Depth       CCL         TT3         AMP3         GR     
# ...
   663.0000      0.0000    702.7061      5.9950    165.9879
   663.2500      0.0000    697.1866      6.0747    156.4886
   663.5000      0.0000    693.9042      6.2350    145.6558
   663.7500      0.0000    692.2444      6.4506    135.9951
   664.0000      0.0000    691.4344      6.6667    128.9024
   664.2500      0.0000    690.9724      6.8276    124.3250
   664.5000      0.0000    690.6541      6.9154    121.7156
   664.7500      0.0000    690.4403      6.9549    121.1185
   665.0000      0.0000    690.3256      6.9822    123.3627
   665.2500      0.0000    690.2939      7.0119    129.3618
   665.5000      0.0000    690.3319      7.0348    138.9320
   665.7500      0.0000    690.4362      7.0393    149.9386
   666.0000      0.0000    690.6134      7.0298    159.0889
   666.2500      0.0000    690.8700      7.0182    164.1849
   666.5000      0.0000    691.1797      7.0022    165.4311
   666.7500      0.0000    691.4568      6.9655    164.1659
   667.0000      0.0000    691.5950      6.9065    160.9401
   667.2500      0.0000    691.5580      6.8506    155.6518
   667.5000      0.0000    691.4214      6.8288    149.2788
   667.7500      0.0000    691.3138      6.8496    144.3548
   668.0000      0.0000    691.3199      6.8937    143.1843
   668.2500      0.0000    691.4393      6.9294    145.9187
   668.5000      0.0000    691.6236      6.9275    150.6038
   668.7500      0.0000    691.8304      6.8686    154.5816
   669.0000      0.0000    692.0521      6.7414    155.6467
   669.2500      0.0000    692.3240      6.5434    152.8134
   669.5000      0.0000    692.7184      6.2877    147.0195
   669.7500      0.0000    693.3708      6.0069    141.0336
   670.0000      0.0000    694.5658      5.7423    137.8718
   670.2500      0.0000    696.9172      5.5285    138.7929
   670.5000      0.0000    701.3179      5.3808    142.6042
   670.7500      0.0000    708.2343      5.2941    146.7315
   671.0000      0.0000    716.6136      5.2535    148.9538
   671.2500      0.0000    723.6656      5.2495    148.4279
   671.5000      0.0000    726.2821      5.2840    145.5949
   671.7500      0.0000    723.1064      5.3599    141.4585
   672.0000      0.0000    715.5051      5.4646    136.9888
   672.2500      0.0000    706.6393      5.5713    133.0011
   672.5000      0.0000    699.3771      5.6586    130.1959
   672.7500      0.0000    694.8228      5.7248    128.7291
   673.0000      0.0000    692.5059      5.7850    127.6252
   673.2500      0.0000    691.4665      5.8577    125.0763
   673.5000      0.0000    690.9944      5.9527    119.8438
   673.7500      0.0000    690.7502      6.0630    112.6083
   674.0000      0.0000    690.6179      6.1675    105.8205
   674.2500      0.0000    690.5668      6.2453    101.7944
   674.5000      0.0000    690.5508      6.2908    100.7443
   674.7500      0.0000    690.5098      6.3140    100.9139
   675.0000      0.0000    690.4146      6.3303    100.5305
   675.2500      0.0000    690.2851      6.3491     99.3626
   675.5000      0.0000    690.1518      6.3684     98.6664
   675.7500      0.0000    690.0212      6.3770    100.1193
   676.0000      0.0000    689.8973      6.3640    104.6855
   676.2500      0.0000    689.8192      6.3300    112.0498
   676.5000      0.0000    689.8427      6.2863    121.0101
   676.7500      0.0000    689.9756      6.2415    130.4466
   677.0000      0.0000    690.1472      6.1904    139.8787
   677.2500      0.0000    690.2596      6.1174    149.0227
   677.5000      0.0000    690.2680      6.0117    157.1214
   677.7500      0.0000    690.1912      5.8816    163.1499
   678.0000      0.0000    690.0637      5.7575    166.6370
   678.2500      0.0000    689.9097      5.6757    167.9828
   678.5000      0.0000    689.7602      5.6530    168.1187
   678.7500      0.0000    689.6680      5.6713    167.9979
   679.0000      0.0000    689.7141      5.6911    168.0685
   679.2500      0.0000    690.1237      5.6817    167.9456
   679.5000      0.0000    691.5754      5.6432    166.6384
   679.7500      0.0000    695.6597      5.6003    163.2306
   680.0000      0.0000    704.9627      5.5761    157.6193
   680.2500      0.0000    721.8436      5.5728    150.6159
   680.5000      0.0000    745.9600      5.5741    142.9467
   680.7500      0.0000    772.8912      5.5629    134.2855
   681.0000      0.0000    796.2804      5.5350    123.9614
   681.2500      0.0000    811.9924      5.4978    112.4451
   681.5000      0.0000    820.0892      5.4595    101.3507
   681.7500      0.0000    823.2716      5.4201     92.1526
   682.0000      0.0000    824.3696      5.3741     85.5977
   682.2500      0.0000    825.2572      5.3209     81.9948
   682.5000      0.0000    827.0234      5.2704     81.1297
   682.7500      0.0000    830.0908      5.2392     81.8071
   683.0000      0.0000    833.8406      5.2382     82.2218
   683.2500      0.0000    836.5777      5.2633     81.3920
   683.5000      0.0000    836.5963      5.2974     80.2156
   683.7500      0.0000    833.5377      5.3220     80.7798
   684.0000      0.0000    828.4951      5.3303     84.4706
   684.2500      0.0000    822.9879      5.3263     90.7445
   684.5000      0.0000    818.1954      5.3169     97.6251
   684.7500      0.0000    814.8393      5.3073    103.2860
   685.0000      0.0000    813.1716      5.2998    107.3046
   685.2500      0.0000    813.0942      5.2912    110.7487
   685.5000      0.0000    814.4684      5.2732    115.2856
   685.7500      0.0000    817.0934      5.2407    122.1672
   686.0000      0.0000    820.4530      5.2027    131.6606
   686.2500      0.0000    824.0109      5.1784    142.7491
   686.5000      0.0000    827.8631      5.1810    153.0864
   686.7500      0.0000    832.7109      5.2089    159.6718
   687.0000      0.0000    838.9432      5.2506    160.3849
   687.2500      0.0000    845.8303      5.3004    155.4778
   687.5000      0.0000    851.6919      5.3649    147.6795
   687.7500      0.0000    854.6121      5.4493    140.6486
   688.0000      0.0000    852.6450      5.5370    137.0651
   688.2500      0.0000    843.7334      5.5913    137.7357
   688.5000      0.0000    827.0649      5.5822    141.8703
   688.7500      0.0000    805.9620      5.5099    147.8610
   689.0000      0.0000    788.7138      5.4043    153.7643
   689.2500      0.0000    784.1943      5.3054    157.4034
   689.5000      0.0000    795.8284      5.2436    156.9868
   689.7500      0.0000    820.2400      5.2285    152.3748
   690.0000      0.0000    850.4396      5.2500    145.2829
   690.2500      0.0000    878.9255      5.2853    137.7132
   690.5000      0.0000    900.0931      5.3097    130.6658
   690.7500      0.0000    912.3795      5.3082    124.6672
   691.0000      0.0000    916.7794      5.2820    120.7776
   691.2500      0.0000    912.1118      5.2414    120.2488
   691.5000      0.0000    894.6381      5.1932    123.2199
   691.7500      0.0000    864.0223      5.1370    128.0731
   692.0000      0.0000    827.3909      5.0725    132.1573
   692.2500      0.0000    795.8976      5.0078    133.3856
   692.5000      0.0000    777.8315      4.9574    131.6161
   692.7500      0.0000    774.5560      4.9358    128.6111
   693.0000      0.0000    781.1885      4.9489    126.4210
   693.2500      0.0000    790.0840      4.9898    125.6458
   693.5000      0.0000    794.6796      5.0416    125.3217
   693.7500      0.0000    792.2258      5.0911    124.4889
   694.0000      0.0000    784.3760      5.1368    123.5267
   694.2500      0.0000    775.0728      5.1788    123.5243
   694.5000      0.0000    767.3033      5.2049    124.5489
   694.7500      0.0000    761.5517      5.1944    125.1713
   695.0000      0.0000    756.8347      5.1386    123.7285
   695.2500      0.0000    752.5378      5.0519    119.5817
   695.5000      0.0000    749.2218      4.9627    113.3192
   695.7500      0.0000    748.0515      4.8932    106.5088
   696.0000      0.0000    750.0057      4.8471    101.3196
   696.2500      0.0000    756.0759      4.8168     99.5091
