~Version Information
VERS.                      2.0: CWLS Log ASCII Standard - VERSION 2.0
WRAP.                       NO: One line per depth step
~Well Information Block
STRT.FT               430.0000: 
STOP.FT              2074.0000: 
STEP.FT                 0.1000: 
NULL.                -999.2500: 
COMP.          Pioneer Natural Resources: COMPANY
WELL.             Fleming 11-2: WELL
FLD.           Purgatoire River: FIELD
LOC.           534' FNL & 160' FWL: LOCATION
CNTY.               Las Animas: COUNTY
SRVC.                Patterson: SERVICE COMPANY
DATE.          Tue Jun 27 10:07:47 2006: LOG DATE
UWI.           05 071 08491 00: UNIQUE WELL ID
STAT.                 Colorado: STATE
~Curve Information Block
DEPT.FT            0 000 00 00: Depth
DCAL.in                       : CDL Caliper
RHOB.g/cc                     : CDL Bulk Density
RHOC.g/cc                     : CDL Density Correction
DPOR.pu                       : CDL Density Porosity
GR.GAPI                       : Gamma Ray
NPOR.pu                       : Neutron Porosity
~Parameter Information Block
~A  Depth       DCAL        RHOB        RHOC        DPOR         GR         NPOR    
# ...
  1841.2000      7.8337      2.5678      0.0836      4.9841     96.8544     25.5206
  1841.3000      7.8333      2.5753      0.0884      4.5274     97.7683     25.1666
  1841.4000      7.8333      2.5772      0.1217      4.4117     95.9041     24.8025
  1841.5000      7.8326      2.5609      0.0834      5.4020     91.6438     24.4830
  1841.6000      7.8326      2.5299      0.0430      7.2792     88.3743     24.5519
  1841.7000      7.8326      2.5042      0.0148      8.8394     90.7593     24.8042
  1841.8000      7.8339      2.4967      0.0437      9.2922     96.3841     24.6503
  1841.9000      7.8339      2.5041      0.0042      8.8399     97.6913     24.1292
  1842.0000      7.8357      2.5171      0.0627      8.0572     96.3208     23.8321
  1842.1000      7.8357      2.5287      0.0453      7.3531     97.7582     23.9091
  1842.2000      7.8357      2.5362      0.0676      6.8972    100.5798     24.5198
  1842.3000      7.8352      2.5377      0.0839      6.8090    100.3928     25.5413
  1842.4000      7.8352      2.5366      0.0640      6.8743     99.9661     26.3690
  1842.5000      7.8335      2.5436      0.0562      6.4455    102.8173     26.6798
  1842.6000      7.8335      2.5628      0.0791      5.2833    104.9522     26.6115
  1842.7000      7.8335      2.5846      0.1082      3.9607    103.4532     26.4459
  1842.8000      7.8322      2.5981      0.1246      3.1484     99.0593     26.2398
  1842.9000      7.8322      2.5990      0.0983      3.0880     93.9010     26.0768
  1843.0000      7.8318      2.5924      0.0656      3.4903     89.1150     25.7981
  1843.1000      7.8318      2.5871      0.0650      3.8147     85.4729     25.1226
  1843.2000      7.8318      2.5873      0.0892      3.8003     85.9332     24.5573
  1843.3000      7.8323      2.5905      0.0894      3.6048     92.0372     24.4918
  1843.4000      7.8323      2.5833      0.1093      4.0435     98.4881     24.4197
  1843.5000      7.8349      2.5577      0.0418      5.5926    100.5055     24.0803
  1843.6000      7.8349      2.5316      0.0178      7.1785     97.7081     23.8365
  1843.7000      7.8349      2.5217      0.0044      7.7749     92.1440     24.3517
  1843.8000      7.8385      2.5229      0.0368      7.7039     88.0140     25.6004
  1843.9000      7.8385      2.5260      0.0173      7.5145     88.1030     26.1706
  1844.0000      7.8396      2.5302      0.0343      7.2623     90.7130     25.7488
  1844.1000      7.8396      2.5332      0.0196      7.0797     92.5841     25.6025
  1844.2000      7.8396      2.5308      0.0165      7.2228     94.9828     25.8005
  1844.3000      7.8393      2.5296      0.0027      7.2970    101.4355     25.6140
  1844.4000      7.8393      2.5427      0.0050      6.5013    107.3699     25.0342
  1844.5000      7.8410      2.5652      0.0506      5.1406    106.7810     24.2672
  1844.6000      7.8410      2.5839      0.0029      4.0065    100.4814     23.4033
  1844.7000      7.8410      2.6025      0.0275      2.8788     91.8675     22.8211
  1844.8000      7.8403      2.6157      0.1065      2.0780     87.2256     22.7286
  1844.9000      7.8403      2.6042      0.0659      2.7758     90.2751     22.8762
  1845.0000      7.8344      2.5713      0.0358      4.7677     95.7847     22.9743
  1845.1000      7.8344      2.5360      0.0031      6.9084     95.4392     22.7214
  1845.2000      7.8344      2.5096     -0.0100      8.5116     89.1653     22.2249
  1845.3000      7.8289      2.4992     -0.0420      9.1398     86.2513     22.1652
  1845.4000      7.8289      2.5042     -0.0231      8.8380     91.4957     22.6151
  1845.5000      7.8266      2.5096      0.0014      8.5084     97.6179     22.9487
  1845.6000      7.8266      2.4993      0.0249      9.1310     96.6191     23.0369
  1845.7000      7.8266      2.4756     -0.0109     10.5715     90.8637     22.8277
  1845.8000      7.8244      2.4618     -0.0107     11.4069     88.6617     22.0907
  1845.9000      7.8244      2.4751      0.0090     10.6023     91.3895     21.6080
  1846.0000      7.8220      2.5017      0.0580      8.9858     93.4685     22.2644
  1846.1000      7.8220      2.5200      0.0575      7.8810     92.5922     23.3186
  1846.2000      7.8220      2.5288      0.0458      7.3444     91.5203     23.8352
  1846.3000      7.8212      2.5326      0.0881      7.1145     90.9689     23.9231
  1846.4000      7.8212      2.5289      0.1174      7.3424     89.9973     23.6030
  1846.5000      7.8228      2.5244      0.0620      7.6115     91.1747     22.5563
  1846.6000      7.8228      2.5257      0.0877      7.5345     94.5084     21.3058
  1846.7000      7.8228      2.5234      0.0691      7.6706     94.8350     20.7027
  1846.8000      7.8267      2.5200      0.0337      7.8767     93.5929     20.6021
  1846.9000      7.8267      2.5266      0.0704      7.4806     95.6778     20.7709
  1847.0000      7.8310      2.5310      0.0949      7.2116     97.5745     21.3609
  1847.1000      7.8310      2.5212      0.0473      7.8087     95.7677     21.9552
  1847.2000      7.8310      2.5076      0.0351      8.6280     94.9526     22.0254
  1847.3000      7.8325      2.4982      0.0675      9.2011     95.9224     22.1534
  1847.4000      7.8325      2.4896      0.0411      9.7240     91.9623     22.8447
  1847.5000      7.8318      2.4877      0.0067      9.8348     83.7752     23.5130
  1847.6000      7.8318      2.5000      0.0418      9.0926     81.6999     23.7503
  1847.7000      7.8318      2.5199      0.0230      7.8857     86.6913     23.7889
  1847.8000      7.8313      2.5366      0.0608      6.8745     91.2081     23.8939
  1847.9000      7.8313      2.5423      0.0569      6.5255     95.8258     24.2610
  1848.0000      7.8318      2.5401      0.0759      6.6600    102.6534     24.5318
  1848.1000      7.8318      2.5443      0.0438      6.4072    108.5396     24.3373
  1848.2000      7.8318      2.5585      0.0982      5.5448    111.9287     24.4346
  1848.3000      7.8324      2.5666      0.0909      5.0553    113.6093     25.3801
  1848.4000      7.8324      2.5592      0.0661      5.5050    112.9406     26.2668
  1848.5000      7.8324      2.5457      0.0540      6.3224    109.0107     25.8120
  1848.6000      7.8324      2.5374      0.0728      6.8249    103.8121     24.5277
  1848.7000      7.8324      2.5296      0.0677      7.2984    101.1199     24.2350
  1848.8000      7.8323      2.5127      0.0472      8.3199    103.0697     24.7857
  1848.9000      7.8323      2.4871      0.0420      9.8726    104.5017     24.3130
  1849.0000      7.8329      2.4650      0.0008     11.2122    102.8826     22.7441
  1849.1000      7.8329      2.4571      0.0548     11.6939    104.8537     21.8569
  1849.2000      7.8329      2.4541      0.0723     11.8705    108.9218     22.6501
  1849.3000      7.8343      2.4470      0.0370     12.3024    108.3226     24.4123
  1849.4000      7.8343      2.4465      0.0087     12.3311    106.1934     25.6250
  1849.5000      7.8376      2.4634     -0.0066     11.3071    104.6666     25.7284
  1849.6000      7.8376      2.4824      0.0642     10.1576    101.0158     25.2679
  1849.7000      7.8376      2.4827      0.0176     10.1415     97.5647     24.4576
  1849.8000      7.8416      2.4782     -0.0059     10.4123     96.1594     23.4924
  1849.9000      7.8416      2.4936      0.0200      9.4773     92.5537     23.1208
  1850.0000      7.8410      2.5206      0.0425      7.8450     86.3693     23.3857
  1850.1000      7.8410      2.5342      0.0319      7.0176     83.8532     23.2628
  1850.2000      7.8410      2.5295      0.0469      7.3043     85.5454     22.4452
  1850.3000      7.8346      2.5276     -0.0219      7.4189     87.1658     21.7386
  1850.4000      7.8346      2.5503      0.0035      6.0406     86.2989     21.5576
  1850.5000      7.8286      2.5859      0.0748      3.8875     81.9488     21.6715
  1850.6000      7.8286      2.6000      0.0681      3.0298     75.9023     22.1018
  1850.7000      7.8286      2.5815      0.0652      4.1489     72.3645     22.5783
