~Version Information
VERS.                      2.0: CWLS Log ASCII Standard - VERSION 2.0
WRAP.                       NO: One line per depth step
~Well Information Block
STRT.FT               340.0000: 
STOP.FT              2342.7500: 
STEP.FT                 0.2500: 
NULL.                -999.2500: 
COMP.          Pioneer Natural Resources: COMPANY
WELL.          Pinkerton 41-12: WELL
FLD.           Purgatoire River: FIELD
LOC.           1222' FNL & 670' FEL--: LOCATION
CNTY.               Las Animas: COUNTY
SRVC.                Patterson: SERVICE COMPANY
DATE.          Wed Mar 15 10:37:39 2006: LOG DATE
UWI.           05 071 08500 00: UNIQUE WELL ID
STAT.                 Colorado: STATE
~Curve Information Block
DEPT.FT            0 000 00 00: Depth
SN.Ohm-m                      : IEL Short Normal
SP.mV                         : IEL Spontaneous Potential
DIR.Ohm-m                     : IEL Induction Resistivity
GR.GAPI                       : Gamma Ray
~Parameter Information Block
~A  Depth        SN          SP         DIR          GR     
# ...
   608.0000   2000.0000   -999.2500     33.2277     76.3125
   608.2500   2000.0000   -999.2500     33.5713     75.8244
   608.5000   2000.0000   -999.2500     34.1051     75.3662
   608.7500   2000.0000   -999.2500     34.7919     75.5157
   609.0000   2000.0000   -999.2500     35.5617     76.6395
   609.2500   2000.0000   -999.2500     36.3459     77.9935
   609.5000   2000.0000   -999.2500     37.1029     80.6189
   609.7500   2000.0000   -999.2500     37.8126     82.2712
   610.0000   2000.0000   -999.2500     38.4491     83.4874
   610.2500   2000.0000   -999.2500     38.9641     83.0819
   610.5000   2000.0000   -999.2500     39.3116     81.0455
   610.7500   2000.0000   -999.2500     39.4820     79.4468
   611.0000   2000.0000   -999.2500     39.5088     77.8487
   611.2500   2000.0000   -999.2500     39.4358     77.5212
   611.5000   2000.0000   -999.2500     39.2868     77.6793
   611.7500   2000.0000   -999.2500     39.0701     77.8608
   612.0000   2000.0000   -999.2500     38.8026     78.0411
   612.2500   2000.0000   -999.2500     38.5194     78.1886
   612.5000   2000.0000   -999.2500     38.2608     78.6722
   612.7500   2000.0000   -999.2500     38.0499     79.2428
   613.0000   2000.0000   -999.2500     37.8824     80.4852
   613.2500   2000.0000   -999.2500     37.7290     81.5797
   613.5000   2000.0000   -999.2500     37.5537     83.7212
   613.7500   2000.0000   -999.2500     37.3343     85.4910
   614.0000   2000.0000   -999.2500     37.0693     88.3285
   614.2500   2000.0000   -999.2500     36.7636     89.9717
   614.5000   2000.0000   -999.2500     36.4126     91.4471
   614.7500   2000.0000   -999.2500     36.0094     91.6000
   615.0000   2000.0000   -999.2500     35.5733     90.7309
   615.2500   2000.0000   -999.2500     35.1633     89.6847
   615.5000   2000.0000   -999.2500     34.8537     87.9054
   615.7500   2000.0000   -999.2500     34.6866     86.8482
   616.0000   2000.0000   -999.2500     34.6400     86.0941
   616.2500   2000.0000   -999.2500     34.6352     86.6258
   616.5000   2000.0000   -999.2500     34.5859     89.3910
   616.7500   2000.0000   -999.2500     34.4561     92.1131
   617.0000   2000.0000   -999.2500     34.2824     95.6230
   617.2500   2000.0000   -999.2500     34.1429     96.4420
   617.5000   2000.0000   -999.2500     34.1041     94.7824
   617.7500   2000.0000   -999.2500     34.1853     92.3653
   618.0000   2000.0000   -999.2500     34.3590     88.5092
   618.2500   2000.0000   -999.2500     34.5707     86.5174
   618.5000   2000.0000   -999.2500     34.7602     84.6700
   618.7500   2000.0000   -999.2500     34.8747     83.9098
   619.0000   2000.0000   -999.2500     34.8859     82.7441
   619.2500   2000.0000   -999.2500     34.8073     81.7173
   619.5000   2000.0000   -999.2500     34.6940     80.1547
   619.7500   2000.0000   -999.2500     34.6193     79.5940
   620.0000   2000.0000   -999.2500     34.6458     79.9406
   620.2500   2000.0000   -999.2500     34.8129     80.6863
   620.5000   2000.0000   -999.2500     35.1365     81.5280
   620.7500   2000.0000   -999.2500     35.6064     81.4657
   621.0000   2000.0000   -999.2500     36.1857     80.4336
   621.2500   2000.0000   -999.2500     36.8260     79.3302
   621.5000   2000.0000   -999.2500     37.4948     77.2337
   621.7500   2000.0000   -999.2500     38.1860     75.5860
   622.0000   2000.0000   -999.2500     38.8969     73.1148
   622.2500   2000.0000   -999.2500     39.5910     71.8390
   622.5000   2000.0000   -999.2500     40.1936     70.8523
   622.7500   2000.0000   -999.2500     40.6284     70.7618
   623.0000   2000.0000   -999.2500     40.8627     71.3612
   623.2500   2000.0000   -999.2500     40.9177     72.3522
   623.5000   2000.0000   -999.2500     40.8382     74.7867
   623.7500   2000.0000   -999.2500     40.6612     76.7366
   624.0000   2000.0000   -999.2500     40.4150     79.3413
   624.2500   2000.0000   -999.2500     40.1362     80.5984
   624.5000   2000.0000   -999.2500     39.8743     81.7507
   624.7500   2000.0000   -999.2500     39.6666     82.0972
   625.0000   2000.0000   -999.2500     39.5097     82.1338
   625.2500   2000.0000   -999.2500     39.3602     81.9792
   625.5000   2000.0000   -999.2500     39.1723     81.6281
   625.7500   2000.0000   -999.2500     38.9362     81.2035
   626.0000   2000.0000   -999.2500     38.6802     79.9839
   626.2500   2000.0000   -999.2500     38.4366     78.8947
   626.5000   2000.0000   -999.2500     38.2085     77.7255
   626.7500   2000.0000   -999.2500     37.9651     77.7716
   627.0000   2000.0000   -999.2500     37.6666     79.0373
   627.2500   2000.0000   -999.2500     37.2987     80.0753
   627.5000   2000.0000   -999.2500     36.8916     80.7236
   627.7500   2000.0000   -999.2500     36.5080     80.2422
   628.0000   2000.0000   -999.2500     36.2069     78.5944
   628.2500   2000.0000   -999.2500     36.0044     77.4810
   628.5000   2000.0000   -999.2500     35.8712     76.5944
   628.7500   2000.0000   -999.2500     35.7703     76.5079
   629.0000   2000.0000   -999.2500     35.7055     76.3190
   629.2500   2000.0000   -999.2500     35.7268     75.6902
   629.5000   2000.0000   -999.2500     35.8823     74.1514
   629.7500   2000.0000   -999.2500     36.1590     73.3783
   630.0000   2000.0000   -999.2500     36.4696     73.6161
   630.2500   2000.0000   -999.2500     36.6987     74.6919
   630.5000   2000.0000   -999.2500     36.7726     76.7519
   630.7500   2000.0000   -999.2500     36.6801     77.9594
   631.0000   2000.0000   -999.2500     36.4297     79.6370
   631.2500   2000.0000   -999.2500     35.9959     81.0984
   631.5000   2000.0000   -999.2500     35.3225     84.3754
   631.7500   2000.0000   -999.2500     34.3774     87.3890
   632.0000   2000.0000   -999.2500     33.1995     93.2773
   632.2500   2000.0000   -999.2500     31.8862     98.1828
   632.5000   2000.0000   -999.2500     30.5443    106.5005
   632.7500   2000.0000   -999.2500     29.2507    111.7503
   633.0000   2000.0000   -999.2500     28.0407    117.0434
   633.2500   2000.0000   -999.2500     26.9139    118.0657
   633.5000   2000.0000   -999.2500     25.8488    116.3481
   633.7500   2000.0000   -999.2500     24.8219    114.2684
   634.0000   2000.0000   -999.2500     23.8254    112.0895
   634.2500   2000.0000   -999.2500     22.8740    112.0246
   634.5000   2000.0000   -999.2500     21.9980    113.9062
   634.7500   2000.0000   -999.2500     21.2306    115.9670
   635.0000   2000.0000   -999.2500     20.5965    119.4599
   635.2500   2000.0000   -999.2500     20.1064    121.7158
   635.5000   2000.0000   -999.2500     19.7574    124.3572
   635.7500   2000.0000   -999.2500     19.5357    125.2475
   636.0000   2000.0000   -999.2500     19.4201    125.0569
   636.2500   2000.0000   -999.2500     19.3842    124.1732
   636.5000   2000.0000   -999.2500     19.3981    122.5709
   636.7500   2000.0000   -999.2500     19.4343    121.7847
   637.0000   2000.0000   -999.2500     19.4757    121.3756
   637.2500   2000.0000   -999.2500     19.5211    121.4895
   637.5000   2000.0000   -999.2500     19.5835    121.5559
   637.7500   2000.0000   -999.2500     19.6801    121.0212
   638.0000   2000.0000   -999.2500     19.8164    118.7946
   638.2500   2000.0000   -999.2500     19.9721    116.5163
   638.5000   2000.0000   -999.2500     20.0979    113.0590
   638.7500   2000.0000   -999.2500     20.1308    111.4967
   639.0000   2000.0000   -999.2500     20.0218    110.7919
   639.2500   2000.0000   -999.2500     19.7587    111.2045
   639.5000   2000.0000   -999.2500     19.3685    112.7155
   639.7500   2000.0000   -999.2500     18.9042    114.3815
   640.0000   2000.0000   -999.2500     18.4247    118.1705
   640.2500   2000.0000   -999.2500     17.9804    121.3282
   640.5000   2000.0000   -999.2500     17.6053    125.6791
   640.7500   2000.0000   -999.2500     17.3170    127.4902
   641.0000   2000.0000   -999.2500     17.1222    128.1595
   641.2500   2000.0000   -999.2500     17.0235    127.6131
