~Version Information
VERS.                      2.0: CWLS Log ASCII Standard - VERSION 2.0
WRAP.                       NO: One line per depth step
~Well Information Block
STRT.FT                 0.0000: 
STOP.FT              1871.2500: 
STEP.FT                 0.2500: 
NULL.                -999.2500: 
COMP.          Petrogulf Corporation: COMPANY
WELL.             Norton 9-14R: WELL
FLD.           Purgatorie River: FIELD
LOC.           725' FSL & 1103' FWL: LOCATION
STAT.                 Colorado: State
CNTY.               Las Animas: COUNTY
CTRY. USA : Country
SECT. 9 : Section
TOWN. 33S : Township
RANG. 67W : Range
SRVC.                Patterson: SERVICE COMPANY
DATE.          Thu Nov 10 13:05:53 2005: LOG DATE
API. 05-071-08444                         : UNIQUE WELL ID
~Curve Information Block
DEPT.FT            0 000 00 00: Depth
CCL.                          : Casing Collar Locator
TT3.usec                      : CBL 3' Travel Time
AMP3.mV                       : CBL 3' Amplitude
GR.GAPI                       : Gamma Ray
~Parameter Information Block
~A  Depth       CCL         TT3         AMP3         GR     
# ...
   603.0000      0.0000    393.3356      7.8673     82.8381
   603.2500      0.0000    405.0812      7.6958     79.6875
   603.5000      0.0000    418.4410      7.5502     75.4145
   603.7500      0.0000    428.5887      7.5436     71.5719
   604.0000      0.0000    433.4498      7.6681     69.9585
   604.2500      0.0000    433.7742      7.7932     71.1381
   604.5000      0.0000    429.8824      7.8028     73.8916
   604.7500      0.0000    421.5631      7.7038     76.2933
   605.0000      0.0000    411.8451      7.5897     77.4054
   605.2500      0.0000    407.2427      7.5458     77.9044
   605.5000      0.0000    411.7392      7.5994     79.1214
   605.7500      0.0000    422.3052      7.7059     81.6487
   606.0000      0.0000    432.2530      7.7743     85.0037
   606.2500      0.0000    437.7644      7.7427     88.5262
   606.5000      0.0000    439.3269      7.6321     92.2084
   606.7500      0.0000    438.8860      7.5240     96.2984
   607.0000      0.0000    437.9674      7.4900    100.2442
   607.2500      0.0000    437.3607      7.5268    102.5178
   607.5000      0.0000    437.0014      7.5777    101.7775
   607.7500      0.0000    435.6232      7.6125     98.1643
   608.0000      0.0000    430.8618      7.6388     93.4181
   608.2500      0.0000    421.4125      7.6523     89.7030
   608.5000      0.0000    409.7815      7.6389     88.0910
   608.7500      0.0000    400.6109      7.6099     87.8265
   609.0000      0.0000    395.9230      7.5952     86.8846
   609.2500      0.0000    394.4467      7.6137     83.4303
   609.5000      0.0000    394.4435      7.6677     77.2101
   609.7500      0.0000    394.9618      7.7446     69.8713
   610.0000      0.0000    395.4712      7.8088     63.8677
   610.2500      0.0000    395.7019      7.8097     60.7293
   610.5000      0.0000    395.6632      7.7328     60.1746
   610.7500      0.0000    395.4549      7.6493     60.8461
   611.0000      0.0000    395.1229      7.6571     61.8535
   611.2500      0.0000    394.6945      7.7442     63.4586
   611.5000      0.0000    394.2358      7.7779     66.3079
   611.7500      0.0000    393.8451      7.6703     70.2357
   612.0000      0.0000    393.5938      7.5073     73.9473
   612.2500      0.0000    393.4776      7.4486     75.8593
   612.5000      0.0000    393.4766      7.5177     75.3421
   612.7500      0.0000    393.6479      7.5750     73.2153
   613.0000      0.0000    394.0672      7.5155     71.0299
   613.2500      0.0000    394.6816      7.4126     69.9377
   613.5000      0.0000    395.2899      7.4000     70.3470
   613.7500      0.0000    395.6956      7.4787     72.3741
   614.0000      0.0000    396.0605      7.5390     76.0123
   614.2500      0.0000    397.4759      7.5296     80.7756
   614.5000      0.0000    402.0861      7.4912     85.7169
   614.7500      0.0000    411.2043      7.4594     90.0075
   615.0000      0.0000    422.5741      7.4331     93.2569
   615.2500      0.0000    431.8371      7.4131     95.2899
   615.5000      0.0000    437.1928      7.4158     95.9281
   615.7500      0.0000    439.9193      7.4622     95.0499
   616.0000      0.0000    441.3440      7.5455     92.7997
   616.2500      0.0000    441.7291      7.6151     89.8062
   616.5000      0.0000    440.9278      7.6384     87.1492
   616.7500      0.0000    438.2995      7.6626     85.7319
   617.0000      0.0000    431.8817      7.7580     85.4722
   617.2500      0.0000    419.3107      7.9115     85.3024
   617.5000      0.0000    401.6267      8.0277     84.1822
   617.7500      0.0000    384.5808      8.0422     82.1381
   618.0000      0.0000    373.5003      7.9947     80.2751
   618.2500      0.0000    368.8992      7.9661     79.6909
   618.5000      0.0000    368.7584      7.9706     80.3136
   618.7500      0.0000    372.2822      7.9537     81.0148
   619.0000      0.0000    379.4527      7.8949     81.0288
   619.2500      0.0000    388.3339      7.8490     80.9710
   619.5000      0.0000    395.5331      7.8542     82.1937
   619.7500      0.0000    399.5498      7.8658     85.3744
   620.0000      0.0000    401.4742      7.8340     89.9041
   620.2500      0.0000    402.7129      7.7880     94.3133
   620.5000      0.0000    403.6738      7.7743     97.1242
   620.7500      0.0000    404.2147      7.7777     97.6356
   621.0000      0.0000    404.3253      7.7791     96.0588
   621.2500      0.0000    404.2881      7.7995     92.8390
   621.5000      0.0000    404.4844      7.8165     88.2656
   621.7500      0.0000    405.1419      7.7424     83.1335
   622.0000      0.0000    406.1774      7.5494     79.1901
   622.2500      0.0000    407.0476      7.3285     78.0923
   622.5000      0.0000    406.5749      7.1748     79.8748
   622.7500      0.0000    403.2194      7.1037     82.9117
   623.0000      0.0000    397.2899      7.1201     85.4278
   623.2500      0.0000    394.8200      7.2637     86.6952
   623.5000      0.0000    406.1156      7.5224     86.8757
   623.7500      0.0000    432.8457      7.7790     86.3413
   624.0000      0.0000    458.7583      7.9177     85.3893
   624.2500      0.0000    466.4153      7.8960     84.2764
   624.5000      0.0000    456.7316      7.7361     83.1074
   624.7500      0.0000    437.4993      7.6380     81.5574
   625.0000      0.0000    409.9810      7.8659     79.0509
   625.2500      0.0000    378.2418      8.3385     75.6517
   625.5000      0.0000    353.0077      8.7254     72.5572
   625.7500      2.0000    340.0172      8.9265     71.1060
   626.0000      0.0000    336.2998      9.0707     71.3420
   626.2500     -2.0000    338.1083      9.1309     72.1862
   626.5000      0.0000    345.7141      8.8574     72.9204
   626.7500      0.0000    359.5103      8.2177     73.7750
   627.0000      0.0000    373.2725      7.6064     75.0826
   627.2500      0.0000    376.6554      7.3492     76.5602
   627.5000      0.0000    366.7816      7.4413     77.6501
   627.7500      0.0000    351.3272      7.8182     78.0847
   628.0000      0.0000    339.0360      8.3337     77.8011
   628.2500      0.0000    332.5084      8.7303     76.5307
   628.5000      0.0000    329.9090      8.8940     73.8712
   628.7500      0.0000    329.0218      8.8785     69.8937
   629.0000      0.0000    328.7072      8.7644     65.4710
   629.2500      0.0000    328.5985      8.6270     61.7502
   629.5000      0.0000    328.6247      8.5115     59.3880
   629.7500      0.0000    328.7997      8.4051     58.4776
   630.0000      0.0000    329.3620      8.2688     59.0037
   630.2500      0.0000    331.2398      8.0674     61.0426
   630.5000      0.0000    336.1819      7.8011     64.6616
   630.7500      0.0000    345.1520      7.5371     69.8058
   631.0000      0.0000    355.9496      7.3435     75.9452
   631.2500      0.0000    364.4543      7.2039     81.5674
   631.5000      0.0000    368.8340      7.0682     84.5798
   631.7500      0.0000    370.3876      6.9386     83.9224
   632.0000      0.0000    370.9467      6.8333     80.7208
   632.2500      0.0000    371.3899      6.7116     77.3698
   632.5000      0.0000    372.1765      6.5210     75.6461
   632.7500      0.0000    374.8540      6.2768     76.0623
   633.0000      0.0000    383.4989      6.0443     78.5080
   633.2500      0.0000    402.2615      5.8839     82.5950
   633.5000      0.0000    425.8933      5.7937     87.5196
   633.7500      0.0000    436.7294      5.6923     92.3335
   634.0000      0.0000    423.9494      5.5207     96.3424
   634.2500      0.0000    399.2856      5.3064     98.8127
   634.5000      0.0000    381.3133      5.0901     98.7838
   634.7500      0.0000    376.7262      4.8949     95.9431
   635.0000      0.0000    382.1336      4.7445     91.3167
   635.2500      0.0000    390.5583      4.6385     86.3504
   635.5000      0.0000    394.6169      4.5565     81.6450
   635.7500      0.0000    391.0218      4.4896     77.1710
   636.0000      0.0000    383.0677      4.4334     73.3724
   636.2500      0.0000    377.1371      4.3811     71.3723
