~Version Information
VERS.                      2.0: CWLS Log ASCII Standard - VERSION 2.0
WRAP.                       NO: One line per depth step
~Well Information Block
STRT.FT               545.0000: 
STOP.FT              2200.7000: 
STEP.FT                 0.1000: 
NULL.                -999.2500: 
COMP.          Pioneer Natural Resources: COMPANY
WELL.               Erin 21-15: WELL
FLD.           Purgatoire River: FIELD
LOC.           1217' FNL & 2284' FWL--: LOCATION
CNTY.               Las Animas: COUNTY
SRVC.                Patterson: SERVICE COMPANY
DATE.          Thu Mar 02 09:55:43 2006: LOG DATE
UWI.           05 071 08713 00: UNIQUE WELL ID
STAT.                 Colorado: STATE
~Curve Information Block
DEPT.FT            0 000 00 00: Depth
DCAL.in                       : CDL Caliper
RHOB.g/cc                     : CDL Bulk Density
RHOC.g/cc                     : CDL Density Correction
DPOR.pu                       : CDL Density Porosity
NPOR.pu                       : Neutron Porosity
GR.GAPI                       : Gamma Ray
~Parameter Information Block
~A  Depth       DCAL        RHOB        RHOC        DPOR        NPOR         GR     
# ...
  1409.0000      8.0374      2.4944      0.0445      9.4278     28.2806    171.1606
  1409.1000      8.0374      2.4840      0.0614     10.0597     28.1017    172.1134
  1409.2000      8.0374      2.4506      0.0390     12.0835     28.1073    179.1580
  1409.3000      8.0355      2.4047     -0.0353     14.8649     28.4009    184.3481
  1409.4000      8.0355      2.3686     -0.0137     17.0524     28.5988    180.4413
  1409.5000      8.0342      2.3504     -0.0201     18.1576     28.4330    171.0884
  1409.6000      8.0342      2.3548     -0.0539     17.8915     28.2389    164.4673
  1409.7000      8.0342      2.3835     -0.0089     16.1501     28.2917    159.7541
  1409.8000      8.0353      2.4188      0.0662     14.0121     28.3051    154.1920
  1409.9000      8.0353      2.4436      0.0386     12.5094     27.8937    149.8226
  1410.0000      8.0361      2.4655      0.0600     11.1827     27.1891    147.9840
  1410.1000      8.0361      2.4879      0.1090      9.8224     26.6328    147.9381
  1410.2000      8.0361      2.4983      0.1404      9.1936     26.2572    149.5415
  1410.3000      8.0372      2.5067      0.0425      8.6876     25.9471    152.4769
  1410.4000      8.0372      2.5381      0.1092      6.7843     25.9483    153.8991
  1410.5000      8.0389      2.5844      0.0741      3.9778     26.1480    152.6121
  1410.6000      8.0389      2.6132      0.1392      2.2304     26.2363    149.7082
  1410.7000      8.0389      2.6065      0.0852      2.6334     26.2790    147.2566
  1410.8000      8.0405      2.5848      0.0428      3.9494     26.4353    149.7515
  1410.9000      8.0405      2.5785      0.0601      4.3315     26.4867    155.0106
  1411.0000      8.0414      2.5880      0.0384      3.7547     26.1589    153.2669
  1411.1000      8.0414      2.5909      0.1072      3.5813     25.6883    145.6160
  1411.2000      8.0414      2.5721      0.0454      4.7186     25.5139    142.1148
  1411.3000      8.0406      2.5468      0.0193      6.2576     25.5809    143.3466
  1411.4000      8.0406      2.5337      0.0525      7.0509     25.5403    143.7849
  1411.5000      8.0395      2.5310      0.0293      7.2148     25.5672    142.7631
  1411.6000      8.0395      2.5345      0.0140      6.9982     25.8881    143.3241
  1411.7000      8.0395      2.5356      0.0319      6.9316     26.1790    145.2974
  1411.8000      8.0435      2.5223      0.0169      7.7406     26.2618    145.3945
  1411.9000      8.0435      2.5051     -0.0142      8.7821     26.3076    143.5349
  1412.0000      8.0527      2.4974      0.0412      9.2492     26.3380    141.4012
  1412.1000      8.0527      2.4944      0.0080      9.4298     26.1645    138.4868
  1412.2000      8.0527      2.4930      0.0166      9.5171     25.7945    135.0764
  1412.3000      8.0618      2.4938      0.0182      9.4679     25.5915    134.5779
  1412.4000      8.0618      2.5005     -0.0141      9.0604     25.6256    139.4617
  1412.5000      8.0661      2.5202      0.0031      7.8663     25.8007    146.4969
  1412.6000      8.0661      2.5464      0.0446      6.2779     26.0652    148.5329
  1412.7000      8.0661      2.5622      0.0232      5.3204     26.1680    144.5907
  1412.8000      8.0709      2.5627      0.0445      5.2926     26.0020    138.8512
  1412.9000      8.0709      2.5544      0.0057      5.7968     25.8062    133.5648
  1413.0000      8.0788      2.5408     -0.0064      6.6208     25.8365    129.5167
  1413.1000      8.0788      2.5228     -0.0040      7.7082     26.0388    128.2295
  1413.2000      8.0788      2.5090     -0.0172      8.5463     26.1848    130.1352
  1413.3000      8.0844      2.5071     -0.0045      8.6634     25.7904    133.8887
  1413.4000      8.0844      2.5149     -0.0005      8.1853     24.8295    138.0527
  1413.5000      8.0881      2.5285      0.0148      7.3641     24.0811    139.4883
  1413.6000      8.0881      2.5427      0.0249      6.5025     24.0162    133.9495
  1413.7000      8.0881      2.5557     -0.0060      5.7134     24.3913    125.1316
  1413.8000      8.0942      2.5683      0.0302      4.9490     24.8449    122.0632
  1413.9000      8.0942      2.5706      0.0660      4.8118     25.0721    124.6932
  1414.0000      8.0988      2.5596     -0.0091      5.4792     24.8695    123.3262
  1414.1000      8.0988      2.5502     -0.0029      6.0494     24.5033    115.0738
  1414.2000      8.0988      2.5492     -0.0048      6.1086     24.5675    110.3656
  1414.3000      8.0945      2.5564      0.0079      5.6741     24.9874    114.7350
  1414.4000      8.0945      2.5775     -0.0088      4.3924     25.1885    119.7684
  1414.5000      8.0874      2.6047      0.0496      2.7450     25.0690    121.3056
  1414.6000      8.0874      2.6125      0.0636      2.2705     25.0011    123.9634
  1414.7000      8.0874      2.5929      0.0526      3.4617     25.4103    126.0780
  1414.8000      8.0759      2.5674     -0.0015      5.0062     26.2819    124.1033
  1414.9000      8.0759      2.5592     -0.0086      5.5039     26.9766    120.9323
  1415.0000      8.0562      2.5617      0.0694      5.3486     26.8755    119.9452
  1415.1000      8.0562      2.5588     -0.0114      5.5251     26.2406    121.5543
  1415.2000      8.0562      2.5557     -0.0237      5.7164     25.8865    123.9749
  1415.3000      8.0390      2.5605      0.0317      5.4249     26.0143    125.5863
  1415.4000      8.0390      2.5696      0.0121      4.8727     26.0498    124.7793
  1415.5000      8.0339      2.5762      0.0169      4.4721     25.7864    122.6201
  1415.6000      8.0339      2.5746      0.0376      4.5714     25.5953    123.1484
  1415.7000      8.0339      2.5602      0.0172      5.4430     25.6027    126.1559
  1415.8000      8.0350      2.5354      0.0422      6.9434     25.7160    128.6852
  1415.9000      8.0350      2.5182     -0.0745      7.9866     26.0956    132.3375
  1416.0000      8.0349      2.5209      0.0197      7.8260     26.8096    138.1081
  1416.1000      8.0349      2.5236      0.0205      7.6595     27.4700    140.2114
  1416.2000      8.0349      2.5148     -0.0087      8.1943     27.8370    136.1884
  1416.3000      8.0347      2.5097      0.0393      8.5051     27.8738    130.6221
  1416.4000      8.0347      2.5130      0.0362      8.3059     27.5148    129.7559
  1416.5000      8.0352      2.5150      0.0331      8.1840     26.9797    136.4179
  1416.6000      8.0352      2.5158      0.0523      8.1313     26.7417    147.0711
  1416.7000      8.0352      2.5237      0.0317      7.6560     26.8841    154.4914
  1416.8000      8.0347      2.5313      0.0976      7.1914     26.7807    154.2815
  1416.9000      8.0347      2.5272      0.0352      7.4432     26.0185    149.5878
  1417.0000      8.0328      2.5188      0.0530      7.9527     25.1349    145.9429
  1417.1000      8.0328      2.5130      0.0670      8.3013     24.7095    142.1013
  1417.2000      8.0328      2.5084      0.0268      8.5820     24.7933    134.1869
  1417.3000      8.0313      2.5052      0.0214      8.7758     25.0937    123.3721
  1417.4000      8.0313      2.5031      0.0240      8.9035     25.3349    114.4844
  1417.5000      8.0313      2.5045      0.0096      8.8187     25.3203    112.4467
  1417.6000      8.0313      2.5210     -0.0064      7.8171     24.8519    117.2406
  1417.7000      8.0313      2.5470      0.0615      6.2420     24.2454    125.1663
  1417.8000      8.0303      2.5535      0.0707      5.8488     24.0066    130.9433
  1417.9000      8.0303      2.5392     -0.0295      6.7137     24.2047    131.5457
  1418.0000      8.0297      2.5359      0.0177      6.9181     24.7062    130.9608
  1418.1000      8.0297      2.5547      0.0323      5.7769     25.2662    130.2498
  1418.2000      8.0297      2.5818      0.0426      4.1344     25.5924    125.5451
  1418.3000      8.0305      2.6010      0.0710      2.9673     25.6014    120.1297
  1418.4000      8.0305      2.6015      0.0499      2.9369     25.3822    119.6476
  1418.5000      8.0312      2.5854      0.0531      3.9168     25.1925    123.5682
