~Version Information
VERS.                      2.0: CWLS Log ASCII Standard - VERSION 2.0
WRAP.                       NO: One line per depth step
~Well Information Block
STRT.FT               310.0000: 
STOP.FT              2295.5000: 
STEP.FT                 0.1000: 
NULL.                -999.2500: 
COMP.          Pioneer Natural Resources: COMPANY
WELL.               Relay 12-7: WELL
FLD.           Purgatoire River: FIELD
LOC.           1999' FNL & 848' FWL: LOCATION
PROV.                 Colorado: PROVINCE
CNTY.               Las Animas: COUNTRY
SRVC.                Patterson: SERVICE COMPANY
DATE.          Mon Dec 19 07:37:11 2005: LOG DATE
UWI.           05 071 08453 00: UNIQUE WELL ID
~Curve Information Block
DEPT.FT            0 000 00 00: Depth
DCAL.in                       : CDL Caliper
RHOB.g/cc                     : CDL Bulk Density
RHOC.g/cc                     : CDL Density Correction
DPOR.pu                       : CDL Density Porosity
GR.GAPI                       : Gamma Ray
NPOR.pu                       : Neutron Porosity
~Parameter Information Block
~A  Depth       DCAL        RHOB        RHOC        DPOR         GR         NPOR    
# ...
   703.6000      8.0804      2.4464      0.1048     12.3398    116.8130     27.1638
   703.7000      8.0804      2.4773      0.0870     10.4662    110.0739     27.6000
   703.8000      8.0787      2.5150      0.1898      8.1831    106.9815     27.9010
   703.9000      8.0787      2.5303      0.1902      7.2568    107.3473     28.3076
   704.0000      8.0756      2.5247      0.0937      7.5917    109.6941     28.4296
   704.1000      8.0756      2.5249      0.1441      7.5796    112.2246     27.9898
   704.2000      8.0756      2.5381      0.1252      6.7836    116.4123     27.2463
   704.3000      8.0776      2.5577      0.1261      5.5953    122.5328     26.8585
   704.4000      8.0776      2.5726      0.1050      4.6926    124.5800     27.0805
   704.5000      8.0777      2.5679      0.1479      4.9731    120.6739     27.4638
   704.6000      8.0777      2.5510      0.0444      6.0005    115.1633     27.6586
   704.7000      8.0777      2.5406      0.0624      6.6305    112.1263     27.5775
   704.8000      8.0727      2.5327      0.0802      7.1098    114.1441     27.4072
   704.9000      8.0727      2.5203      0.0370      7.8600    117.6257     27.4820
   705.0000      8.0698      2.5097      0.0417      8.5023    118.0703     27.6166
   705.1000      8.0698      2.5021      0.0875      8.9663    119.5309     27.4370
   705.2000      8.0698      2.4964      0.0510      9.3113    126.8174     26.9534
   705.3000      8.0702      2.4940      0.0335      9.4551    135.8415     26.4746
   705.4000      8.0702      2.4929      0.0324      9.5189    138.2924     26.3098
   705.5000      8.0721      2.4939      0.0168      9.4635    133.9553     26.5044
   705.6000      8.0721      2.4943      0.0550      9.4374    130.6547     26.9449
   705.7000      8.0721      2.4868      0.0750      9.8899    128.5881     27.5599
   705.8000      8.0985      2.4723      0.0389     10.7679    124.5783     28.1046
   705.9000      8.0985      2.4599      0.0023     11.5238    122.9617     28.2737
   706.0000      8.1314      2.4557      0.0071     11.7755    129.9586     28.1850
   706.1000      8.1314      2.4626      0.0189     11.3547    143.2736     28.1400
   706.2000      8.1314      2.4800      0.0562     10.3007    149.8726     28.1389
   706.3000      8.1777      2.4976      0.0835      9.2354    145.2169     27.9558
   706.4000      8.1777      2.5084      0.0291      8.5791    138.8953     27.5581
   706.5000      8.1788      2.5150      0.0831      8.1845    136.5228     27.3025
   706.6000      8.1788      2.5139      0.0293      8.2497    135.9344     27.5530
   706.7000      8.1788      2.4968      0.0680      9.2877    132.0733     28.0997
   706.8000      8.1897      2.4621      0.0032     11.3896    126.1449     28.4344
   706.9000      8.1897      2.4272      0.0199     13.5045    124.2588     28.4797
   707.0000      8.1944      2.4197     -0.0573     13.9560    127.6030     28.3561
   707.1000      8.1944      2.4453      0.0551     12.4064    134.7728     28.1292
   707.2000      8.1944      2.4744      0.0484     10.6446    139.9661     28.0581
   707.3000      8.1507      2.4842      0.0525     10.0496    136.6097     28.3138
   707.4000      8.1507      2.4704      0.0543     10.8847    128.7688     28.5137
   707.5000      8.1230      2.4416      0.0066     12.6311    126.3710     28.3030
   707.6000      8.1230      2.4204      0.0164     13.9151    132.1291     28.1243
   707.7000      8.1230      2.4143     -0.0126     14.2835    140.3665     28.4588
   707.8000      8.0964      2.4089      0.0420     14.6150    143.1515     29.0818
   707.9000      8.0964      2.3997      0.0110     15.1700    139.8969     29.5272
   708.0000      8.0971      2.4043      0.0077     14.8918    138.4651     29.6881
   708.1000      8.0971      2.4298      0.0564     13.3460    143.5887     29.8098
   708.2000      8.0971      2.4549      0.1006     11.8223    151.3251     29.8874
   708.3000      8.0884      2.4711      0.0490     10.8407    151.2493     29.5988
   708.4000      8.0884      2.4921      0.1421      9.5671    139.6248     29.1300
   708.5000      8.0848      2.5176      0.1735      8.0215    125.3205     28.9789
   708.6000      8.0848      2.5440      0.1269      6.4256    115.7295     29.0165
   708.7000      8.0848      2.5648      0.1962      5.1665    112.1330     28.8901
   708.8000      8.0841      2.5670      0.1492      5.0277    111.6848     28.6292
   708.9000      8.0841      2.5539      0.1787      5.8230    110.6870     28.1949
   709.0000      8.0807      2.5342      0.1663      7.0190    107.6159     27.2759
   709.1000      8.0807      2.5131      0.1282      8.2985    102.2254     26.2891
   709.2000      8.0807      2.4988      0.0726      9.1619     96.4652     26.1250
   709.3000      8.0772      2.4944      0.0972      9.4296     92.5541     26.5298
   709.4000      8.0772      2.4872      0.0834      9.8660     88.3824     26.5353
   709.5000      8.0808      2.4710      0.0141     10.8487     83.1201     26.0150
   709.6000      8.0808      2.4616      0.0519     11.4176     78.6154     25.5374
   709.7000      8.0808      2.4726      0.0569     10.7494     75.7996     25.1598
   709.8000      8.0772      2.4970      0.0657      9.2705     77.5050     24.5927
   709.9000      8.0772      2.5201      0.0728      7.8746     83.3410     24.0265
   710.0000      8.0767      2.5293      0.1245      7.3149     86.1848     23.7338
   710.1000      8.0767      2.5161      0.0738      8.1136     83.7264     23.5419
   710.2000      8.0767      2.4934      0.0342      9.4880     82.9255     23.4223
   710.3000      8.0803      2.4785      0.0407     10.3936     88.1137     23.5051
   710.4000      8.0803      2.4683      0.0708     11.0123     96.6255     23.6978
   710.5000      8.1085      2.4596      0.0253     11.5400    103.9382     24.1045
   710.6000      8.1085      2.4596     -0.0159     11.5412    109.3215     24.7641
   710.7000      8.1085      2.4676      0.0477     11.0570    113.5821     25.3820
   710.8000      8.1531      2.4659      0.0231     11.1571    115.1966     25.8841
   710.9000      8.1531      2.4459     -0.0343     12.3674    115.1551     26.3874
   711.0000      8.2060      2.4251     -0.0460     13.6279    116.8350     26.8265
   711.1000      8.2060      2.4254     -0.0339     13.6134    121.2824     27.1460
   711.2000      8.2060      2.4496      0.0115     12.1434    128.5536     27.5009
   711.3000      8.1966      2.4805      0.0854     10.2741    137.5201     28.0182
   711.4000      8.1966      2.4977      0.0871      9.2313    143.3360     28.7091
   711.5000      8.1490      2.4999      0.0573      9.0948    143.9946     29.2170
   711.6000      8.1490      2.5027      0.0362      8.9277    143.0962     29.0757
   711.7000      8.1490      2.5135      0.0636      8.2717    142.3766     28.7712
   711.8000      8.1027      2.5174      0.1060      8.0339    139.3840     28.9878
   711.9000      8.1027      2.4975      0.0698      9.2400    134.1482     29.3103
   712.0000      8.0851      2.4617      0.0077     11.4127    130.3111     29.2642
   712.1000      8.0851      2.4253      0.0642     13.6206    127.6332     29.0759
   712.2000      8.0851      2.3889      0.0381     15.8257    122.9957     28.8115
   712.3000      8.0858      2.3472      0.0477     18.3489    118.1331     28.3534
   712.4000      8.0858      2.3068     -0.0142     20.7986    117.2832     27.8636
   712.5000      8.0985      2.2820     -0.0167     22.3015    119.6800     27.4963
   712.6000      8.0985      2.2734      0.0065     22.8231    123.1813     27.1884
   712.7000      8.0985      2.2743      0.0249     22.7727    128.3436     26.8551
   712.8000      8.1140      2.2773      0.0951     22.5885    136.1097     26.3763
   712.9000      8.1140      2.2862      0.0641     22.0494    143.3967     25.8408
   713.0000      8.1032      2.3265      0.2112     19.6069    144.6056     25.5156
   713.1000      8.1032      2.4030      0.3066     14.9723    140.3789     25.1742
