~Version Information
VERS.                      2.0: CWLS Log ASCII Standard - VERSION 2.0
WRAP.                       NO: One line per depth step
~Well Information Block
STRT.FT                -7.5000: 
STOP.FT              1350.7500: 
STEP.FT                 0.2500: 
NULL.                -999.2500: 
COMP.          Pioneer Natural Resources: COMPANY
WELL.            Gamma 13-3 Tr: WELL
FLD.           Purgatorie River: FIELD
LOC.           2127' FSL & 738' FWL: LOCATION
STAT.                       CO: State
CNTY.               Las Animas: COUNTY
CTRY.                      USA: Country
SECT.                        3: Section
TOWN.                      33S: Township
RANG.                      67W: Range
SRVC.          Patterson Wireline: SERVICE COMPANY
DATE.          Fri Sep 23 13:24:40 2005: LOG DATE
API.           05 071 08524 00: API
~Curve Information Block
DEPT.FT            0 000 00 00: Depth
CCL.                          : Casing Collar Locator
TT3.usec                      : CBL 3' Travel Time
AMP3.mV                       : CBL 3' Amplitude
GR.GAPI                       : Gamma Ray
~Parameter Information Block
~A  Depth       CCL         TT3         AMP3         GR     
# ...
   528.5000      0.0000    422.8486      9.8297     85.0818
   528.7500      0.0000    433.4180      9.5912     78.0905
   529.0000     -2.0000    443.0829      9.4591     73.3339
   529.2500      2.0000    452.9969      9.4287     72.1032
   529.5000      0.0000    464.5505      9.4721     74.3697
   529.7500      0.0000    476.6944      9.6004     79.2111
   530.0000      0.0000    484.7461      9.8719     84.9857
   530.2500      0.0000    483.9873     10.3220     89.7023
   530.5000      0.0000    474.5810     10.8639     91.8960
   530.7500      0.0000    460.6312     11.2995     91.2581
   531.0000      0.0000    444.8925     11.4982     88.4849
   531.2500      0.0000    427.6982     11.5291     84.8821
   531.5000      0.0000    410.4930     11.5577     82.1862
   531.7500      0.0000    396.6312     11.6586     82.0056
   532.0000      0.0000    388.5959     11.7861     84.5177
   532.2500      0.0000    386.8824     11.8733     87.7222
   532.5000      0.0000    391.8507     11.8973     88.8298
   532.7500      0.0000    404.5742     11.8727     86.6728
   533.0000      0.0000    423.9266     11.8255     82.3878
   533.2500      0.0000    443.0231     11.7776     77.9661
   533.5000      0.0000    451.5781     11.7391     74.7505
   533.7500      0.0000    444.8112     11.7087     73.0036
   534.0000      0.0000    429.3277     11.6781     72.0757
   534.2500      0.0000    418.7916     11.6399     71.0017
   534.5000      0.0000    424.8593     11.5904     69.3783
   534.7500      0.0000    451.0787     11.5284     67.5860
   535.0000      0.0000    491.1232     11.4513     66.1094
   535.2500      0.0000    532.6769     11.3559     65.0522
   535.5000      0.0000    567.7462     11.2454     64.3691
   535.7500      0.0000    599.8309     11.1343     64.1521
   536.0000      0.0000    637.1088     11.0427     64.5252
   536.2500      0.0000    679.1753     10.9848     65.3862
   536.5000      0.0000    715.3522     10.9611     66.3161
   536.7500      0.0000    736.3027     10.9625     66.8366
   537.0000      0.0000    743.3858     10.9784     66.9627
   537.2500      0.0000    745.3195     10.9993     67.3867
   537.5000      0.0000    748.3354     11.0154     68.7645
   537.7500      0.0000    751.8451     11.0148     70.8267
   538.0000      0.0000    752.3582     10.9866     72.4783
   538.2500      0.0000    748.7386     10.9288     72.8417
   538.5000      0.0000    743.2229     10.8552     72.0395
   538.7500      0.0000    739.1338     10.7882     70.9023
   539.0000      0.0000    738.2588     10.7419     70.0080
   539.2500      0.0000    739.5024     10.7148     69.0462
   539.5000      0.0000    739.8455     10.6986     67.2867
   539.7500      0.0000    737.3598     10.6881     64.7664
   540.0000      0.0000    733.4988     10.6801     62.7445
   540.2500      0.0000    731.9623     10.6689     62.8638
   540.5000      0.0000    735.3325     10.6485     66.0399
   540.7500      0.0000    742.9908     10.6186     71.8121
   541.0000      0.0000    751.6517     10.5846     78.1251
   541.2500      0.0000    757.4034     10.5524     82.0674
   541.5000      0.0000    757.8497     10.5224     81.8433
   541.7500      0.0000    753.4086     10.4891     78.2853
   542.0000      0.0000    746.9340     10.4457     74.1314
   542.2500      0.0000    741.5815     10.3899     71.8478
   542.5000      0.0000    738.4693     10.3258     72.1807
   542.7500      0.0000    736.3946     10.2613     74.4180
   543.0000      0.0000    733.7917     10.2034     77.5106
   543.2500      0.0000    730.5072     10.1563     80.5765
   543.5000      0.0000    727.5361     10.1220     82.6333
   543.7500      0.0000    725.7126     10.1025     82.8139
   544.0000      0.0000    725.1002     10.0984     81.3706
   544.2500      0.0000    725.2404     10.1077     79.7426
   544.5000      0.0000    725.3317     10.1253     79.1199
   544.7500      0.0000    724.0417     10.1435     79.6157
   545.0000      0.0000    719.8411     10.1534     81.1067
   545.2500      0.0000    712.5654     10.1484     83.8188
   545.5000      0.0000    704.5732     10.1297     87.5923
   545.7500      0.0000    699.0553     10.1073     91.5107
   546.0000      0.0000    696.8565     10.0944     94.8909
   546.2500      0.0000    696.2451     10.0993     98.0334
   546.5000      0.0000    696.0130     10.1221    101.3785
   546.7500      0.0000    697.2320     10.1559    104.2258
   547.0000      0.0000    701.3745     10.1911    105.0037
   547.2500      0.0000    707.9272     10.2192    102.9559
   547.5000      0.0000    714.6594     10.2374     99.1408
   547.7500      0.0000    719.6802     10.2478     95.5628
   548.0000      0.0000    722.6994     10.2525     93.6021
   548.2500      0.0000    724.5842     10.2513     93.5053
   548.5000      0.0000    725.9250     10.2461     95.0566
   548.7500      0.0000    725.2787     10.2428     98.1078
   549.0000      0.0000    718.2051     10.2484    102.1496
   549.2500      0.0000    699.4789     10.2646    105.8736
   549.5000      0.0000    668.9985     10.2849    107.8582
   549.7500      0.0000    635.9205     10.2917    107.7631
   550.0000      0.0000    614.2089     10.2537    106.3607
   550.2500      0.0000    612.0783     10.1339    104.2041
   550.5000      0.0000    626.1720      9.9139    100.7085
   550.7500      0.0000    646.0471      9.6179     94.9507
   551.0000      0.0000    663.0496      9.3094     87.1464
   551.2500      0.0000    675.0797      9.0584     79.0381
   551.5000      0.0000    685.0239      8.9042     72.8443
   551.7500      0.0000    695.9730      8.8465     69.8098
   552.0000      0.0000    707.2655      8.8637     69.6147
   552.2500      0.0000    714.4814      8.9359     71.1520
   552.5000      0.0000    713.6985      9.0495     73.7838
   552.7500      0.0000    705.6891      9.1866     77.7287
   553.0000      0.0000    695.4089      9.3214     83.3757
   553.2500      0.0000    687.9238      9.4369     90.6279
   553.5000      0.0000    685.6252      9.5420     98.9100
   553.7500      0.0000    688.3716      9.6698    107.4117
   554.0000      0.0000    694.6177      9.8497    115.1433
   554.2500      0.0000    702.4106     10.0781    121.0572
   554.5000      0.0000    710.4369     10.3170    124.4359
   554.7500      0.0000    718.3373     10.5268    125.2809
   555.0000      0.0000    725.5906     10.6978    124.3813
   555.2500      0.0000    730.6373     10.8449    122.9856
   555.5000      0.0000    731.9208     10.9783    122.1859
   555.7500      0.0000    729.2918     11.0905    122.3534
   556.0000      0.0000    723.7375     11.1685    123.0335
   556.2500      0.0000    716.3856     11.2090    123.3534
   556.5000      0.0000    708.5607     11.2181    122.4992
   556.7500      0.0000    702.2896     11.2050    119.9176
   557.0000      0.0000    699.7394     11.1818    115.4793
   557.2500      0.0000    701.8176     11.1656    109.9391
   557.5000      0.0000    707.3927     11.1725    105.2800
   557.7500      0.0000    713.9691     11.2077    104.0431
   558.0000      0.0000    719.2983     11.2624    107.4854
   558.2500      0.0000    722.5399     11.3206    113.9537
   558.5000      0.0000    724.1660     11.3699    119.5079
   558.7500      0.0000    725.2257     11.4047    120.9559
   559.0000      0.0000    726.9163     11.4240    118.5843
   559.2500      0.0000    730.4812     11.4282    115.5514
   559.5000      0.0000    736.7983     11.4193    114.5394
   559.7500      0.0000    745.4650     11.4034    115.5835
   560.0000      0.0000    754.2475     11.3927    117.2321
   560.2500      0.0000    759.8652     11.4028    118.8443
   560.5000      0.0000    759.9007     11.4440    121.1320
   560.7500      0.0000    754.3892     11.5124    124.9359
   561.0000      0.0000    745.8170     11.5907    130.0895
   561.2500      0.0000    737.4888     11.6582    135.2670
   561.5000      0.0000    731.5502     11.7004    138.4571
   561.7500      0.0000    728.2420     11.7126    137.8159
