~Version Information
VERS.                      2.0: CWLS Log ASCII Standard - VERSION 2.0
WRAP.                       NO: One line per depth step
~Well Information Block
STRT.FT               295.7500: 
STOP.FT              1461.0000: 
STEP.FT                 0.2500: 
NULL.                -999.2500: 
COMP.          Pioneer Natural Resources: COMPANY
WELL.              Lucky 21-36: WELL
FLD.           Purgatoire River: FIELD
LOC.           799' FNL & 1578' FWL--: LOCATION
CDN. :
PROV. :
UWI. :
STAT. :
CNTY. :
CTRY. :
API. :
COMP. :
WELL. :
FLD. :
LOC. :
DATE. :
SRVC. :
CNTY.               Las Animas: COUNTY
SRVC.          Superior Well Services: SERVICE COMPANY
DATE.          Mon Jul 07 19-13-01 2008: LOG DATE
UWI.           05 071 08456 00: UNIQUE WELL ID
STAT.                 Colorado: STATE
~Curve Information Block
DEPT.FT            0 000 00 00: Depth
SN.Ohm-m                      : IEL Short Normal
SP.mV                         : IEL Spontaneous Potential
DIR.Ohm-m                     : IEL Induction Resistivity
GR.GAPI                       : Gamma Ray
~Parameter Information Block
~A  Depth        SN          SP         DIR          GR     
# ...
  1300.7500     37.7667     36.7690     25.5500     95.2362
  1301.0000     37.8118     35.3849     26.0101     91.1408
  1301.2500     37.5587     34.0623     26.6261     82.2068
  1301.5000     37.1890     32.8138     27.3690     76.1027
  1301.7500     37.2034     31.6527     28.2321     70.3569
  1302.0000     38.1022     30.5922     29.2209     70.2881
  1302.2500     40.1084     29.6443     30.3317     76.0549
  1302.5000     42.6302     28.8185     31.5208     82.6602
  1302.7500     44.4819     28.1207     32.6821     93.6646
  1303.0000     44.9541     27.5521     33.6545    100.0857
  1303.2500     44.2839     27.1093     34.2714    106.6020
  1303.5000     43.1496     26.7838     34.4283    108.5016
  1303.7500     41.9595     26.5630     34.1170    107.8928
  1304.0000     40.7612     26.4313     33.4105    105.7375
  1304.2500     39.5053     26.3706     32.4278    101.3988
  1304.5000     38.2099     26.3624     31.3058     98.6421
  1304.7500     36.9900     26.3888     30.1767     95.4691
  1305.0000     35.9459     26.4339     29.1460     93.8978
  1305.2500     34.9933     26.4848     28.2797     91.6337
  1305.5000     34.0888     26.5327     27.6043     89.7842
  1305.7500     33.3020     26.5734     27.1159     86.4453
  1306.0000     32.6492     26.6076     26.7904     84.2486
  1306.2500     32.1705     26.6404     26.5932     81.9129
  1306.5000     31.8825     26.6816     26.4881     81.3270
  1306.7500     31.6601     26.7442     26.4412     81.9166
  1307.0000     31.4247     26.8438     26.4189     82.9624
  1307.2500     31.1540     26.9968     26.3880     84.5937
  1307.5000     30.8513     27.2193     26.3264     85.4032
  1307.7500     30.5526     27.5250     26.2361     86.7725
  1308.0000     30.2657     27.9240     26.1404     88.5259
  1308.2500     30.0385     28.4216     26.0658     92.9805
  1308.5000     29.9468     29.0172     26.0243     96.7624
  1308.7500     29.9553     29.7045     26.0103    102.7232
  1309.0000     29.9441     30.4717     26.0075    106.8093
  1309.2500     29.9001     31.3029     25.9961    113.3024
  1309.5000     29.8677     32.1804     25.9579    117.5126
  1309.7500     29.7697     33.0868     25.8832    122.2253
  1310.0000     29.5437     34.0074     25.7775    123.7878
  1310.2500     29.2740     34.9329     25.6622    124.6920
  1310.5000     29.0417     35.8602     25.5664    125.8734
  1310.7500     28.8919     36.7933     25.5154    131.2512
  1311.0000     28.8928     37.7423     25.5242    137.6744
  1311.2500     29.0502     38.7214     25.6019    149.2296
  1311.5000     29.2933     39.7458     25.7601    155.7652
  1311.7500     29.6629     40.8279     26.0165    160.5655
  1312.0000     30.1999     41.9732     26.3917    160.1489
  1312.2500     30.8120     43.1775     26.9020    156.0377
  1312.5000     31.4435     44.4257     27.5574    152.3711
  1312.7500     32.1044     45.6920     28.3614    146.4025
  1313.0000     32.7816     46.9431     29.3053    141.6852
  1313.2500     33.4596     48.1427     30.3621    132.5366
  1313.5000     34.1574     49.2565     31.4908    125.1132
  1313.7500     34.8809     50.2574     32.6530    113.3736
  1314.0000     35.6065     51.1280     33.8244    106.3444
  1314.2500     36.3540     51.8617     34.9821     98.8605
  1314.5000     37.1656     52.4611     36.0799     96.4136
  1314.7500     37.9849     52.9344     37.0369     96.1097
  1315.0000     38.7348     53.2919     37.7531     97.4820
  1315.2500     39.2166     53.5430     38.1372    100.7238
  1315.5000     39.2809     53.6953     38.1292    102.8632
  1315.7500     38.9514     53.7548     37.7169    104.2514
  1316.0000     38.3173     53.7281     36.9478    103.1077
  1316.2500     37.3898     53.6247     35.9265     98.3631
  1316.5000     36.2576     53.4584     34.7880     94.2736
  1316.7500     35.1331     53.2481     33.6607     89.2644
  1317.0000     34.1026     53.0160     32.6392     87.5428
  1317.2500     33.2129     52.7854     31.7753     86.9376
  1317.5000     32.5680     52.5778     31.0809     86.8410
  1317.7500     32.1608     52.4100     30.5408     85.7525
  1318.0000     31.8409     52.2926     30.1289     84.3361
  1318.2500     31.5312     52.2297     29.8225     81.9763
  1318.5000     31.2247     52.2197     29.6044     80.5671
  1318.7500     30.9141     52.2565     29.4569     78.4739
  1319.0000     30.6783     52.3315     29.3570     76.9296
  1319.2500     30.5019     52.4353     29.2787     74.9528
  1319.5000     30.3239     52.5590     29.2005     74.5346
  1319.7500     30.1620     52.6945     29.1113     75.8199
  1320.0000     30.0280     52.8352     29.0099     77.5576
  1320.2500     29.9273     52.9749     28.9008     80.2186
  1320.5000     29.8984     53.1082     28.7889     81.6398
  1320.7500     29.8929     53.2296     28.6778     83.5541
  1321.0000     29.8565     53.3332     28.5726     84.9744
  1321.2500     29.8159     53.4136     28.4820     87.1412
  1321.5000     29.8275     53.4658     28.4176     88.1705
  1321.7500     29.8514     53.4865     28.3911     88.4105
  1322.0000     29.8647     53.4753     28.4142     87.5730
  1322.2500     29.9193     53.4352     28.4971     85.1834
  1322.5000     30.0120     53.3734     28.6424     83.3247
  1322.7500     30.1092     53.3014     28.8384     80.9881
  1323.0000     30.2285     53.2343     29.0626     79.8905
  1323.2500     30.4639     53.1894     29.2964     78.5017
  1323.5000     30.8065     53.1842     29.5419     77.5200
  1323.7500     31.2192     53.2350     29.8227     76.4899
  1324.0000     31.7214     53.3545     30.1689     76.7932
  1324.2500     32.2460     53.5499     30.6000     79.2896
  1324.5000     32.8082     53.8228     31.1193     81.8485
  1324.7500     33.4277     54.1680     31.7160     85.3963
  1325.0000     34.0904     54.5746     32.3691     86.7234
  1325.2500     34.7286     55.0267     33.0529     86.5860
  1325.5000     35.3474     55.5058     33.7505     85.2793
  1325.7500     35.9443     55.9919     34.4651     82.4274
  1326.0000     36.4612     56.4663     35.2110     80.5682
  1326.2500     36.9323     56.9126     35.9826     78.6748
  1326.5000     37.3581     57.3183     36.7284     78.2260
  1326.7500     37.7388     57.6753     37.3596     78.7334
  1327.0000     38.1170     57.9798     37.7959     79.6947
  1327.2500     38.5018     58.2319     38.0154     81.7468
  1327.5000     38.8893     58.4343     38.0679     83.3776
  1327.7500     39.1671     58.5918     38.0421     85.9990
  1328.0000     39.2234     58.7095     38.0141     87.7055
  1328.2500     39.0565     58.7927     38.0144     90.1470
  1328.5000     38.7705     58.8457     38.0247     91.9410
  1328.7500     38.4853     58.8718     38.0003     95.3867
  1329.0000     38.2061     58.8732     37.9004     98.0228
  1329.2500     37.8619     58.8515     37.7102    101.1264
  1329.5000     37.4944     58.8071     37.4444    101.6780
  1329.7500     37.1549     58.7406     37.1351     99.4780
  1330.0000     36.8627     58.6518     36.8185     96.3187
  1330.2500     36.6285     58.5409     36.5267     90.6529
  1330.5000     36.4226     58.4077     36.2824     87.4380
  1330.7500     36.2459     58.2526     36.0924     84.9241
  1331.0000     36.1520     58.0756     35.9459     84.8633
  1331.2500     36.1284     57.8773     35.8220     86.0452
  1331.5000     36.1038     57.6582     35.7005     86.8916
  1331.7500     36.0229     57.4191     35.5602     87.9058
  1332.0000     35.8806     57.1608     35.3719     88.7067
  1332.2500     35.6817     56.8847     35.1028     90.1186
  1332.5000     35.4745     56.5923     34.7384     90.6460
  1332.7500     35.2698     56.2852     34.2970     90.0212
  1333.0000     34.9737     55.9655     33.8182     88.9151
  1333.2500     34.5835     55.6349     33.3343     87.5427
  1333.5000     34.1063     55.2952     32.8585     87.4879
  1333.7500     33.5187     54.9482     32.3971     89.0716
  1334.0000     32.8741     54.5954     31.9678     91.0157
