~Version Information
VERS.                      2.0: CWLS Log ASCII Standard - VERSION 2.0
WRAP.                       NO: One line per depth step
~Well Information Block
STRT.FT               595.7000: 
STOP.FT              1567.2000: 
STEP.FT                 0.1000: 
NULL.                -999.2500: 
COMP.          Pioneer Natural Resources: COMPANY
WELL.           Butch 33-10 Tr: WELL
FLD.           Purgatoire River: FIELD
LOC.           2309' FSL & 1337' FEL--: LOCATION
PROV.                 Colorado: PROVINCE
CNTY.               Las Animas: COUNTRY
SRVC.                Patterson: SERVICE COMPANY
DATE.          Mon Jan 16 07:34:05 2006: LOG DATE
UWI.           05 071 08649 00: UNIQUE WELL ID
~Curve Information Block
DEPT.FT            0 000 00 00: Depth
DCAL.in                       : CDL Caliper
RHOB.g/cc                     : CDL Bulk Density
RHOC.g/cc                     : CDL Density Correction
DPOR.pu                       : CDL Density Porosity
GR.GAPI                       : Gamma Ray
~Parameter Information Block
~A  Depth       DCAL        RHOB        RHOC        DPOR         GR     
# ...
  1166.9000      8.0279      2.5279      0.0058      7.4029     95.5887
  1167.0000      8.0298      2.5351      0.0223      6.9656     99.0660
  1167.1000      8.0298      2.5464      0.0366      6.2783    103.5337
  1167.2000      8.0298      2.5548      0.0721      5.7682    108.7074
  1167.3000      8.0249      2.5646      0.0613      5.1763    109.5460
  1167.4000      8.0249      2.5778      0.0757      4.3764    101.6379
  1167.5000      8.0185      2.5867      0.0723      3.8393     91.3410
  1167.6000      8.0185      2.5872      0.0853      3.8091     84.4657
  1167.7000      8.0185      2.5828      0.0941      4.0731     80.3284
  1167.8000      8.0128      2.5784      0.0490      4.3404     79.0761
  1167.9000      8.0128      2.5776      0.0630      4.3876     79.4718
  1168.0000      8.0030      2.5777      0.0608      4.3837     81.3139
  1168.1000      8.0030      2.5792      0.0509      4.2912     88.7271
  1168.2000      8.0030      2.5876      0.0754      3.7792    101.8902
  1168.3000      7.9982      2.6006      0.1050      2.9958    113.9652
  1168.4000      7.9982      2.6109      0.0549      2.3713    118.1349
  1168.5000      7.9995      2.6085      0.0640      2.5147    113.8746
  1168.6000      7.9995      2.5850      0.0478      3.9405    104.8081
  1168.7000      7.9995      2.5530      0.0188      5.8779     96.9950
  1168.8000      7.9999      2.5322      0.0414      7.1385     95.6536
  1168.9000      7.9999      2.5274      0.0304      7.4306     99.4146
  1169.0000      7.9977      2.5390      0.0462      6.7261    100.6410
  1169.1000      7.9977      2.5585      0.0874      5.5466     94.4135
  1169.2000      7.9977      2.5662      0.0620      5.0780     86.2140
  1169.3000      7.9958      2.5572      0.0773      5.6230     82.2054
  1169.4000      7.9958      2.5413      0.0808      6.5872     82.4914
  1169.5000      7.9963      2.5290      0.0555      7.3326     83.6194
  1169.6000      7.9963      2.5305      0.0309      7.2402     82.7729
  1169.7000      7.9963      2.5563      0.0462      5.6763     80.9381
  1169.8000      7.9987      2.6003      0.1173      3.0125     80.4556
  1169.9000      7.9987      2.6302      0.1361      1.1986     79.0416
  1170.0000      8.0020      2.6251      0.0716      1.5108     72.4416
  1170.1000      8.0020      2.6023      0.0535      2.8912     63.9169
  1170.2000      8.0020      2.5900      0.0539      3.6372     58.8708
  1170.3000      8.0043      2.5936      0.0541      3.4159     58.4604
  1170.4000      8.0043      2.5978      0.0767      3.1666     61.6098
  1170.5000      8.0048      2.5887      0.0672      3.7124     64.5889
  1170.6000      8.0048      2.5714      0.0073      4.7611     65.1433
  1170.7000      8.0048      2.5610      0.0422      5.3931     67.0046
  1170.8000      8.0053      2.5616      0.0098      5.3573     70.7682
  1170.9000      8.0053      2.5598      0.0516      5.4682     71.4416
  1171.0000      8.0109      2.5465     -0.0117      6.2711     66.5665
  1171.1000      8.0109      2.5303      0.0223      7.2531     60.0750
  1171.2000      8.0109      2.5128      0.0507      8.3175     56.9924
  1171.3000      8.0197      2.4941      0.0280      9.4471     54.3213
  1171.4000      8.0197      2.4854      0.0382      9.9747     47.3260
  1171.5000      8.0243      2.4883      0.0395      9.7991     39.7870
  1171.6000      8.0243      2.4943      0.0177      9.4351     38.4086
  1171.7000      8.0243      2.4956      0.0336      9.3556     43.7405
  1171.8000      8.0251      2.4896      0.0276      9.7203     50.5317
  1171.9000      8.0251      2.4867      0.0326      9.8976     54.9240
  1172.0000      8.0254      2.4951      0.0403      9.3866     56.5364
  1172.1000      8.0254      2.5018      0.0841      8.9832     56.5145
  1172.2000      8.0254      2.4943      0.0080      9.4349     55.4148
  1172.3000      8.0256      2.4794      0.0296     10.3408     53.1197
  1172.4000      8.0256      2.4667      0.0227     11.1090     52.8239
  1172.5000      8.0249      2.4619      0.0233     11.4022     54.2527
  1172.6000      8.0249      2.4643      0.0394     11.2523     53.5870
  1172.7000      8.0249      2.4722      0.0478     10.7779     53.6431
  1172.8000      8.0231      2.4850      0.0512     10.0015     56.8395
  1172.9000      8.0231      2.4969      0.0834      9.2778     58.7714
  1173.0000      8.0183      2.4978      0.0899      9.2241     56.7282
  1173.1000      8.0183      2.4929      0.0505      9.5195     51.6074
  1173.2000      8.0183      2.5005      0.0522      9.0584     46.8692
  1173.3000      8.0137      2.5195      0.0914      7.9108     45.3559
  1173.4000      8.0137      2.5355      0.0639      6.9379     46.7836
  1173.5000      8.0097      2.5443      0.0930      6.4067     51.1303
  1173.6000      8.0097      2.5466      0.0840      6.2666     58.6985
  1173.7000      8.0097      2.5467      0.0705      6.2627     64.9141
  1173.8000      8.0048      2.5422      0.0876      6.5309     65.5270
  1173.9000      8.0048      2.5240      0.0775      7.6360     62.5624
  1174.0000      8.0026      2.4979      0.0615      9.2162     59.9312
  1174.1000      8.0026      2.4843      0.0175     10.0403     58.7157
  1174.2000      8.0026      2.4906      0.0535      9.6586     60.6932
  1174.3000      8.0016      2.5056      0.0244      8.7536     66.7850
  1174.4000      8.0016      2.5187      0.0653      7.9548     72.8374
  1174.5000      8.0002      2.5295      0.0487      7.3013     77.6138
  1174.6000      8.0002      2.5430      0.0547      6.4860     81.1255
  1174.7000      8.0002      2.5533      0.0737      5.8588     81.3946
  1174.8000      8.0007      2.5516      0.0362      5.9609     77.8133
  1174.9000      8.0007      2.5443      0.0665      6.4032     71.9943
  1175.0000      8.0030      2.5336      0.0785      7.0544     67.6624
  1175.1000      8.0030      2.5116      0.0575      8.3855     66.9701
  1175.2000      8.0030      2.4829      0.0339     10.1293     68.5300
  1175.3000      8.0050      2.4638     -0.0172     11.2840     69.7614
  1175.4000      8.0050      2.4596      0.0363     11.5381     67.5630
  1175.5000      8.0058      2.4642     -0.0071     11.2617     61.9452
  1175.6000      8.0058      2.4743      0.0079     10.6489     57.4386
  1175.7000      8.0058      2.4799      0.0520     10.3120     54.6604
  1175.8000      8.0072      2.4762      0.0336     10.5330     51.3767
  1175.9000      8.0072      2.4760      0.0535     10.5452     49.8662
  1176.0000      8.0133      2.4818      0.0355     10.1965     49.5262
  1176.1000      8.0133      2.4818      0.0734     10.1950     47.4027
  1176.2000      8.0133      2.4792      0.0126     10.3512     45.7872
  1176.3000      8.0216      2.4865      0.0383      9.9092     45.7887
  1176.4000      8.0216      2.4919      0.0967      9.5821     44.9390
  1176.5000      8.0249      2.4817      0.0315     10.1994     41.9904
  1176.6000      8.0249      2.4679      0.0432     11.0342     39.2695
  1176.7000      8.0249      2.4604      0.0415     11.4918     39.5227
  1176.8000      8.0213      2.4572      0.0190     11.6822     39.5998
  1176.9000      8.0213      2.4609      0.0203     11.4621     36.4359
  1177.0000      8.0154      2.4709      0.0636     10.8571     33.0131
  1177.1000      8.0154      2.4728      0.0682     10.7419     31.4595
  1177.2000      8.0154      2.4575      0.0575     11.6643     32.7248
  1177.3000      8.0133      2.4373      0.0337     12.8900     37.4309
  1177.4000      8.0133      2.4300      0.0379     13.3308     42.2554
  1177.5000      8.0137      2.4462      0.0204     12.3513     43.2360
  1177.6000      8.0137      2.4809      0.0698     10.2472     40.6542
  1177.7000      8.0137      2.5120      0.0924      8.3658     37.8260
  1177.8000      8.0106      2.5249      0.0844      7.5828     37.5834
  1177.9000      8.0106      2.5260      0.1003      7.5124     39.4563
  1178.0000      8.0061      2.5250      0.0748      7.5767     41.2744
