~Version Information
VERS.                      2.0: CWLS Log ASCII Standard - VERSION 2.0
WRAP.                       NO: One line per depth step
~Well Information Block
STRT.FT               240.0000: 
STOP.FT              1185.5000: 
STEP.FT                 0.2500: 
NULL.                -999.2500: 
COMP.          Pioneer Natural Resources: COMPANY
WELL.          Whitecoat 14-36: WELL
FLD.           Purgatorie River: FIELD
LOC.           606' FSL & 260' FWL: LOCATION
PROV.                 Colorado: PROVINCE
CNTY.               Las Animas: COUNTRY
SRVC.                Patterson: SERVICE COMPANY
DATE.          Mon Dec 05 16:51:12 2005: LOG DATE
UWI.                          : UNIQUE WELL ID
~Curve Information Block
DEPT.FT            0 000 00 00: Depth
DIR.Ohm-m                     : IEL Induction Resistivity
GR.GAPI                       : Gamma Ray
~Parameter Information Block
~A  Depth       DIR          GR     
# ...
   463.0000     24.0876    132.6262
   463.2500     23.9008    132.8266
   463.5000     23.6236    132.3897
   463.7500     23.2159    131.4803
   464.0000     22.6764    129.2868
   464.2500     22.0711    127.4839
   464.5000     21.4828    124.8056
   464.7500     20.9418    123.2687
   465.0000     20.4126    121.2264
   465.2500     19.8401    119.7869
   465.5000     19.2049    117.3747
   465.7500     18.5339    115.7741
   466.0000     17.8693    113.7247
   466.2500     17.2350    112.7674
   466.5000     16.6270    112.6492
   466.7500     16.0272    114.1570
   467.0000     15.4255    119.7012
   467.2500     14.8324    125.3732
   467.5000     14.2740    135.1952
   467.7500     13.7762    141.5202
   468.0000     13.3513    149.6475
   468.2500     12.9987    154.0744
   468.5000     12.7116    159.2142
   468.7500     12.4831    161.5188
   469.0000     12.3060    163.3524
   469.2500     12.1704    163.9143
   469.5000     12.0639    164.6669
   469.7500     11.9745    165.2388
   470.0000     11.8936    165.6158
   470.2500     11.8167    165.2100
   470.5000     11.7417    163.8903
   470.7500     11.6661    163.1141
   471.0000     11.5843    163.0163
   471.2500     11.4870    163.8091
   471.5000     11.3652    165.7066
   471.7500     11.2150    166.7787
   472.0000     11.0417    167.2254
   472.2500     10.8584    166.8210
   472.5000     10.6840    166.1280
   472.7500     10.5403    166.1387
   473.0000     10.4488    167.0229
   473.2500     10.4254    167.8866
   473.5000     10.4747    168.8061
   473.7500     10.5888    168.8029
   474.0000     10.7501    167.9203
   474.2500     10.9360    167.3072
   474.5000     11.1259    167.7065
   474.7500     11.3071    169.2860
   475.0000     11.4813    173.0119
   475.2500     11.6639    175.3376
   475.5000     11.8740    176.4447
   475.7500     12.1200    174.6705
   476.0000     12.3959    167.6812
   476.2500     12.6933    160.3876
   476.5000     13.0197    146.8021
   476.7500     13.4033    137.2580
   477.0000     13.8736    124.9849
   477.2500     14.4324    119.5772
   477.5000     15.0351    116.5377
   477.7500     15.6024    117.4467
   478.0000     16.0590    121.6552
   478.2500     16.3714    125.4507
   478.5000     16.5571    131.2277
   478.7500     16.6659    134.3910
   479.0000     16.7570    137.3006
   479.2500     16.8810    138.0556
   479.5000     17.0650    138.2973
   479.7500     17.2995    138.5679
   480.0000     17.5396    140.0346
   480.2500     17.7215    141.8344
   480.5000     17.7914    145.1724
   480.7500     17.7267    147.1728
   481.0000     17.5418    148.6622
   481.2500     17.2759    148.1199
   481.5000     16.9707    144.6256
   481.7500     16.6527    140.6907
   482.0000     16.3296    133.3093
   482.2500     16.0049    128.1436
   482.5000     15.6945    121.4328
   482.7500     15.4276    118.5165
   483.0000     15.2297    117.8974
   483.2500     15.1030    120.5727
   483.5000     15.0214    129.2769
   483.7500     14.9463    137.4691
   484.0000     14.8529    150.8197
   484.2500     14.7453    158.6605
   484.5000     14.6485    166.5805
   484.7500     14.5846    168.9704
   485.0000     14.5537    169.2844
   485.2500     14.5346    168.3041
   485.5000     14.4998    166.0426
   485.7500     14.4332    163.8131
   486.0000     14.3369    158.3243
   486.2500     14.2297    152.9073
   486.5000     14.1424    142.8661
   486.7500     14.1126    135.9116
   487.0000     14.1744    127.0621
   487.2500     14.3435    123.1315
   487.5000     14.6068    120.9991
   487.7500     14.9243    122.1423
   488.0000     15.2487    127.2618
   488.2500     15.5496    132.3892
   488.5000     15.8231    141.2826
   488.7500     16.0801    147.1924
   489.0000     16.3262    154.9674
   489.2500     16.5594    158.9549
   489.5000     16.7863    162.2124
   489.7500     17.0407    161.9711
   490.0000     17.3794    157.4930
   490.2500     17.8590    152.0888
   490.5000     18.5100    141.8387
   490.7500     19.3274    134.6120
   491.0000     20.2754    124.6401
   491.2500     21.2899    119.1113
   491.5000     22.2705    113.0211
   491.7500     23.0899    110.6465
   492.0000     23.6534    109.8911
   492.2500     23.9800    111.2504
   492.5000     24.2070    115.4338
   492.7500     24.4976    118.7699
   493.0000     24.9338    122.4241
   493.2500     25.4687    122.8467
   493.5000     25.9464    120.1326
   493.7500     26.1826    117.0404
   494.0000     26.0831    112.9342
   494.2500     25.7156    111.5492
   494.5000     25.2589    111.6047
   494.7500     24.8745    112.4062
   495.0000     24.6213    113.6094
   495.2500     24.4687    114.3448
   495.5000     24.3694    116.3696
   495.7500     24.3181    119.0398
   496.0000     24.3422    125.3903
   496.2500     24.4445    130.8124
   496.5000     24.5664    139.5120
   496.7500     24.6136    144.8356
   497.0000     24.5300    150.4964
   497.2500     24.3512    151.7728
   497.5000     24.1795    148.8159
   497.7500     24.1047    143.6486
   498.0000     24.1392    132.7908
   498.2500     24.2092    125.0749
   498.5000     24.2071    115.2859
   498.7500     24.0651    110.7529
   499.0000     23.7864    107.0995
   499.2500     23.4045    106.3775
   499.5000     22.9247    106.8550
   499.7500     22.3225    107.6927
   500.0000     21.6042    109.3225
   500.2500     20.8521    110.5861
   500.5000     20.1921    112.3967
   500.7500     19.7186    113.2674
   501.0000     19.4447    114.1109
   501.2500     19.3052    114.7579
   501.5000     19.1960    116.5200
   501.7500     19.0236    118.3701
   502.0000     18.7400    122.2721
   502.2500     18.3505    125.8341
   502.5000     17.8955    133.0877
   502.7500     17.4257    139.2017
   503.0000     16.9827    149.2983
   503.2500     16.5932    155.5506
   503.5000     16.2743    162.3417
   503.7500     16.0402    164.6284
   504.0000     15.9006    165.0992
   504.2500     15.8521    164.0455
   504.5000     15.8749    161.2248
   504.7500     15.9431    158.7524
   505.0000     16.0392    154.4850
   505.2500     16.1585    151.5322
   505.5000     16.2969    147.3681
   505.7500     16.4367    144.8607
   506.0000     16.5448    141.3769
   506.2500     16.5907    139.2040
   506.5000     16.5661    136.5325
   506.7500     16.4901    135.4939
   507.0000     16.3899    135.3784
   507.2500     16.2775    136.2354
   507.5000     16.1455    138.7509
   507.7500     15.9869    141.0914
   508.0000     15.8118    145.0645
   508.2500     15.6402    147.6192
   508.5000     15.4795    150.7439
   508.7500     15.3147    152.0871
   509.0000     15.1236    152.5207
   509.2500     14.8953    151.6301
   509.5000     14.6324    148.9784
   509.7500     14.3371    146.8512
   510.0000     14.0011    143.6307
   510.2500     13.6106    141.3738
   510.5000     13.1624    137.7583
   510.7500     12.6770    135.7068
   511.0000     12.1955    134.8569
   511.2500     11.7621    136.5881
   511.5000     11.4054    142.7149
   511.7500     11.1293    148.4084
   512.0000     10.9193    157.3108
   512.2500     10.7564    162.2791
   512.5000     10.6286    167.1806
   512.7500     10.5329    169.0478
   513.0000     10.4707    171.3339
   513.2500     10.4426    173.1802
   513.5000     10.4476    176.0151
   513.7500     10.4832    177.1230
   514.0000     10.5462    176.7771
   514.2500     10.6332    175.4876
   514.5000     10.7425    173.0346
   514.7500     10.8770    171.3643
   515.0000     11.0456    168.4422
   515.2500     11.2619    165.8104
   515.5000     11.5393    160.4922
   515.7500     11.8860    156.2004
   516.0000     12.2997    149.5223
   516.2500     12.7614    145.6214
   516.5000     13.2332    141.6548
   516.7500     13.6669    140.5224
   517.0000     14.0261    140.8144
   517.2500     14.3078    141.9595
   517.5000     14.5388    144.5322
   517.7500     14.7499    146.5634
   518.0000     14.9507    149.5447
   518.2500     15.1246    151.0477
   518.5000     15.2448    151.8726
