~Version Information
VERS.                      2.0: CWLS Log ASCII Standard - VERSION 2.0
WRAP.                       NO: One line per depth step
~Well Information Block
STRT.FT               330.0000: 
STOP.FT              1972.5000: 
STEP.FT                 0.1000: 
NULL.                -999.2500: 
COMP.          Pioneer Natural Resources: COMPANY
WELL.           Willys 32-8 Tr: WELL
FLD.           Purgatoire River: FIELD
LOC.           1843' FNL & 2355' FEL: LOCATION
CNTY.               Las Animas: COUNTY
SRVC.                Patterson: SERVICE COMPANY
DATE.          Thu Feb 09 10:31:59 2006: LOG DATE
UWI.           05 071 08688 00: UNIQUE WELL ID
STAT.                 Colorado: STATE
~Curve Information Block
DEPT.FT            0 000 00 00: Depth
DCAL.in                       : CDL Caliper
RHOB.g/cc                     : CDL Bulk Density
RHOC.g/cc                     : CDL Density Correction
DPOR.pu                       : CDL Density Porosity
GR.GAPI                       : Gamma Ray
~Parameter Information Block
~A  Depth       DCAL        RHOB        RHOC        DPOR         GR     
# ...
  1853.2000      7.7893      2.6762      0.1081     -1.5909     93.4035
  1853.3000      7.7930      2.6565      0.1378     -0.3914     93.7789
  1853.4000      7.7930      2.6268      0.1218      1.4091     96.4154
  1853.5000      7.7954      2.5887      0.0609      3.7128    101.7786
  1853.6000      7.7954      2.5560      0.0456      5.6995    104.6870
  1853.7000      7.7954      2.5407     -0.0055      6.6269    105.8164
  1853.8000      7.8239      2.5414      0.0721      6.5834    109.8391
  1853.9000      7.8239      2.5480      0.0669      6.1836    115.2793
  1854.0000      7.8655      2.5526      0.0874      5.9005    117.9120
  1854.1000      7.8655      2.5577      0.0487      5.5933    119.8348
  1854.2000      7.8655      2.5737      0.0505      4.6241    123.0328
  1854.3000      7.8644      2.5948      0.0783      3.3478    124.1006
  1854.4000      7.8644      2.6101      0.0597      2.4153    121.4097
  1854.5000      7.8645      2.6249      0.1222      1.5232    116.4535
  1854.6000      7.8645      2.6361      0.1615      0.8445    112.2046
  1854.7000      7.8645      2.6346      0.1361      0.9353    110.7822
  1854.8000      7.8343      2.6249      0.1120      1.5241    112.6364
  1854.9000      7.8343      2.6134      0.1232      2.2155    117.6919
  1855.0000      7.8135      2.5992      0.1115      3.0786    123.8333
  1855.1000      7.8135      2.5877      0.0472      3.7779    127.8984
  1855.2000      7.8135      2.5833      0.1307      4.0396    128.6184
  1855.3000      7.8271      2.5799      0.0423      4.2491    126.1234
  1855.4000      7.8271      2.5777      0.0149      4.3843    123.5943
  1855.5000      7.8334      2.5758      0.1117      4.4989    123.5758
  1855.6000      7.8334      2.5705      0.0528      4.8207    124.4510
  1855.7000      7.8334      2.5689      0.1042      4.9148    124.2729
  1855.8000      7.8291      2.5739      0.0902      4.6128    124.9027
  1855.9000      7.8291      2.5797      0.0927      4.2589    127.2932
  1856.0000      7.8266      2.5860      0.0912      3.8786    128.6491
  1856.1000      7.8266      2.5980      0.1046      3.1489    126.5170
  1856.2000      7.8266      2.6123      0.1103      2.2849    118.8465
  1856.3000      7.8186      2.6161      0.0938      2.0575    108.9538
  1856.4000      7.8186      2.6123      0.0720      2.2826    103.6090
  1856.5000      7.8372      2.6159      0.1221      2.0643    101.1580
  1856.6000      7.8372      2.6231      0.0985      1.6300     97.8893
  1856.7000      7.8372      2.6155      0.0703      2.0902     94.1797
  1856.8000      7.8635      2.5918      0.0387      3.5261     90.2352
  1856.9000      7.8635      2.5715      0.0034      4.7602     87.6941
  1857.0000      7.8434      2.5639      0.0089      5.2182     88.5551
  1857.1000      7.8434      2.5639      0.0522      5.2156     90.3770
  1857.2000      7.8434      2.5719      0.0409      4.7319     89.8199
  1857.3000      7.8279      2.5868      0.1118      3.8281     88.0087
  1857.4000      7.8279      2.5970      0.1036      3.2134     87.0486
  1857.5000      7.8176      2.6022      0.0788      2.8950     86.7017
  1857.6000      7.8176      2.6148      0.0806      2.1357     86.6646
  1857.7000      7.8176      2.6359      0.0857      0.8531     85.0105
  1857.8000      7.8103      2.6537      0.1165     -0.2218     82.2236
  1857.9000      7.8103      2.6527      0.1103     -0.1628     82.4791
  1858.0000      7.8285      2.6288      0.0898      1.2878     84.7683
  1858.1000      7.8285      2.5989      0.0619      3.0942     85.2483
  1858.2000      7.8285      2.5891      0.0090      3.6923     85.3547
  1858.3000      7.8322      2.6015      0.0532      2.9399     90.0055
  1858.4000      7.8322      2.6219      0.0393      1.7044     99.4373
  1858.5000      7.8304      2.6484      0.0649      0.0976    109.1663
  1858.6000      7.8304      2.6719      0.0968     -1.3246    116.9041
  1858.7000      7.8304      2.6667      0.1700     -1.0147    122.7556
  1858.8000      7.8687      2.6302      0.0998      1.2016    127.7536
  1858.9000      7.8687      2.5945      0.0660      3.3621    132.1556
  1859.0000      7.8500      2.5808      0.0779      4.1910    133.0449
  1859.1000      7.8500      2.5784      0.0660      4.3366    130.6438
  1859.2000      7.8500      2.5728      0.0639      4.6759    129.7145
  1859.3000      7.8776      2.5653      0.0416      5.1305    131.2794
  1859.4000      7.8776      2.5665      0.0555      5.0599    131.3933
  1859.5000      7.8343      2.5849      0.1019      3.9431    128.9444
  1859.6000      7.8343      2.6183      0.0892      1.9228    130.1485
  1859.7000      7.8343      2.6507      0.1523     -0.0442    137.2510
  1859.8000      7.8297      2.6637      0.1652     -0.8280    142.7812
  1859.9000      7.8297      2.6531      0.1234     -0.1863    143.6061
  1860.0000      7.8537      2.6225      0.1455      1.6696    143.9268
  1860.1000      7.8537      2.5759      0.0546      4.4902    146.3245
  1860.2000      7.8537      2.5340      0.0474      7.0275    148.4107
  1860.3000      7.8563      2.5149      0.0469      8.1854    147.5308
  1860.4000      7.8563      2.5124      0.0535      8.3424    145.6763
  1860.5000      7.8608      2.5155      0.0384      8.1529    144.4932
  1860.6000      7.8608      2.5233      0.0480      7.6802    142.4348
  1860.7000      7.8608      2.5346      0.0534      6.9913    139.9114
  1860.8000      7.8650      2.5417      0.0946      6.5654    141.2027
  1860.9000      7.8650      2.5398      0.0520      6.6794    146.3715
  1861.0000      7.8713      2.5326      0.0688      7.1133    152.5375
  1861.1000      7.8713      2.5202      0.1065      7.8671    157.9098
  1861.2000      7.8713      2.5080      0.0414      8.6055    159.3816
  1861.3000      7.8425      2.5102      0.0697      8.4717    158.7331
  1861.4000      7.8425      2.5282      0.0850      7.3822    161.0912
  1861.5000      7.8217      2.5507      0.1332      6.0211    165.3618
  1861.6000      7.8217      2.5681      0.1467      4.9646    165.5016
  1861.7000      7.8217      2.5706      0.1704      4.8146    161.5597
  1861.8000      7.8422      2.5550      0.1191      5.7572    159.2503
  1861.9000      7.8422      2.5437      0.0666      6.4450    160.7103
  1862.0000      7.8821      2.5561      0.0905      5.6885    163.9696
  1862.1000      7.8821      2.5794      0.1590      4.2763    166.4725
  1862.2000      7.8821      2.5931      0.1340      3.4483    165.4275
  1862.3000      7.8575      2.5927      0.1333      3.4739    160.4879
  1862.4000      7.8575      2.5787      0.1465      4.3221    154.5632
  1862.5000      7.7878      2.5546      0.1086      5.7811    152.1586
  1862.6000      7.7878      2.5321      0.0707      7.1428    152.6248
  1862.7000      7.7878      2.5262      0.0827      7.5015    152.1244
  1862.8000      7.8211      2.5430      0.0280      6.4870    150.9443
  1862.9000      7.8211      2.5704      0.0874      4.8264    149.7533
  1863.0000      7.8653      2.5906      0.0687      3.5997    148.4441
  1863.1000      7.8653      2.5995      0.1431      3.0613    145.2389
  1863.2000      7.8653      2.5970      0.1250      3.2111    141.5515
  1863.3000      7.8826      2.5849      0.1061      3.9426    143.1151
  1863.4000      7.8826      2.5695      0.0944      4.8773    146.9397
  1863.5000      7.8942      2.5494      0.0900      6.0953    146.0267
  1863.6000      7.8942      2.5252      0.0545      7.5649    141.9644
  1863.7000      7.8942      2.5120      0.0430      8.3618    138.5296
  1863.8000      7.8876      2.5249      0.0011      7.5793    136.2588
  1863.9000      7.8876      2.5613      0.0724      5.3731    134.5248
  1864.0000      7.8713      2.6021      0.1227      2.9061    132.5820
  1864.1000      7.8713      2.6313      0.1129      1.1341    129.4352
  1864.2000      7.8713      2.6500      0.1431     -0.0009    125.2675
  1864.3000      7.8612      2.6688      0.1427     -1.1413    122.8525
