~Version Information
VERS.                      2.0: CWLS Log ASCII Standard - VERSION 2.0
WRAP.                       NO: One line per depth step
~Well Information Block
STRT.FT                -7.5000: 
STOP.FT              1336.0000: 
STEP.FT                 0.2500: 
NULL.                -999.2500: 
COMP.          Pioneer Natural Resources: COMPANY
WELL.               LPGC 32-32: WELL
FLD.           Purgatorie River: FIELD
LOC.           1937' FNL & 1661' FEL--: LOCATION
CNTY.               Las Animas: COUNTY
SRVC.          Patterson Wireline: SERVICE COMPANY
DATE.          Fri Feb 03 09:39:42 2006: LOG DATE
UWI.           05 071 08641 00: UNIQUE WELL ID
STAT.                       CO: STATE
~Curve Information Block
DEPT.FT            0 000 00 00: Depth
CCL.                          : Casing Collar Locator
TT3.usec                      : CBL 3' Travel Time
AMP3.mV                       : CBL 3' Amplitude
GR.GAPI                       : Gamma Ray
~Parameter Information Block
~A  Depth       CCL         TT3         AMP3         GR     
# ...
  1031.0000      0.0000    517.9491     13.8849    111.9077
  1031.2500      0.0000    492.0191     13.9383    111.4585
  1031.5000      0.0000    462.6421     14.0133    107.3721
  1031.7500      0.0000    448.2219     14.0687    101.2138
  1032.0000      0.0000    457.4337     14.0556     94.8114
  1032.2500      0.0000    487.2090     13.9511     90.0058
  1032.5000      0.0000    526.2411     13.7744     88.1438
  1032.7500      0.0000    558.4063     13.5783     89.2793
  1033.0000      0.0000    569.1020     13.4262     92.0383
  1033.2500      0.0000    553.9294     13.3660     94.5952
  1033.5000      0.0000    520.9334     13.4146     95.9722
  1033.7500      0.0000    483.0158     13.5617     96.6061
  1034.0000      0.0000    448.7032     13.7848     97.7214
  1034.2500      0.0000    419.8311     14.0584     99.9965
  1034.5000      0.0000    395.5155     14.3502    102.6427
  1034.7500      0.0000    375.9938     14.6207    103.8790
  1035.0000      0.0000    362.7898     14.8304    102.5942
  1035.2500      0.0000    356.8279     14.9509     99.5785
  1035.5000      0.0000    357.1738     14.9747     96.9762
  1035.7500      0.0000    361.0711     14.9254     96.5111
  1036.0000      0.0000    364.9250     14.8532     98.1810
  1036.2500      0.0000    366.1366     14.8084    100.4576
  1036.5000      0.0000    364.6150     14.8116    101.7175
  1036.7500      0.0000    362.1508     14.8536    101.5600
  1037.0000      0.0000    360.1176     14.9166    100.7120
  1037.2500      0.0000    358.3099     14.9891     99.8908
  1037.5000      0.0000    356.1347     15.0615     99.2138
  1037.7500      0.0000    354.1874     15.1224     98.5529
  1038.0000      0.0000    354.1335     15.1599     97.7698
  1038.2500      0.0000    357.2156     15.1644     96.6267
  1038.5000      0.0000    362.9227     15.1337     95.0417
  1038.7500      0.0000    368.8811     15.0796     93.4622
  1039.0000      0.0000    372.3251     15.0266     92.5818
  1039.2500      0.0000    372.2119     14.9995     92.7252
  1039.5000      0.0000    369.9281     15.0123     93.7081
  1039.7500      0.0000    367.6801     15.0650     95.0056
  1040.0000      0.0000    366.3340     15.1454     95.7302
  1040.2500      0.0000    365.0368     15.2317     94.8212
  1040.5000      0.0000    362.6141     15.2998     91.8449
  1040.7500      0.0000    358.9327     15.3313     87.6043
  1041.0000      0.0000    354.9702     15.3184     83.7456
  1041.2500      0.0000    351.8701     15.2640     81.7971
  1041.5000      0.0000    350.1270     15.1802     82.4419
  1041.7500      0.0000    349.6990     15.0841     85.3468
  1042.0000      0.0000    350.7529     14.9901     89.6051
  1042.2500      0.0000    354.1570     14.9018     94.3858
  1042.5000      0.0000    360.9848     14.8101     98.9995
  1042.7500      0.0000    371.1307     14.6988    102.5260
  1043.0000      0.0000    382.3770     14.5566    103.9201
  1043.2500      0.0000    391.6992     14.3891    102.7103
  1043.5000      0.0000    398.4300     14.2174     99.4457
  1043.7500      0.0000    406.4262     14.0627     95.3149
  1044.0000      0.0000    422.5106     13.9328     91.2430
  1044.2500      0.0000    451.0343     13.8240     87.3730
  1044.5000      0.0000    487.7620     13.7324     83.4615
  1044.7500      0.0000    519.3020     13.6605     79.5984
  1045.0000      0.0000    531.4693     13.6105     76.3484
  1045.2500      0.0000    519.9963     13.5758     74.3719
  1045.5000      0.0000    492.8059     13.5401     74.1025
  1045.7500      0.0000    462.5991     13.4852     75.5716
  1046.0000      0.0000    438.5742     13.3990     78.2672
  1046.2500      0.0000    423.7796     13.2831     81.1138
  1046.5000      0.0000    416.6461     13.1562     82.7893
  1046.7500      0.0000    413.2867     13.0467     82.4666
  1047.0000      0.0000    409.9069     12.9716     80.5584
  1047.2500      0.0000    405.0204     12.9195     78.5835
  1047.5000      0.0000    399.7742     12.8582     77.9559
  1047.7500      0.0000    396.3501     12.7612     78.9713
  1048.0000      0.0000    396.7419     12.6225     81.0882
  1048.2500      0.0000    403.2507     12.4503     83.7715
  1048.5000      0.0000    419.1003     12.2506     86.6158
  1048.7500      0.0000    446.7417     12.0203     88.9392
  1049.0000      0.0000    484.5734     11.7520     89.9420
  1049.2500      0.0000    526.5424     11.4418     89.5693
  1049.5000      0.0000    566.8361     11.0901     88.9870
  1049.7500      0.0000    604.1744     10.6974     89.7602
  1050.0000      0.0000    639.5546     10.2634     92.3535
  1050.2500      0.0000    671.3163      9.7985     95.5197
  1050.5000      0.0000    695.4221      9.3409     97.1483
  1050.7500      0.0000    709.8524      8.9615     95.6241
  1051.0000      0.0000    716.3435      8.7467     90.5712
  1051.2500      0.0000    718.1326      8.7635     82.7169
  1051.5000      0.0000    717.4431      9.0291     73.3513
  1051.7500      0.0000    714.7604      9.5006     63.9878
  1052.0000      0.0000    709.0453     10.0891     56.1739
  1052.2500      0.0000    697.7512     10.6944     51.0662
  1052.5000      0.0000    677.3737     11.2394     49.0699
  1052.7500      0.0000    647.0650     11.6848     50.0608
  1053.0000      0.0000    614.5430     12.0207     53.6968
  1053.2500      0.0000    595.5094     12.2623     59.1640
  1053.5000      0.0000    599.9789     12.4543     65.0630
  1053.7500      0.0000    617.4266     12.6625     70.2842
  1054.0000      0.0000    621.3289     12.9420     75.0187
  1054.2500      0.0000    592.3095     13.3057     80.3914
  1054.5000      0.0000    535.3739     13.7100     87.0221
  1054.7500      0.0000    474.0512     14.0601     94.1800
  1055.0000      0.0000    430.1813     14.2411    100.2828
  1055.2500      0.0000    409.8129     14.1769    104.0042
  1055.5000      0.0000    404.8994     13.8775    105.0738
  1055.7500      0.0000    404.2222     13.4244    104.4058
  1056.0000      0.0000    401.8561     12.9122    103.5664
  1056.2500      0.0000    398.2091     12.4037    103.7760
  1056.5000      0.0000    396.9839     11.9225    105.0088
  1056.7500      0.0000    403.2893     11.4632    106.0735
  1057.0000      0.0000    423.2459     11.0035    105.8415
  1057.2500      0.0000    461.0715     10.5255    104.2177
  1057.5000      0.0000    512.3205     10.0409    101.6403
  1057.7500      0.0000    560.5175      9.5848     98.1382
  1058.0000      0.0000    586.2031      9.1651     93.5391
  1058.2500      0.0000    583.4677      8.7250     88.2200
  1058.5000      0.0000    566.0205      8.2010     82.8306
  1058.7500      0.0000    555.0106      7.6353     77.3131
  1059.0000      0.0000    562.4575      7.1889     70.9575
  1059.2500      0.0000    586.1262      7.0131     63.6784
  1059.5000     -1.7770    614.2205      7.1291     56.8880
  1059.7500      0.0000    631.1567      7.4402     52.8646
  1060.0000      2.0000    623.7876      7.8181     53.2800
  1060.2500      0.0000    589.9468      8.1681     58.1468
  1060.5000      0.0000    543.5312      8.4532     65.8905
  1060.7500      0.0000    508.1553      8.6719     74.3102
  1061.0000      0.0000    501.4608      8.7896     81.5499
  1061.2500      0.0000    524.0607      8.7229     86.5170
  1061.5000      0.0000    563.9093      8.4633     88.9642
  1061.7500      0.0000    610.0431      8.1777     89.3992
  1062.0000      0.0000    658.5728      8.0877     88.6392
  1062.2500      0.0000    704.9819      8.2682     87.2464
  1062.5000      0.0000    736.7612      8.6270     85.4674
  1062.7500      0.0000    739.2072      9.0463     83.7074
  1063.0000      0.0000    708.2321      9.4789     82.7262
  1063.2500      0.0000    656.7928      9.9317     82.9759
  1063.5000      0.0000    608.1188     10.4213     83.8945
  1063.7500      0.0000    578.0095     10.9781     84.3845
  1064.0000      0.0000    560.5303     11.6770     83.9885
  1064.2500      0.0000    534.9471     12.6331     83.0577
