~Version Information
VERS.                      2.0: CWLS Log ASCII Standard - VERSION 2.0
WRAP.                       NO: One line per depth step
~Well Information Block
STRT.FT               645.0000: 
STOP.FT              1320.0000: 
STEP.FT                 0.1000: 
NULL.                -999.2500: 
COMP.          Pioneer Natural Resources: COMPANY
WELL.          Rockfish 11-30 Tr: WELL
FLD.           Purgatoire River: FIELD
LOC.           1063' FNL & 1068' FWL: LOCATION
STAT.                 Colorado: State
CNTY.               Las Animas: COUNTY
CTRY. USA : Country
SECT. 30 : Section
TOWN. 32S : Township
RANG. 65W : Range
SRVC.                Patterson: SERVICE COMPANY
DATE.          Wed Nov 16 07:46:07 2005: LOG DATE
API.           05 071 08585 00: UNIQUE WELL ID
~Curve Information Block
DEPT.FT            0 000 00 00: Depth
DCAL.in                       : CDL Caliper
RHOB.g/cc                     : CDL Bulk Density
RHOC.g/cc                     : CDL Density Correction
DPOR.pu                       : CDL Density Porosity
GR.GAPI                       : Gamma Ray
NPOR.pu                       : Neutron Porosity
~Parameter Information Block
~A  Depth       DCAL        RHOB        RHOC        DPOR         GR         NPOR    
# ...
  1173.0000      7.9043      2.5933      0.0523      3.4349     68.0135     18.6251
  1173.1000      7.9043      2.5861      0.0807      3.8729     70.0735     18.4159
  1173.2000      7.9043      2.5787      0.0263      4.3187     71.6431     18.3631
  1173.3000      7.8860      2.5658      0.0743      5.1055     74.0101     18.6207
  1173.4000      7.8860      2.5333      0.0673      7.0715     78.4726     19.0110
  1173.5000      7.8798      2.4882     -0.0017      9.8084     81.9148     19.1946
  1173.6000      7.8798      2.4543      0.0541     11.8588     80.3337     18.8981
  1173.7000      7.8798      2.4352      0.0521     13.0178     75.1255     18.1659
  1173.8000      7.8816      2.4289      0.0618     13.3971     70.0490     17.5697
  1173.9000      7.8816      2.4429      0.0639     12.5510     66.8118     17.6701
  1174.0000      7.8650      2.4794      0.0683     10.3381     64.6070     18.3722
  1174.1000      7.8650      2.5289      0.2098      7.3418     62.7627     19.0754
  1174.2000      7.8650      2.5735      0.2910      4.6386     63.2110     19.4701
  1174.3000      7.8790      2.5993      0.3379      3.0726     63.8542     19.5661
  1174.4000      7.8790      2.6058      0.3327      2.6761     60.6283     19.2703
  1174.5000      7.7933      2.6084      0.2964      2.5228     56.0502     18.5845
  1174.6000      7.7933      2.6247      0.2832      1.5331     54.0410     18.0198
  1174.7000      7.7933      2.6576      0.2880     -0.4601     53.8682     17.9831
  1174.8000      7.6851      2.6996      0.2746     -3.0034     53.9256     18.2177
  1174.9000      7.6851      2.7414      0.2921     -5.5409     55.4169     18.3774
  1175.0000      7.6779      2.7683      0.3205     -7.1667     58.2282     18.3028
  1175.1000      7.6779      2.7648      0.3092     -6.9547     60.5572     17.8898
  1175.2000      7.6779      2.7314      0.2635     -4.9337     62.4010     17.3649
  1175.3000      7.7649      2.6811      0.2267     -1.8857     63.9933     16.9621
  1175.4000      7.7649      2.6261      0.1878      1.4512     65.9219     16.5792
  1175.5000      7.8123      2.5793      0.0827      4.2850     69.3914     16.3137
  1175.6000      7.8123      2.5480      0.0760      6.1837     72.3286     16.3605
  1175.7000      7.8123      2.5270      0.0516      7.4538     71.3272     16.4634
  1175.8000      7.8485      2.5175     -0.0017      8.0281     67.8384     16.1323
  1175.9000      7.8485      2.5244      0.0445      7.6128     65.9468     15.6501
  1176.0000      7.8687      2.5345      0.0799      6.9980     65.8060     15.6843
  1176.1000      7.8687      2.5341      0.0886      7.0268     65.4551     15.9376
  1176.2000      7.8687      2.5272      0.0291      7.4400     64.8371     15.9544
  1176.3000      7.9152      2.5179      0.0590      8.0063     64.0994     16.1097
  1176.4000      7.9152      2.5034      0.0486      8.8842     64.2931     16.4111
  1176.5000      7.9183      2.4919      0.0096      9.5800     65.5821     16.3180
  1176.6000      7.9183      2.4853      0.0603      9.9816     65.7068     15.9347
  1176.7000      7.9183      2.4745      0.0457     10.6354     64.9370     15.7081
  1176.8000      7.9098      2.4643     -0.0014     11.2516     64.5749     15.8203
  1176.9000      7.9098      2.4618      0.0033     11.4071     65.9525     16.3028
  1177.0000      7.9357      2.4616      0.0391     11.4196     68.3658     16.9822
  1177.1000      7.9357      2.4636      0.0044     11.2958     71.0711     17.4703
  1177.2000      7.9357      2.4723      0.0265     10.7677     76.1153     17.5865
  1177.3000      7.9428      2.4847      0.0162     10.0156     81.5352     17.7141
  1177.4000      7.9428      2.4997      0.0387      9.1116     83.4145     17.9387
  1177.5000      7.9240      2.5147      0.0760      8.1977     80.8787     17.8344
  1177.6000      7.9240      2.5262      0.0630      7.5039     76.1641     17.4344
  1177.7000      7.9240      2.5336      0.0915      7.0575     73.5980     17.1379
  1177.8000      7.9247      2.5351      0.0629      6.9654     74.1064     17.1348
  1177.9000      7.9247      2.5317      0.0885      7.1707     74.6498     17.3372
  1178.0000      7.9290      2.5335      0.0777      7.0601     73.0895     17.5375
  1178.1000      7.9290      2.5480      0.0846      6.1846     70.7859     17.7527
  1178.2000      7.9290      2.5615      0.1397      5.3647     70.6622     18.0648
  1178.3000      7.9256      2.5561      0.0553      5.6938     73.0149     18.1182
  1178.4000      7.9256      2.5299      0.0740      7.2784     76.3515     17.8326
  1178.5000      7.9202      2.4923      0.0380      9.5546     81.0340     17.5921
  1178.6000      7.9202      2.4619     -0.0013     11.4007     85.5225     17.3176
  1178.7000      7.9202      2.4483      0.0129     12.2253     85.4294     16.7427
  1178.8000      7.9191      2.4437      0.0397     12.5019     79.2524     16.1740
  1178.9000      7.9191      2.4403      0.0337     12.7085     69.9381     16.1864
  1179.0000      7.9218      2.4379      0.0202     12.8536     63.1190     16.8681
  1179.1000      7.9218      2.4380      0.0191     12.8504     62.5312     17.6937
  1179.2000      7.9218      2.4393      0.0508     12.7681     65.9006     18.1766
  1179.3000      7.9175      2.4436      0.0632     12.5078     69.2477     18.3828
  1179.4000      7.9175      2.4561      0.0745     11.7509     72.3809     18.4322
  1179.5000      7.9107      2.4718      0.1042     10.7973     75.3096     18.1985
  1179.6000      7.9107      2.4838      0.0384     10.0739     76.8859     17.7241
  1179.7000      7.9107      2.4913      0.0854      9.6210     77.7133     17.2147
  1179.8000      7.9145      2.4870      0.0704      9.8796     80.8159     16.9543
  1179.9000      7.9145      2.4711      0.0753     10.8427     86.7998     17.0622
  1180.0000      7.9263      2.4574      0.0805     11.6725     88.5413     17.3745
  1180.1000      7.9263      2.4550      0.0389     11.8159     81.7420     17.7614
  1180.2000      7.9263      2.4530      0.0816     11.9375     73.8865     18.1662
  1180.3000      7.9084      2.4350      0.0411     13.0293     73.2104     18.4114
  1180.4000      7.9084      2.4125     -0.0101     14.3928     79.0061     18.3722
  1180.5000      7.8931      2.4086     -0.0048     14.6275     85.7765     18.2805
  1180.6000      7.8931      2.4244      0.0106     13.6700     90.0184     18.2202
  1180.7000      7.8931      2.4460      0.0452     12.3663     92.3872     18.1189
  1180.8000      7.8873      2.4659      0.0616     11.1560     92.3342     18.0227
  1180.9000      7.8873      2.4843      0.1331     10.0424     87.0702     17.9077
  1181.0000      7.8802      2.5001      0.0825      9.0860     78.7662     17.5796
  1181.1000      7.8802      2.5141      0.1209      8.2358     74.7324     17.1024
  1181.2000      7.8802      2.5254      0.1306      7.5532     77.5673     16.8672
  1181.3000      7.8734      2.5298      0.0963      7.2837     82.0576     16.9700
  1181.4000      7.8734      2.5270      0.1008      7.4558     82.7825     17.1164
  1181.5000      7.8804      2.5163      0.0617      8.1052     80.1494     16.9964
  1181.6000      7.8804      2.5015      0.0403      9.0007     80.5565     16.7504
  1181.7000      7.8804      2.4947      0.0073      9.4143     83.6896     16.6876
  1181.8000      7.9045      2.5006      0.0852      9.0546     82.0657     16.8641
  1181.9000      7.9045      2.5086      0.0545      8.5674     77.4491     16.9973
  1182.0000      7.9140      2.5105      0.0812      8.4574     77.5217     16.8627
  1182.1000      7.9140      2.5010      0.0190      9.0327     83.4994     16.6856
  1182.2000      7.9140      2.4752      0.0344     10.5926     87.7269     16.6085
  1182.3000      7.9304      2.4382      0.0058     12.8356     82.4766     16.7097
  1182.4000      7.9304      2.4091     -0.0088     14.5982     73.2260     17.0177
  1182.5000      7.9332      2.4056     -0.0429     14.8135     69.7389     17.2376
