~Version Information
VERS.                      2.0: CWLS Log ASCII Standard - VERSION 2.0
WRAP.                       NO: One line per depth step
~Well Information Block
STRT.FT                -7.7500: 
STOP.FT              2446.5000: 
STEP.FT                 0.2500: 
NULL.                -999.2500: 
COMP.          XTO Energy Inc.: COMPANY
WELL.          Hill Ranch 15-09: WELL
FLD.           Purgatoire River: FIELD
LOC.           1816' FSL & 521' FEL: LOCATION
STAT.                 Colorado: State
CNTY.               Las Animas: COUNTY
CTRY. USA : Country
SECT. 15 : Section
TOWN. 35S : Township
RANG. 67W : Range
SRVC.          Patterson Wireline: SERVICE COMPANY
DATE.          Fri Dec 09 17:49:58 2005: LOG DATE
API. 05-071-08474                          : UNIQUE WELL ID
~Curve Information Block
DEPT.FT            0 000 00 00: Depth
CCL.                          : Casing Collar Locator
TT3.usec                      : CBL 3' Travel Time
AMP3.mV                       : CBL 3' Amplitude
AMP5.mV                       : CBL 5' Amplitude
GR.GAPI                       : Gamma Ray
~Parameter Information Block
~A  Depth       CCL         TT3         AMP3        AMP5         GR     
# ...
   160.2500      0.0000    260.5940     86.2949     75.7592    136.5866
   160.5000      0.0000    260.5837     86.2956     75.6185    138.9107
   160.7500      0.0000    260.5667     86.3235     75.4357    139.7942
   161.0000      0.0000    260.5426     86.3748     75.2556    139.5955
   161.2500      0.0000    260.5153     86.4356     75.1207    138.6203
   161.5000      0.0000    260.4900     86.4908     75.0613    136.3598
   161.7500      0.0000    260.4706     86.5345     75.1067    132.3321
   162.0000      0.0000    260.4579     86.5720     75.2903    127.5287
   162.2500      0.0000    260.4499     86.6114     75.6284    124.1615
   162.5000      0.0000    260.4424     86.6578     76.0916    123.6097
   162.7500      0.0000    260.4318     86.7132     76.5993    124.9482
   163.0000      0.0000    260.4172     86.7756     77.0449    125.7596
   163.2500      0.0000    260.4017     86.8382     77.3364    124.2581
   163.5000      0.0000    260.3900     86.8921     77.4336    120.4897
   163.7500      0.0000    260.3848     86.9317     77.3617    115.8155
   164.0000      0.0000    260.3850     86.9568     77.1923    111.8472
   164.2500      0.0000    260.3863     86.9716     77.0114    109.8088
   164.5000      0.0000    260.3832     86.9821     76.8957    110.0799
   164.7500      0.0000    260.3737     86.9931     76.8976    111.8163
   165.0000      0.0000    260.3606     87.0046     77.0221    113.4099
   165.2500      0.0000    260.3491     87.0132     77.2132    113.7257
   165.5000      0.0000    260.3423     87.0191     77.3895    112.8171
   165.7500      0.0000    260.3404     87.0321     77.5142    111.6122
   166.0000      0.0000    260.3434     87.0639     77.6206    111.3150
   166.2500      0.0000    260.3510     87.1148     77.7486    112.8341
   166.5000      0.0000    260.3609     87.1691     77.8674    116.1900
   166.7500      0.0000    260.3686     87.2076     77.8893    120.4138
   167.0000      0.0000    260.3709     87.2228     77.7614    124.1385
   167.2500      0.0000    260.3683     87.2168     77.5252    126.2579
   167.5000      0.0000    260.3642     87.1918     77.2864    126.3661
   167.7500      0.0000    260.3610     87.1478     77.1432    125.1434
   168.0000      0.0000    260.3599     87.0890     77.1355    124.1859
   168.2500      0.0000    260.3611     87.0242     77.2380    124.7182
   168.5000      0.0000    260.3633     86.9631     77.3876    126.3588
   168.7500      0.0000    260.3643     86.9129     77.5256    127.7136
   169.0000      0.0000    260.3618     86.8783     77.6254    128.1019
   169.2500      0.0000    260.3561     86.8559     77.6881    128.0637
   169.5000      0.0000    260.3493     86.8323     77.7130    128.2869
   169.7500      0.0000    260.3427     86.7930     77.6747    128.5715
   170.0000      0.0000    260.3363     86.7396     77.5368    128.0208
   170.2500      0.0000    260.3315     86.6941     77.2881    126.2606
   170.5000      0.0000    260.3315     86.6822     76.9106    124.3002
   170.7500      0.0000    260.3383     86.7119     76.2038    123.6316
   171.0000      0.0000    260.3497     86.7648     74.5603    124.2937
   171.2500      0.0000    260.3620     86.7945     70.9903    124.5378
   171.5000      0.0000    260.3812     86.6981     64.6334    122.9152
   171.7500      0.0000    260.4377     86.2331     55.5270    120.0300
   172.0000      0.0000    260.6041     84.9073     44.9431    117.6067
   172.2500      0.0000    260.9997     82.0099     34.8382    116.3424
   172.5000      0.0000    261.7501     76.9619     26.8133    115.4451
   172.7500      0.0000    262.8903     69.8472     21.4581    114.1121
   173.0000      0.0000    264.2807     61.6434     18.4732    112.7116
   173.2500      0.0000    265.6367     53.8561     17.1951    112.1873
   173.5000      0.0000    266.6803     47.8085     16.9652    112.6290
   173.7500      0.0000    267.2936     44.0651     17.2121    113.0218
   174.0000      0.0000    267.5472     42.3226     17.4884    112.6260
   174.2500      0.0000    267.5993     41.8118     17.5896    112.0220
   174.5000     -2.0000    267.5738     41.8855     17.5925    112.1998
   174.7500      0.0000    267.5091     42.3429     17.6758    113.1219
   175.0000      0.0000    267.3690     43.4022     17.8876    113.7980
   175.2500      0.0000    267.0605     45.5302     18.1360    113.2539
   175.5000      0.0000    266.4537     49.2196     18.4334    110.8041
   175.7500      0.0000    265.4587     54.6608     19.1309    105.8883
   176.0000      0.0000    264.1442     61.4547     20.9063     98.5707
   176.2500      0.0000    262.7674     68.6722     24.5151     90.0991
   176.5000      0.0000    261.6311     75.2439     30.4534     82.2751
   176.7500      0.0000    260.8929     80.3717     38.6308     76.2498
   177.0000      0.0000    260.5144     83.7536     48.1674     72.3584
   177.2500      0.0000    260.3590     85.5804     57.5528     70.6981
   177.5000      0.0000    260.3044     86.3110     65.2670     70.9662
   177.7500      0.0000    260.2829     86.3708     70.5138     71.8150
   178.0000      0.0000    260.2697     85.9927     73.4823     71.2235
   178.2500      0.0000    260.2609     85.2751     74.9581     67.9168
   178.5000      0.0000    260.2583     84.3474     75.7180     62.3813
   178.7500      0.0000    260.2625     83.4598     76.2222     56.6101
   179.0000      0.0000    260.2714     82.9066     76.6528     52.8434
   179.2500      0.0000    260.2816     82.8506     77.0310     52.2505
   179.5000      0.0000    260.2902     83.2294     77.2751     54.4831
   179.7500      0.0000    260.2941     83.8263     77.2337     58.1127
   180.0000      0.0000    260.2907     84.4113     76.7200     61.2992
   180.2500      0.0000    260.2791     84.8067     75.5475     62.4772
   180.5000      0.0000    260.2611     84.8394     73.5978     61.0440
   180.7500      0.0000    260.2430     84.2657     70.8867     57.5359
   181.0000      0.0000    260.2358     82.7893     67.5424     53.0467
   181.2500      0.0000    260.2535     80.2274     63.7117     48.5288
   181.5000      0.0000    260.3100     76.7120     59.5016     44.6470
   181.7500      0.0000    260.4208     72.7005     54.9955     42.0106
   182.0000      0.0000    260.6095     68.7180     50.2923     41.1688
   182.2500      0.0000    260.9396     65.0465     45.5240     42.2168
   182.5000      0.0000    261.6000     61.6430     40.8558     44.5376
   182.7500      0.0000    263.0337     58.3079     36.4835     47.1696
   183.0000      0.0000    265.9606     54.8944     32.5861     49.4976
   183.2500      0.0000    271.0311     51.3910     29.2241     51.5353
   183.5000      0.0000    278.1338     47.8844     26.2993     53.5497
   183.7500      0.0000    286.0177     44.5033     23.6601     55.5321
   184.0000      0.0000    292.8916     41.3937     21.2192     57.1663
   184.2500      0.0000    297.5800     38.6993     18.9564     58.2918
   184.5000      0.0000    300.0797     36.5191     16.8801     59.2623
   184.7500      0.0000    301.1288     34.8690     15.0250     60.9192
   185.0000      0.0000    301.4911     33.6754     13.4322     64.3212
   185.2500      0.0000    301.6181     32.7995     12.1056     70.3083
   185.5000      0.0000    301.6941     32.0795     11.0138     78.9473
   185.7500      0.0000    301.7867     31.3755     10.1249     89.1984
   186.0000      0.0000    301.9476     30.5963      9.4071     99.2767
   186.2500      0.0000    302.3276     29.7029      8.8133    107.6101
   186.5000      0.0000    303.4018     28.7027      8.2886    113.5740
   186.7500      0.0000    306.5482     27.6447      7.7907    117.4055
   187.0000      0.0000    314.9438     26.5910      7.3043    119.6572
   187.2500      0.0000    333.9485     25.5656      6.8398    120.7922
   187.5000      0.0000    369.1720     24.5364      6.4175    120.9623
   187.7500      0.0000    420.7850     23.4712      6.0523    120.0063
   188.0000      0.0000    477.1312     22.4104      5.7525    117.8559
