~Version Information
VERS.                      2.0: CWLS Log ASCII Standard - VERSION 2.0
WRAP.                       NO: One line per depth step
~Well Information Block
STRT.FT                -7.2500: 
STOP.FT              1196.2500: 
STEP.FT                 0.2500: 
NULL.                -999.2500: 
COMP.          Pioneer Natural Resources: COMPANY
WELL.             Mahalo 12-20: WELL
FLD.           Purgatorie River: FIELD
LOC.           1689' FNL & 479' FWL--: LOCATION
CNTY.               Las Animas: COUNTY
SRVC.          Patterson Wireline: SERVICE COMPANY
DATE.          Tue Mar 14 15:40:32 2006: LOG DATE
UWI.           05 071 08700 00: UNIQUE WELL ID
STAT.                       CO: STATE
~Curve Information Block
DEPT.FT            0 000 00 00: Depth
CCL.                          : Casing Collar Locator
TT3.usec                      : CBL 3' Travel Time
AMP3.mV                       : CBL 3' Amplitude
GR.GAPI                       : Gamma Ray
~Parameter Information Block
~A  Depth       CCL         TT3         AMP3         GR     
# ...
   160.2500      0.0000    684.0790      3.2211     45.0785
   160.5000      0.0000    678.7715      3.2086     43.6927
   160.7500      0.0000    674.7991      3.1946     42.0651
   161.0000      0.0000    668.2009      3.1875     39.6447
   161.2500      0.0000    656.7961      3.1946     36.4935
   161.5000      0.0000    642.2062      3.2168     33.5690
   161.7500      0.0000    627.9669      3.2459     32.0340
   162.0000      0.0000    616.9627      3.2666     32.2466
   162.2500      0.0000    610.4088      3.2659     33.5124
   162.5000      0.0000    607.9567      3.2416     34.8523
   162.7500      0.0000    608.4529      3.2019     35.7974
   163.0000      0.0000    611.0152      3.1594     36.4055
   163.2500      0.0000    615.2903      3.1232     36.8827
   163.5000      0.0000    620.6520      3.0976     37.3752
   163.7500      0.0000    625.8027      3.0841     37.8706
   164.0000      0.0000    629.5524      3.0837     38.2926
   164.2500      0.0000    631.6354      3.0938     38.8731
   164.5000      0.0000    632.5891      3.1044     40.1489
   164.7500      0.0000    633.2006      3.1027     42.1983
   165.0000      0.0000    634.3190      3.0812     44.2524
   165.2500      0.0000    637.1743      3.0404     45.6629
   165.5000      0.0000    643.6123      2.9831     47.1236
   165.7500      0.0000    655.4953      2.9106     50.3990
   166.0000      0.0000    672.9160      2.8282     56.8884
   166.2500      0.0000    692.4165      2.7499     66.6285
   166.5000      0.0000    707.5975      2.6936     78.3405
   166.7500      0.0000    713.1052      2.6679     90.0022
   167.0000      0.0000    709.2665      2.6635     99.5309
   167.2500      0.0000    702.6254      2.6562    105.3631
   167.5000      0.0000    701.3594      2.6208    106.8079
   167.7500      0.0000    709.8953      2.5450    104.3379
   168.0000      0.0000    727.2031      2.4345     99.7053
   168.2500      0.0000    748.3440      2.3102     95.3343
   168.5000      0.0000    766.4186      2.1999     92.9941
   168.7500      0.0000    774.3422      2.1313     92.6722
   169.0000      0.0000    767.7300      2.1221     92.7323
   169.2500      0.0000    748.4000      2.1705     91.4978
   169.5000      0.0000    724.9910      2.2522     88.9041
   169.7500      0.0000    708.6177      2.3328     86.3680
   170.0000      0.0000    706.6317      2.3850     84.9640
   170.2500      0.0000    719.2537      2.3976     84.2505
   170.5000      0.0000    740.3550      2.3748     83.2996
   170.7500      0.0000    760.7327      2.3331     82.3773
   171.0000      0.0000    772.3438      2.2979     82.7999
   171.2500      0.0000    772.2954      2.2926     85.1645
   171.5000      0.0000    764.1812      2.3236     88.5334
   171.7500      0.0000    754.6583      2.3762     91.6473
   172.0000      0.0000    747.8535      2.4259     94.1042
   172.2500      0.0000    743.7075      2.4538     95.9942
   172.5000      0.0000    741.3820      2.4509     97.1717
   172.7500      0.0000    741.6510      2.4129     97.2822
   173.0000      0.0000    745.4134      2.3398     95.9688
   173.2500      0.0000    752.0396      2.2421     92.9127
   173.5000      0.0000    759.6190      2.1442     88.3008
   173.7500      0.0000    765.2711      2.0765     83.5051
   174.0000      0.0000    765.6908      2.0616     80.6014
   174.2500      0.0000    759.5079      2.1034     80.6082
   174.5000      0.0000    749.2137      2.1845     82.6467
   174.7500      0.0000    739.4053      2.2730     85.4821
   175.0000      0.0000    733.1315      2.3363     89.2065
   175.2500      0.0000    730.2167      2.3563     94.2550
   175.5000      0.0000    728.4652      2.3381     99.2029
   175.7500      0.0000    726.0571      2.3099    101.1513
   176.0000      0.0000    722.8195      2.3092     98.6764
   176.2500      0.0000    719.5129      2.3609     93.3700
   176.5000      0.0000    716.4141      2.4623     87.9676
   176.7500      0.0000    713.0776      2.5882     83.7984
   177.0000      0.0000    709.6752      2.7106     80.6217
   177.2500      0.0000    708.0475      2.8131     78.2036
   177.5000      0.0000    710.4412      2.8893     77.0454
   177.7500      0.0000    716.7793      2.9335     77.6768
   178.0000      0.0000    724.5019      2.9402     80.0460
   178.2500      0.0000    731.9714      2.9133     83.8139
   178.5000      0.0000    740.5264      2.8718     88.6842
   178.7500      0.0000    751.9830      2.8421     94.1480
   179.0000      0.0000    765.5654      2.8441     99.2660
   179.2500      0.0000    778.6038      2.8820    102.9289
   179.5000      0.0000    789.1680      2.9442    104.1869
   179.7500      0.0000    796.8830      3.0106    102.4555
   180.0000      0.0000    801.9661      3.0632     97.9436
   180.2500      0.0000    804.5941      3.0953     92.1311
   180.5000      0.0000    804.9471      3.1111     87.3497
   180.7500      0.0000    803.2023      3.1188     85.1536
   181.0000      0.0000    799.4374      3.1242     84.8910
   181.2500      0.0000    793.6872      3.1308     84.2127
   181.5000      0.0000    785.9101      3.1423     81.1062
   181.7500      0.0000    775.8473      3.1636     75.2777
   182.0000      0.0000    763.3322      3.2018     67.6623
   182.2500      0.0000    748.9263      3.2632     59.2869
   182.5000      0.0000    733.8826      3.3481     51.0528
   182.7500      0.0000    719.5607      3.4463     44.0576
   183.0000      0.0000    707.4225      3.5383     39.2816
   183.2500      0.0000    699.0977      3.6010     36.8224
   183.5000      0.0000    695.2993      3.6144     35.9103
   183.7500      0.0000    694.8635      3.5671     35.8779
   184.0000      0.0000    695.7601      3.4612     36.8450
   184.2500      0.0000    696.5651      3.3129     39.2350
   184.5000      0.0000    696.3809      3.1478     43.0111
   184.7500      0.0000    694.5350      2.9944     47.8391
   185.0000      0.0000    691.2407      2.8753     53.6701
   185.2500      0.0000    687.7106      2.8002     60.5420
   185.5000      0.0000    684.9986      2.7637     67.8389
   185.7500      0.0000    683.1118      2.7505     74.1548
   186.0000      0.0000    681.1453      2.7474     77.9647
   186.2500      0.0000    677.8843      2.7521     78.4029
   186.5000      0.0000    672.5332      2.7702     75.6227
   186.7500      0.0000    665.6266      2.8021     70.7918
   187.0000      0.0000    659.2709      2.8369     65.7783
   187.2500      0.0000    655.7112      2.8627     62.4584
   187.5000      0.0000    655.3184      2.8763     61.9616
   187.7500      0.0000    656.5615      2.8826     64.5488
   188.0000      0.0000    658.2194      2.8877     69.9905
   188.2500      0.0000    660.7347      2.8967     77.5935
   188.5000      0.0000    664.9858      2.9117     85.7989
   188.7500      0.0000    670.6507      2.9294     92.2911
   189.0000      0.0000    676.2542      2.9431     95.1716
   189.2500      0.0000    680.2430      2.9489     94.3782
   189.5000      0.0000    682.0154      2.9504     91.8028
   189.7500      0.0000    682.4446      2.9567     89.7141
   190.0000      0.0000    683.1817      2.9761     89.0093
   190.2500      0.0000    685.1787      3.0108     88.9607
   190.5000      0.0000    688.4157      3.0563     88.4689
   190.7500      0.0000    692.8910      3.1034     87.3995
   191.0000      0.0000    698.6361      3.1439     86.4448
   191.2500      0.0000    704.7710      3.1770     85.6586
   191.5000      0.0000    709.7304      3.2080     83.7059
   191.7500      0.0000    712.5278      3.2399     78.9927
   192.0000      0.0000    713.0953      3.2682     71.2222
   192.2500      0.0000    711.3363      3.2875     61.8148
   192.5000      0.0000    706.3245      3.2995     53.2554
   192.7500      0.0000    696.8376      3.3113     47.9344
   193.0000      0.0000    683.0175      3.3261     46.8603
   193.2500      0.0000    667.4814      3.3406     49.0077
   193.5000      0.0000    654.3685      3.3481     51.9486
