~Version Information
VERS.                      2.0: CWLS Log ASCII Standard - VERSION 2.0
WRAP.                       NO: One line per depth step
~Well Information Block
STRT.FT               233.8000: 
STOP.FT              1692.5000: 
STEP.FT                 0.1000: 
NULL.                -999.2500: 
COMP.          Pioneer Natural Resources: COMPANY
WELL.            Relay 12-7 Tr: WELL
FLD.           Purgatoire River: FIELD
LOC.           2025' FNL & 790' FWL: LOCATION
PROV.                 Colorado: PROVINCE
CNTY.               Las Animas: COUNTRY
SRVC.                Patterson: SERVICE COMPANY
DATE.          Mon Jan 16 13:23:17 2006: LOG DATE
UWI.           05 071 08603 00: UNIQUE WELL ID
~Curve Information Block
DEPT.FT            0 000 00 00: Depth
DCAL.in                       : CDL Caliper
RHOB.g/cc                     : CDL Bulk Density
RHOC.g/cc                     : CDL Density Correction
DPOR.pu                       : CDL Density Porosity
GR.GAPI                       : Gamma Ray
~Parameter Information Block
~A  Depth       DCAL        RHOB        RHOC        DPOR         GR     
# ...
   256.2000      4.8692      1.9428     -0.3916     42.8585     47.6786
   256.3000      4.8725      1.9643     -0.4206     41.5581     49.2891
   256.4000      4.8725      1.9825     -0.3714     40.4563     46.8361
   256.5000      4.8650      1.9895     -0.2899     40.0273     43.6045
   256.6000      4.8650      1.9683     -0.3613     41.3165     43.7894
   256.7000      4.8650      1.9047     -0.3471     45.1679     46.4484
   256.8000      4.8663      1.8008     -0.4304     51.4676     46.9232
   256.9000      4.8663      1.6910     -0.6030     58.1220     45.8558
   257.0000      4.8575      1.6198     -0.6083     62.4383     47.8391
   257.1000      4.8575      1.6081     -0.6007     63.1454     52.7197
   257.2000      4.8575      1.6418     -0.4349     61.1048     56.1093
   257.3000      4.8630      1.6872     -0.4310     58.3492     54.6198
   257.4000      4.8630      1.7259     -0.3116     56.0046     51.4701
   257.5000      4.8533      1.7496     -0.2598     54.5725     51.7775
   257.6000      4.8533      1.7617     -0.3188     53.8374     53.6587
   257.7000      4.8533      1.7802     -0.2456     52.7162     52.9563
   257.8000      4.8585      1.8050     -0.2099     51.2146     50.4450
   257.9000      4.8585      1.8213     -0.1482     50.2218     48.0223
   258.0000      4.8497      1.8293     -0.1678     49.7381     47.6696
   258.1000      4.8497      1.8440     -0.1132     48.8459     50.2736
   258.2000      4.8497      1.8712     -0.1311     47.1990     53.6400
   258.3000      4.8487      1.8902      0.0062     46.0500     55.0386
   258.4000      4.8487      1.8782     -0.0201     46.7786     52.9998
   258.5000      4.8445      1.8541     -0.0775     48.2348     48.0987
   258.6000      4.8445      1.8490     -0.0008     48.5459     43.1963
   258.7000      4.8445      1.8655      0.0054     47.5446     39.5204
   258.8000      4.8436      1.8970      0.0615     45.6374     36.4062
   258.9000      4.8436      1.9475      0.0472     42.5776     36.4313
   259.0000      4.8437      2.0137      0.1455     38.5639     40.2292
   259.1000      4.8437      2.0633      0.2117     35.5576     44.7194
   259.2000      4.8437      2.0684      0.2129     35.2499     48.1449
   259.3000      4.8387      2.0447      0.1643     36.6842     49.6551
   259.4000      4.8387      2.0295      0.1252     37.6054     49.8488
   259.5000      4.8432      2.0269      0.1931     37.7607     50.2594
   259.6000      4.8432      2.0191      0.1569     38.2387     49.8353
   259.7000      4.8432      2.0141      0.1158     38.5393     48.4681
   259.8000      4.8517      2.0216      0.1940     38.0823     49.4444
   259.9000      4.8517      2.0318      0.1926     37.4691     54.8994
   260.0000      4.8534      2.0406      0.2278     36.9315     62.3426
   260.1000      4.8534      2.0517      0.1800     36.2579     69.4286
   260.2000      4.8534      2.0618      0.2409     35.6513     77.0479
   260.3000      4.8449      2.0617      0.2388     35.6569     83.5458
   260.4000      4.8449      2.0596      0.2109     35.7798     85.6630
   260.5000      4.8432      2.0729      0.2506     34.9765     84.4894
   260.6000      4.8432      2.0939      0.2985     33.7059     85.6211
   260.7000      4.8432      2.1011      0.3111     33.2639     90.0408
   260.8000      4.8528      2.0936      0.2582     33.7204     92.2722
   260.9000      4.8528      2.0848      0.2705     34.2535     91.0054
   261.0000      4.8507      2.0826      0.2249     34.3909     89.9389
   261.1000      4.8507      2.0921      0.2403     33.8106     90.5855
   261.2000      4.8507      2.1188      0.2387     32.1927     90.4304
   261.3000      4.8563      2.1532      0.3088     30.1082     87.5190
   261.4000      4.8563      2.1686      0.3159     29.1764     84.6094
   261.5000      4.8376      2.1508      0.2720     30.2533     84.1974
   261.6000      4.8376      2.1136      0.2740     32.5114     84.2959
   261.7000      4.8376      2.0832      0.1997     34.3524     84.4439
   261.8000      4.8402      2.0747      0.2408     34.8671     87.7874
   261.9000      4.8402      2.0714      0.2485     35.0657     92.6861
   262.0000      4.8514      2.0475      0.2552     36.5141     94.0164
   262.1000      4.8514      2.0141      0.1488     38.5405     92.8979
   262.2000      4.8514      2.0037      0.1733     39.1718     93.6563
   262.3000      4.8440      2.0162      0.2395     38.4143     96.8188
   262.4000      4.8440      2.0268      0.2406     37.7670     99.3776
   262.5000      4.8423      2.0210      0.2997     38.1206     97.4562
   262.6000      4.8423      2.0016      0.2857     39.2964     92.1245
   262.7000      4.8423      1.9963      0.1677     39.6186     88.5845
   262.8000      4.8391      2.0251      0.2708     37.8755     86.7356
   262.9000      4.8391      2.0563      0.3064     35.9809     82.6863
   263.0000      4.8412      2.0568      0.2878     35.9521     75.8047
   263.1000      4.8412      2.0404      0.2558     36.9442     72.3447
   263.2000      4.8412      2.0381      0.2690     37.0837     78.2197
   263.3000      4.8520      2.0616      0.2418     35.6635     86.2098
   263.4000      4.8520      2.0960      0.3203     33.5728     88.5056
   263.5000      4.8434      2.1226      0.3112     31.9655     86.3142
   263.6000      4.8434      2.1351      0.3927     31.2090     82.7211
   263.7000      4.8434      2.1317      0.3419     31.4127     81.2249
   263.8000      4.8378      2.1227      0.3138     31.9606     84.2945
   263.9000      4.8378      2.1226      0.3150     31.9627     90.2933
   264.0000      4.8416      2.1297      0.3553     31.5315     93.1356
   264.1000      4.8416      2.1313      0.3378     31.4363     89.2094
   264.2000      4.8416      2.1185      0.3363     32.2096     84.6112
   264.3000      4.8506      2.0919      0.2737     33.8266     84.8373
   264.4000      4.8506      2.0642      0.3030     35.5036     85.2489
   264.5000      4.8523      2.0501      0.2368     36.3585     80.9140
   264.6000      4.8523      2.0538      0.2625     36.1311     74.9196
   264.7000      4.8523      2.0674      0.2299     35.3096     71.4334
   264.8000      4.8323      2.0813      0.3039     34.4653     70.3099
   264.9000      4.8323      2.0933      0.2949     33.7387     68.5842
   265.0000      4.8506      2.1008      0.3141     33.2854     65.1805
   265.1000      4.8506      2.0987      0.3000     33.4126     62.8807
   265.2000      4.8506      2.0927      0.2771     33.7770     62.5169
   265.3000      4.8351      2.0929      0.3296     33.7661     63.4704
   265.4000      4.8351      2.1073      0.2629     32.8913     65.6251
   265.5000      4.8437      2.1346      0.3337     31.2357     67.6753
   265.6000      4.8437      2.1535      0.3484     30.0915     69.9441
   265.7000      4.8437      2.1496      0.3506     30.3283     74.8152
   265.8000      4.8387      2.1267      0.3381     31.7171     79.2744
   265.9000      4.8387      2.0904      0.3063     33.9138     79.2351
   266.0000      4.8445      2.0528      0.2346     36.1955     79.6232
   266.1000      4.8445      2.0332      0.1951     37.3813     83.6619
   266.2000      4.8445      2.0431      0.2230     36.7840     87.8335
   266.3000      4.8428      2.0718      0.3213     35.0449     91.3609
   266.4000      4.8428      2.0982      0.2865     33.4413     95.1796
   266.5000      4.8390      2.1133      0.3385     32.5266     98.1144
   266.6000      4.8390      2.1170      0.3337     32.3042     99.5398
   266.7000      4.8390      2.1099      0.3246     32.7326     97.9004
   266.8000      4.8297      2.0931      0.3130     33.7499     91.6818
   266.9000      4.8297      2.0776      0.2385     34.6886     83.9338
   267.0000      4.8214      2.0822      0.2472     34.4147     76.5670
   267.1000      4.8214      2.1041      0.3383     33.0833     70.9183
   267.2000      4.8214      2.1139      0.3729     32.4888     72.4923
   267.3000      4.8405      2.0981      0.3201     33.4460     81.5061
