~Version Information
VERS.                      2.0: CWLS Log ASCII Standard - VERSION 2.0
WRAP.                       NO: One line per depth step
~Well Information Block
STRT.FT               625.0000: 
STOP.FT              2053.7500: 
STEP.FT                 0.2500: 
NULL.                -999.2500: 
COMP.          Pioneer Natural Resources: COMPANY
WELL.            Zink 44-10 Tr: WELL
FLD.           Purgatoire River: FIELD
LOC.           486' FSL & 554' FEL--: LOCATION
PROV.                 Colorado: PROVINCE
CNTY.               Las Animas: COUNTRY
SRVC.                Patterson: SERVICE COMPANY
DATE.          Sun Jul 24 06:18:01 2005: LOG DATE
UWI.           05 071 08446 00: UNIQUE WELL ID
~Curve Information Block
DEPT.FT            0 000 00 00: Depth
SN.Ohm-m                      : IEL Short Normal
SP.mV                         : IEL Spontaneous Potential
DIR.Ohm-m                     : IEL Induction Resistivity
GR.GAPI                       : Gamma Ray
~Parameter Information Block
~A  Depth        SN          SP         DIR          GR     
# ...
  1931.5000     11.0080     62.9114      9.6124    163.7565
  1931.7500     11.0499     63.6588      9.6920    160.1177
  1932.0000     11.1437     64.1705      9.8519    155.8533
  1932.2500     11.2747     64.3823     10.0967    154.6587
  1932.5000     11.4230     64.2871     10.4265    155.2666
  1932.7500     11.5750     63.9297     10.8335    156.4764
  1933.0000     11.7359     63.3899     11.3004    157.5860
  1933.2500     11.9405     62.7596     11.8035    156.9315
  1933.5000     12.2486     62.1223     12.3176    153.4845
  1933.7500     12.7228     61.5398     12.8214    150.0598
  1934.0000     13.3903     61.0482     13.2997    144.6016
  1934.2500     14.2118     60.6600     13.7427    141.4904
  1934.5000     15.0826     60.3709     14.1446    138.5557
  1934.7500     15.8689     60.1664     14.5007    137.9253
  1935.0000     16.4518     60.0285     14.8013    138.3848
  1935.2500     16.7550     59.9394     15.0252    138.9737
  1935.5000     16.7572     59.8842     15.1405    139.2198
  1935.7500     16.4973     59.8518     15.1185    138.4951
  1936.0000     16.0680     59.8350     14.9553    135.7348
  1936.2500     15.5856     59.8303     14.6824    133.0604
  1936.5000     15.1442     59.8360     14.3551    129.1001
  1936.7500     14.7806     59.8522     14.0258    127.3498
  1937.0000     14.4752     59.8791     13.7212    126.9850
  1937.2500     14.1808     59.9167     13.4372    128.3181
  1937.5000     13.8572     59.9647     13.1498    131.9122
  1937.7500     13.4880     60.0222     12.8344    134.5968
  1938.0000     13.0778     60.0882     12.4802    138.2177
  1938.2500     12.6424     60.1619     12.0948    140.5992
  1938.5000     12.2008     60.2428     11.6978    145.1889
  1938.7500     11.7708     60.3305     11.3115    149.1244
  1939.0000     11.3641     60.4245     10.9516    155.2626
  1939.2500     10.9845     60.5238     10.6231    158.5318
  1939.5000     10.6348     60.6259     10.3222    161.5351
  1939.7500     10.3246     60.7272     10.0421    162.8576
  1940.0000     10.0715     60.8222      9.7793    165.3804
  1940.2500      9.8928     60.9045      9.5358    167.6244
  1940.5000      9.7955     60.9671      9.3191    170.4704
  1940.7500      9.7742     61.0039      9.1386    171.0552
  1941.0000      9.8154     61.0108      9.0037    169.7449
  1941.2500      9.9068     60.9864      8.9225    168.0859
  1941.5000     10.0439     60.9329      8.9027    165.3115
  1941.7500     10.2339     60.8553      8.9513    163.0860
  1942.0000     10.4922     60.7608      9.0744    158.4677
  1942.2500     10.8303     60.6577      9.2756    154.5759
  1942.5000     11.2395     60.5537      9.5548    148.1177
  1942.7500     11.6848     60.4563      9.9060    143.3235
  1943.0000     12.1177     60.3715     10.3155    134.4361
  1943.2500     12.4990     60.3046     10.7588    127.3101
  1943.5000     12.8171     60.2602     11.2000    116.9677
  1943.7500     13.0850     60.2419     11.5933    112.2298
  1944.0000     13.3171     60.2525     11.8893    110.1912
  1944.2500     13.5024     60.2928     12.0449    111.8700
  1944.5000     13.5975     60.3612     12.0334    117.3284
  1944.7500     13.5446     60.4536     11.8523    122.2305
  1945.0000     13.3006     60.5640     11.5249    130.6430
  1945.2500     12.8592     60.6853     11.0944    136.2619
  1945.5000     12.2602     60.8105     10.6141    143.4613
  1945.7500     11.5807     60.9331     10.1369    147.2425
  1946.0000     10.9129     61.0470      9.7071    151.9305
  1946.2500     10.3359     61.1465      9.3555    154.5584
  1946.5000      9.8954     61.2262      9.0976    157.0775
  1946.7500      9.6018     61.2813      8.9352    157.2610
  1947.0000      9.4388     61.3090      8.8587    155.0466
  1947.2500      9.3745     61.3106      8.8515    152.1801
  1947.5000      9.3692     61.2918      8.8927    146.4455
  1947.7500      9.3843     61.2628      8.9620    142.0711
  1948.0000      9.3956     61.2362      9.0425    135.6674
  1948.2500      9.4010     61.2241      9.1221    132.3093
  1948.5000      9.4165     61.2349      9.1926    130.0299
  1948.7500      9.4597     61.2717      9.2467    130.8164
  1949.0000      9.5337     61.3312      9.2765    135.2641
  1949.2500      9.6209     61.4055      9.2753    139.7651
  1949.5000      9.6924     61.4844      9.2403    147.2627
  1949.7500      9.7290     61.5578      9.1758    151.9168
  1950.0000      9.7393     61.6181      9.0936    157.4897
  1950.2500      9.7611     61.6608      9.0130    160.0657
  1950.5000      9.8392     61.6850      8.9572    162.0946
  1950.7500      9.9984     61.6923      8.9496    162.1971
  1951.0000     10.2343     61.6858      9.0084    160.7134
  1951.2500     10.5293     61.6687      9.1450    159.0439
  1951.5000     10.8725     61.6436      9.3657    156.4869
  1951.7500     11.2643     61.6113      9.6747    155.1014
  1952.0000     11.7078     61.5708     10.0759    153.0983
  1952.2500     12.2031     61.5191     10.5734    150.9980
  1952.5000     12.7498     61.4514     11.1697    145.1150
  1952.7500     13.3534     61.3626     11.8657    138.8772
  1953.0000     14.0327     61.2479     12.6603    126.5948
  1953.2500     14.8186     61.1047     13.5519    117.5717
  1953.5000     15.7428     60.9334     14.5374    105.0313
  1953.7500     16.8178     60.7384     15.6106     98.1013
  1954.0000     18.0183     60.5276     16.7571     89.8792
  1954.2500     19.2739     60.3121     17.9460     85.5632
  1954.5000     20.4837     60.1047     19.1247     80.7279
  1954.7500     21.5503     59.9183     20.2250     78.7757
  1955.0000     22.4126     59.7636     21.1861     77.9506
  1955.2500     23.0571     59.6480     21.9787     78.5807
  1955.5000     23.5083     59.5737     22.6125     80.2305
  1955.7500     23.8128     59.5374     23.1216     80.9678
  1956.0000     24.0242     59.5309     23.5453     80.4452
  1956.2500     24.1907     59.5426     23.9169     78.8656
  1956.5000     24.3494     59.5598     24.2612     75.0744
  1956.7500     24.5241     59.5707     24.5919     71.9737
  1957.0000     24.7226     59.5668     24.9076     67.2879
  1957.2500     24.9365     59.5432     25.1950     64.8612
  1957.5000     25.1482     59.4994     25.4425     63.5223
  1957.7500     25.3418     59.4381     25.6542     64.3961
  1958.0000     25.5084     59.3644     25.8513     67.5344
  1958.2500     25.6417     59.2845     26.0529     70.0235
  1958.5000     25.7266     59.2055     26.2537     73.1929
  1958.7500     25.7319     59.1343     26.4170     74.5081
  1959.0000     25.6152     59.0777     26.4878     74.9776
  1959.2500     25.3426     59.0427     26.4145     74.4619
  1959.5000     24.9097     59.0354     26.1584     73.3481
  1959.7500     24.3500     59.0613     25.6972     73.0523
  1960.0000     23.7265     59.1238     25.0358     74.4309
  1960.2500     23.1084     59.2239     24.2220     77.2328
  1960.5000     22.5443     59.3599     23.3432     85.0727
  1960.7500     22.0484     59.5273     22.4956     92.6043
  1961.0000     21.6063     59.7204     21.7452    105.5638
  1961.2500     21.1925     59.9329     21.1085    113.5577
  1961.5000     20.7861     60.1595     20.5600    122.0071
  1961.7500     20.3784     60.3964     20.0586    124.9845
  1962.0000     19.9730     60.6410     19.5755    126.9460
  1962.2500     19.5826     60.8913     19.1090    127.4668
  1962.5000     19.2264     61.1448     18.6801    126.9729
  1962.7500     18.9281     61.3982     18.3197    125.2705
  1963.0000     18.7164     61.6468     18.0598    121.1241
  1963.2500     18.6223     61.8859     17.9301    118.6784
  1963.5000     18.6697     62.1114     17.9566    117.9230
  1963.7500     18.8571     62.3214     18.1533    119.6054
  1964.0000     19.1433     62.5165     18.5109    123.4239
  1964.2500     19.4516     62.7005     18.9887    125.1000
  1964.5000     19.7015     62.8798     19.5182    124.3064
  1964.7500     19.8525     63.0627     20.0233    121.5033
