~Version Information
VERS.                      2.0: CWLS Log ASCII Standard - VERSION 2.0
WRAP.                       NO: One line per depth step
~Well Information Block
STRT.FT                -6.2500: 
STOP.FT              2245.0000: 
STEP.FT                 0.0500: 
NULL.                -999.2500: 
COMP.          Pioneer Natural Resources: COMPANY
WELL.          Roadster 41-33 Kv: WELL
FLD.           Purgatoire River: FIELD
LOC.           903' FNL & 248' FEL--: LOCATION
PROV.                 Colorado: PROVINCE
CNTY.               Las Animas: COUNTRY
SRVC.                Patterson: SERVICE COMPANY
DATE.          Tue Jan 17 11:20:00 2006: LOG DATE
UWI.           05 071 08615 00: UNIQUE WELL ID
~Curve Information Block
DEPT.FT            0 000 00 00: Depth
CCL.                          : Casing Collar Locator
TT3.usec                      : CBL 3' Travel Time
AMP3.mV                       : CBL 3' Amplitude
GR.GAPI                       : Gamma Ray
~Parameter Information Block
~A  Depth       CCL         TT3         AMP3         GR     
# ...
  1193.0500      0.0000    735.2692      4.6931    178.5951
  1193.1000      0.0000    735.2692      4.6931    178.5951
  1193.1500      0.0000    735.2692      4.6931    178.5951
  1193.2000      0.0000    735.2692      4.6931    178.5951
  1193.2500      0.0000    729.2213      4.5779    181.2245
  1193.3000      0.0000    729.2213      4.5779    181.2245
  1193.3500      0.0000    729.2213      4.5779    181.2245
  1193.4000      0.0000    729.2213      4.5779    181.2245
  1193.4500      0.0000    729.2213      4.5779    181.2245
  1193.5000      0.0000    723.6577      4.3915    183.2147
  1193.5500      0.0000    723.6577      4.3915    183.2147
  1193.6000      0.0000    723.6577      4.3915    183.2147
  1193.6500      0.0000    723.6577      4.3915    183.2147
  1193.7000      0.0000    723.6577      4.3915    183.2147
  1193.7500      0.0000    723.0616      4.1677    183.4859
  1193.8000      0.0000    723.0616      4.1677    183.4859
  1193.8500      0.0000    723.0616      4.1677    183.4859
  1193.9000      0.0000    723.0616      4.1677    183.4859
  1193.9500      0.0000    723.0616      4.1677    183.4859
  1194.0000      0.0000    730.8601      3.9753    180.5678
  1194.0500      0.0000    730.8601      3.9753    180.5678
  1194.1000      0.0000    730.8601      3.9753    180.5678
  1194.1500      0.0000    730.8601      3.9753    180.5678
  1194.2000      0.0000    730.8601      3.9753    180.5678
  1194.2500      0.0000    746.6865      3.8730    172.9672
  1194.3000      0.0000    746.6865      3.8730    172.9672
  1194.3500      0.0000    746.6865      3.8730    172.9672
  1194.4000      0.0000    746.6865      3.8730    172.9672
  1194.4500      0.0000    746.6865      3.8730    172.9672
  1194.5000      0.0000    766.8319      3.8665    160.6703
  1194.5500      0.0000    766.8319      3.8665    160.6703
  1194.6000      0.0000    766.8319      3.8665    160.6703
  1194.6500      0.0000    766.8319      3.8665    160.6703
  1194.7000      0.0000    766.8319      3.8665    160.6703
  1194.7500      0.0000    786.1826      3.9113    146.7212
  1194.8000      2.0000    786.1826      3.9113    146.7212
  1194.8500      2.0000    786.1826      3.9113    146.7212
  1194.9000      2.0000    786.1826      3.9113    146.7212
  1194.9500     -2.0000    786.1826      3.9113    146.7212
  1195.0000     -2.0000    799.1389      3.9554    136.0871
  1195.0500     -2.0000    799.1389      3.9554    136.0871
  1195.1000      0.0000    799.1389      3.9554    136.0871
  1195.1500      2.0000    799.1389      3.9554    136.0871
  1195.2000      2.0000    799.1389      3.9554    136.0871
  1195.2500      2.0000    801.0222      3.9721    132.3304
  1195.3000     -2.0000    801.0222      3.9721    132.3304
  1195.3500     -2.0000    801.0222      3.9721    132.3304
  1195.4000     -2.0000    801.0222      3.9721    132.3304
  1195.4500      0.0000    801.0222      3.9721    132.3304
  1195.5000      2.0000    791.2039      3.9653    135.5515
  1195.5500      2.0000    791.2039      3.9653    135.5515
  1195.6000      2.0000    791.2039      3.9653    135.5515
  1195.6500      0.0000    791.2039      3.9653    135.5515
  1195.7000      0.0000    791.2039      3.9653    135.5515
  1195.7500      0.0000    774.6201      3.9625    142.6736
  1195.8000      0.0000    774.6201      3.9625    142.6736
  1195.8500      0.0000    774.6201      3.9625    142.6736
  1195.9000      0.0000    774.6201      3.9625    142.6736
  1195.9500      0.0000    774.6201      3.9625    142.6736
  1196.0000      0.0000    758.6973      4.0074    148.8104
  1196.0500      0.0000    758.6973      4.0074    148.8104
  1196.1000      0.0000    758.6973      4.0074    148.8104
  1196.1500      0.0000    758.6973      4.0074    148.8104
  1196.2000      0.0000    758.6973      4.0074    148.8104
  1196.2500      0.0000    748.3240      4.1367    149.7121
  1196.3000      0.0000    748.3240      4.1367    149.7121
  1196.3500      0.0000    748.3240      4.1367    149.7121
  1196.4000      0.0000    748.3240      4.1367    149.7121
  1196.4500      0.0000    748.3240      4.1367    149.7121
  1196.5000      0.0000    743.8047      4.3395    144.7480
  1196.5500      0.0000    743.8047      4.3395    144.7480
  1196.6000      0.0000    743.8047      4.3395    144.7480
  1196.6500      0.0000    743.8047      4.3395    144.7480
  1196.7000      0.0000    743.8047      4.3395    144.7480
  1196.7500      0.0000    742.7576      4.5460    137.2815
  1196.8000      0.0000    742.7576      4.5460    137.2815
  1196.8500      0.0000    742.7576      4.5460    137.2815
  1196.9000      0.0000    742.7576      4.5460    137.2815
  1196.9500      0.0000    742.7576      4.5460    137.2815
  1197.0000      0.0000    742.8766      4.6757    131.2594
  1197.0500      0.0000    742.8766      4.6757    131.2594
  1197.1000      0.0000    742.8766      4.6757    131.2594
  1197.1500      0.0000    742.8766      4.6757    131.2594
  1197.2000      0.0000    742.8766      4.6757    131.2594
  1197.2500      0.0000    743.0737      4.6981    127.9130
  1197.3000      0.0000    743.0737      4.6981    127.9130
  1197.3500      0.0000    743.0737      4.6981    127.9130
  1197.4000      0.0000    743.0737      4.6981    127.9130
  1197.4500      0.0000    743.0737      4.6981    127.9130
  1197.5000      0.0000    743.1861      4.6431    125.9998
  1197.5500      0.0000    743.1861      4.6431    125.9998
  1197.6000      0.0000    743.1861      4.6431    125.9998
  1197.6500      0.0000    743.1861      4.6431    125.9998
  1197.7000      0.0000    743.1861      4.6431    125.9998
  1197.7500      0.0000    743.3473      4.5629    124.2471
  1197.8000      0.0000    743.3473      4.5629    124.2471
  1197.8500      0.0000    743.3473      4.5629    124.2471
  1197.9000      0.0000    743.3473      4.5629    124.2471
  1197.9500      0.0000    743.3473      4.5629    124.2471
  1198.0000      0.0000    743.6337      4.4958    122.7421
  1198.0500      0.0000    743.6337      4.4958    122.7421
  1198.1000      0.0000    743.6337      4.4958    122.7421
  1198.1500      0.0000    743.6337      4.4958    122.7421
  1198.2000      0.0000    743.6337      4.4958    122.7421
  1198.2500      0.0000    743.9568      4.4550    122.1974
  1198.3000      0.0000    743.9568      4.4550    122.1974
  1198.3500      0.0000    743.9568      4.4550    122.1974
  1198.4000      0.0000    743.9568      4.4550    122.1974
  1198.4500      0.0000    743.9568      4.4550    122.1974
  1198.5000      0.0000    744.1776      4.4334    122.6300
  1198.5500      0.0000    744.1776      4.4334    122.6300
  1198.6000      0.0000    744.1776      4.4334    122.6300
  1198.6500      0.0000    744.1776      4.4334    122.6300
  1198.7000      0.0000    744.1776      4.4334    122.6300
  1198.7500      0.0000    744.2423      4.4123    123.3569
  1198.8000      0.0000    744.2423      4.4123    123.3569
  1198.8500      0.0000    744.2423      4.4123    123.3569
  1198.9000      0.0000    744.2423      4.4123    123.3569
  1198.9500      0.0000    744.2423      4.4123    123.3569
  1199.0000      0.0000    744.3356      4.3738    123.9176
  1199.0500      0.0000    744.3356      4.3738    123.9176
  1199.1000      0.0000    744.3356      4.3738    123.9176
  1199.1500      0.0000    744.3356      4.3738    123.9176
  1199.2000      0.0000    744.3356      4.3738    123.9176
  1199.2500      0.0000    745.0690      4.3138    124.0993
  1199.3000      0.0000    745.0690      4.3138    124.0993
  1199.3500      0.0000    745.0690      4.3138    124.0993
  1199.4000      0.0000    745.0690      4.3138    124.0993
  1199.4500      0.0000    745.0690      4.3138    124.0993
  1199.5000      0.0000    747.6910      4.2483    123.0882
  1199.5500      0.0000    747.6910      4.2483    123.0882
  1199.6000      0.0000    747.6910      4.2483    123.0882
  1199.6500      0.0000    747.6910      4.2483    123.0882
  1199.7000      0.0000    747.6910      4.2483    123.0882
