~Version Information
VERS.                      2.0: CWLS Log ASCII Standard - VERSION 2.0
WRAP.                       NO: One line per depth step
~Well Information Block
STRT.FT               335.0000: 
STOP.FT              1013.5000: 
STEP.FT                 0.1000: 
NULL.                -999.2500: 
COMP.          Pioneer Natural Resources: COMPANY
WELL.             Giggle 21-22: WELL
FLD.           Purgatoire River: FIELD
LOC.           950' FNL & 2094' FWL: LOCATION
CNTY.               Las Animas: COUNTY
SRVC.                Patterson: SERVICE COMPANY
DATE.          Thu Apr 13 09:31:38 2006: LOG DATE
UWI.           05 071 08726 00: UNIQUE WELL ID
STAT.                 Colorado: STATE
~Curve Information Block
DEPT.FT            0 000 00 00: Depth
DCAL.in                       : CDL Caliper
RHOB.g/cc                     : CDL Bulk Density
RHOC.g/cc                     : CDL Density Correction
DPOR.pu                       : CDL Density Porosity
GR.GAPI                       : Gamma Ray
NPOR.pu                       : Neutron Porosity
~Parameter Information Block
~A  Depth       DCAL        RHOB        RHOC        DPOR         GR         NPOR    
# ...
   824.6000      7.9298      2.5522      0.0535      5.9286     36.6401     15.3993
   824.7000      7.9298      2.5222      0.0119      7.7450     35.9756     15.5596
   824.8000      7.9315      2.5079      0.0027      8.6098     39.3253     15.7553
   824.9000      7.9315      2.5143      0.0361      8.2241     42.3607     15.8462
   825.0000      7.9292      2.5430     -0.0072      6.4879     40.3949     15.7892
   825.1000      7.9292      2.5891      0.0535      3.6916     36.7505     15.7118
   825.2000      7.9292      2.6321      0.0932      1.0861     36.5045     15.6766
   825.3000      7.9271      2.6594      0.0896     -0.5678     37.3447     15.7426
   825.4000      7.9271      2.6717      0.0990     -1.3151     36.7745     15.8039
   825.5000      7.9284      2.6628      0.0743     -0.7732     36.9421     15.9649
   825.6000      7.9284      2.6366      0.0406      0.8115     36.7516     16.5265
   825.7000      7.9284      2.6231     -0.0007      1.6307     35.6422     17.2045
   825.8000      7.9280      2.6356      0.0168      0.8705     35.7566     17.4579
   825.9000      7.9280      2.6375      0.0467      0.7576     37.0987     17.3612
   826.0000      7.9289      2.5984     -0.0080      3.1257     40.5286     17.4203
   826.1000      7.9289      2.5483     -0.0182      6.1610     45.5554     17.6473
   826.2000      7.9289      2.5264     -0.0341      7.4907     47.4022     17.5890
   826.3000      7.9283      2.5315     -0.0049      7.1818     43.9913     17.2727
   826.4000      7.9283      2.5416      0.0100      6.5718     38.5570     17.0779
   826.5000      7.9294      2.5503      0.0141      6.0411     33.4587     17.1190
   826.6000      7.9294      2.5653      0.0129      5.1327     30.9897     17.3897
   826.7000      7.9294      2.5868      0.0283      3.8292     34.3732     17.7337
   826.8000      7.9315      2.6060      0.0773      2.6655     42.0243     17.8679
   826.9000      7.9315      2.6160      0.0435      2.0636     48.1314     17.7898
   827.0000      7.9279      2.6110      0.0533      2.3657     49.3492     17.5940
   827.1000      7.9279      2.5960      0.0055      3.2709     48.5780     17.0984
   827.2000      7.9279      2.5952     -0.0189      3.3226     48.9439     16.3286
   827.3000      7.9297      2.6034      0.1131      2.8272     49.4881     15.6051
   827.4000      7.9297      2.5957      0.0310      3.2904     50.5976     15.2069
   827.5000      7.9263      2.5879      0.0371      3.7608     53.7039     15.1654
   827.6000      7.9263      2.5997      0.0804      3.0455     56.6444     15.1167
   827.7000      7.9263      2.6170      0.0514      1.9990     57.1743     14.6704
   827.8000      7.9284      2.6210      0.0853      1.7553     56.0799     13.9167
   827.9000      7.9284      2.6098      0.0293      2.4379     56.0207     13.2090
   828.0000      7.9304      2.5855      0.0484      3.9079     59.5104     12.8304
   828.1000      7.9304      2.5455     -0.0000      6.3320     65.2211     12.7917
   828.2000      7.9304      2.4986     -0.0382      9.1783     69.2709     12.9593
   828.3000      7.9283      2.4555     -0.0227     11.7907     73.2649     13.2410
   828.4000      7.9283      2.4155     -0.0446     14.2144     83.2985     13.5427
   828.5000      7.9300      2.3853     -0.0287     16.0415     97.2057     13.8298
   828.6000      7.9300      2.3786     -0.0400     16.4498    107.2757     14.2161
   828.7000      7.9300      2.3927     -0.0000     15.5918    113.7368     14.8525
   828.8000      7.9281      2.4071      0.0227     14.7234    118.5696     15.7917
   828.9000      7.9281      2.4055      0.0508     14.8204    117.8920     16.8111
   829.0000      7.9305      2.4011      0.0199     15.0874    111.4169     17.5036
   829.1000      7.9305      2.4110      0.0726     14.4846    106.6511     17.8544
   829.2000      7.9305      2.4240      0.0877     13.6965    107.4444     18.1551
   829.3000      7.9299      2.4271      0.1103     13.5085    109.6742     18.5935
   829.4000      7.9299      2.4326      0.0644     13.1742    109.5165     19.1982
   829.5000      7.9287      2.4505      0.0877     12.0916    110.3790     19.9379
   829.6000      7.9287      2.4640      0.0899     11.2715    115.4775     20.6899
   829.7000      7.9287      2.4700      0.0925     10.9061    121.0421     21.4370
   829.8000      7.9275      2.4908      0.0690      9.6488    121.9521     22.4809
   829.9000      7.9275      2.5142      0.1762      8.2278    120.3286     23.4308
   830.0000      7.9299      2.5093      0.0696      8.5263    122.6185     23.4787
   830.1000      7.9299      2.4885      0.0998      9.7853    125.9421     23.1041
   830.2000      7.9299      2.4679      0.0997     11.0389    124.9655     23.0900
   830.3000      7.9306      2.4454      0.0354     12.3993    122.7725     23.1064
   830.4000      7.9306      2.4332      0.0329     13.1370    121.1830     22.6595
   830.5000      7.9304      2.4379      0.0636     12.8531    117.9130     22.0755
   830.6000      7.9304      2.4467      0.0470     12.3212    112.0940     21.8325
   830.7000      7.9304      2.4502      0.0813     12.1080    104.9729     21.8919
   830.8000      7.9286      2.4523      0.0495     11.9817     99.8848     22.1883
   830.9000      7.9286      2.4613      0.0940     11.4371     99.3904     22.8150
   831.0000      7.9286      2.4780      0.0707     10.4245    102.2656     23.4674
   831.1000      7.9286      2.5001      0.1022      9.0873    103.6904     23.8810
   831.2000      7.9286      2.5246      0.1107      7.5994    101.2447     24.0858
   831.3000      7.9296      2.5505      0.1692      6.0294     98.3732     24.1087
   831.4000      7.9296      2.5731      0.2025      4.6622     97.4259     23.8889
   831.5000      7.9286      2.5846      0.1400      3.9659     96.0020     23.5048
   831.6000      7.9286      2.5764      0.1675      4.4602     94.8973     23.0566
   831.7000      7.9286      2.5413      0.1522      6.5896     97.5869     22.4817
   831.8000      7.9285      2.4973      0.0606      9.2542    101.4376     21.9713
   831.9000      7.9285      2.4713      0.0595     10.8325    101.4338     21.9246
   832.0000      7.9287      2.4676      0.0254     11.0550     99.7106     22.3211
   832.1000      7.9287      2.4770      0.0539     10.4870     99.7216     22.6301
   832.2000      7.9287      2.4758      0.0586     10.5554     98.9617     22.3915
   832.3000      7.9288      2.4439      0.0440     12.4887     94.8167     21.6470
   832.4000      7.9288      2.3932      0.0403     15.5633     90.7709     21.0433
   832.5000      7.9339      2.3527      0.0433     18.0183     91.7404     21.0049
   832.6000      7.9339      2.3376      0.0591     18.9345     96.1780     21.0928
   832.7000      7.9339      2.3301      0.1576     19.3855    100.1122     21.1534
   832.8000      7.9356      2.3105      0.0678     20.5752    101.0768     21.5599
   832.9000      7.9356      2.2993      0.0205     21.2526     95.6337     22.3854
   833.0000      7.9283      2.3133      0.0936     20.4089     85.6632     23.5202
   833.1000      7.9283      2.3369      0.1117     18.9772     80.9401     24.9136
   833.2000      7.9283      2.3715      0.0675     16.8769     86.3394     26.2181
   833.3000      7.9293      2.4304      0.1629     13.3104     94.4632     27.0322
   833.4000      7.9293      2.4969      0.2003      9.2764     97.8285     27.3109
   833.5000      7.9291      2.5530      0.0975      5.8794     99.7915     27.1161
   833.6000      7.9291      2.5989      0.0847      3.0991    101.0425     26.7821
   833.7000      7.9291      2.6252      0.1154      1.5047     95.3530     26.7963
   833.8000      7.9386      2.6256      0.0868      1.4763     86.9909     26.9912
   833.9000      7.9386      2.6152      0.1082      2.1095     84.7991     26.7450
   834.0000      7.9287      2.6049      0.0541      2.7318     90.1024     26.0026
   834.1000      7.9287      2.5999      0.0400      3.0368     98.9838     25.2913
