~Version Information
VERS.                      2.0: CWLS Log ASCII Standard - VERSION 2.0
WRAP.                       NO: One line per depth step
~Well Information Block
STRT.FT               340.0000: 
STOP.FT              2342.7500: 
STEP.FT                 0.2500: 
NULL.                -999.2500: 
COMP.          Pioneer Natural Resources: COMPANY
WELL.          Pinkerton 41-12: WELL
FLD.           Purgatoire River: FIELD
LOC.           1222' FNL & 670' FEL--: LOCATION
CNTY.               Las Animas: COUNTY
SRVC.                Patterson: SERVICE COMPANY
DATE.          Wed Mar 15 10:37:39 2006: LOG DATE
UWI.           05 071 08500 00: UNIQUE WELL ID
STAT.                 Colorado: STATE
~Curve Information Block
DEPT.FT            0 000 00 00: Depth
SN.Ohm-m                      : IEL Short Normal
SP.mV                         : IEL Spontaneous Potential
DIR.Ohm-m                     : IEL Induction Resistivity
GR.GAPI                       : Gamma Ray
~Parameter Information Block
~A  Depth        SN          SP         DIR          GR     
# ...
  2048.5000     30.0062     82.9779     25.3754     78.2589
  2048.7500     30.1035     81.8023     25.5972     77.0061
  2049.0000     30.1624     80.7672     25.6592     75.4264
  2049.2500     30.2607     79.8771     25.6246     75.1284
  2049.5000     30.4430     79.1210     25.5730     75.5387
  2049.7500     30.7220     78.4797     25.5704     75.7391
  2050.0000     31.1024     77.9306     25.6611     75.3868
  2050.2500     31.5938     77.4518     25.8698     75.1159
  2050.5000     32.1945     77.0230     26.2042     75.5424
  2050.7500     32.8703     76.6264     26.6560     76.2542
  2051.0000     33.5623     76.2479     27.2057     76.6992
  2051.2500     34.2197     75.8785     27.8331     75.9351
  2051.5000     34.8284     75.5159     28.5289     73.2374
  2051.7500     35.4103     75.1663     29.2959     71.0734
  2052.0000     35.9943     74.8441     30.1380     68.7118
  2052.2500     36.5755     74.5697     31.0386     68.1145
  2052.5000     37.0838     74.3664     31.9367     67.9573
  2052.7500     37.3946     74.2560     32.7109     67.4601
  2053.0000     37.3946     74.2543     33.1912     65.2568
  2053.2500     37.0706     74.3688     33.2113     63.1228
  2053.5000     36.5474     74.5972     32.6887     60.5151
  2053.7500     36.0275     74.9292     31.6773     60.3298
  2054.0000     35.6721     75.3485     30.3506     64.0096
  2054.2500     35.5134     75.8362     28.9264     69.3663
  2054.5000     35.4657     76.3729     27.5873     80.5262
  2054.7500     35.4098     76.9407     26.4396     88.5507
  2055.0000     35.2665     77.5243     25.5090     98.5570
  2055.2500     35.0000     78.1115     24.7589    102.6187
  2055.5000     34.5706     78.6934     24.1166    104.2848
  2055.7500     33.9109     79.2647     23.5046    103.1052
  2056.0000     32.9609     79.8238     22.8723     99.8053
  2056.2500     31.7337     80.3714     22.2158     97.7035
  2056.5000     30.3524     80.9086     21.5721     96.4021
  2056.7500     29.0233     81.4344     20.9945     97.6810
  2057.0000     27.9651     81.9428     20.5284    103.8460
  2057.2500     27.3315     82.4204     20.1996    110.4830
  2057.5000     27.1575     82.8455     20.0130    121.4419
  2057.7500     27.3394     83.1887     19.9533    127.0465
  2058.0000     27.6625     83.4174     19.9823    129.9618
  2058.2500     27.8768     83.5010     20.0396    128.0076
  2058.5000     27.7911     83.4192     20.0545    120.8378
  2058.7500     27.3489     83.1691     19.9735    114.5022
  2059.0000     26.6532     82.7707     19.7887    104.4277
  2059.2500     25.9283     82.2668     19.5454     98.1730
  2059.5000     25.4311     81.7178     19.3192     91.0264
  2059.7500     25.3557     81.1914     19.1819     88.5670
  2060.0000     25.7729     80.7487     19.1738     88.7555
  2060.2500     26.6190     80.4328     19.2911     90.9493
  2060.5000     27.7247     80.2606     19.4860     95.7580
  2060.7500     28.8663     80.2222     19.6805     99.0677
  2061.0000     29.8222     80.2866     19.7970    102.9809
  2061.2500     30.4240     80.4105     19.7960    104.4411
  2061.5000     30.5953     80.5495     19.6984    104.7138
  2061.7500     30.3660     80.6653     19.5737    103.8577
  2062.0000     29.8499     80.7302     19.5031    101.7299
  2062.2500     29.1881     80.7272     19.5411    100.1114
  2062.5000     28.4874     80.6482     19.6897     97.8548
  2062.7500     27.7792     80.4913     19.8878     96.9578
  2063.0000     27.0069     80.2587     20.0182     97.9255
  2063.2500     26.0503     79.9571     19.9388    100.6072
  2063.5000     24.7873     79.5991     19.5386    106.3972
  2063.7500     23.1708     79.2057     18.7952    109.5663
  2064.0000     21.2769     78.8091     17.7887    110.5501
  2064.2500     19.2882     78.4537     16.6613    108.5551
  2064.5000     17.4241     78.1947     15.5539    103.7273
  2064.7500     15.8592     78.0919     14.5640    100.9590
  2065.0000     14.6782     78.2006     13.7357     99.6503
  2065.2500     13.8746     78.5574     13.0694    101.2697
  2065.5000     13.3773     79.1667     12.5356    106.9900
  2065.7500     13.0856     79.9901     12.0888    111.8264
  2066.0000     12.9014     80.9436     11.6826    118.0940
  2066.2500     12.7509     81.9061     11.2839    120.7837
  2066.5000     12.5923     82.7387     10.8796    123.0007
  2066.7500     12.4105     83.3121     10.4750    124.1225
  2067.0000     12.2077     83.5344     10.0852    126.3133
  2067.2500     11.9946     83.3732      9.7274    127.9294
  2067.5000     11.7846     82.8639      9.4165    129.1512
  2067.7500     11.5898     82.1025      9.1611    128.4929
  2068.0000     11.4186     81.2252      8.9597    125.7282
  2068.2500     11.2728     80.3790      8.8003    123.6620
  2068.5000     11.1473     79.6927      8.6642    121.5656
  2068.7500     11.0336     79.2531      8.5342    120.9467
  2069.0000     10.9259     79.0940      8.4030    120.4949
  2069.2500     10.8248     79.1981      8.2755    120.0295
  2069.5000     10.7395     79.5098      8.1656    118.8919
  2069.7500     10.6877     79.9566      8.0908    118.2840
  2070.0000     10.6922     80.4717      8.0672    118.6631
  2070.2500     10.7733     81.0109      8.1076    119.8719
  2070.5000     10.9387     81.5622      8.2196    121.8529
  2070.7500     11.1766     82.1423      8.4057    122.2618
  2071.0000     11.4573     82.7854      8.6627    120.7639
  2071.2500     11.7462     83.5241      8.9820    118.7551
  2071.5000     12.0199     84.3719      9.3494    115.3395
  2071.7500     12.2744     85.3107      9.7468    113.0111
  2072.0000     12.5195     86.2871     10.1552    109.0792
  2072.2500     12.7647     87.2203     10.5595    106.1875
  2072.5000     13.0085     88.0177     10.9527    102.3601
  2072.7500     13.2388     88.5956     11.3357    100.5697
  2073.0000     13.4420     88.8973     11.7120     98.5624
  2073.2500     13.6129     88.9050     12.0802     97.1041
  2073.5000     13.7548     88.6418     12.4271     94.5404
  2073.7500     13.8725     88.1654     12.7265     93.0473
  2074.0000     13.9656     87.5552     12.9471     92.2794
  2074.2500     14.0298     86.8977     13.0667     93.3068
  2074.5000     14.0641     86.2742     13.0861     97.4575
  2074.7500     14.0787     85.7530     13.0318    101.5061
  2075.0000     14.0958     85.3844     12.9478    107.8094
  2075.2500     14.1413     85.1996     12.8813    111.2069
  2075.5000     14.2349     85.2094     12.8715    114.3265
  2075.7500     14.3856     85.4041     12.9438    115.0377
  2076.0000     14.5948     85.7535     13.1101    114.1823
  2076.2500     14.8603     86.2078     13.3707    112.5663
  2076.5000     15.1816     86.7012     13.7175    109.2689
  2076.7500     15.5680     87.1577     14.1386    106.7383
  2077.0000     16.0443     87.4996     14.6243    102.2591
  2077.2500     16.6453     87.6586     15.1712     98.7404
  2077.5000     17.3968     87.5856     15.7826     93.5148
  2077.7500     18.2915     87.2592     16.4650     90.9701
  2078.0000     19.2781     86.6894     17.2219     89.4525
  2078.2500     20.2746     85.9161     18.0482     89.6537
  2078.5000     21.1965     85.0014     18.9230     90.3370
  2078.7500     21.9814     84.0190     19.8050     90.3804
  2079.0000     22.6051     83.0425     20.6371     89.7531
  2079.2500     23.0891     82.1356     21.3639     89.1589
  2079.5000     23.4935     81.3458     21.9566     87.8252
  2079.7500     23.8894     80.7026     22.4271     86.1063
  2080.0000     24.3245     80.2185     22.8184     82.0556
  2080.2500     24.8072     79.8918     23.1792     79.0798
  2080.5000     25.3164     79.7101     23.5439     75.5441
  2080.7500     25.8232     79.6539     23.9281     73.8064
  2081.0000     26.3031     79.6990     24.3343     71.1829
  2081.2500     26.7382     79.8198     24.7583     69.1314
  2081.5000     27.1176     79.9919     25.1893     65.8406
  2081.7500     27.4402     80.1938     25.6082     63.5673
