~Version Information
VERS.                      2.0: CWLS Log ASCII Standard - VERSION 2.0
WRAP.                       NO: One line per depth step
~Well Information Block
STRT.FT               295.7500: 
STOP.FT              1461.0000: 
STEP.FT                 0.2500: 
NULL.                -999.2500: 
COMP.          Pioneer Natural Resources: COMPANY
WELL.              Lucky 21-36: WELL
FLD.           Purgatoire River: FIELD
LOC.           799' FNL & 1578' FWL--: LOCATION
CDN. :
PROV. :
UWI. :
STAT. :
CNTY. :
CTRY. :
API. :
COMP. :
WELL. :
FLD. :
LOC. :
DATE. :
SRVC. :
CNTY.               Las Animas: COUNTY
SRVC.          Superior Well Services: SERVICE COMPANY
DATE.          Mon Jul 07 19-13-01 2008: LOG DATE
UWI.           05 071 08456 00: UNIQUE WELL ID
STAT.                 Colorado: STATE
~Curve Information Block
DEPT.FT            0 000 00 00: Depth
SN.Ohm-m                      : IEL Short Normal
SP.mV                         : IEL Spontaneous Potential
DIR.Ohm-m                     : IEL Induction Resistivity
GR.GAPI                       : Gamma Ray
~Parameter Information Block
~A  Depth        SN          SP         DIR          GR     
# ...
  1434.7500     27.1832     59.4425     22.7213   -999.2500
  1435.0000     26.6797     58.8515     22.3489   -999.2500
  1435.2500     26.0063     58.1099     22.0555   -999.2500
  1435.5000     25.2451     57.2542     21.8070   -999.2500
  1435.7500     24.5617     56.3308     21.5921   -999.2500
  1436.0000     24.2783     55.3912     21.4285   -999.2500
  1436.2500     24.5427     54.4865     21.3434   -999.2500
  1436.5000     25.1464     53.6649     21.3363   -999.2500
  1436.7500     25.5817     52.9682     21.3497   -999.2500
  1437.0000     25.4824     52.4310     21.2718   -999.2500
  1437.2500     24.7871     52.0791     20.9794   -999.2500
  1437.5000     23.6886     51.9282     20.3994   -999.2500
  1437.7500     22.4769     51.9822     19.5481   -999.2500
  1438.0000     21.2858     52.2321     18.5195   -999.2500
  1438.2500     20.3020     52.6555     17.4383   -999.2500
  1438.5000     19.6875     53.2165     16.4142   -999.2500
  1438.7500     19.2878     53.8687     15.5192   -999.2500
  1439.0000     18.8849     54.5586     14.7869   -999.2500
  1439.2500     18.3930     55.2309     14.2234   -999.2500
  1439.5000     17.8875     55.8346     13.8189   -999.2500
  1439.7500     17.5603     56.3284     13.5564   -999.2500
  1440.0000     17.3842     56.6850     13.4190   -999.2500
  1440.2500     17.2473     56.8936     13.3958   -999.2500
  1440.5000     17.2049     56.9600     13.4851   -999.2500
  1440.7500     17.3354     56.9047     13.6925   -999.2500
  1441.0000     17.7130     56.7589     14.0253   -999.2500
  1441.2500     18.2972     56.5596     14.4876   -999.2500
  1441.5000     18.9271     56.3448     15.0787   -999.2500
  1441.7500     19.6774     56.1481     15.7943   -999.2500
  1442.0000     20.8448     55.9956     16.6242   -999.2500
  1442.2500     22.2957     55.9039     17.5459   -999.2500
  1442.5000     23.5374     55.8797     18.5157   -999.2500
  1442.7500     24.4528     55.9213     19.4694   -999.2500
  1443.0000     25.0906     56.0206     20.3376   -999.2500
  1443.2500     25.4565     56.1664     21.0711   -999.2500
  1443.5000     25.7173     56.3472     21.6619   -999.2500
  1443.7500     26.0959     56.5536     22.1467   -999.2500
  1444.0000     26.6838     56.7800     22.5903   -999.2500
  1444.2500     27.3706     57.0250     23.0590   -999.2500
  1444.5000     27.9649     57.2908     23.5929   -999.2500
  1444.7500     28.3900     57.5827     24.1907   -999.2500
  1445.0000     28.6280     57.9068     24.8095   -999.2500
  1445.2500     28.7215     58.2691     25.3801   -999.2500
  1445.5000     28.7478     58.6739     25.8330   -999.2500
  1445.7500     28.7413     59.1233     26.1239   -999.2500
  1446.0000     28.6823     59.6175     26.2444   -999.2500
  1446.2500     28.5090     60.1548     26.2153   -999.2500
  1446.5000     28.2539     60.7322     26.0693   -999.2500
  1446.7500     28.0580     61.3467     25.8413   -999.2500
  1447.0000     27.9490     61.9954     25.5662   -999.2500
  1447.2500     27.7709     62.6757     25.2785   -999.2500
  1447.5000     27.4884     63.3855     25.0068   -999.2500
  1447.7500     27.2278     64.1228     24.7673   -999.2500
  1448.0000     27.0430     64.8845     23.5774   -999.2500
  1448.2500     26.9012     65.6656     23.3981   -999.2500
  1448.5000     26.7015     66.4582     23.1984   -999.2500
  1448.7500     26.3687     67.2504     22.9373   -999.2500
  1449.0000     25.8827     68.0250     22.5823   -999.2500
  1449.2500     25.2536     68.7599     22.1299   -999.2500
  1449.5000     24.6151     69.4288     21.6166   -999.2500
  1449.7500     24.1656     70.0029     21.1086   -999.2500
  1450.0000     23.9395     70.4539     20.6779   -999.2500
  1450.2500     23.8658     70.7585     20.3801   -999.2500
  1450.5000     23.8287     70.9011     20.2487   -999.2500
  1450.7500     23.6962     70.8781     20.3057   -999.2500
  1451.0000     23.5210     70.6984     20.5805   -999.2500
  1451.2500     23.4171     70.3815     21.1169   -999.2500
  1451.5000     23.4182     69.9592     22.9877   -999.2500
  1451.7500     23.6453     69.4669     24.2370   -999.2500
  1452.0000     24.2155     68.9394     25.7228   -999.2500
  1452.2500     25.0000     68.4037     27.2399   -999.2500
  1452.5000     25.7160     67.8734     28.5431   -999.2500
  1452.7500     26.2276     67.3430     29.4708   -999.2500
  1453.0000     26.5650     66.7843     30.0165   -999.2500
  1453.2500     26.7494     66.1436     30.2877   -999.2500
  1453.5000     26.8195     65.3419     30.4130   -999.2500
  1453.7500     26.7412     64.2762     30.4855   -999.2500
  1454.0000     26.4992     62.8254     30.5558   -999.2500
  1454.2500     26.1594     60.8594     30.6474   -999.2500
  1454.5000     25.7352     58.2524   1844.7070   -999.2500
  1454.7500     25.2488     54.9003   2511.7515   -999.2500
  1455.0000     24.8192     50.7398   4116.0054   -999.2500
  1455.2500     24.5392     45.7661  10709.5879   -999.2500
  1455.5000     24.3806     40.0448 100000.0000   -999.2500
  1455.7500     24.3752     33.7160 100000.0000   -999.2500
  1456.0000     24.4602     26.9855 100000.0000   -999.2500
  1456.2500     23.4037     20.1055 100000.0000   -999.2500
  1456.5000     17.5422     13.3462 100000.0000   -999.2500
  1456.7500      7.5704      6.9648 100000.0000   -999.2500
  1457.0000      1.4778      1.1756 100000.0000   -999.2500
  1457.2500      0.1153     -3.8707 100000.0000   -999.2500
  1457.5000      0.0034     -8.0971 100000.0000   -999.2500
  1457.7500   -999.2500    -11.4978 100000.0000   -999.2500
  1458.0000   -999.2500    -14.1269 100000.0000   -999.2500
  1458.2500   -999.2500    -16.0795 100000.0000   -999.2500
  1458.5000   -999.2500    -17.4726 100000.0000   -999.2500
  1458.7500   -999.2500    -18.4276 100000.0000   -999.2500
  1459.0000   -999.2500    -19.0565 100000.0000   -999.2500
  1459.2500   -999.2500    -19.4544 100000.0000   -999.2500
  1459.5000   -999.2500    -19.6962 100000.0000   -999.2500
  1459.7500   -999.2500    -19.8373 100000.0000   -999.2500
  1460.0000   -999.2500    -19.9165 100000.0000   -999.2500
  1460.2500   -999.2500    -19.9592 100000.0000   -999.2500
  1460.5000   -999.2500    -19.9812 100000.0000   -999.2500
  1460.7500   -999.2500    -19.9922 100000.0000   -999.2500
  1461.0000   -999.2500    -19.9975 100000.0000   -999.2500
