~Version Information
VERS.                                  2.0 : CWLS LAS VERSION
WRAP.                                   NO : WRAPING MODE
SWARE .                  MController 2.5.1 : SOFTWARE VERSION
~Well Information
WELL.                  Horesfeathers 24-34 : WELL
COMP.  Pioneer Natural Resources USA, Inc. : COMPANY
FLD.                      Purgatoire River : FIELD
LOC.                      SE/SW 34-32S-67W : LOCATION
DATE.                02/03/2006-02/05/2006 : DATE(S) LOGGED
SRVC.                  Entrada GeoSciences : SERVICE COMPANY
STAT.                             Colorado : STATE
CNTY.                           Las Animas : COUNTY
CTRY.                        United States : COUNTRY
API.                          05-071-xxxxx : API NUMBER
STRT.FT                             514.00 : START DEPTH
STOP.FT                            2575.00 : STOP DEPTH
STEP.FT                               1.00 : DEPTH INCREMENT
NULL.                                -9999 : NULL VALUE
~Curve information
DEPTH.FT                                   :
ROP.MIN/FT                                 :
GAS.UNITS                                  :
~ASCII Log data
      514.00     -9999.00          8.4
      515.00         0.20         10.9
      516.00         0.18         11.6
      517.00         0.17         11.4
      518.00         0.20         11.5
      519.00         0.20         11.2
      520.00         0.17         11.2
      521.00         0.17         11.3
      522.00         0.17         11.8
      523.00         0.20         10.5
      524.00         0.30         11.3
      525.00         0.30         11.3
      526.00         0.47         11.8
      527.00         0.13         10.7
      528.00         0.27         11.1
      529.00         0.20         11.9
      530.00         0.23         12.2
      531.00         0.42         13.2
      532.00         0.17         12.3
      533.00         0.20         12.3
      534.00         0.17         12.1
      535.00         0.20         12.0
      536.00         0.23         12.6
      537.00         0.17         12.4
      538.00         0.27         12.4
      539.00         0.27         12.3
      540.00         0.28         12.4
      541.00         0.23         12.6
      542.00         0.20         12.6
      543.00         0.23         11.5
      544.00         0.20         12.1
      545.00         0.27         12.3
      546.00         0.17         12.1
      547.00         0.13         12.1
      548.00         0.20         12.1
      549.00         0.20         12.6
      550.00         0.30         12.6
      551.00         0.20         12.6
      552.00         0.20         13.1
      553.00         0.17         13.3
      554.00         0.20         13.1
      555.00         0.20         13.3
      556.00         0.25         12.1
      557.00         0.20         12.1
      558.00         0.23         11.4
      559.00         0.23         20.2
      560.00         0.27         13.1
      561.00         0.37         14.4
      562.00         0.17         14.7
      563.00         0.17         14.3
      564.00         0.13         14.3
      565.00         0.10         14.0
      566.00         0.13         13.9
      567.00         0.10         13.9
      568.00         0.17         13.4
      569.00         0.18         13.4
      570.00         0.20         13.5
      571.00         0.20         13.9
      572.00         0.23         13.6
      573.00         0.17         13.2
      574.00         0.20         13.6
      575.00         0.20         13.0
      576.00         0.27         12.7
      577.00         0.23         12.2
      578.00         0.23         12.2
      579.00         0.27         13.1
      580.00         0.27         12.7
      581.00         0.17         12.7
      582.00         0.20         12.8
      583.00         0.23         13.0
      584.00         0.28         12.6
      585.00         0.17         12.3
      586.00         0.17         13.1
      587.00         0.20         12.6
      588.00         0.20         11.7
      589.00         0.20         12.6
      590.00         0.23         13.7
      591.00         0.37         13.1
      592.00         0.20         13.6
      593.00         0.20         13.5
      594.00         0.20         13.4
      595.00         0.20         13.1
      596.00         0.23         12.8
      597.00         0.23         13.1
      598.00         0.20         13.0
      599.00         0.23         13.5
      600.00         0.23         13.5
      601.00         0.23         13.5
      602.00         0.23         13.3
      603.00         0.20         12.9
      604.00         0.20         13.4
      605.00         0.20         13.6
      606.00         0.25         13.4
      607.00         0.20         13.0
      608.00         0.23         12.7
      609.00         0.23         13.7
      610.00         0.20         13.5
      611.00         0.27         13.8
      612.00         0.23         13.8
      613.00         0.20         13.8
      614.00         0.17         13.7
      615.00         0.17         13.1
      616.00         0.17         13.1
      617.00         0.20         13.1
      618.00         0.20         12.7
      619.00         0.23         14.0
      620.00         0.17         13.7
      621.00         0.33         13.7
      622.00         0.20         13.5
      623.00         0.20         14.2
      624.00         0.20         14.5
      625.00         0.20         13.5
      626.00         0.27         14.0
      627.00         0.20         13.1
      628.00         0.17         14.0
      629.00         0.20         13.1
      630.00         0.23         13.2
      631.00         0.23         13.6
      632.00         0.22         13.2
      633.00         0.17         13.4
      634.00         0.23         13.7
      635.00         0.17         13.4
      636.00         0.23         13.3
      637.00         0.20         13.2
      638.00         0.20         13.8
      639.00         0.20         13.7
      640.00         0.20         13.6
      641.00         0.17         14.0
      642.00         0.20         14.5
      643.00         0.20         14.0
      644.00         0.17         26.6
      645.00         0.20         29.3
      646.00         0.20         17.6
      647.00         0.27         16.8
      648.00         0.13         14.2
      649.00         0.22         14.3
      650.00         0.27         14.5
      651.00         0.47         15.3
      652.00         0.17         14.6
      653.00         0.17         14.6
      654.00         0.20         14.4
      655.00         0.17         14.4
      656.00         0.23         14.7
      657.00         0.23         14.4
      658.00         0.20         14.2
      659.00         0.22         14.4
      660.00         0.20         13.9
      661.00         0.20         14.3
      662.00         0.17         14.4
      663.00         0.17         14.7
      664.00         0.17         13.8
      665.00         0.20         14.9
      666.00         0.17         14.7
      667.00         0.13         14.7
      668.00         0.17         13.7
      669.00         0.17         14.5
      670.00         0.20         14.8
      671.00         0.17         14.7
      672.00         0.17         14.9
      673.00         0.17         14.7
      674.00         0.17         14.6
      675.00         0.20         14.7
      676.00         0.20         15.4
      677.00         0.17         15.3
      678.00         0.22         14.8
      679.00         0.20         15.7
      680.00         0.20         16.1
      681.00         0.23         15.7
      682.00         0.17         15.3
      683.00         0.20         15.1
      684.00         0.17         15.5
      685.00         0.20         15.3
      686.00         0.17         15.3
      687.00         0.17         15.3
      688.00         0.23         15.7
      689.00         0.20         15.0
      690.00         0.20         15.3
      691.00         0.20         15.1
      692.00         0.20         15.5
      693.00         0.17         15.4
      694.00         0.20         15.4
      695.00         0.20         15.4
      696.00         0.17         15.5
      697.00         0.23         15.5
      698.00         0.22         15.7
      699.00         0.20         15.6
      700.00         0.20         15.6
      701.00         0.17         15.8
      702.00         0.20         15.8
      703.00         0.17         15.5
      704.00         0.17         15.5
      705.00         0.20         15.1
      706.00         0.20         15.1
      707.00         0.17         15.8
      708.00         0.20         15.5
      709.00         0.17         15.5
      710.00         0.27         16.4
      711.00         0.53         15.9
      712.00         0.23         15.3
      713.00         0.17         15.4
      714.00         0.17         15.4
      715.00         0.20         16.3
      716.00         0.20         15.9
      717.00         0.20         15.8
      718.00         0.22         15.6
      719.00         0.20         15.9
