~Version Information
VERS.                      2.0: CWLS Log ASCII Standard - VERSION 2.0
WRAP.                       NO: One line per depth step
~Well Information Block
STRT.FT               245.0000: 
STOP.FT              1102.5000: 
STEP.FT                 0.1000: 
NULL.                -999.2500: 
COMP.          Pioneer Natural Resources: COMPANY
WELL.           Pavilion 44-25: WELL
FLD.           Purgatoire River: FIELD
LOC.           719' FSL & 650' FEL: LOCATION
PROV.                 Colorado: PROVINCE
CNTY.               Las Animas: COUNTRY
SRVC.                Patterson: SERVICE COMPANY
DATE.          Wed Dec 14 09:57:07 2005: LOG DATE
UWI.           05 071 08624 00: UNIQUE WELL ID
~Curve Information Block
DEPT.FT            0 000 00 00: Depth
DCAL.in                       : CDL Caliper
RHOB.g/cc                     : CDL Bulk Density
RHOC.g/cc                     : CDL Density Correction
DPOR.pu                       : CDL Density Porosity
GR.GAPI                       : Gamma Ray
NPOR.pu                       : Neutron Porosity
~Parameter Information Block
~A  Depth       DCAL        RHOB        RHOC        DPOR         GR         NPOR    
# ...
   638.6000      8.0284      2.5572      0.1132      5.6237    104.3866     26.5015
   638.7000      8.0284      2.5345      0.0425      6.9979    111.5171     26.0817
   638.8000      8.0290      2.5314      0.0539      7.1866    119.7067     25.2592
   638.9000      8.0290      2.5349      0.1067      6.9747    120.9207     24.3061
   639.0000      8.0276      2.5240      0.0781      7.6380    120.9903     24.2323
   639.1000      8.0276      2.5036      0.0266      8.8724    125.8365     25.1194
   639.2000      8.0276      2.4897      0.0333      9.7153    132.5501     25.7526
   639.3000      8.0282      2.4894     -0.0074      9.7353    135.5273     25.5084
   639.4000      8.0282      2.4983      0.0814      9.1943    133.1391     25.2067
   639.5000      8.0315      2.5068      0.0339      8.6780    129.0191     25.6700
   639.6000      8.0315      2.5171      0.0861      8.0549    125.8486     26.5116
   639.7000      8.0315      2.5312      0.0853      7.1970    126.1686     26.9690
   639.8000      8.0301      2.5400      0.1382      6.6686    129.1540     27.2552
   639.9000      8.0301      2.5303      0.1451      7.2563    129.4800     27.7649
   640.0000      8.0281      2.5027      0.0852      8.9250    124.6198     28.0897
   640.1000      8.0281      2.4758      0.0493     10.5553    118.9732     27.5305
   640.2000      8.0281      2.4683     -0.0027     11.0145    118.1650     26.5311
   640.3000      8.0279      2.4823      0.0159     10.1635    121.6811     25.9914
   640.4000      8.0279      2.5027      0.0507      8.9293    124.7825     25.5569
   640.5000      8.0261      2.5169      0.0541      8.0690    124.7350     24.8997
   640.6000      8.0261      2.5256      0.0669      7.5400    123.0559     24.5933
   640.7000      8.0261      2.5291      0.0506      7.3254    123.1628     24.5120
   640.8000      8.0265      2.5136      0.0726      8.2637    126.3384     24.1779
   640.9000      8.0265      2.4691      0.0002     10.9642    130.8327     24.0707
   641.0000      8.0270      2.4210     -0.0671     13.8808    132.2577     24.5232
   641.1000      8.0270      2.3975     -0.0089     15.3015    127.7104     24.9791
   641.2000      8.0270      2.3877      0.0201     15.8984    120.4753     24.9172
   641.3000      8.0279      2.3726     -0.0157     16.8095    116.6714     24.5228
   641.4000      8.0279      2.3531     -0.0059     17.9939    115.1320     24.1917
   641.5000      8.0318      2.3375     -0.0399     18.9412    112.3780     24.1227
   641.6000      8.0318      2.3376     -0.0226     18.9329    111.9223     24.1488
   641.7000      8.0318      2.3570      0.0373     17.7553    115.3524     23.9767
   641.8000      8.0306      2.3849      0.0335     16.0696    118.8231     23.6524
   641.9000      8.0306      2.4160      0.0348     14.1805    119.1052     23.4087
   642.0000      8.0311      2.4475      0.0797     12.2708    114.5764     23.3162
   642.1000      8.0311      2.4630      0.1172     11.3305    109.2706     23.3290
   642.2000      8.0311      2.4602      0.0628     11.5032    110.1197     23.4189
   642.3000      8.0250      2.4609      0.1098     11.4607    113.9059     23.8888
   642.4000      8.0250      2.4772      0.0865     10.4716    115.8396     24.9683
   642.5000      8.0114      2.5007      0.1360      9.0487    119.8344     26.1436
   642.6000      8.0114      2.5130      0.1457      8.3022    126.1833     26.7088
   642.7000      8.0114      2.5029      0.1412      8.9161    130.5695     26.4255
   642.8000      8.0272      2.4742      0.1370     10.6538    132.5345     25.8695
   642.9000      8.0272      2.4485      0.0782     12.2108    131.6276     25.6499
   643.0000      8.0286      2.4473      0.1315     12.2829    128.5289     25.8411
   643.1000      8.0286      2.4659      0.1341     11.1575    127.9814     26.0397
   643.2000      8.0286      2.4899      0.1302      9.7022    132.6564     25.7611
   643.3000      8.0299      2.5106      0.1608      8.4503    139.2530     25.1657
   643.4000      8.0299      2.5196      0.1406      7.9008    143.9896     24.3452
   643.5000      8.0262      2.5157      0.1229      8.1380    147.0110     23.2304
   643.6000      8.0262      2.5072      0.1266      8.6550    147.8282     22.3866
   643.7000      8.0262      2.4973      0.1717      9.2536    145.1368     22.1972
   643.8000      8.0237      2.4865      0.1238      9.9062    139.1811     22.3559
   643.9000      8.0237      2.4892      0.1089      9.7467    130.4358     22.3285
   644.0000      8.0314      2.5048      0.1853      8.8002    124.0018     22.2819
   644.1000      8.0314      2.5055      0.1373      8.7599    124.6576     22.2832
   644.2000      8.0314      2.4848      0.0307     10.0104    131.8684     21.7554
   644.3000      8.0316      2.4600      0.0664     11.5128    139.3486     20.9848
   644.4000      8.0316      2.4249      0.0652     13.6396    141.9160     20.8045
   644.5000      8.0316      2.3588      0.0374     17.6500    144.2928     21.4897
   644.6000      8.0316      2.2678     -0.0300     23.1665    148.5480     22.5921
   644.7000      8.0316      2.1821     -0.0240     28.3568    147.4054     23.6725
   644.8000      8.0279      2.1178     -0.0375     32.2547    138.9792     24.8759
   644.9000      8.0279      2.0773     -0.0643     34.7120    128.9685     25.9243
   645.0000      8.0300      2.0691     -0.0825     35.2052    122.3129     26.3362
   645.1000      8.0300      2.0960     -0.0599     33.5759    118.3779     26.3542
   645.2000      8.0300      2.1464     -0.0179     30.5242    115.5377     26.4269
   645.3000      8.0286      2.2103      0.0634     26.6455    115.5607     26.6670
   645.4000      8.0286      2.2849      0.1462     22.1262    115.8803     26.9533
   645.5000      8.0268      2.3620      0.2101     17.4569    115.7228     27.2434
   645.6000      8.0268      2.4287      0.1691     13.4109    119.0899     27.4868
   645.7000      8.0268      2.4783      0.1145     10.4083    124.4969     27.3610
   645.8000      8.0244      2.5082      0.0862      8.5913    126.1739     26.7543
   645.9000      8.0244      2.5174      0.0939      8.0364    121.9169     25.8213
   646.0000      8.0256      2.5115      0.0539      8.3910    114.5609     24.7891
   646.1000      8.0256      2.5075      0.0132      8.6389    105.2852     24.0031
   646.2000      8.0256      2.5154      0.0532      8.1606     94.6652     23.4550
   646.3000      8.0233      2.5309      0.0279      7.2179     87.5792     23.2849
   646.4000      8.0233      2.5565      0.0395      5.6646     86.2762     23.7257
   646.5000      8.0207      2.5885      0.1149      3.7260     86.2657     24.5036
   646.6000      8.0207      2.5988      0.1200      3.1002     83.5432     25.1994
   646.7000      8.0207      2.5762      0.0755      4.4706     81.1306     25.5228
   646.8000      8.0216      2.5507      0.0506      6.0196     80.2960     25.0140
   646.9000      8.0216      2.5474      0.0556      6.2208     77.4937     23.5760
   647.0000      8.0200      2.5567      0.0633      5.6569     74.2891     22.1797
   647.1000      8.0200      2.5648      0.0370      5.1655     72.9664     21.5390
   647.2000      8.0200      2.5711      0.0725      4.7828     72.5805     21.1383
   647.3000      8.0221      2.5791      0.0056      4.2982     71.8182     20.4084
   647.4000      8.0221      2.5936      0.0202      3.4180     69.4761     19.4692
   647.5000      8.0217      2.6084      0.0723      2.5229     65.0349     18.8660
   647.6000      8.0217      2.6100      0.0388      2.4218     58.7064     18.6909
   647.7000      8.0217      2.5896      0.0710      3.6595     52.0120     18.4763
   647.8000      8.0200      2.5512      0.0007      5.9863     46.3348     18.1881
   647.9000      8.0200      2.5237     -0.0414      7.6573     41.5368     17.8637
   648.0000      8.0177      2.5241      0.0154      7.6294     39.8565     17.3016
   648.1000      8.0177      2.5356     -0.0118      6.9360     42.8272     16.3788
