~Version Information
VERS.                      2.0: CWLS Log ASCII Standard - VERSION 2.0
WRAP.                       NO: One line per depth step
~Well Information Block
STRT.FT                -7.0000: 
STOP.FT              1239.2500: 
STEP.FT                 0.2500: 
NULL.                -999.2500: 
COMP.          Pioneer Natural Resources: COMPANY
WELL.              Julie 11-30: WELL
FLD.           Purgatorie River: FIELD
LOC.           672' FNL & 1052' FWL--: LOCATION
CNTY.               Las Animas: COUNTY
SRVC.          Patterson Wireline: SERVICE COMPANY
DATE.          Tue Apr 18 11:12:35 2006: LOG DATE
UWI.           05 071 08724 00: UNIQUE WELL ID
STAT.                       CO: STATE
~Curve Information Block
DEPT.FT            0 000 00 00: Depth
CCL.                          : Casing Collar Locator
TT3.usec                      : CBL 3' Travel Time
AMP3.mV                       : CBL 3' Amplitude
GR.GAPI                       : Gamma Ray
~Parameter Information Block
~A  Depth       CCL         TT3         AMP3         GR     
# ...
   227.5000      0.0000    640.0159      5.4517     87.6224
   227.7500      0.0000    643.1334      5.4757     85.5328
   228.0000      0.0000    643.7715      5.5139     81.4651
   228.2500      0.0000    640.2784      5.5802     76.9150
   228.5000      0.0000    636.6168      5.6749     74.2778
   228.7500      0.0000    635.4568      5.7824     75.5366
   229.0000      0.0000    634.4848      5.8857     80.9446
   229.2500      0.0000    626.6509      5.9776     88.6941
   229.5000      0.0000    603.3663      6.0582     95.8448
   229.7500      0.0000    560.9894      6.1266     99.9893
   230.0000      0.0000    505.8895      6.1770    100.5129
   230.2500      0.0000    451.4218      6.2034     98.5425
   230.5000      0.0000    409.0811      6.2061     95.8729
   230.7500      0.0000    382.6094      6.1954     93.8289
   231.0000      0.0000    369.0890      6.1871     92.6610
   231.2500      0.0000    363.3914      6.1919     91.6753
   231.5000      0.0000    361.3915      6.2078     90.0114
   231.7500      0.0000    360.7781      6.2243     87.4919
   232.0000      0.0000    360.5540      6.2341     84.8922
   232.2500      0.0000    360.4004      6.2421     83.5147
   232.5000      0.0000    360.2709      6.2598     84.3791
   232.7500      0.0000    360.2022      6.2924     87.5363
   233.0000      0.0000    360.2140      6.3320     91.9847
   233.2500      0.0000    360.2720      6.3640     96.2146
   233.5000      0.0000    360.3031      6.3809     99.1435
   233.7500      0.0000    360.2494      6.3859    100.8633
   234.0000      0.0000    360.0828      6.3862    102.2786
   234.2500      0.0000    359.7171      6.3838    103.8304
   234.5000      0.0000    358.8350      6.3750    104.8988
   234.7500      0.0000    356.8165      6.3586    104.6041
   235.0000      0.0000    353.0297      6.3405    102.7632
   235.2500      0.0000    347.4611      6.3308     99.9973
   235.5000      0.0000    341.0914      6.3350     97.3078
   235.7500      0.0000    335.4222      6.3504     95.5147
   236.0000      0.0000    331.4985      6.3697     94.6578
   236.2500      0.0000    329.4099      6.3877     93.9110
   236.5000      0.0000    328.6061      6.4038     92.3851
   236.7500      0.0000    328.4655      6.4186     90.0238
   237.0000      0.0000    328.5864      6.4307     87.5625
   237.2500      0.0000    328.7892      6.4372     85.7402
   237.5000      0.0000    329.0231      6.4372     84.8097
   237.7500      0.0000    329.3114      6.4342     84.7068
   238.0000      0.0000    329.7887      6.4328     85.4860
   238.2500      0.0000    330.8217      6.4333     87.3499
   238.5000      0.0000    333.0477      6.4332     90.0362
   238.7500      0.0000    337.0815      6.4301     92.4452
   239.0000      0.0000    342.9000      6.4241     93.3867
   239.2500      0.0000    349.4827      6.4154     92.6698
   239.5000      0.0000    355.3001      6.4031     91.1446
   239.7500      0.0000    359.3107      6.3876     89.8872
   240.0000      0.0000    361.4670      6.3728     89.6963
   240.2500      0.0000    362.3758      6.3656     90.9486
   240.5000      0.0000    362.6900      6.3715     93.4503
   240.7500      0.0000    362.8075      6.3930     96.7075
   241.0000      0.0000    362.8944      6.4293    100.4501
   241.2500      0.0000    363.0007      6.4778    104.3023
   241.5000      0.0000    363.1320      6.5347    107.0009
   241.7500      0.0000    363.2752      6.5971    106.8819
   242.0000      0.0000    363.4123      6.6626    103.4360
   242.2500      0.0000    363.5476      6.7280     97.7674
   242.5000      0.0000    363.7573      6.7904     91.4777
   242.7500      0.0000    364.2738      6.8515     85.7069
   243.0000      0.0000    365.6114      6.9210     81.2191
   243.2500      0.0000    368.5901      7.0125     78.5240
   243.5000      0.0000    374.1577      7.1338     77.3734
   243.7500      0.0000    383.0969      7.2794     76.7255
   244.0000      0.0000    396.2569      7.4323     75.8946
   244.2500      0.0000    415.2033      7.5807     75.3100
   244.5000      0.0000    441.7434      7.7339     75.5680
   244.7500      0.0000    475.4443      7.9020     76.3017
   245.0000      0.0000    511.0847      8.0526     76.8032
   245.2500      0.0000    538.9855      8.1150     77.2688
   245.5000      0.0000    549.4511      8.0549     78.3444
   245.7500      0.0000    539.9344      7.9230     79.4920
   246.0000      0.0000    518.9304      7.8071     78.8181
   246.2500      0.0000    500.1367      7.7556     74.9475
   246.5000      0.0000    491.3073      7.7574     68.6916
   246.7500      0.0000    491.1961      7.7714     62.5677
   247.0000      0.0000    497.3618      7.7619     58.7437
   247.2500      0.0000    512.3270      7.7271     57.4400
   247.5000      0.0000    538.8818      7.7108     57.1122
   247.7500      0.0000    571.9479      7.7646     55.9787
   248.0000      0.0000    600.2943      7.8707     53.3988
   248.2500      0.0000    617.6304      7.9199     50.1997
   248.5000      0.0000    628.6077      7.8049     48.1922
   248.7500      0.0000    641.2867      7.5268     49.1920
   249.0000      0.0000    655.3600      7.1823     53.7513
   249.2500      0.0000    660.6164      6.8662     60.5838
   249.5000      0.0000    647.9487      6.6159     67.4135
   249.7500      0.0000    621.2568      6.4332     72.4268
   250.0000      0.0000    596.7381      6.3240     75.1243
   250.2500      0.0000    589.4365      6.3058     76.3911
   250.5000      0.0000    601.9779      6.3905     78.0651
   250.7500      0.0000    627.3177      6.5720     82.0261
   251.0000      0.0000    657.8763      6.8304     89.0286
   251.2500      0.0000    687.3459      7.1470     98.2196
   251.5000      0.0000    706.1187      7.5125    107.9218
   251.7500      0.0000    701.0854      7.9301    116.8539
   252.0000      0.0000    662.7722      8.4149    124.4906
   252.2500      0.0000    593.8216      8.9910    130.4520
   252.5000      0.0000    510.9742      9.6798    134.0757
   252.7500      0.0000    436.4813     10.4868    134.9675
   253.0000      0.0000    384.8410     11.3950    133.7496
   253.2500      0.0000    356.8909     12.3623    131.6628
   253.5000      0.0000    344.8667     13.3272    129.4684
   253.7500      0.0000    340.5468     14.2314    127.2359
   254.0000      0.0000    339.0705     15.0476    124.9497
   254.2500      0.0000    338.4955     15.7756    122.8861
   254.5000      0.0000    338.2454     16.4054    121.6958
   254.7500      0.0000    338.1746     16.8955    122.2471
   255.0000      0.0000    338.2392     17.1964    124.6758
   255.2500      0.0000    338.4346     17.2919    127.4706
   255.5000      0.0000    338.7470     17.2087    128.2688
   255.7500      0.0000    339.1055     16.9882    126.0005
   256.0000      0.0000    339.2876     16.6739    121.9986
   256.2500      0.0000    338.7905     16.3374    118.8416
   256.5000      0.0000    336.8306     16.0884    118.1845
   256.7500      0.0000    332.7137     16.0206    119.7261
   257.0000      0.0000    326.5156     16.1456    122.1161
   257.2500      0.0000    319.4311     16.3946    124.5725
   257.5000      0.0000    313.2129     16.6828    127.3617
   257.7500      0.0000    309.1468     16.9665    130.7705
   258.0000      0.0000    307.6502     17.2445    134.1783
   258.2500      0.0000    308.7118     17.5191    136.5359
   258.5000      0.0000    312.2663     17.7657    137.4278
   258.7500      0.0000    317.8823     17.9400    137.1300
   259.0000      0.0000    324.3523     18.0098    135.7310
   259.2500      0.0000    330.0712     17.9743    132.8414
   259.5000      0.0000    333.9891     17.8559    128.4939
   259.7500      0.0000    336.0912     17.6806    124.0090
   260.0000      0.0000    337.0159     17.4662    121.5026
   260.2500      0.0000    337.4112     17.2189    122.4441
   260.5000      0.0000    337.6355     16.9378    126.7758
   260.7500      0.0000    337.8082     16.6259    133.1308
