~Version Information
VERS.                      2.0: CWLS Log ASCII Standard - VERSION 2.0
WRAP.                       NO: One line per depth step
~Well Information Block
STRT.FT               645.0000: 
STOP.FT              1320.0000: 
STEP.FT                 0.1000: 
NULL.                -999.2500: 
COMP.          Pioneer Natural Resources: COMPANY
WELL.          Rockfish 11-30 Tr: WELL
FLD.           Purgatoire River: FIELD
LOC.           1063' FNL & 1068' FWL: LOCATION
STAT.                 Colorado: State
CNTY.               Las Animas: COUNTY
CTRY. USA : Country
SECT. 30 : Section
TOWN. 32S : Township
RANG. 65W : Range
SRVC.                Patterson: SERVICE COMPANY
DATE.          Wed Nov 16 07:46:07 2005: LOG DATE
API.           05 071 08585 00: UNIQUE WELL ID
~Curve Information Block
DEPT.FT            0 000 00 00: Depth
DCAL.in                       : CDL Caliper
RHOB.g/cc                     : CDL Bulk Density
RHOC.g/cc                     : CDL Density Correction
DPOR.pu                       : CDL Density Porosity
GR.GAPI                       : Gamma Ray
NPOR.pu                       : Neutron Porosity
~Parameter Information Block
~A  Depth       DCAL        RHOB        RHOC        DPOR         GR         NPOR    
# ...
  1221.0000      7.7766      2.6211      0.1462      1.7495    115.5157     24.4201
  1221.1000      7.7766      2.6525      0.1398     -0.1499    119.8448     24.4176
  1221.2000      7.7766      2.6822      0.1754     -1.9510    123.7175     24.0850
  1221.3000      7.7683      2.6853      0.1920     -2.1377    126.4724     23.8573
  1221.4000      7.7683      2.6654      0.1280     -0.9307    124.8364     23.9935
  1221.5000      7.7928      2.6393      0.1518      0.6492    119.5057     24.2380
  1221.6000      7.7928      2.6117      0.1185      2.3220    114.3160     24.0807
  1221.7000      7.7928      2.5878      0.1001      3.7707    109.1838     23.6512
  1221.8000      7.7965      2.5807      0.0425      4.2026    104.2313     23.3790
  1221.9000      7.7965      2.5969      0.0558      3.2210    104.1442     22.8838
  1222.0000      7.7964      2.6176      0.1464      1.9638    112.3495     21.9979
  1222.1000      7.7964      2.6110      0.1022      2.3622    121.7409     21.0932
  1222.2000      7.7964      2.5714      0.0573      4.7634    123.1863     20.4602
  1222.3000      7.8096      2.5302      0.0122      7.2619    121.5214     20.4547
  1222.4000      7.8096      2.5205      0.0465      7.8497    126.5854     21.0723
  1222.5000      7.8422      2.5379      0.0769      6.7917    136.9123     21.5697
  1222.6000      7.8422      2.5538      0.0466      5.8325    146.4271     21.5552
  1222.7000      7.8422      2.5519      0.0553      5.9427    152.1513     21.4491
  1222.8000      7.8697      2.5468     -0.0155      6.2541    151.3924     21.5006
  1222.9000      7.8697      2.5604      0.0726      5.4305    148.2524     22.0265
  1223.0000      7.8775      2.5855      0.0782      3.9064    148.8926     23.1200
  1223.1000      7.8775      2.6025      0.0925      2.8762    153.6912     23.9072
  1223.2000      7.8775      2.6031      0.0972      2.8452    157.2650     23.8522
  1223.3000      7.9141      2.5921      0.0851      3.5071    152.5617     23.6238
  1223.4000      7.9141      2.5807      0.1009      4.2015    143.9500     23.8450
  1223.5000      7.8860      2.5786      0.0469      4.3245    143.1174     24.2502
  1223.6000      7.8860      2.5909      0.0752      3.5814    146.6736     24.5912
  1223.7000      7.8860      2.6058      0.0961      2.6812    145.1484     24.8887
  1223.8000      7.8694      2.6050      0.0989      2.7296    139.2392     24.8605
  1223.9000      7.8694      2.5869      0.0953      3.8242    135.8763     24.5050
  1224.0000      7.8984      2.5683      0.0495      4.9541    137.8745     24.3456
  1224.1000      7.8984      2.5652      0.0405      5.1400    140.1585     24.4553
  1224.2000      7.8984      2.5823      0.0174      4.1014    138.6155     24.5352
  1224.3000      7.9232      2.6093      0.0804      2.4669    134.4475     24.4466
  1224.4000      7.9232      2.6245      0.1062      1.5438    131.3931     24.1692
  1224.5000      7.9125      2.6198      0.1074      1.8314    129.5230     23.6414
  1224.6000      7.9125      2.6082      0.1160      2.5309    122.1801     22.8919
  1224.7000      7.9125      2.5986      0.1041      3.1129    107.5206     22.2130
  1224.8000      7.9071      2.5913      0.0818      3.5604     92.2381     21.7754
  1224.9000      7.9071      2.5910      0.0784      3.5767     80.7361     21.5287
  1225.0000      7.8785      2.6008      0.0975      2.9847     75.0794     21.2859
  1225.1000      7.8785      2.6127      0.0944      2.2602     76.0348     20.6831
  1225.2000      7.8785      2.6142      0.1205      2.1714     80.1447     19.8500
  1225.3000      7.8560      2.6029      0.1077      2.8538     82.4403     19.4370
  1225.4000      7.8560      2.5886      0.1010      3.7218     79.3285     19.2235
  1225.5000      7.8454      2.5778      0.0732      4.3750     72.8313     18.7529
  1225.6000      7.8454      2.5692      0.1039      4.8981     69.5430     18.2103
  1225.7000      7.8454      2.5537      0.0922      5.8378     70.0240     17.8667
  1225.8000      7.8560      2.5246      0.0392      7.5971     69.6873     18.0315
  1225.9000      7.8560      2.4857      0.0490      9.9561     67.5083     18.4501
  1226.0000      7.8753      2.4495      0.0265     12.1533     66.0032     18.3700
  1226.1000      7.8753      2.4356     -0.0078     12.9937     65.9695     17.8106
  1226.2000      7.8753      2.4538     -0.0004     11.8905     66.2305     17.2484
  1226.3000      7.8771      2.4917      0.0674      9.5912     67.5026     16.8950
  1226.4000      7.8771      2.5271      0.1223      7.4460     70.9006     16.7626
  1226.5000      7.8828      2.5426      0.1273      6.5065     72.0579     16.6739
  1226.6000      7.8828      2.5350      0.1248      6.9705     68.2106     16.4281
  1226.7000      7.8828      2.5204      0.0877      7.8539     63.6304     16.2601
  1226.8000      7.8807      2.5200      0.0973      7.8818     60.6480     16.4226
  1226.9000      7.8807      2.5260      0.1045      7.5138     59.4795     16.5465
  1227.0000      7.8772      2.5098      0.0717      8.4949     60.2192     16.4247
  1227.1000      7.8772      2.4709      0.0369     10.8528     62.7388     16.3776
  1227.2000      7.8772      2.4385     -0.0164     12.8160     67.3559     16.4924
  1227.3000      7.8810      2.4260      0.0574     13.5748     71.3113     16.5750
  1227.4000      7.8810      2.4259      0.0244     13.5788     70.3073     16.6265
  1227.5000      7.8837      2.4365      0.0491     12.9380     65.4505     16.7705
  1227.6000      7.8837      2.4542      0.0331     11.8652     61.7931     16.8896
  1227.7000      7.8837      2.4699      0.0424     10.9122     60.8508     17.0431
  1227.8000      7.8939      2.4788      0.0734     10.3775     61.1043     17.5269
  1227.9000      7.8939      2.4829      0.0650     10.1263     62.9778     17.8357
  1228.0000      7.8832      2.4867      0.0784      9.8956     67.7575     17.3141
  1228.1000      7.8832      2.4893      0.0695      9.7420     71.8458     16.6774
  1228.2000      7.8832      2.4848      0.0846     10.0099     71.8215     16.7001
  1228.3000      7.8858      2.4701      0.0548     10.9034     70.1025     16.9499
  1228.4000      7.8858      2.4508      0.0304     12.0746     68.0819     16.7965
  1228.5000      7.8892      2.4374      0.0334     12.8874     66.0744     16.4135
  1228.6000      7.8892      2.4347      0.0393     13.0494     64.9012     16.2550
  1228.7000      7.8892      2.4376      0.0711     12.8709     63.0209     16.2062
  1228.8000      7.8826      2.4455      0.0329     12.3957     61.1223     16.0681
  1228.9000      7.8826      2.4701      0.0549     10.9015     60.5244     15.9527
  1229.0000      7.8781      2.5059      0.0770      8.7328     59.0725     15.9592
  1229.1000      7.8781      2.5290      0.0832      7.3308     57.3018     16.1472
  1229.2000      7.8781      2.5352      0.0819      6.9561     56.7977     16.2869
  1229.3000      7.8735      2.5403      0.0872      6.6493     56.5769     16.2703
  1229.4000      7.8735      2.5525      0.1214      5.9099     55.2776     16.4536
  1229.5000      7.8595      2.5599      0.1223      5.4618     52.7526     16.7422
  1229.6000      7.8595      2.5493      0.1230      6.1041     52.1218     16.8221
  1229.7000      7.8595      2.5272      0.0713      7.4429     55.5405     16.8099
  1229.8000      7.8755      2.5096      0.0574      8.5107     58.3547     16.8106
  1229.9000      7.8755      2.5006      0.0618      9.0544     56.5767     16.7831
  1230.0000      7.8823      2.4976      0.0313      9.2348     53.3689     16.7210
  1230.1000      7.8823      2.5002      0.0930      9.0787     51.2705     16.6374
  1230.2000      7.8823      2.5106      0.0731      8.4509     50.1486     16.7191
  1230.3000      7.8856      2.5297      0.0800      7.2900     52.4035     17.0676
  1230.4000      7.8856      2.5482      0.0922      6.1724     57.9108     17.2857
  1230.5000      7.9010      2.5561      0.0798      5.6884     62.5490     17.3134
