~Version Information
VERS.                      2.0: CWLS Log ASCII Standard - VERSION 2.0
WRAP.                       NO: One line per depth step
~Well Information Block
STRT.FT               428.8000: 
STOP.FT               951.7000: 
STEP.FT                 0.1000: 
NULL.                -999.2500: 
COMP.          Pioneer Natural Resources: COMPANY
WELL.          Sculpin 32-30 Tr: WELL
FLD.           Purgatoire River: FIELD
LOC.           1600' FNL & 1857' FEL--: LOCATION
CNTY.               Las Animas: COUNTY
SRVC.                Patterson: SERVICE COMPANY
DATE.          Wed Jul 19 09:12:32 2006: LOG DATE
UWI.           05 071 08706 00: UNIQUE WELL ID
STAT.                 Colorado: STATE
~Curve Information Block
DEPT.FT            0 000 00 00: Depth
DCAL.in                       : CDL Caliper
RHOB.g/cc                     : CDL Bulk Density
RHOC.g/cc                     : CDL Density Correction
DPOR.pu                       : CDL Density Porosity
GR.GAPI                       : Gamma Ray
~Parameter Information Block
~A  Depth       DCAL        RHOB        RHOC        DPOR         GR     
# ...
   563.2000      8.1214      2.4533      0.0603     11.9185    141.8102
   563.3000      8.1229      2.4459      0.0479     12.3710    144.4668
   563.4000      8.1229      2.4537      0.0348     11.8962    140.2090
   563.5000      8.1236      2.4743      0.1128     10.6509    135.0758
   563.6000      8.1236      2.4885      0.1071      9.7874    129.7794
   563.7000      8.1236      2.4902      0.0872      9.6832    123.6408
   563.8000      8.1235      2.4854      0.1250      9.9736    124.6925
   563.9000      8.1235      2.4748      0.0900     10.6204    134.5040
   564.0000      8.1244      2.4616      0.0616     11.4164    142.6791
   564.1000      8.1244      2.4517      0.0658     12.0209    144.3715
   564.2000      8.1244      2.4382      0.1036     12.8343    140.8314
   564.3000      8.1267      2.4149      0.0543     14.2459    132.9536
   564.4000      8.1267      2.3914      0.0837     15.6747    124.9138
   564.5000      8.1286      2.3824      0.0234     16.2157    120.2715
   564.6000      8.1286      2.3911      0.0549     15.6891    118.9797
   564.7000      8.1286      2.4032      0.0486     14.9582    120.2026
   564.8000      8.1269      2.4179      0.0156     14.0677    121.6167
   564.9000      8.1269      2.4490      0.0663     12.1804    122.3700
   565.0000      8.1220      2.4853      0.1167      9.9831    124.3431
   565.1000      8.1220      2.5023      0.1081      8.9510    126.4672
   565.2000      8.1220      2.5024      0.1068      8.9465    126.9830
   565.3000      8.1189      2.5031      0.1147      8.9028    128.6420
   565.4000      8.1189      2.5120      0.0776      8.3628    132.0773
   565.5000      8.1189      2.5233      0.1196      7.6797    132.0384
   565.6000      8.1189      2.5220      0.0974      7.7546    127.0974
   565.7000      8.1189      2.4979      0.0662      9.2197    124.2042
   565.8000      8.1230      2.4503      0.0194     12.1016    129.3948
   565.9000      8.1230      2.3866     -0.0029     15.9625    134.9294
   566.0000      8.1281      2.3186     -0.0413     20.0866    130.2777
   566.1000      8.1281      2.2539     -0.0581     24.0038    122.2449
   566.2000      8.1281      2.1874     -0.0460     28.0390    122.2052
   566.3000      8.1325      2.1128     -0.1034     32.5589    128.4479
   566.4000      8.1325      2.0313     -0.0729     37.4966    133.7565
   566.5000      8.1377      1.9352     -0.0593     43.3217    134.8904
   566.6000      8.1377      1.8175     -0.0851     50.4570    132.0103
   566.7000      8.1377      1.6943     -0.1591     57.9224    125.7091
   566.8000      8.1467      1.5909     -0.1234     64.1849    116.6412
   566.9000      8.1467      1.5103     -0.0990     69.0724    107.5377
   567.0000      8.1635      1.4391     -0.0840     73.3886    102.1245
   567.1000      8.1635      1.3720     -0.0557     77.4549     99.2125
   567.2000      8.1635      1.3147     -0.0571     80.9264     94.5815
   567.3000      8.2031      1.2790     -0.0594     83.0894     87.8670
   567.4000      8.2031      1.2704      0.0391     83.6105     78.8271
   567.5000      8.2616      1.2766      0.0618     83.2344     67.0534
   567.6000      8.2616      1.2850      0.0832     82.7301     58.1131
   567.7000      8.2616      1.2951      0.0756     82.1153     54.1999
   567.8000      8.2887      1.3045      0.1229     81.5453     51.9843
   567.9000      8.2887      1.3024      0.1114     81.6743     51.7280
   568.0000      8.2655      1.2900      0.0548     82.4244     52.4630
   568.1000      8.2655      1.2813      0.0573     82.9509     51.4621
   568.2000      8.2655      1.2806      0.0837     82.9917     48.4745
   568.3000      8.2183      1.2801      0.0992     83.0231     44.8901
   568.4000      8.2183      1.2740      0.0845     83.3953     42.4274
   568.5000      8.1563      1.2686      0.0501     83.7239     40.9347
   568.6000      8.1563      1.2722      0.0648     83.5058     41.1541
   568.7000      8.1563      1.2806      0.0839     82.9912     44.7482
   568.8000      8.1038      1.2911      0.0665     82.3561     48.6043
   568.9000      8.1038      1.3191      0.0863     80.6576     49.3556
   569.0000      8.0807      1.3867      0.0854     76.5654     50.2157
   569.1000      8.0807      1.5000      0.1450     69.6959     53.6032
   569.2000      8.0807      1.6430      0.2227     61.0279     56.9120
   569.3000      8.0736      1.7940      0.2911     51.8810     58.7897
   569.4000      8.0736      1.9452      0.3207     42.7130     59.9424
   569.5000      8.0695      2.0987      0.4036     33.4132     62.1749
   569.6000      8.0695      2.2513      0.4169     24.1660     67.0427
   569.7000      8.0695      2.3918      0.4300     15.6461     74.9293
   569.8000      8.0589      2.5001      0.4286      9.0846     85.7925
   569.9000      8.0589      2.5591      0.3558      5.5077     95.8352
   570.0000      8.0377      2.5741      0.2501      4.5983    100.6937
   570.1000      8.0377      2.5689      0.1429      4.9129    103.5588
   570.2000      8.0377      2.5710      0.0905      4.7864    109.4005
   570.3000      8.0189      2.5942      0.1104      3.3803    114.8688
   570.4000      8.0189      2.6248      0.1440      1.5298    115.5140
   570.5000      8.0115      2.6350      0.1457      0.9073    115.1761
   570.6000      8.0115      2.6182      0.0414      1.9290    118.4611
   570.7000      8.0115      2.5920      0.0631      3.5145    122.8891
   570.8000      8.0111      2.5721      0.0391      4.7229    126.6460
   570.9000      8.0111      2.5611      0.0454      5.3902    130.7561
   571.0000      8.0116      2.5495      0.0727      6.0928    134.4641
   571.1000      8.0116      2.5314      0.0701      7.1888    138.7195
   571.2000      8.0116      2.5144      0.0489      8.2200    143.7587
   571.3000      8.0118      2.5021      0.0952      8.9614    145.2933
   571.4000      8.0118      2.4920      0.0394      9.5736    141.5587
   571.5000      8.0114      2.4921      0.0436      9.5688    137.6385
   571.6000      8.0114      2.5057      0.0882      8.7425    136.8240
   571.7000      8.0114      2.5212      0.0833      7.8072    135.4113
   571.8000      8.0108      2.5309      0.1145      7.2202    130.4189
   571.9000      8.0108      2.5326      0.0819      7.1151    127.8891
   572.0000      8.0158      2.5216      0.1013      7.7806    132.1687
   572.1000      8.0158      2.4993      0.0594      9.1357    137.2714
   572.2000      8.0158      2.4782      0.0917     10.4148    137.9087
   572.3000      8.0362      2.4714      0.0249     10.8265    135.7899
   572.4000      8.0362      2.4811      0.0716     10.2337    134.3105
   572.5000      8.0691      2.4840      0.1045     10.0601    133.9017
   572.6000      8.0691      2.4589      0.0391     11.5818    133.1232
   572.7000      8.0691      2.4210      0.0333     13.8797    131.5807
   572.8000      8.0891      2.3909      0.0126     15.7057    130.1870
   572.9000      8.0891      2.3654      0.0175     17.2504    128.8138
   573.0000      8.0883      2.3311      0.0180     19.3285    126.0036
   573.1000      8.0883      2.2840      0.0108     22.1839    122.9979
   573.2000      8.0883      2.2289     -0.0043     25.5220    122.1303
   573.3000      8.0813      2.1760     -0.0349     28.7260    119.9836
   573.4000      8.0813      2.1406     -0.0195     30.8730    113.7633
   573.5000      8.0662      2.1312      0.0043     31.4405    108.3774
   573.6000      8.0662      2.1450      0.0519     30.6069    107.2890
   573.7000      8.0662      2.1736      0.0532     28.8714    106.8102
   573.8000      8.0407      2.2122      0.0848     26.5333    106.0094
   573.9000      8.0407      2.2603      0.1247     23.6201    108.4821
   574.0000      8.0198      2.3108      0.1793     20.5569    111.8163
   574.1000      8.0198      2.3491      0.1760     18.2358    109.6789
   574.2000      8.0198      2.3678      0.1660     17.1016    103.8332
   574.3000      8.0112      2.3715      0.1803     16.8793    101.5649
