~Version Information
VERS.                      2.0: CWLS Log ASCII Standard - VERSION 2.0
WRAP.                       NO: One line per depth step
~Well Information Block
STRT.FT               970.0000: 
STOP.FT              1881.0000: 
STEP.FT                 0.1000: 
NULL.                -999.2500: 
COMP.          Petrogulf Corporation: COMPANY
WELL.             Norton 9-14R: WELL
FLD.           Purgatorie River: FIELD
LOC.           725' FSL & 1103' FWL: LOCATION
PROV.                 Colorado: PROVINCE
CNTY.               Las Animas: COUNTRY
SRVC.                Patterson: SERVICE COMPANY
DATE.          Fri Oct 07 07:52:23 2005: LOG DATE
UWI.                          : UNIQUE WELL ID
~Curve Information Block
DEPT.FT            0 000 00 00: Depth
DCAL.in                       : CDL Caliper
RHOB.g/cc                     : CDL Bulk Density
RHOC.g/cc                     : CDL Density Correction
DPOR.pu                       : CDL Density Porosity
GR.GAPI                       : Gamma Ray
NPOR.pu                       : Neutron Porosity
~Parameter Information Block
~A  Depth       DCAL        RHOB        RHOC        DPOR         GR         NPOR    
# ...
  1805.2000      7.9305      2.5087      0.0605      8.5644    254.7445     27.7247
  1805.3000      7.9108      2.5266      0.0807      7.4759    264.9332     27.5270
  1805.4000      7.9108      2.5403      0.0896      6.6485    275.2501     27.4609
  1805.5000      7.9140      2.5613      0.0415      5.3763    278.6417     27.5746
  1805.6000      7.9140      2.5926      0.1103      3.4761    276.6728     27.6406
  1805.7000      7.9140      2.6176      0.1743      1.9643    274.2730     27.5580
  1805.8000      7.9543      2.6296      0.1377      1.2354    266.6856     27.3680
  1805.9000      7.9543      2.6343      0.1275      0.9507    250.2425     27.1699
  1806.0000      7.9688      2.6322      0.0950      1.0806    228.6791     26.9277
  1806.1000      7.9688      2.6189      0.0845      1.8861    210.0814     26.3136
  1806.2000      7.9688      2.5992      0.0261      3.0779    199.2085     25.4212
  1806.3000      7.9326      2.5870      0.0492      3.8157    190.9340     24.6870
  1806.4000      7.9326      2.5805      0.0371      4.2115    182.6642     24.1767
  1806.5000      7.9279      2.5709      0.0511      4.7939    175.8468     23.6716
  1806.6000      7.9279      2.5617      0.0393      5.3535    168.4464     23.1124
  1806.7000      7.9279      2.5562      0.0446      5.6875    160.9999     22.7169
  1806.8000      7.9235      2.5535      0.0246      5.8510    157.3447     22.5040
  1806.9000      7.9235      2.5593      0.0631      5.4992    157.2945     22.3304
  1807.0000      7.9201      2.5766      0.0759      4.4463    157.9960     22.0511
  1807.1000      7.9201      2.5965      0.0438      3.2433    159.4360     21.7040
  1807.2000      7.9201      2.6021      0.1177      2.9031    160.6558     21.5558
  1807.3000      7.9214      2.5894      0.0611      3.6712    161.0079     21.8308
  1807.4000      7.9214      2.5785      0.0447      4.3354    161.8495     22.6110
  1807.5000      7.9194      2.5809      0.0465      4.1906    163.1443     23.5940
  1807.6000      7.9194      2.5818      0.0908      4.1343    163.3822     24.3991
  1807.7000      7.9194      2.5715      0.0429      4.7580    161.8305     25.0928
  1807.8000      7.9242      2.5617      0.0451      5.3502    159.3478     25.6618
  1807.9000      7.9242      2.5587      0.0530      5.5320    156.6403     25.7672
  1808.0000      7.9193      2.5592      0.0130      5.5045    154.7579     25.5122
  1808.1000      7.9193      2.5596      0.0884      5.4794    154.6980     25.3019
  1808.2000      7.9193      2.5588      0.0307      5.5268    155.4274     25.1865
  1808.3000      7.9300      2.5652      0.0684      5.1412    155.7211     25.1853
  1808.4000      7.9300      2.5801      0.0488      4.2350    154.7158     25.4099
  1808.5000      7.9346      2.5875      0.1127      3.7867    151.4626     25.6697
  1808.6000      7.9346      2.5747      0.0709      4.5662    148.6859     25.6536
  1808.7000      7.9346      2.5549      0.0402      5.7611    149.3115     25.4410
  1808.8000      7.9421      2.5572      0.0152      5.6248    151.6525     25.2118
  1808.9000      7.9421      2.5899      0.0709      3.6426    154.4480     24.9751
  1809.0000      7.9393      2.6256      0.1253      1.4784    156.4144     24.7081
  1809.1000      7.9393      2.6380      0.0849      0.7251    156.6407     24.3715
  1809.2000      7.9393      2.6252      0.1091      1.5037    156.3625     24.0536
  1809.3000      7.9115      2.5950      0.0639      3.3329    156.6937     24.1777
  1809.4000      7.9115      2.5705      0.0359      4.8177    159.6251     24.7757
  1809.5000      7.9085      2.5717      0.0822      4.7480    163.5178     25.2674
  1809.6000      7.9085      2.5888      0.0425      3.7100    162.7146     25.2806
  1809.7000      7.9085      2.6006      0.1003      2.9938    158.3580     25.0983
  1809.8000      7.9087      2.5978      0.0590      3.1622    155.9839     25.1061
  1809.9000      7.9087      2.5901      0.0775      3.6327    155.1885     25.0600
  1810.0000      7.9232      2.5958     -0.0160      3.2859    151.4697     24.8146
  1810.1000      7.9232      2.6168      0.1029      2.0147    145.3697     24.7009
  1810.2000      7.9232      2.6306      0.0777      1.1751    141.8230     24.6979
  1810.3000      7.9196      2.6306      0.0587      1.1731    140.1370     24.4814
  1810.4000      7.9196      2.6228      0.0783      1.6476    137.8839     24.1422
  1810.5000      7.9156      2.6101      0.0266      2.4193    136.1615     23.8657
  1810.6000      7.9156      2.6077      0.0013      2.5658    135.5611     23.6698
  1810.7000      7.9156      2.6136      0.0949      2.2089    134.6433     23.6724
  1810.8000      7.9195      2.6045      0.0548      2.7602    134.5088     23.7221
  1810.9000      7.9195      2.5793     -0.0103      4.2819    136.6894     23.5882
  1811.0000      7.9081      2.5579     -0.0063      5.5822    138.0320     23.5556
  1811.1000      7.9081      2.5595     -0.0261      5.4858    138.8187     23.9571
  1811.2000      7.9081      2.5844      0.0427      3.9736    142.2726     24.4657
  1811.3000      7.9076      2.6039      0.0811      2.7957    146.9438     24.6357
  1811.4000      7.9076      2.5994      0.0446      3.0641    150.7343     24.4529
  1811.5000      7.9083      2.5868      0.0387      3.8288    152.1830     23.9954
  1811.6000      7.9083      2.5839      0.0389      4.0080    149.5360     23.5909
  1811.7000      7.9083      2.5892      0.0418      3.6846    144.9400     23.6430
  1811.8000      7.9031      2.5900      0.0591      3.6344    144.1920     23.7747
  1811.9000      7.9031      2.5848      0.0157      3.9525    146.6359     23.5650
  1812.0000      7.8890      2.5904      0.0320      3.6142    146.7325     23.2877
  1812.1000      7.8890      2.6125      0.0437      2.2714    143.8420     23.1183
  1812.2000      7.8890      2.6362      0.0326      0.8366    140.4801     22.9115
  1812.3000      7.9090      2.6443      0.0693      0.3428    138.2983     22.5727
  1812.4000      7.9090      2.6387      0.0449      0.6822    138.5331     22.2602
  1812.5000      7.9217      2.6341      0.0500      0.9652    140.6435     22.2824
  1812.6000      7.9217      2.6336      0.0294      0.9920    140.6505     22.7295
  1812.7000      7.9217      2.6334      0.0476      1.0044    137.5675     23.3637
  1812.8000      7.9152      2.6352      0.0424      0.8979    134.4948     23.9466
  1812.9000      7.9152      2.6438      0.0199      0.3773    131.8960     24.4253
  1813.0000      7.9289      2.6500      0.0896      0.0009    130.4344     24.8650
  1813.1000      7.9289      2.6381      0.0223      0.7232    130.6770     25.2312
  1813.2000      7.9289      2.6200      0.0143      1.8185    131.0242     25.4555
  1813.3000      7.9212      2.6157      0.0302      2.0769    132.1466     25.6492
  1813.4000      7.9212      2.6219      0.0275      1.7022    134.3219     25.8399
  1813.5000      7.9224      2.6295      0.0209      1.2407    134.0463     25.8365
  1813.6000      7.9224      2.6355      0.0547      0.8761    129.8849     25.5662
  1813.7000      7.9224      2.6342      0.0555      0.9566    125.0632     25.3542
  1813.8000      7.9206      2.6231      0.0303      1.6308    123.6292     25.5114
  1813.9000      7.9206      2.6122      0.0212      2.2921    123.0550     25.7135
  1814.0000      7.9334      2.6076      0.0515      2.5714    119.0868     25.3878
  1814.1000      7.9334      2.6016      0.0472      2.9331    115.3542     24.5705
  1814.2000      7.9334      2.5949      0.0150      3.3413    115.0591     23.9981
  1814.3000      7.9218      2.5957      0.0462      3.2904    115.2441     23.9833
  1814.4000      7.9218      2.6014      0.0298      2.9439    112.2515     24.0991
  1814.5000      7.8728      2.6112      0.0262      2.3489    106.7044     23.9985
  1814.6000      7.8728      2.6264      0.1058      1.4299    103.5307     23.5852
  1814.7000      7.8728      2.6388      0.0957      0.6787    105.3002     22.9411
