~Version Information
VERS.                      2.0: CWLS Log ASCII Standard - VERSION 2.0
WRAP.                       NO: One line per depth step
~Well Information Block
STRT.FT                 5.0000: 
STOP.FT               880.0000: 
STEP.FT                 0.2500: 
NULL.                -999.2500: 
COMP.          Pioneer Natural Resources: COMPANY
WELL.          Bienville 31-28: WELL
FLD.           Purgatoire River: FIELD
LOC.           1212' FNL & 2271' FEL: LOCATION
PROV.                 Colorado: PROVINCE
CNTY.               Las Animas: COUNTRY
SRVC.                Patterson: SERVICE COMPANY
DATE.          Tue Jan 24 11:44:03 2006: LOG DATE
UWI.           05 071 08666 00: UNIQUE WELL ID
~Curve Information Block
DEPT.FT            0 000 00 00: Depth
GR.GAPI                       : Gamma Ray
CCL.                          : Casing Collar Locator
TT3.usec                      : CBL 3' Travel Time
AMP3.mV                       : CBL 3' Amplitude
~Parameter Information Block
~A  Depth        GR         CCL         TT3         AMP3    
# ...
    72.0000     66.9302      0.0000    737.8762      9.8378
    72.2500     64.0638      0.0000    732.0316      9.6326
    72.5000     60.0146      0.0000    727.4451      9.4939
    72.7500     56.2507      0.0000    724.5486      9.4316
    73.0000     54.2330      0.0000    723.7986      9.4506
    73.2500     54.5393      0.0000    725.4409      9.5517
    73.5000     57.0252      0.0000    729.2584      9.7152
    73.7500     61.1688      0.0000    735.2521      9.8884
    74.0000     65.9437      0.0000    744.3106     10.0025
    74.2500     69.9131      0.0000    756.6838     10.0115
    74.5000     71.9372      0.0000    769.1055      9.9145
    74.7500     71.6307      0.0000    774.7943      9.7434
    75.0000     69.0722      0.0000    768.0685      9.5376
    75.2500     64.5500      0.0000    749.4242      9.3306
    75.5000     58.8076      0.0000    725.6563      9.1505
    75.7500     53.2150      0.0000    704.9248      9.0239
    76.0000     49.3964      0.0000    691.8304      8.9814
    76.2500     48.5575      0.0000    686.3776      9.0563
    76.5000     50.9458      0.0000    685.9627      9.2633
    76.7500     55.7758      0.0000    687.5867      9.5783
    77.0000     61.6959      0.0000    689.3443      9.9488
    77.2500     67.4336      0.0000    691.3888     10.3151
    77.5000     72.1796      0.0000    695.4866     10.6064
    77.7500     75.6900      0.0000    702.7889     10.7471
    78.0000     78.2428      0.0000    711.9818     10.7121
    78.2500     80.3345      0.0000    720.0869     10.5753
    78.5000     82.2542      0.0000    724.6693     10.4610
    78.7500     83.9739      0.0000    724.7766     10.4389
    79.0000     85.3543      0.0000    720.7022     10.4873
    79.2500     86.2876      0.0000    714.0933     10.5559
    79.5000     86.7137      0.0000    707.6990     10.6305
    79.7500     86.7147      0.0000    703.5624     10.7312
    80.0000     86.6148      0.0000    701.3845     10.8729
    80.2500     86.9143      0.0000    699.5703     11.0369
    80.5000     88.0029      0.0000    697.8745     11.1750
    80.7500     89.8036      0.0000    698.1015     11.2434
    81.0000     91.7239      0.0000    701.9909     11.2406
    81.2500     93.1990      0.0000    709.2151     11.2039
    81.5000     94.2823      0.0000    717.7562     11.1595
    81.7500     95.3712      0.0000    725.5560     11.0827
    82.0000     96.2923      0.0000    731.5089     10.9253
    82.2500     96.1259      0.0000    735.8742     10.6827
    82.5000     94.3533      0.0000    740.9296     10.4211
    82.7500     91.8841      0.0000    750.2927     10.2363
    83.0000     90.3506      0.0000    765.0046     10.1943
    83.2500     90.3872      0.0000    779.4712     10.3060
    83.5000     91.0296      0.0000    784.0785     10.5399
    83.7500     90.7966      0.0000    774.2157     10.8497
    84.0000     89.0430      0.0000    754.9214     11.1914
    84.2500     86.4131      0.0000    734.9285     11.5215
    84.5000     84.4464      0.0000    718.8250     11.7855
    84.7500     84.7145      0.0000    706.7585     11.9252
    85.0000     87.7272      0.0000    698.2248     11.9122
    85.2500     92.3463      0.0000    693.0048     11.7797
    85.5000     96.5698      0.0000    690.0806     11.6212
    85.7500     99.1280      0.0000    688.2262     11.5475
    86.0000    100.0235      0.0000    687.4519     11.6263
    86.2500     99.4999      0.0000    688.6760     11.8455
    86.5000     97.1720      0.0000    692.1749     12.1270
    86.7500     92.5768      0.0000    696.8803     12.3806
    87.0000     86.1954      0.0000    701.0439     12.5457
    87.2500     79.5497      0.0000    703.4846     12.5966
    87.5000     74.3855      0.0000    704.9299     12.5337
    87.7500     71.8097      0.0000    708.9589     12.3829
    88.0000     71.9333      0.0000    721.0341     12.1962
    88.2500     74.0579      0.0000    744.6696     12.0386
    88.5000     77.2551      0.0000    776.6069     11.9632
    88.7500     81.0419      0.0000    805.6753     11.9841
    89.0000     85.6428      0.0000    818.8062     12.0700
    89.2500     91.4584      0.0000    810.6166     12.1726
    89.5000     98.1176      0.0000    787.3929     12.2639
    89.7500    104.0733      0.0000    761.3674     12.3397
    90.0000    107.2809      0.0000    741.5908     12.3956
    90.2500    106.5337      0.0000    729.9404     12.4175
    90.5000    102.2335      0.0000    723.6125     12.4002
    90.7500     95.7802      0.0000    719.5084     12.3663
    91.0000     88.3324      0.0000    716.5781     12.3555
    91.2500     80.4165      0.0000    715.4218     12.3919
    91.5000     72.5772      0.0000    716.4965     12.4622
    91.7500     65.8391      0.0000    719.0474     12.5273
    92.0000     61.2463      0.0000    721.6697     12.5566
    92.2500     59.0544      0.0000    723.4603     12.5516
    92.5000     58.5678      0.0000    724.3445     12.5381
    92.7500     58.8258      0.0000    724.6022     12.5400
    93.0000     59.2701      0.0000    724.3324     12.5631
    93.2500     59.6575      0.0000    723.1776     12.5970
    93.5000     59.7457      0.0000    720.3226     12.6313
    93.7500     59.4873      0.0000    714.9382     12.6687
    94.0000     59.3190      0.0000    707.0573     12.7188
    94.2500     59.8126      0.0000    698.0901     12.7780
    94.5000     61.0567      0.0000    690.1844     12.8183
    94.7500     62.7188      0.0000    684.8942     12.8069
    95.0000     64.7011      0.0000    682.4998     12.7343
    95.2500     67.3888      0.0000    682.2534     12.6246
    95.5000     71.1211      0.0000    682.6365     12.5197
    95.7500     75.4850      0.0000    681.6331     12.4482
    96.0000     79.1548      0.0000    678.9202     12.3778
    96.2500     80.5891      0.0000    679.9902     12.1700
    96.5000     79.1859      0.0000    697.9681     11.6039
    96.7500     75.7578      0.0000    746.6473     10.5298
    97.0000     71.6502      0.0000    826.4942      9.0587
    97.2500     67.4274      0.0000    916.7498      7.5528
    97.5000     62.7341      0.0000    985.1658      6.3703
    97.7500     57.4230      0.0000   1008.1180      5.6320
    98.0000     52.3493      0.0000    982.8737      5.2423
    98.2500     48.8411      0.0000    925.2137      5.0594
    98.5000     47.6618      0.0000    858.4898      5.0212
    98.7500     48.5937      0.0000    801.2768      5.1647
    99.0000     50.7537      0.0000    760.9989      5.5561
    99.2500     53.1617      0.0000    736.9569      6.1775
    99.5000     55.1750      0.0000    725.8103      6.8941
    99.7500     56.5234      0.0000    722.4801      7.5759
   100.0000     57.0052      0.0000    720.0746      8.2017
   100.2500     56.4122      0.0000    713.6144      8.7846
   100.5000     54.9123      0.0000    703.6407      9.2607
   100.7500     53.1550      0.0000    694.3408      9.5294
   101.0000     51.7078      0.0000    689.3430      9.5633
   101.2500     50.6898      0.0000    690.2240      9.4294
   101.5000     50.1541      0.0000    697.3333      9.2268
   101.7500     50.3828      0.0000    709.2740      9.0275
   102.0000     51.5887      0.0000    721.4792      8.8588
   102.2500     53.6703      0.0000    728.0197      8.7173
   102.5000     56.3110      0.0000    727.3790      8.5918
   102.7500     58.9922      0.0000    725.5186      8.4787
   103.0000     60.9560      0.0000    731.2278      8.3826
   103.2500     61.5418      0.0000    748.7038      8.3078
   103.5000     60.6519      0.0000    775.6220      8.2491
   103.7500     58.6916      0.0000    806.7578      8.1942
   104.0000     56.0898      0.0000    837.0613      8.1379
   104.2500     53.1284      0.0000    862.1353      8.0881
   104.5000     50.2077      0.0000    878.8118      8.0563
   104.7500     47.9354      0.0000    886.3177      8.0422
   105.0000     46.8013      0.0000    886.0132      8.0285
   105.2500     46.8956      0.0000    880.0116      7.9932
