~Version Information
VERS.                      2.0: CWLS Log ASCII Standard - VERSION 2.0
WRAP.                       NO: One line per depth step
~Well Information Block
STRT.FT               570.0000: 
STOP.FT              2090.5000: 
STEP.FT                 0.1000: 
NULL.                -999.2500: 
COMP.          XTO Energy Inc.: COMPANY
WELL.          Golden Eagle 19-10: WELL
FLD.           Purgatoire River: FIELD
LOC.           2684' FSL & 1825' FEL: LOCATION
CNTY.               Las Animas: COUNTY
SRVC.                Patterson: SERVICE COMPANY
DATE.          Mon Mar 06 07:05:15 2006: LOG DATE
UWI.           05 071 08697 00: UNIQUE WELL ID
STAT.                 Colorado: STATE
~Curve Information Block
DEPT.FT            0 000 00 00: Depth
DCAL.in                       : CDL Caliper
RHOB.g/cc                     : CDL Bulk Density
RHOC.g/cc                     : CDL Density Correction
DPOR.pu                       : CDL Density Porosity
GR.GAPI                       : Gamma Ray
NPOR.pu                       : Neutron Porosity
~Parameter Information Block
~A  Depth       DCAL        RHOB        RHOC        DPOR         GR         NPOR    
# ...
   666.0000      7.9254      2.1159     -0.1128     32.3723    120.2387     13.7900
   666.1000      7.9254      2.0001     -0.1226     39.3850    119.5214     12.7488
   666.2000      7.9254      1.8781     -0.1287     46.7833    115.8471     12.6899
   666.3000      7.9270      1.7469     -0.1694     54.7357    115.5929     13.0429
   666.4000      7.9270      1.6211     -0.1942     62.3582    118.5220     13.3162
   666.5000      7.9304      1.5262     -0.1712     68.1093    114.9369     13.5890
   666.6000      7.9304      1.4692     -0.1140     71.5661    105.5339     14.0900
   666.7000      7.9304      1.4443     -0.1387     73.0753    102.2647     14.9482
   666.8000      7.9334      1.4557     -0.0704     72.3828    106.0158     16.1434
   666.9000      7.9334      1.5070      0.0256     69.2738    106.2824     17.3822
   667.0000      7.9318      1.5930      0.0622     64.0606    103.0817     18.2478
   667.1000      7.9318      1.7062      0.1034     57.1983    104.2002     18.7445
   667.2000      7.9318      1.8368      0.1754     49.2854    107.2767     19.3828
   667.3000      7.9280      1.9716      0.2498     41.1171    108.3238     20.3033
   667.4000      7.9280      2.1015      0.2538     33.2435    109.7870     20.9504
   667.5000      7.9245      2.2158      0.2737     26.3155    112.6701     21.3353
   667.6000      7.9245      2.2923      0.2348     21.6790    116.9352     21.9957
   667.7000      7.9245      2.3256      0.1791     19.6629    121.0005     22.7854
   667.8000      7.9198      2.3353      0.1382     19.0733    125.1571     23.3313
   667.9000      7.9198      2.3407      0.0473     18.7471    128.8104     23.5416
   668.0000      7.9126      2.3564      0.0319     17.7928    129.0387     23.7497
   668.1000      7.9126      2.3825      0.0955     16.2132    129.5254     24.4809
   668.2000      7.9126      2.4010      0.0867     15.0911    135.1570     25.5564
   668.3000      7.9003      2.4085      0.0828     14.6345    143.8677     26.3638
   668.4000      7.9003      2.4226      0.0925     13.7838    147.6421     26.4580
   668.5000      7.8846      2.4523      0.1015     11.9814    142.1009     25.8494
   668.6000      7.8846      2.4945      0.0718      9.4250    133.7371     25.2249
   668.7000      7.8846      2.5391      0.1160      6.7182    129.7515     25.0681
   668.8000      7.8766      2.5652      0.1151      5.1396    129.3281     24.9009
   668.9000      7.8766      2.5654      0.0593      5.1286    128.0299     24.4750
   669.0000      7.8752      2.5582      0.0011      5.5652    126.3446     24.2144
   669.1000      7.8752      2.5594      0.0060      5.4879    127.3599     24.3511
   669.2000      7.8752      2.5679      0.0000      4.9748    131.0128     24.7171
   669.3000      7.8750      2.5737      0.0457      4.6240    135.6355     24.9563
   669.4000      7.8750      2.5687     -0.0011      4.9289    139.7165     24.8834
   669.5000      7.8756      2.5574     -0.0291      5.6093    142.6290     24.8433
   669.6000      7.8756      2.5502     -0.0132      6.0459    144.7006     25.2069
   669.7000      7.8756      2.5485     -0.0190      6.1524    144.5471     25.6977
   669.8000      7.8763      2.5517     -0.0082      5.9557    142.5551     25.7892
   669.9000      7.8763      2.5645     -0.0619      5.1791    141.3718     25.6428
   670.0000      7.8759      2.5810      0.0198      4.1815    140.5852     25.8215
   670.1000      7.8759      2.5818      0.0144      4.1304    137.7810     26.2260
   670.2000      7.8759      2.5637     -0.0115      5.2300    134.0846     26.6885
   670.3000      7.8753      2.5445     -0.0512      6.3947    134.6586     27.2623
   670.4000      7.8753      2.5395     -0.0394      6.6957    138.3562     27.4367
   670.5000      7.8756      2.5514     -0.0299      5.9752    138.5166     26.8563
   670.6000      7.8756      2.5714     -0.0526      4.7665    136.5065     26.0055
   670.7000      7.8756      2.5776      0.0187      4.3896    137.7373     25.2314
   670.8000      7.8760      2.5551     -0.0362      5.7490    139.4827     24.8925
   670.9000      7.8760      2.5226     -0.0266      7.7206    138.6635     25.3549
   671.0000      7.8761      2.5076     -0.0396      8.6294    138.6882     26.0537
   671.1000      7.8761      2.5079     -0.0000      8.6093    140.5726     25.9113
   671.2000      7.8761      2.5002     -0.0163      9.0758    137.7377     24.8609
   671.3000      7.8752      2.4819     -0.0320     10.1875    129.1284     24.1873
   671.4000      7.8752      2.4745     -0.0575     10.6378    119.8503     24.7774
   671.5000      7.8694      2.4873     -0.0163      9.8629    113.2823     25.7609
   671.6000      7.8694      2.5064     -0.0279      8.7021    111.7686     25.9099
   671.7000      7.8694      2.5199     -0.0127      7.8849    114.9582     25.2076
   671.8000      7.8590      2.5273      0.0029      7.4368    122.1558     24.5444
   671.9000      7.8590      2.5340     -0.0170      7.0321    131.2376     24.5802
   672.0000      7.8517      2.5401      0.0138      6.6594    136.2331     24.7060
   672.1000      7.8517      2.5385     -0.0146      6.7579    133.7233     24.3149
   672.2000      7.8517      2.5342     -0.0138      7.0165    127.6788     23.8686
   672.3000      7.8498      2.5386     -0.0339      6.7516    122.4928     23.7428
   672.4000      7.8498      2.5480      0.0061      6.1839    117.7738     23.7617
   672.5000      7.8501      2.5526      0.0022      5.9054    113.4845     23.4740
   672.6000      7.8501      2.5554      0.0060      5.7355    112.5236     22.9603
   672.7000      7.8501      2.5578      0.0146      5.5890    113.9634     22.7187
   672.8000      7.8499      2.5573      0.0091      5.6163    112.7328     22.6391
   672.9000      7.8499      2.5558     -0.0055      5.7063    109.3782     22.3157
   673.0000      7.8488      2.5515     -0.0079      5.9713    107.9156     21.9038
   673.1000      7.8488      2.5479     -0.0362      6.1851    107.0406     22.0032
   673.2000      7.8488      2.5526      0.0101      5.9019    102.0990     22.5315
   673.3000      7.8475      2.5579      0.0522      5.5804     93.5713     22.7087
   673.4000      7.8475      2.5544      0.0106      5.7921     85.7614     22.3830
   673.5000      7.8463      2.5423      0.0204      6.5265     81.0539     21.9089
   673.6000      7.8463      2.5262      0.0016      7.5025     80.7804     21.4446
   673.7000      7.8463      2.5159     -0.0120      8.1258     83.9077     21.1679
   673.8000      7.8454      2.5152      0.0322      8.1706     87.3921     21.3770
   673.9000      7.8454      2.5175      0.0154      8.0276     88.3697     21.9994
   674.0000      7.8440      2.5211      0.0156      7.8096     85.3197     22.7061
   674.1000      7.8440      2.5311     -0.0026      7.2032     81.2649     23.0697
   674.2000      7.8440      2.5506      0.0308      6.0256     79.3909     22.8119
   674.3000      7.8432      2.5714      0.0559      4.7659     78.7619     22.1233
   674.4000      7.8432      2.5772      0.0767      4.4129     77.7885     21.3630
   674.5000      7.8423      2.5617      0.0327      5.3486     76.2592     20.8627
   674.6000      7.8423      2.5364      0.0203      6.8848     73.4830     20.6859
   674.7000      7.8423      2.5122      0.0490      8.3544     70.4305     20.4310
   674.8000      7.8413      2.4966      0.0621      9.2958     68.9629     19.7882
   674.9000      7.8413      2.5010      0.0466      9.0323     68.7066     19.3201
   675.0000      7.8426      2.5250      0.0467      7.5773     66.6013     19.4843
   675.1000      7.8426      2.5456      0.0855      6.3265     62.0583     19.6553
   675.2000      7.8426      2.5433      0.0760      6.4647     60.4051     19.1267
   675.3000      7.8451      2.5266      0.0674      7.4773     64.5029     18.1033
   675.4000      7.8451      2.5066      0.1028      8.6892     69.0729     17.3804
   675.5000      7.8477      2.4832      0.0569     10.1094     69.7876     17.2394
