~Version Information
VERS.                      2.0: CWLS Log ASCII Standard - VERSION 2.0
WRAP.                       NO: One line per depth step
~Well Information Block
STRT.FT               615.0000: 
STOP.FT              2815.0000: 
STEP.FT                 0.2500: 
NULL.                -999.2500: 
COMP.          Pioneer Natural Resources: COMPANY
WELL.              Loews 41-32: WELL
FLD.           Purgatoire River: FIELD
LOC.           751' FNL & 128' FEL: LOCATION
CNTY.               Las Animas: COUNTY
SRVC.                Patterson: SERVICE COMPANY
DATE.          Sun Feb 12 02:27:11 2006: LOG DATE
UWI.           05 071 08693 00: UNIQUE WELL ID
STAT.                 Colorado: STATE
~Curve Information Block
DEPT.FT            0 000 00 00: Depth
SN.Ohm-m                      : IEL Short Normal
SP.mV                         : IEL Spontaneous Potential
DIR.Ohm-m                     : IEL Induction Resistivity
GR.GAPI                       : Gamma Ray
~Parameter Information Block
~A  Depth        SN          SP         DIR          GR     
# ...
  1787.5000     40.1264      2.0752     25.2303     67.2674
  1787.7500     38.1920      1.9968     23.4088     71.6983
  1788.0000     35.6750      1.8618     21.6994     81.8179
  1788.2500     32.5582      1.6675     20.1327     90.4558
  1788.5000     29.0082      1.4212     18.7248    105.9681
  1788.7500     25.4029      1.1355     17.4827    117.8482
  1789.0000     22.1639      0.8194     16.4038    136.5893
  1789.2500     19.5171      0.4785     15.4781    148.2278
  1789.5000     17.4460      0.1282     14.6894    162.0751
  1789.7500     15.8513     -0.1991     14.0183    168.2919
  1790.0000     14.6672     -0.4646     13.4444    173.3480
  1790.2500     13.8260     -0.6459     12.9521    174.4192
  1790.5000     13.1941     -0.7538     12.5339    173.6944
  1790.7500     12.6151     -0.8304     12.1884    172.2140
  1791.0000     12.0273     -0.9275     11.9148    169.0255
  1791.2500     11.4829     -1.0751     11.7098    166.2991
  1791.5000     11.0559     -1.2583     11.5677    160.9174
  1791.7500     10.7679     -1.4169     11.4823    155.9499
  1792.0000     10.6125     -1.4734     11.4458    145.5184
  1792.2500     10.6479     -1.3728     11.4480    136.5152
  1792.5000     10.9589     -1.1067     11.4760    121.2805
  1792.7500     11.4753     -0.7058     11.5152    111.5237
  1793.0000     11.9809     -0.2187     11.5522    100.4678
  1793.2500     12.3522      0.3030     11.5768     96.6235
  1793.5000     12.6090      0.8103     11.5838     96.1623
  1793.7500     12.7310      1.2627     11.5717     98.5002
  1794.0000     12.6407      1.6359     11.5416    104.2420
  1794.2500     12.4030      1.9275     11.4954    108.9958
  1794.5000     12.2402      2.1555     11.4364    117.2434
  1794.7500     12.2779      2.3495     11.3702    123.3548
  1795.0000     12.4272      2.5404     11.3034    132.9284
  1795.2500     12.5103      2.7527     11.2423    139.1609
  1795.5000     12.4203      3.0001     11.1932    147.1863
  1795.7500     12.2267      3.2833     11.1640    150.7514
  1796.0000     12.1298      3.5887     11.1651    152.2464
  1796.2500     12.2182      3.8937     11.2097    150.8547
  1796.5000     12.3804      4.1759     11.3125    146.8894
  1796.7500     12.5520      4.4215     11.4876    144.0071
  1797.0000     12.8161      4.6259     11.7469    139.8643
  1797.2500     13.1894      4.7904     12.0988    136.9008
  1797.5000     13.5791      4.9198     12.5482    131.4408
  1797.7500     14.0347      5.0244     13.0942    126.9822
  1798.0000     14.7891      5.1216     13.7257    119.1256
  1798.2500     15.9347      5.2329     14.4166    113.0365
  1798.5000     17.3368      5.3773     15.1264    102.4923
  1798.7500     18.9342      5.5634     15.8078     94.9494
  1799.0000     20.8053      5.7843     16.4193     84.7947
  1799.2500     22.8566      6.0185     16.9373     80.1548
  1799.5000     24.6491      6.2413     17.3629     78.2111
  1799.7500     25.6365      6.4377     17.7142     80.9078
  1800.0000     25.5510      6.6036     18.0071     91.1497
  1800.2500     24.5602      6.7374     18.2410    101.4519
  1800.5000     23.0922      6.8349     18.4020    119.6382
  1800.7500     21.5330      6.8966     18.4790    131.6383
  1801.0000     20.0722      6.9340     18.4744    145.9460
  1801.2500     18.7878      6.9641     18.4015    151.4030
  1801.5000     17.7139      6.9970     18.2780    152.7665
  1801.7500     16.8194      7.0285     18.1260    150.2221
  1802.0000     16.1317      7.0416     17.9788    144.3751
  1802.2500     15.8675      7.0137     17.8841    140.5011
  1802.5000     16.2916      6.9255     17.8963    135.0339
  1802.7500     17.4806      6.7708     18.0623    130.8366
  1803.0000     19.2575      6.5620     18.4070    122.2888
  1803.2500     21.3080      6.3264     18.9279    114.9327
  1803.5000     23.4028      6.0931     19.5963    102.3830
  1803.7500     25.5452      5.8814     20.3632     93.8055
  1804.0000     27.9120      5.6976     21.1670     81.7759
  1804.2500     30.7134      5.5413     21.9459     74.8834
  1804.5000     34.0386      5.4096     22.6534     66.9865
  1804.7500     37.6647      5.2971     23.2650     63.4142
  1805.0000     41.0773      5.1948     23.7668     59.9262
  1805.2500     43.7709      5.0929     24.1324     58.3375
  1805.5000     45.4052      4.9832     24.3109     56.7576
  1805.7500     45.6983      4.8601     24.2418     56.5075
  1806.0000     44.4951      4.7200     23.8951     58.2184
  1806.2500     41.9934      4.5623     23.3059     61.3227
  1806.5000     38.6480      4.3917     22.5716     69.6787
  1806.7500     34.8151      4.2202     21.8053     77.7265
  1807.0000     30.7234      4.0646     21.0812     92.1454
  1807.2500     26.7949      3.9391     20.4087    101.6824
  1807.5000     23.5563      3.8470     19.7470    112.7097
  1807.7500     21.1895      3.7789     19.0446    116.7146
  1808.0000     19.5757      3.7197     18.2776    117.5449
  1808.2500     18.5400      3.6590     17.4638    115.2110
  1808.5000     17.7542      3.5970     16.6484    108.8632
  1808.7500     16.8604      3.5461     15.8816    104.0955
  1809.0000     15.8747      3.5265     15.2048     99.2346
  1809.2500     15.1452      3.5581     14.6457     98.9188
  1809.5000     14.8926      3.6522     14.2168    103.0293
  1809.7500     14.9190      3.8067     13.9107    107.8307
  1810.0000     14.8035      4.0075     13.6987    116.0798
  1810.2500     14.3204      4.2345     13.5367    121.5110
  1810.5000     13.5931      4.4677     13.3816    129.1465
  1810.7500     12.9141      4.6904     13.2067    133.9346
  1811.0000     12.4680      4.8905     13.0051    140.5154
  1811.2500     12.2298      5.0624     12.7791    144.0860
  1811.5000     12.0812      5.2093     12.5296    147.4588
  1811.7500     11.9253      5.3438     12.2549    148.4471
  1812.0000     11.7101      5.4833     11.9567    149.1734
  1812.2500     11.3780      5.6400     11.6450    149.8712
  1812.5000     10.9222      5.8159     11.3365    151.3985
  1812.7500     10.5360      6.0048     11.0500    152.2114
  1813.0000     10.4137      6.1970     10.8027    152.4023
  1813.2500     10.4501      6.3831     10.6065    152.0384
  1813.5000     10.3995      6.5534     10.4661    151.5853
  1813.7500     10.1809      6.6960     10.3775    151.5133
  1814.0000      9.9099      6.7974     10.3289    151.4211
  1814.2500      9.7150      6.8456     10.3051    151.1862
  1814.5000      9.6177      6.8360     10.2918    150.4185
  1814.7500      9.5992      6.7743     10.2796    149.3256
  1815.0000      9.6556      6.6770     10.2634    145.6945
  1815.2500      9.7542      6.5717     10.2405    141.4573
  1815.5000      9.8064      6.4906     10.2084    133.3112
  1815.7500      9.7716      6.4598     10.1643    128.3307
  1816.0000      9.7591      6.4905     10.1073    124.1484
  1816.2500      9.8875      6.5774     10.0395    123.6734
  1816.5000     10.1075      6.7028      9.9649    124.1220
  1816.7500     10.2775      6.8415      9.8844    123.5865
  1817.0000     10.3359      6.9712      9.7930    120.8422
  1817.2500     10.3173      7.0834      9.6802    118.9739
  1817.5000     10.2481      7.1869      9.5358    119.4817
  1817.7500     10.1186      7.2996      9.3569    123.1441
  1818.0000      9.9252      7.4358      9.1503    132.4886
  1818.2500      9.6668      7.5993      8.9298    139.3470
  1818.5000      9.3680      7.7859      8.7103    147.4394
  1818.7500      9.0947      7.9873      8.5017    150.7347
  1819.0000      8.8479      8.1932      8.3068    153.7305
  1819.2500      8.5095      8.3899      8.1234    155.6753
  1819.5000      8.0322      8.5612      7.9485    159.8127
  1819.7500      7.5835      8.6939      7.7826    163.2756
  1820.0000      7.3405      8.7846      7.6297    168.0866
  1820.2500      7.2627      8.8405      7.4939    169.8269
  1820.5000      7.1922      8.8706      7.3768    168.8059
  1820.7500      7.1022      8.8753      7.2769    166.0037
