~Version Information
VERS.                      2.0: CWLS Log ASCII Standard - VERSION 2.0
WRAP.                       NO: One line per depth step
~Well Information Block
STRT.FT               570.0000: 
STOP.FT              1958.5000: 
STEP.FT                 0.2500: 
NULL.                -999.2500: 
COMP.          Petrogulf Corporation: COMPANY
WELL.            Montoya 7-14R: WELL
FLD.           Purgatorie River: FIELD
LOC.           628' FSL & 454' FWL: LOCATION
PROV.                 Colorado: PROVINCE
CNTY.               Las Animas: COUNTRY
SRVC.                Patterson: SERVICE COMPANY
DATE.          Sat Oct 08 17:13:52 2005: LOG DATE
UWI.                          : UNIQUE WELL ID
~Curve Information Block
DEPT.FT            0 000 00 00: Depth
SP.mV                         : DIL Spontaneous Potential
RILD.Ohm-m                    : DIL Deep Resistivity
RILM.Ohm-m                    : DIL Medium Resistivity
RLL3.Ohm-m                    : DIL Shallow Resistivity
GR.GAPI                       : Gamma Ray
~Parameter Information Block
~A  Depth        SP         RILD        RILM        RLL3         GR     
# ...
  1214.0000    167.7927      8.2965      8.8685     13.6163    115.5490
  1214.2500    167.4426      8.3091      8.7710     13.4165    114.3244
  1214.5000    167.2365      8.3300      8.6520     12.8074    114.5304
  1214.7500    167.1887      8.3659      8.5396     11.8456    116.3802
  1215.0000    167.3132      8.4183      8.4592     10.7672    121.4172
  1215.2500    167.6239      8.4825      8.4303      9.8982    125.5050
  1215.5000    168.1385      8.5458      8.4642      9.5453    130.9958
  1215.7500    168.8809      8.5879      8.5632      9.9615    133.4845
  1216.0000    169.8817      8.5863      8.7189     11.3988    134.9280
  1216.2500    171.1780      8.5263      8.9116     14.1579    134.2347
  1216.5000    172.8080      8.4094      9.1105     18.4825    130.6484
  1216.7500    174.7899      8.2529      9.2767     24.2126    126.8668
  1217.0000    177.0901      8.0816      9.3708     30.3696    120.0919
  1217.2500    179.6002      7.9178      9.3636     35.1427    115.2625
  1217.5000    182.1479      7.7761      9.2450     36.6247    108.0540
  1217.7500    184.5377      7.6623      9.0276     33.9851    103.9493
  1218.0000    186.5985      7.5762      8.7404     28.1451    100.6274
  1218.2500    188.2195      7.5142      8.4191     21.2664    100.8340
  1218.5000    189.3710      7.4700      8.0957     15.4203    103.8939
  1218.7500    190.1076      7.4333      7.7938     11.5699    106.7800
  1219.0000    190.5455      7.3897      7.5275      9.5508    111.1747
  1219.2500    190.8176      7.3240      7.3030      8.7147    113.6216
  1219.5000    191.0275      7.2268      7.1208      8.5044    115.4878
  1219.7500    191.2285      7.1007      6.9782      8.6282    115.2724
  1220.0000    191.4280      6.9601      6.8706      8.9562    113.9920
  1220.2500    191.6053      6.8259      6.7934      9.3799    113.8114
  1220.5000    191.7296      6.7187      6.7424      9.7684    115.9335
  1220.7500    191.7751      6.6538      6.7147     10.0207    118.6091
  1221.0000    191.7325      6.6403      6.7090     10.1272    122.4777
  1221.2500    191.6118      6.6824      6.7259     10.1621    123.8644
  1221.5000    191.4301      6.7816      6.7681     10.2113    123.8518
  1221.7500    191.1925      6.9383      6.8398     10.3007    123.1136
  1222.0000    190.8833      7.1529      6.9474     10.3803    122.3362
  1222.2500    190.4739      7.4248      7.0991     10.3727    122.5919
  1222.5000    189.9348      7.7522      7.3058     10.2509    124.2500
  1222.7500    189.2412      8.1292      7.5803     10.0968    125.7008
  1223.0000    188.3717      8.5453      7.9374     10.1162    127.0907
  1223.2500    187.3136      8.9843      8.3922     10.6289    127.0716
  1223.5000    186.0777      9.4278      8.9574     12.0305    125.7279
  1223.7500    184.7126      9.8601      9.6403     14.6598    123.9200
  1224.0000    183.3039     10.2726     10.4365     18.5265    118.8637
  1224.2500    181.9510     10.6622     11.3241     23.0641    113.3623
  1224.5000    180.7311     11.0260     12.2579     27.2281    102.5597
  1224.7500    179.6693     11.3554     13.1672     30.0241     95.0296
  1225.0000    178.7369     11.6339     13.9619     31.0654     85.7802
  1225.2500    177.8791     11.8414     14.5476     30.6580     81.8576
  1225.5000    177.0500     11.9601     14.8481     29.3935     79.7793
  1225.7500    176.2299     11.9793     14.8266     27.6917     80.7804
  1226.0000    175.4151     11.8957     14.4968     25.6735     84.8745
  1226.2500    174.6011     11.7132     13.9176     23.3375     88.3532
  1226.5000    173.7767     11.4430     13.1757     20.7598     93.0415
  1226.7500    172.9304     11.1048     12.3617     18.1292     95.3649
  1227.0000    172.0553     10.7260     11.5527     15.6666     98.0301
  1227.2500    171.1502     10.3364     10.8031     13.5546     99.9190
  1227.5000    170.2206      9.9626     10.1448     11.9101    104.0609
  1227.7500    169.2839      9.6233      9.5918     10.7647    107.8823
  1228.0000    168.3691      9.3278      9.1458     10.0618    114.0300
  1228.2500    167.5072      9.0786      8.8017      9.6955    117.1692
  1228.5000    166.7170      8.8744      8.5504      9.5725    119.1706
  1228.7500    165.9993      8.7136      8.3811      9.6544    119.1257
  1229.0000    165.3392      8.5967      8.2822      9.9579    118.6904
  1229.2500    164.7118      8.5268      8.2424     10.5164    118.5555
  1229.5000    164.0856      8.5100      8.2516     11.3223    117.7794
  1229.7500    163.4277      8.5542      8.3018     12.2734    116.4556
  1230.0000    162.7126      8.6681      8.3895     13.1566    114.1505
  1230.2500    161.9297      8.8598      8.5161     13.7044    113.6006
  1230.5000    161.0825      9.1348      8.6887     13.7286    115.8024
  1230.7500    160.1801      9.4946      8.9199     13.2564    119.1760
  1231.0000    159.2337      9.9372      9.2266     12.5568    125.0175
  1231.2500    158.2577     10.4580      9.6287     12.0264    127.8269
  1231.5000    157.2735     11.0520     10.1479     12.0271    128.9889
  1231.7500    156.3079     11.7149     10.8075     12.7843    128.1096
  1232.0000    155.3913     12.4439     11.6314     14.3708    125.7965
  1232.2500    154.5563     13.2403     12.6448     16.7554    123.8923
  1232.5000    153.8402     14.1132     13.8740     19.9208    119.4121
  1232.7500    153.2808     15.0816     15.3473     24.0152    114.4309
  1233.0000    152.9107     16.1706     17.0952     29.3820    103.7029
  1233.2500    152.7537     17.4055     19.1497     36.3402     95.2676
  1233.5000    152.8233     18.8051     21.5406     44.8625     82.6689
  1233.7500    153.1174     20.3716     24.2869     54.4656     74.8814
  1234.0000    153.6150     22.0743     27.3791     64.4231     64.2687
  1234.2500    154.2830     23.8260     30.7491     74.0973     58.2211
  1234.5000    155.0967     25.4720     34.2262     83.1269     51.7398
  1234.7500    156.0541     26.8098     37.4921     91.3987     49.2462
  1235.0000    157.1690     27.6457     40.0696     98.9020     46.7380
  1235.2500    158.4491     27.8602     41.4113    105.5474     44.7556
  1235.5000    159.8832     27.4494     41.1166    110.9088     40.8869
  1235.7500    161.4461     26.5225     39.1719    113.9364     38.4806
  1236.0000    163.1100     25.2615     35.9998    112.9947     36.7059
  1236.2500    164.8455     23.8613     32.2485    106.5171     37.1004
  1236.5000    166.6166     22.4783     28.5062     94.0194     39.8968
  1236.7500    168.3769     21.2056     25.1460     76.8119     43.2345
  1237.0000    170.0683     20.0771     22.3272     57.8566     50.9794
  1237.2500    171.6213     19.0870     20.0667     40.6696     58.1619
  1237.5000    172.9637     18.2125     18.3102     27.8331     71.3567
  1237.7500    174.0431     17.4303     16.9784     20.0974     80.9851
  1238.0000    174.8491     16.7265     15.9912     16.5966     95.1904
  1238.2500    175.4130     16.0989     15.2778     15.7628    103.6221
  1238.5000    175.7849     15.5569     14.7805     16.1560    113.2524
  1238.7500    176.0082     15.1179     14.4555     16.8358    117.2599
  1239.0000    176.1125     14.8030     14.2729     17.3706    120.5960
  1239.2500    176.1212     14.6321     14.2157     17.6949    122.4207
  1239.5000    176.0614     14.6188     14.2777     17.9376    126.8644
  1239.7500    175.9638     14.7686     14.4611     18.2769    131.2905
  1240.0000    175.8576     15.0793     14.7735     18.8488    138.1421
  1240.2500    175.7658     15.5457     15.2249     19.7082    140.7438
  1240.5000    175.7018     16.1635     15.8264     20.8280    138.8712
  1240.7500    175.6669     16.9315     16.5884     22.1461    133.8265
  1241.0000    175.6496     17.8491     17.5205     23.6758    123.6213
  1241.2500    175.6281     18.9076     18.6311     25.6194    117.2103
  1241.5000    175.5757     20.0790     19.9278     28.3383    109.8011
  1241.7500    175.4620     21.3121     21.4159     32.1231    105.9463
