~Version Information
VERS.                      2.0: CWLS Log ASCII Standard - VERSION 2.0
WRAP.                       NO: One line per depth step
~Well Information Block
STRT.FT                10.0000: 
STOP.FT               959.2500: 
STEP.FT                 0.2500: 
NULL.                -999.2500: 
COMP.          XTO Energy Inc.: COMPANY
WELL.          Golden Eagle 20-04: WELL
FLD.           Purgatrorie River: FIELD
LOC.           702' FNL & 487' FWL--: LOCATION
STAT.                       CO: State
CNTY.               Las Animas: COUNTY
CTRY. USA : Country
SECT. 20 : Section
TOWN. 33S : Township
RANG. 67W : Range
SRVC.          Patterson Wireline: SERVICE COMPANY
DATE.          Mon Dec 05 08:42:44 2005: LOG DATE
API.           05 071 08599 00: UNIQUE WELL ID
~Curve Information Block
DEPT.FT            0 000 00 00: Depth
TEMP.degF                     : Downhole Temperature
DTMP.degF                     : Delta Temperature
~Parameter Information Block
~A  Depth       TEMP        DTMP    
# ...
   288.7500     56.3839      0.0472
   289.0000     56.3971      0.0490
   289.2500     56.4109      0.0503
   289.5000     56.4251      0.0520
   289.7500     56.4360      0.0555
   290.0000     56.4510      0.0574
   290.2500     56.4625      0.0571
   290.5000     56.4784      0.0591
   290.7500     56.4949      0.0607
   291.0000     56.5120      0.0629
   291.2500     56.5251      0.0647
   291.5000     56.5433      0.0670
   291.7500     56.5574      0.0667
   292.0000     56.5768      0.0690
   292.2500     56.5919      0.0736
   292.5000     56.6124      0.0731
   292.7500     56.6283      0.0777
   293.0000     56.6499      0.0800
   293.2500     56.6723      0.0817
   293.5000     56.6895      0.0841
   293.7500     56.7129      0.0890
   294.0000     56.7369      0.0882
   294.2500     56.7553      0.0905
   294.5000     56.7806      0.0960
   294.7500     56.8064      0.0951
   295.0000     56.8263      0.0978
   295.2500     56.8534      0.1039
   295.5000     56.8815      0.1028
   295.7500     56.9030      0.1059
   296.0000     56.9325      0.1120
   296.2500     56.9631      0.1109
   296.5000     56.9863      0.1137
   296.7500     57.0181      0.1155
   297.0000     57.0503      0.1180
   297.2500     57.0752      0.1159
   297.5000     57.1088      0.1218
   297.7500     57.1341      0.1237
   298.0000     57.1686      0.1209
   298.2500     57.1948      0.1266
   298.5000     57.2300      0.1234
   298.7500     57.2654      0.1290
   299.0000     57.2920      0.1303
   299.2500     57.3283      0.1358
   299.5000     57.3557      0.1322
   299.7500     57.3921      0.1334
   300.0000     57.4291      0.1394
   300.2500     57.4664      0.1357
   300.5000     57.4944      0.1418
   300.7500     57.5322      0.1385
   301.0000     57.5708      0.1403
   301.2500     57.5997      0.1370
   301.5000     57.6392      0.1438
   301.7500     57.6691      0.1460
   302.0000     57.7096      0.1483
   302.2500     57.7404      0.1501
   302.5000     57.7820      0.1525
   302.7500     57.8242      0.1545
   303.0000     57.8674      0.1570
   303.2500     57.8999      0.1646
   303.5000     57.9443      0.1613
   303.7500     57.9780      0.1639
   304.0000     58.0236      0.1662
   304.2500     58.0696      0.1679
   304.5000     58.1046      0.1700
   304.7500     58.1520      0.1712
   305.0000     58.1998      0.1729
   305.2500     58.2357      0.1744
   305.5000     58.2842      0.1755
   305.7500     58.3205      0.1764
   306.0000     58.3694      0.1772
   306.2500     58.4185      0.1778
   306.5000     58.4556      0.1785
   306.7500     58.5048      0.1790
   307.0000     58.5542      0.1792
   307.2500     58.5914      0.1794
   307.5000     58.6412      0.1856
   307.7500     58.6784      0.1793
   308.0000     58.7277      0.1789
   308.2500     58.7773      0.1787
   308.5000     58.8267      0.1776
   308.7500     58.8635      0.1827
   309.0000     58.9120      0.1755
   309.2500     58.9487      0.1734
   309.5000     58.9964      0.1655
   309.7500     59.0437      0.1687
   310.0000     59.0787      0.1654
   310.2500     59.1241      0.1624
   310.5000     59.1577      0.1579
   310.7500     59.2010      0.1527
   311.0000     59.2429      0.1483
   311.2500     59.2735      0.1421
   311.5000     59.3121      0.1371
   311.7500     59.3491      0.1300
   312.0000     59.3752      0.1223
   312.2500     59.4083      0.1163
   312.5000     59.4319      0.1082
   312.7500     59.4609      0.0998
   313.0000     59.4875      0.0936
   313.2500     59.5061      0.0852
   313.5000     59.5285      0.0789
   313.7500     59.5487      0.0706
   314.0000     59.5624      0.0626
   314.2500     59.5787      0.0577
   314.5000     59.5896      0.0493
   314.7500     59.6021      0.0422
   315.0000     59.6127      0.0376
   315.2500     59.6215      0.0308
   315.5000     59.6272      0.0265
   315.7500     59.6331      0.0207
   316.0000     59.6376      0.0157
   316.2500     59.6402      0.0110
   316.5000     59.6425      0.0078
   316.7500     59.6436      0.0040
   317.0000     59.6440      0.0009
   317.2500     59.6436     -0.0018
   317.5000     59.6428     -0.0042
   317.7500     59.6410     -0.0064
   318.0000     59.6393     -0.0085
   318.2500     59.6366     -0.0103
   318.5000     59.6342     -0.0115
   318.7500     59.6307     -0.0122
   319.0000     59.6270     -0.0134
   319.2500     59.6230     -0.0142
   319.5000     59.6199     -0.0151
   319.7500     59.6167     -0.0148
   320.0000     59.6125     -0.0149
   320.2500     59.6082     -0.0147
   320.5000     59.6041     -0.0145
   320.7500     59.6011     -0.0145
   321.0000     59.5972     -0.0134
   321.2500     59.5936     -0.0125
   321.5000     59.5910     -0.0112
   321.7500     59.5878     -0.0105
   322.0000     59.5857     -0.0091
   322.2500     59.5832     -0.0075
   322.5000     59.5816     -0.0062
   322.7500     59.5800     -0.0043
   323.0000     59.5790     -0.0027
   323.2500     59.5786     -0.0006
   323.5000     59.5786      0.0015
   323.7500     59.5793      0.0035
   324.0000     59.5802      0.0060
   324.2500     59.5821      0.0078
   324.5000     59.5847      0.0104
   324.7500     59.5870      0.0131
   325.0000     59.5909      0.0159
   325.2500     59.5943      0.0177
   325.5000     59.5995      0.0203
   325.7500     59.6054      0.0235
   326.0000     59.6121      0.0250
   326.2500     59.6175      0.0283
   326.5000     59.6254      0.0309
   326.7500     59.6340      0.0322
   327.0000     59.6409      0.0347
   327.2500     59.6508      0.0366
   327.5000     59.6614      0.0391
   327.7500     59.6697      0.0416
   328.0000     59.6814      0.0433
   328.2500     59.6907      0.0456
   328.5000     59.7036      0.0460
   328.7500     59.7171      0.0496
   329.0000     59.7275      0.0519
   329.2500     59.7421      0.0535
   329.5000     59.7534      0.0556
   329.7500     59.7690      0.0578
   330.0000     59.7852      0.0618
   330.2500     59.7977      0.0616
   330.5000     59.8148      0.0657
   330.7500     59.8327      0.0653
   331.0000     59.8510      0.0674
   331.2500     59.8653      0.0716
   331.5000     59.8848      0.0710
   331.7500     59.8996      0.0728
   332.0000     59.9200      0.0745
   332.2500     59.9408      0.0757
   332.5000     59.9568      0.0743
   332.7500     59.9782      0.0782
   333.0000     60.0001      0.0795
   333.2500     60.0167      0.0777
   333.5000     60.0333      0.0814
   333.7500     60.0561      0.0795
   334.0000     60.0789      0.0802
   334.2500     60.0963      0.0836
   334.5000     60.1196      0.0869
   334.7500     60.1371      0.0842
   335.0000     60.1604      0.0842
   335.2500     60.1839      0.0868
   335.5000     60.2070      0.0834
   335.7500     60.2244      0.0854
   336.0000     60.2474      0.0817
   336.2500     60.2698      0.0800
   336.5000     60.2865      0.0756
   336.7500     60.3079      0.0760
   337.0000     60.3238      0.0730
   337.2500     60.3438      0.0694
   337.5000     60.3583      0.0664
   337.7500     60.3765      0.0619
   338.0000     60.3934      0.0582
   338.2500     60.4087      0.0529
   338.5000     60.4193      0.0494
   338.7500     60.4318      0.0426
   339.0000     60.4402      0.0362
   339.2500     60.4496      0.0297
   339.5000     60.4571      0.0247
   339.7500     60.4617      0.0180
   340.0000     60.4658      0.0129
   340.2500     60.4681      0.0062
   340.5000     60.4687     -0.0004
   340.7500     60.4678     -0.0063
   341.0000     60.4660     -0.0115
   341.2500     60.4620     -0.0174
   341.5000     60.4563     -0.0217
   341.7500     60.4491     -0.0272
   342.0000     60.4429     -0.0310
   342.2500     60.4333     -0.0358
   342.5000     60.4253     -0.0401
   342.7500     60.4135     -0.0441
   343.0000     60.4041     -0.0468
   343.2500     60.3905     -0.0502
   343.5000     60.3761     -0.0524
   343.7500     60.3610     -0.0550
   344.0000     60.3492     -0.0590
   344.2500     60.3329     -0.0589
