~Version Information
VERS.                      2.0: CWLS Log ASCII Standard - VERSION 2.0
WRAP.                       NO: One line per depth step
~Well Information Block
STRT.FT               845.0000: 
STOP.FT              2102.0000: 
STEP.FT                 0.1000: 
NULL.                -999.2500: 
COMP.          Petrogulf Corporation: COMPANY
WELL.               YWAM 7-32R: WELL
FLD.           Purgatorie River: FIELD
LOC.           2355' FNL & 2376' FEL: LOCATION
PROV.                 Colorado: PROVINCE
CNTY.               Las Animas: COUNTRY
SRVC.                Patterson: SERVICE COMPANY
DATE.          Fri Sep 30 11:07:31 2005: LOG DATE
UWI.                          : UNIQUE WELL ID
~Curve Information Block
DEPT.FT            0 000 00 00: Depth
DCAL.in                       : CDL Caliper
RHOB.g/cc                     : CDL Bulk Density
RHOC.g/cc                     : CDL Density Correction
DPOR.pu                       : CDL Density Porosity
GR.GAPI                       : Gamma Ray
NPOR.pu                       : Neutron Porosity
~Parameter Information Block
~A  Depth       DCAL        RHOB        RHOC        DPOR         GR         NPOR    
# ...
  1257.8000      7.9345      2.6786      0.0670     -1.7313    102.9488     24.6477
  1257.9000      7.9345      2.6384      0.0062      0.7031    101.5474     25.1332
  1258.0000      7.9370      2.6023      0.0018      2.8937    102.3643     25.2038
  1258.1000      7.9370      2.5795     -0.0070      4.2753    101.4071     24.9012
  1258.2000      7.9370      2.5751     -0.0382      4.5398    100.5428     24.7507
  1258.3000      7.9553      2.5854      0.0109      3.9147    101.0162     24.8382
  1258.4000      7.9553      2.5927      0.0356      3.4747    100.8824     24.7226
  1258.5000      7.9975      2.5810      0.0301      4.1814    102.3129     24.3203
  1258.6000      7.9975      2.5562     -0.0214      5.6852    105.2101     23.8999
  1258.7000      7.9975      2.5370     -0.0425      6.8489    104.9802     23.8073
  1258.8000      8.0267      2.5302     -0.0051      7.2630    103.5519     24.1057
  1258.9000      8.0267      2.5312      0.0142      7.2013    105.8621     24.4532
  1259.0000      8.0215      2.5317      0.0423      7.1679    112.4802     24.6641
  1259.1000      8.0215      2.5253     -0.0097      7.5550    120.6316     24.8302
  1259.2000      8.0215      2.5176     -0.0075      8.0219    125.7650     25.0065
  1259.3000      8.0076      2.5134      0.0223      8.2793    125.9871     25.3370
  1259.4000      8.0076      2.5155      0.0020      8.1524    123.2123     25.7251
  1259.5000      8.0178      2.5336      0.0259      7.0558    119.3790     25.8457
  1259.6000      8.0178      2.5627      0.0609      5.2897    117.5137     25.7537
  1259.7000      8.0178      2.5823      0.0627      4.1045    121.1715     25.7356
  1259.8000      8.0316      2.5873      0.0169      3.8022    130.2817     25.8994
  1259.9000      8.0316      2.5882      0.0752      3.7483    140.8283     26.1487
  1260.0000      8.0415      2.5918      0.0412      3.5273    147.4799     26.1647
  1260.1000      8.0415      2.6021      0.0550      2.9007    148.0539     25.9181
  1260.2000      8.0415      2.6142      0.0872      2.1706    145.2816     25.9838
  1260.3000      8.0736      2.6183      0.0582      1.9201    143.2250     26.4777
  1260.4000      8.0736      2.6174      0.0841      1.9760    143.4059     26.9815
  1260.5000      8.0796      2.6193      0.0542      1.8590    145.3018     27.3641
  1260.6000      8.0796      2.6240      0.0501      1.5765    147.9366     27.6421
  1260.7000      8.0796      2.6238      0.0804      1.5892    148.9644     27.6778
  1260.8000      8.1014      2.6148      0.0716      2.1346    147.6923     27.5820
  1260.9000      8.1014      2.6110      0.0055      2.3653    147.3276     27.7834
  1261.0000      8.1023      2.6244      0.0548      1.5494    149.6553     28.1837
  1261.1000      8.1023      2.6439      0.0323      0.3669    152.7642     28.2193
  1261.2000      8.1023      2.6566      0.0514     -0.3985    152.5064     27.9641
  1261.3000      8.1184      2.6604      0.0495     -0.6281    147.1700     27.9318
  1261.4000      8.1184      2.6587      0.0113     -0.5277    144.1374     28.0974
  1261.5000      8.1433      2.6517      0.0484     -0.1018    148.1052     28.1135
  1261.6000      8.1433      2.6371     -0.0198      0.7809    151.9537     27.8625
  1261.7000      8.1433      2.6204     -0.0015      1.7961    151.2773     27.5579
  1261.8000      8.1315      2.6113     -0.0347      2.3439    150.3181     27.4796
  1261.9000      8.1315      2.6158      0.0025      2.0707    150.4992     27.4247
  1262.0000      8.1246      2.6216      0.0517      1.7212    149.8658     27.1025
  1262.1000      8.1246      2.6146      0.0079      2.1462    149.7121     26.7152
  1262.2000      8.1246      2.5977     -0.0019      3.1706    151.5506     26.3816
  1262.3000      8.1285      2.5759     -0.0046      4.4895    151.7349     26.1291
  1262.4000      8.1285      2.5552     -0.0406      5.7456    149.4730     26.1571
  1262.5000      8.1443      2.5441     -0.0233      6.4168    147.7625     26.3711
  1262.6000      8.1443      2.5429      0.0274      6.4937    146.1266     26.3624
  1262.7000      8.1443      2.5436     -0.0089      6.4504    143.9702     26.1589
  1262.8000      8.1532      2.5321      0.0376      7.1470    143.4108     26.1703
  1262.9000      8.1532      2.4904      0.0230      9.6731    145.7486     26.3107
  1263.0000      8.1584      2.4230     -0.0183     13.7562    149.1215     26.2616
  1263.1000      8.1584      2.3569     -0.0446     17.7625    152.1078     26.0986
  1263.2000      8.1584      2.3074     -0.0600     20.7643    153.9416     26.0454
  1263.3000      8.1703      2.2740     -0.0523     22.7859    154.5991     26.4066
  1263.4000      8.1703      2.2578     -0.0625     23.7717    156.8240     27.1259
  1263.5000      8.1692      2.2580     -0.0629     23.7582    160.7358     27.7462
  1263.6000      8.1692      2.2628      0.0102     23.4671    163.6990     28.1711
  1263.7000      8.1692      2.2669      0.0173     23.2185    163.9299     28.6763
  1263.8000      8.1707      2.2857      0.0263     22.0816    161.0014     29.2889
  1263.9000      8.1707      2.3275      0.1396     19.5441    158.0620     29.8023
  1264.0000      8.1841      2.3819      0.1575     16.2497    159.0010     30.2688
  1264.1000      8.1841      2.4385      0.1872     12.8172    161.8051     30.7641
  1264.2000      8.1841      2.4858      0.1579      9.9545    161.0256     30.9865
  1264.3000      8.1879      2.5033      0.1909      8.8930    154.7464     30.7433
  1264.4000      8.1879      2.4868      0.0842      9.8911    147.2780     30.3662
  1264.5000      8.1973      2.4674      0.0314     11.0672    141.9743     30.0788
  1264.6000      8.1973      2.4681      0.0379     11.0216    139.8629     29.8434
  1264.7000      8.1973      2.4760      0.0564     10.5447    142.2476     29.8662
  1264.8000      8.2243      2.4713      0.0417     10.8277    144.5853     30.1820
  1264.9000      8.2243      2.4603     -0.0240     11.4980    143.2264     30.3086
  1265.0000      8.2090      2.4673     -0.0217     11.0735    142.1622     30.1206
  1265.1000      8.2090      2.4913      0.0504      9.6209    142.6243     29.9467
  1265.2000      8.2090      2.5063      0.0470      8.7120    141.8466     29.8046
  1265.3000      8.2220      2.5087      0.0230      8.5665    139.7571     29.4306
  1265.4000      8.2220      2.5128      0.0578      8.3131    137.7586     28.8717
  1265.5000      8.2330      2.5152      0.0876      8.1724    137.3481     28.5517
  1265.6000      8.2330      2.5036      0.0414      8.8702    139.0713     28.5857
  1265.7000      8.2330      2.4861      0.0250      9.9332    140.5814     28.5786
  1265.8000      8.2363      2.4759      0.0357     10.5503    139.6822     28.5351
  1265.9000      8.2363      2.4704      0.0692     10.8876    137.6300     28.7659
  1266.0000      8.2592      2.4661      0.0030     11.1425    137.3120     29.1372
  1266.1000      8.2592      2.4704      0.0414     10.8868    137.9503     29.3546
  1266.2000      8.2592      2.4794      0.0796     10.3376    136.6659     29.4530
  1266.3000      8.2496      2.4860      0.0389      9.9423    133.5419     29.7397
  1266.4000      8.2496      2.4907      0.0675      9.6550    130.9940     30.2215
  1266.5000      8.2764      2.4908      0.0522      9.6491    131.1322     30.5780
  1266.6000      8.2764      2.4858      0.0559      9.9508    132.4921     30.7076
  1266.7000      8.2764      2.4776      0.1025     10.4500    132.3586     30.8563
  1266.8000      8.3294      2.4656      0.0807     11.1754    133.5775     31.0616
  1266.9000      8.3294      2.4523      0.0794     11.9801    139.0634     31.0294
  1267.0000      8.2731      2.4396      0.0664     12.7510    143.4863     30.8155
  1267.1000      8.2731      2.4326      0.0320     13.1768    142.9005     30.6966
  1267.2000      8.2731      2.4385      0.0473     12.8186    142.7953     30.5409
  1267.3000      8.2295      2.4539      0.0603     11.8866    146.2197     30.3374
