~Version Information
VERS.                      2.0: CWLS Log ASCII Standard - VERSION 2.0
WRAP.                       NO: One line per depth step
~Well Information Block
STRT.FT               670.0000: 
STOP.FT              2108.5000: 
STEP.FT                 0.1000: 
NULL.                -999.2500: 
COMP.          Petrogulf Corporation: COMPANY
WELL.           Montoya 12-44R: WELL
FLD.           Purgatorie River: FIELD
LOC.           713' FSL & 798' FEL: LOCATION
PROV.                 Colorado: PROVINCE
CNTY.               Las Animas: COUNTRY
SRVC.                Patterson: SERVICE COMPANY
DATE.          Mon Oct 03 07:50:59 2005: LOG DATE
UWI.           05-071-08538               : UNIQUE WELL ID
~Curve Information Block
DEPT.FT            0 000 00 00: Depth
DCAL.in                       : CDL Caliper
RHOB.g/cc                     : CDL Bulk Density
RHOC.g/cc                     : CDL Density Correction
DPOR.pu                       : CDL Density Porosity
GR.GAPI                       : Gamma Ray
NPOR.pu                       : Neutron Porosity
~Parameter Information Block
~A  Depth       DCAL        RHOB        RHOC        DPOR         GR         NPOR    
# ...
  1044.4000      8.2735      1.3089      0.0004     81.2788     15.9462     33.6949
  1044.5000      8.2036      1.3242     -0.0355     80.3500     18.5637     33.7802
  1044.6000      8.2036      1.3443      0.0447     79.1338     21.6451     33.8096
  1044.7000      8.2036      1.3555     -0.0023     78.4521     24.2311     33.7676
  1044.8000      8.2309      1.3621     -0.0084     78.0524     25.4063     33.6141
  1044.9000      8.2309      1.3719      0.0556     77.4609     25.8023     33.3631
  1045.0000      8.2756      1.3823      0.0127     76.8297     27.2922     33.1506
  1045.1000      8.2756      1.3869      0.0778     76.5504     29.2395     33.3462
  1045.2000      8.2756      1.3730      0.0547     77.3945     30.7479     33.8531
  1045.3000      8.4759      1.3408     -0.0081     79.3459     32.9517     34.0618
  1045.4000      8.4759      1.3158     -0.0286     80.8626     35.8787     33.8419
  1045.5000      8.4871      1.3208      0.0034     80.5553     39.4353     33.4771
  1045.6000      8.4871      1.3520      0.0175     78.6673     44.7095     33.1914
  1045.7000      8.4871      1.3916      0.0093     76.2663     50.0455     33.1620
  1045.8000      8.6816      1.4327      0.0244     73.7737     52.7049     33.1977
  1045.9000      8.6816      1.4775      0.0230     71.0605     55.4419     32.9582
  1046.0000      8.5649      1.5215      0.0814     68.3911     61.2224     32.6066
  1046.1000      8.5649      1.5576      0.0899     66.2044     68.0322     32.4559
  1046.2000      8.5649      1.5946      0.0839     63.9641     73.9882     32.4769
  1046.3000      8.6242      1.6491      0.1106     60.6589     78.3135     32.5727
  1046.4000      8.6242      1.7237      0.0844     56.1407     82.9929     32.9292
  1046.5000      8.4670      1.8083      0.0855     51.0148     91.3220     33.2994
  1046.6000      8.4670      1.8995      0.0477     45.4838    101.3757     33.1347
  1046.7000      8.4670      2.0069      0.1495     38.9745    108.7686     32.7661
  1046.8000      8.2409      2.1313      0.2071     31.4361    110.7395     32.7034
  1046.9000      8.2409      2.2564      0.2559     23.8559    108.3245     32.6006
  1047.0000      8.2087      2.3641      0.2518     17.3260    105.2379     32.0775
  1047.1000      8.2087      2.4519      0.1966     12.0083    104.1535     31.2532
  1047.2000      8.2087      2.5244      0.1895      7.6142    107.3585     30.3221
  1047.3000      8.1710      2.5773      0.1456      4.4077    114.9409     29.2404
  1047.4000      8.1710      2.6102      0.0850      2.4091    122.6642     28.1915
  1047.5000      8.1683      2.6364      0.0752      0.8255    126.6917     27.6692
  1047.6000      8.1683      2.6585      0.1357     -0.5174    129.1867     27.5165
  1047.7000      8.1683      2.6622      0.1617     -0.7368    133.3724     27.2272
  1047.8000      8.1628      2.6467      0.1170      0.1988    137.0257     26.6525
  1047.9000      8.1628      2.6323      0.0806      1.0706    136.6911     25.9109
  1048.0000      8.1479      2.6292      0.0730      1.2635    134.3486     25.2971
  1048.1000      8.1479      2.6279      0.0759      1.3384    134.0259     24.9995
  1048.2000      8.1479      2.6180      0.0826      1.9377    135.8419     24.7439
  1048.3000      8.1399      2.6016      0.0177      2.9309    134.5847     24.1309
  1048.4000      8.1399      2.5937      0.0257      3.4098    127.5663     23.3311
  1048.5000      8.1390      2.5971      0.0594      3.2049    121.0700     22.5346
  1048.6000      8.1390      2.6007      0.0092      2.9853    119.0722     21.6412
  1048.7000      8.1390      2.6015      0.0443      2.9394    116.5938     20.8404
  1048.8000      8.1392      2.5985      0.0474      3.1233    111.4523     20.5213
  1048.9000      8.1392      2.5928      0.0239      3.4692    108.8995     20.4858
  1049.0000      8.1402      2.5931      0.0372      3.4470    112.3697     20.3084
  1049.1000      8.1402      2.6005      0.0427      2.9990    118.7525     20.3102
  1049.2000      8.1402      2.6053      0.0493      2.7120    123.7900     20.7047
  1049.3000      8.1401      2.6018      0.0494      2.9195    126.7387     21.0736
  1049.4000      8.1401      2.5940      0.0752      3.3962    129.9686     21.3612
  1049.5000      8.1390      2.5922      0.0208      3.5061    134.8588     21.8272
  1049.6000      8.1390      2.6062      0.0501      2.6574    140.3281     22.1886
  1049.7000      8.1390      2.6273      0.0471      1.3744    145.1881     22.1456
  1049.8000      8.1451      2.6393      0.0549      0.6492    148.1964     22.1028
  1049.9000      8.1451      2.6424      0.0480      0.4621    147.6446     22.4900
  1050.0000      8.1409      2.6412      0.0885      0.5333    142.6168     22.9977
  1050.1000      8.1409      2.6354      0.0281      0.8872    135.8887     23.0608
  1050.2000      8.1409      2.6291      0.0383      1.2676    133.4515     22.8355
  1050.3000      8.1478      2.6204      0.0554      1.7957    135.9474     22.7874
  1050.4000      8.1478      2.6083     -0.0119      2.5293    137.9583     22.8360
  1050.5000      8.1532      2.6015      0.0147      2.9408    136.6530     22.7910
  1050.6000      8.1532      2.6029      0.0241      2.8535    134.3528     22.7853
  1050.7000      8.1532      2.6113      0.0020      2.3457    133.7945     22.7817
  1050.8000      8.1554      2.6263      0.0492      1.4341    134.3741     22.8126
  1050.9000      8.1554      2.6393      0.0738      0.6491    134.6527     23.0938
  1051.0000      8.1530      2.6369      0.0647      0.7965    134.6449     23.5384
  1051.1000      8.1530      2.6211      0.0058      1.7486    133.9761     23.7437
  1051.2000      8.1530      2.6087      0.0301      2.5047    131.6104     23.6477
  1051.3000      8.1560      2.6137      0.0059      2.1982    129.5190     23.6056
  1051.4000      8.1560      2.6353      0.0560      0.8917    130.0869     23.7884
  1051.5000      8.1586      2.6542      0.0864     -0.2519    132.1400     23.9319
  1051.6000      8.1586      2.6606      0.0331     -0.6415    135.0930     23.6981
  1051.7000      8.1586      2.6647      0.0190     -0.8895    138.7787     23.3034
  1051.8000      8.1598      2.6721      0.0192     -1.3406    140.3972     23.2478
  1051.9000      8.1598      2.6735      0.0361     -1.4261    138.0824     23.6130
  1052.0000      8.1593      2.6544      0.0114     -0.2662    135.5628     23.9859
  1052.1000      8.1593      2.6167      0.0196      2.0196    137.7642     23.9750
  1052.2000      8.1593      2.5879     -0.0472      3.7645    143.6217     23.6499
  1052.3000      8.1634      2.5878     -0.0015      3.7711    147.0490     23.3409
  1052.4000      8.1634      2.6020      0.0033      2.9097    145.3041     23.1568
  1052.5000      8.1727      2.6080      0.0471      2.5476    140.2856     23.0027
  1052.6000      8.1727      2.6033     -0.0066      2.8303    135.9478     22.8297
  1052.7000      8.1727      2.5998      0.0512      3.0406    134.8882     22.7451
  1052.8000      8.1786      2.6002      0.0310      3.0192    136.0184     22.7470
  1052.9000      8.1786      2.5979      0.0205      3.1604    136.8859     22.7425
  1053.0000      8.1847      2.5852      0.0184      3.9285    135.6526     22.7739
  1053.1000      8.1847      2.5650     -0.0039      5.1532    131.9211     22.9330
  1053.2000      8.1847      2.5526     -0.0129      5.9014    130.0334     23.3467
  1053.3000      8.1883      2.5515     -0.0114      5.9683    135.0737     24.0490
  1053.4000      8.1883      2.5481      0.0074      6.1728    145.7028     24.8280
  1053.5000      8.1957      2.5361      0.0324      6.9006    155.1363     25.5763
  1053.6000      8.1957      2.5230      0.0003      7.6958    157.7845     26.3732
  1053.7000      8.1957      2.5169      0.0249      8.0694    155.1178     27.1158
  1053.8000      8.2047      2.5195      0.0206      7.9099    151.7106     27.4604
  1053.9000      8.2047      2.5320     -0.0201      7.1500    148.9446     27.2738
