~Version Information
VERS.                      2.0: CWLS Log ASCII Standard - VERSION 2.0
WRAP.                       NO: One line per depth step
~Well Information Block
STRT.FT                -2.7500: 
STOP.FT               973.2500: 
STEP.FT                 0.2500: 
NULL.                -999.2500: 
COMP.          Pioneer Natural Resources: COMPANY
WELL.          Red Raider 22-15: WELL
FLD.           Purgatoire River: FIELD
LOC.           1809' FNL & 2107' FWL: LOCATION
CNTY.               Las Animas: COUNTY
SRVC.                Patterson: SERVICE COMPANY
DATE.          Mon Apr 17 16:50:50 2006: LOG DATE
UWI.           05 071 08718 00: UNIQUE WELL ID
STAT.                 Colorado: STATE
~Curve Information Block
DEPT.FT            0 000 00 00: Depth
GR.GAPI                       : Gamma Ray
CCL.                          : Casing Collar Locator
TT3.usec                      : CBL 3' Travel Time
AMP3.mV                       : CBL 3' Amplitude
~Parameter Information Block
~A  Depth        GR         CCL         TT3         AMP3    
# ...
   131.2500     59.0269      0.0000    255.8541     83.3662
   131.5000     57.7200      0.0000    255.8662     83.3238
   131.7500     55.6497      0.0000    255.8852     83.3121
   132.0000     53.6323      0.0000    255.9043     83.3364
   132.2500     52.5746      0.0000    255.9160     83.3753
   132.5000     53.2378      0.0000    255.9151     83.3992
   132.7500     55.9932      0.0000    255.9004     83.3966
   133.0000     60.6737      0.0000    255.8752     83.3786
   133.2500     66.8477      0.0000    255.8476     83.3614
   133.5000     74.2154      0.0000    255.8267     83.3498
   133.7500     82.6111      0.0000    255.8156     83.3419
   134.0000     91.7305      0.0000    255.8083     83.3425
   134.2500    100.9171      0.0000    255.7958     83.3654
   134.5000    109.1781      0.0000    255.7746     83.4196
   134.7500    115.6621      0.0000    255.7480     83.4948
   135.0000    120.3627      0.0000    255.7229     83.5630
   135.2500    124.0315      0.0000    255.7057     83.5884
   135.5000    127.0977      0.0000    255.7053     83.5270
   135.7500    129.1223      0.0000    255.7425     83.2915
   136.0000    129.7822      0.0000    255.8676     82.6973
   136.2500    129.8803      0.0000    256.1713     81.4609
   136.5000    130.6338      0.0000    256.7580     79.3244
   136.7500    132.2465      0.0000    257.6666     76.2746
   137.0000    133.8166      0.0000    258.7986     72.6889
   137.2500    134.3657      0.0000    259.9399     69.2345
   137.5000    133.4235      0.0000    260.8747     66.5338
   137.7500    130.8588      0.0000    261.4934     64.8474
   138.0000    126.8222      0.0000    261.8138     64.0264
   138.2500    122.1632      0.0000    261.9258     63.7196
   138.5000    118.6039      0.0000    261.9172     63.6134
   138.7500    117.7425     -2.7525    261.8205     63.5749
   139.0000    119.6294      0.0000    261.5910     63.6952
   139.2500    122.8388      0.0000    261.1262     64.2322
   139.5000    126.0412      0.0000    260.3367     65.4494
   139.7500    129.0049      0.0000    259.2430     67.4518
   140.0000    132.0142      0.0000    258.0078     70.1366
   140.2500    134.6980      0.0000    256.8554     73.2058
   140.5000    135.6168      0.0000    255.9509     76.1950
   140.7500    133.1385      0.0000    255.3480     78.6244
   141.0000    126.9149      0.0000    255.0109     80.2455
   141.2500    118.4276      0.0000    254.8588     81.1295
   141.5000    109.9031      0.0000    254.8068     81.5181
   141.7500    102.7312      0.0000    254.7937     81.6371
   142.0000     97.0393      0.0000    254.7897     81.6332
   142.2500     92.6050      0.0000    254.7861     81.5966
   142.5000     89.7380      0.0000    254.7823     81.5776
   142.7500     88.9969      0.0000    254.7792     81.5846
   143.0000     90.2193      0.0000    254.7776     81.5841
   143.2500     92.1964      0.0000    254.7768     81.5258
   143.5000     93.4833      0.0000    254.7764     81.3843
   143.7500     93.4795      0.0000    254.7781     81.1846
   144.0000     92.6967      0.0000    254.7849     80.9908
   144.2500     92.0966      0.0000    254.7971     80.8650
   144.5000     92.1727      0.0000    254.8107     80.8264
   144.7500     92.4945      0.0000    254.8202     80.8399
   145.0000     92.0394      0.0000    254.8240     80.8478
   145.2500     90.0663      0.0000    254.8239     80.8215
   145.5000     86.8841      0.0000    254.8223     80.7807
   145.7500     83.7851      0.0000    254.8206     80.7631
   146.0000     82.1336      0.0000    254.8192     80.7916
   146.2500     82.5419      0.0000    254.8178     80.8683
   146.5000     84.9437      0.0000    254.8159     80.9790
   146.7500     89.2281      0.0000    254.8137     81.0879
   147.0000     95.4458      0.0000    254.8137     81.1490
   147.2500    103.2293      0.0000    254.8171     81.1440
   147.5000    111.2224      0.0000    254.8216     81.1068
   147.7500    117.4916      0.0000    254.8228     81.0945
   148.0000    120.6774      0.0000    254.8193     81.1329
   148.2500    120.7932      0.0000    254.8125     81.2004
   148.5000    119.0365      0.0000    254.8037     81.2587
   148.7500    116.8716      0.0000    254.7927     81.2871
   149.0000    115.0645      0.0000    254.7805     81.2901
   149.2500    113.4101      0.0000    254.7726     81.2896
   149.5000    111.4082      0.0000    254.7759     81.3064
   149.7500    109.2178      0.0000    254.7916     81.3363
   150.0000    107.7990      0.0000    254.8124     81.3512
   150.2500    108.0276      0.0000    254.8275     81.3306
   150.5000    109.7475      0.0000    254.8312     81.2846
   150.7500    111.9009      0.0000    254.8255     81.2411
   151.0000    113.7352      0.0000    254.8160     81.2114
   151.2500    115.6809      0.0000    254.8076     81.1781
   151.5000    118.7065      0.0000    254.8031     81.1157
   151.7500    122.8459      0.0000    254.8036     81.0208
   152.0000    126.6512      0.0000    254.8094     80.9197
   152.2500    128.2143      0.0000    254.8181     80.8494
   152.5000    126.7602      0.0000    254.8253     80.8325
   152.7500    123.3809      0.0000    254.8271     80.8671
   153.0000    120.1912      0.0000    254.8232     80.9295
   153.2500    118.7485      0.0000    254.8171     80.9903
   153.5000    119.3562      0.0000    254.8149     81.0356
   153.7500    121.6822      0.0000    254.8218     81.0740
   154.0000    125.4677      0.0000    254.8374     81.1231
   154.2500    130.4194      0.0000    254.8557     81.1924
   154.5000    135.8156      0.0000    254.8694     81.2790
   154.7500    140.7007      0.0000    254.8755     81.3751
   155.0000    144.3511      0.0000    254.8739     81.4723
   155.2500    146.0850      0.0000    254.8669     81.5637
   155.5000    144.8117      0.0000    254.8577     81.6446
   155.7500    139.6390      0.0000    254.8495     81.7139
   156.0000    131.2328      0.0000    254.8420     81.7773
   156.2500    121.8731      0.0000    254.8313     81.8459
   156.5000    113.5801      0.0000    254.8146     81.9242
   156.7500    106.3860      0.0000    254.7947     81.9975
   157.0000     98.7484      0.0000    254.7779     82.0383
   157.2500     89.5697      0.0000    254.7674     82.0256
   157.5000     79.5695      0.0000    254.7621     81.9588
   157.7500     70.7478      0.0000    254.7608     81.8617
   158.0000     64.8217      0.0000    254.7637     81.7746
   158.2500     62.3754      0.0000    254.7696     81.7360
   158.5000     63.2834      0.0000    254.7735     81.7614
   158.7500     67.4191      0.0000    254.7706     81.8350
   159.0000     74.5761      0.0000    254.7610     81.9223
   159.2500     83.8636      0.0000    254.7485     81.9907
   159.5000     93.7227      0.0000    254.7371     82.0237
   159.7500    102.7310      0.0000    254.7287     82.0251
   160.0000    110.0754      0.0000    254.7250     82.0169
   160.2500    115.2534      0.0000    254.7276     82.0263
   160.5000    117.8586      0.0000    254.7375     82.0663
   160.7500    117.8803      0.0000    254.7540     82.1236
   161.0000    115.9374      0.0000    254.7734     82.1713
   161.2500    113.0516      0.0000    254.7904     82.1924
   161.5000    110.2191      0.0000    254.8027     82.1896
   161.7500    108.1570      0.0000    254.8123     82.1786
   162.0000    107.3083      0.0000    254.8234     82.1798
   162.2500    107.9653      0.0000    254.8373     82.2089
   162.5000    110.3587      0.0000    254.8508     82.2632
   162.7500    114.5513      0.0000    254.8604     82.3155
   163.0000    120.0627      0.0000    254.8647     82.3264
   163.2500    125.5795      0.0000    254.8648     82.2674
   163.5000    129.3891      0.0000    254.8627     82.1373
   163.7500    130.4603      0.0000    254.8602     81.9652
   164.0000    129.2577      0.0000    254.8586     81.8017
   164.2500    127.5235      0.0000    254.8574     81.7014
   164.5000    127.0638      0.0000    254.8563     81.6983
