~Version Information
VERS.                      2.0: CWLS Log ASCII Standard - VERSION 2.0
WRAP.                       NO: One line per depth step
~Well Information Block
STRT.FT               240.0000: 
STOP.FT              1252.5000: 
STEP.FT                 0.2500: 
NULL.                -999.2500: 
COMP.          Pioneer Natural Resources: COMPANY
WELL.             Margaux 11-1: WELL
FLD.           Purgatoire River: FIELD
LOC.           1154' FNL & 472' FWL: LOCATION
PROV.                 Colorado: PROVINCE
CNTY.               Las Animas: COUNTRY
SRVC.                Patterson: SERVICE COMPANY
DATE.          Mon Dec 19 04:21:59 2005: LOG DATE
UWI.           05 071 08639 00: UNIQUE WELL ID
~Curve Information Block
DEPT.FT            0 000 00 00: Depth
SN.Ohm-m                      : IEL Short Normal
SP.mV                         : IEL Spontaneous Potential
DIR.Ohm-m                     : IEL Induction Resistivity
GR.GAPI                       : Gamma Ray
~Parameter Information Block
~A  Depth        SN          SP         DIR          GR     
# ...
   943.5000     14.9017     17.0464     11.5776     97.7391
   943.7500     14.4382     17.0585     11.1114    101.7679
   944.0000     14.0069     17.0376     10.7434    107.6753
   944.2500     13.7104     16.9927     10.4756    110.7145
   944.5000     13.6811     16.9426     10.3068    113.2068
   944.7500     13.8705     16.9114     10.2325    113.6267
   945.0000     13.9992     16.9133     10.2453    113.1689
   945.2500     13.8901     16.9433     10.3377    112.5927
   945.5000     13.6651     16.9830     10.5054    111.7499
   945.7500     13.5486     17.0149     10.7490    111.2081
   946.0000     13.6557     17.0322     11.0717    110.0957
   946.2500     14.0023     17.0385     11.4744    108.8585
   946.5000     14.5823     17.0430     11.9522    105.7107
   946.7500     15.3565     17.0583     12.4931    102.3947
   947.0000     16.2350     17.0997     13.0820     95.1650
   947.2500     17.1005     17.1840     13.7064     89.1248
   947.5000     17.8736     17.3196     14.3634     80.0691
   947.7500     18.6658     17.4956     15.0635     75.3684
   948.0000     19.7295     17.6787     15.8280     71.4809
   948.2500     21.0583     17.8256     16.6815     70.7755
   948.5000     22.3084     17.9043     17.6436     71.4293
   948.7500     23.2500     17.9073     18.7226     72.3757
   949.0000     23.9643     17.8531     19.9089     73.7117
   949.2500     24.5972     17.7742     21.1697     74.1707
   949.5000     25.1502     17.7012     22.4465     74.0967
   949.7500     25.4976     17.6483     23.6651     73.9412
   950.0000     25.6462     17.6105     24.7566     74.4909
   950.2500     25.8295     17.5708     25.6812     75.4749
   950.5000     26.1738     17.5150     26.4398     76.9568
   950.7500     26.5285     17.4405     27.0674     77.2582
   951.0000     26.7243     17.3547     27.6169     76.1426
   951.2500     26.7931     17.2667     28.1427     74.4789
   951.5000     26.8872     17.1803     28.6898     71.1213
   951.7500     27.0660     17.0899     29.2837     68.5609
   952.0000     27.2959     16.9817     29.9218     64.5365
   952.2500     27.6280     16.8412     30.5686     61.9323
   952.5000     28.1546     16.6646     31.1670     58.4977
   952.7500     28.8166     16.4652     31.6655     56.6100
   953.0000     29.4423     16.2701     32.0454     54.3990
   953.2500     29.9790     16.1064     32.3238     53.4394
   953.5000     30.5262     15.9878     32.5342     52.9639
   953.7500     31.0801     15.9093     32.7073     53.1368
   954.0000     31.4440     15.8500     32.8668     53.3639
   954.2500     31.5240     15.7781     33.0364     53.1005
   954.5000     31.5282     15.6579     33.2436     52.0564
   954.7500     31.7243     15.4593     33.5180     51.2386
   955.0000     32.1293     15.1672     33.8868     50.4313
   955.2500     32.5561     14.7830     34.3707     50.3339
   955.5000     32.8664     14.3194     34.9801     50.7617
   955.7500     33.0883     13.7972     35.7090     51.3392
   956.0000     33.3374     13.2471     36.5225     52.5438
   956.2500     33.6715     12.7093     37.3396     53.3618
   956.5000     34.0607     12.2233     38.0297     53.9362
   956.7500     34.4882     11.8138     38.4597     53.6469
   957.0000     35.0251     11.4836     38.5844     52.5117
   957.2500     35.7577     11.2145     38.4979     51.6377
   957.5000     36.6689     10.9769     38.3787     50.3399
   957.7500     37.6494     10.7440     38.3735     49.2828
   958.0000     38.5401     10.5052     38.5204     47.0168
   958.2500     39.1735     10.2682     38.7611     45.1366
   958.5000     39.5354     10.0516     39.0064     42.6294
   958.7500     39.7563      9.8744     39.1974     41.7618
   959.0000     39.8435      9.7486     39.3161     41.9952
   959.2500     39.6996      9.6759     39.3577     42.8679
   959.5000     39.3747      9.6478     39.3061     44.4002
   959.7500     39.0001      9.6486     39.1431     45.1693
   960.0000     38.6075      9.6628     38.8725     45.6779
   960.2500     38.1885      9.6807     38.5228     45.7543
   960.5000     37.7230      9.7003     38.1196     46.1412
   960.7500     37.1351      9.7252     37.6584     46.8821
   961.0000     36.4266      9.7590     37.1172     48.6252
   961.2500     35.7448      9.8004     36.4994     49.8613
   961.5000     35.2030      9.8410     35.8600     51.2183
   961.7500     34.7602      9.8708     35.2782     51.6532
   962.0000     34.2916      9.8855     34.8019     51.7217
   962.2500     33.7554      9.8906     34.4153     51.4444
   962.5000     33.2651      9.8998     34.0569     50.4743
   962.7500     32.9104      9.9274     33.6689     49.5468
   963.0000     32.6041      9.9824     33.2314     48.4925
   963.2500     32.1711     10.0651     32.7562     48.5924
   963.5000     31.5463     10.1661     32.2531     50.2128
   963.7500     30.9007     10.2710     31.7052     51.7350
   964.0000     30.4508     10.3685     31.0731     53.2418
   964.2500     30.1918     10.4589     30.3204     53.2755
   964.5000     30.0017     10.5540     29.4374     52.2659
   964.7500     29.8423     10.6672     28.4436     51.4721
   965.0000     29.6899     10.8076     27.3729     51.0806
   965.2500     29.4190     10.9819     26.2605     51.8308
   965.5000     28.8658     11.1970     25.1406     55.0129
   965.7500     27.9269     11.4509     24.0493     58.5218
   966.0000     26.6158     11.7228     23.0247     65.4054
   966.2500     25.1028     11.9767     22.1015     70.6574
   966.5000     23.6370     12.1790     21.3079     78.8095
   966.7500     22.4155     12.3146     20.6652     84.0505
   967.0000     21.5066     12.3917     20.1848     91.0041
   967.2500     20.8211     12.4346     19.8631     94.6973
   967.5000     20.2503     12.4705     19.6798     98.5373
   967.7500     19.8536     12.5169     19.6044    100.0505
   968.0000     19.7433     12.5753     19.6084    101.0683
   968.2500     19.8988     12.6336     19.6756    100.9703
   968.5000     20.2358     12.6761     19.8050     99.3249
   968.7500     20.6472     12.6944     20.0086     96.8958
   969.0000     21.0158     12.6924     20.3043     91.1536
   969.2500     21.3550     12.6825     20.7051     86.4252
   969.5000     21.8130     12.6782     21.2087     79.2718
   969.7500     22.4881     12.6842     21.7952     75.0003
   970.0000     23.3399     12.6924     22.4350     69.8575
   970.2500     24.2801     12.6863     23.0978     67.5795
   970.5000     25.2388     12.6532     23.7550     66.2595
   970.7500     26.1393     12.5949     24.3733     66.6223
   971.0000     26.8851     12.5294     24.9178     68.2460
   971.2500     27.4129     12.4830     25.3724     69.7097
   971.5000     27.7234     12.4767     25.7548     72.6264
   971.7500     27.7988     12.5137     26.1023     75.4164
   972.0000     27.5749     12.5758     26.4304     81.4189
   972.2500     27.0690     12.6306     26.7054     86.7218
   972.5000     26.4659     12.6499     26.8666     95.8899
   972.7500     26.0024     12.6263     26.8874    101.5053
   973.0000     25.7701     12.5770     26.8145    105.9158
   973.2500     25.6874     12.5294     26.7427    104.8632
   973.5000     25.6791     12.5055     26.7524     97.9808
   973.7500     25.8270     12.5150     26.8715     91.6450
   974.0000     26.3031     12.5576     27.0823     82.4737
   974.2500     27.1804     12.6272     27.3522     77.2850
   974.5000     28.3553     12.7133     27.6554     70.6949
   974.7500     29.6289     12.8024     27.9693     66.9143
   975.0000     30.8293     12.8793     28.2553     62.3465
   975.2500     31.8869     12.9305     28.4456     60.0885
   975.5000     32.8218     12.9498     28.4565     57.3175
   975.7500     33.6264     12.9440     28.2272     55.5212
   976.0000     34.1794     12.9329     27.7605     53.2377
   976.2500     34.3242     12.9433     27.1271     52.6710
   976.5000     33.9911     12.9961     26.4271     54.1997
   976.7500     33.1829     13.0970     25.7420     56.8916
