~Version Information
VERS.                      2.0: CWLS Log ASCII Standard - VERSION 2.0
WRAP.                       NO: One line per depth step
~Well Information Block
STRT.FT                -8.0000: 
STOP.FT               918.7500: 
STEP.FT                 0.2500: 
NULL.                -999.2500: 
COMP.          Pioneer Natural Resources: COMPANY
WELL.          Sculpin 32-30 Tr: WELL
FLD.           Purgatorie River: FIELD
LOC.           1600' FNL & 1857' FEL--: LOCATION
CNTY.               Las Animas: COUNTY
SRVC.          Patterson Wireline: SERVICE COMPANY
DATE.          Thu Aug 03 08:40:45 2006: LOG DATE
UWI.           05 071 08706 00: UNIQUE WELL ID
STAT.                       CO: STATE
~Curve Information Block
DEPT.FT            0 000 00 00: Depth
CCL.                          : Casing Collar Locator
TT3.usec                      : CBL 3' Travel Time
AMP3.mV                       : CBL 3' Amplitude
GR.GAPI                       : Gamma Ray
~Parameter Information Block
~A  Depth       CCL         TT3         AMP3         GR     
# ...
   360.5000      0.0000    362.5425      2.0292     93.0734
   360.7500      0.0000    358.9825      2.0948     96.7621
   361.0000      0.0000    353.7065      2.1452    100.6439
   361.2500      0.0000    347.7128      2.1855    103.3628
   361.5000      0.0000    342.4234      2.2276    104.3343
   361.7500      0.0000    338.7856      2.2827    104.5725
   362.0000      0.0000    336.8112      2.3538    105.8430
   362.2500      0.0000    335.9077      2.4368    108.9269
   362.5000      0.0000    335.4625      2.5260    112.8634
   362.7500      0.0000    335.1397      2.6179    115.7950
   363.0000      0.0000    334.8517      2.7099    116.2713
   363.2500      0.0000    334.6141      2.7982    114.0330
   363.5000      0.0000    334.4389      2.8808    110.1997
   363.7500      0.0000    334.3022      2.9614    106.7341
   364.0000      0.0000    334.1678      3.0469    105.1286
   364.2500      0.0000    334.0173      3.1390    105.1531
   364.5000      0.0000    333.8700      3.2310    104.9244
   364.7500      0.0000    333.7842      3.3113    102.6514
   365.0000      0.0000    333.8555      3.3716     98.5448
   365.2500      0.0000    334.2232      3.4115     94.5926
   365.5000      0.0000    335.0938      3.4341     92.3298
   365.7500      0.0000    336.6980      3.4411     91.5036
   366.0000      0.0000    339.0811      3.4317     91.1399
   366.2500      0.0000    341.9332      3.4069     91.0603
   366.5000      0.0000    344.8743      3.3742     91.6204
   366.7500      0.0000    347.9961      3.3447     92.3690
   367.0000      0.0000    351.7606      3.3267     91.9851
   367.2500      0.0000    356.1675      3.3211     89.9111
   367.5000      0.0000    360.4025      3.3223     87.4678
   367.7500      0.0000    363.5452      3.3209     86.7500
   368.0000      0.0000    365.3433      3.3069     88.5216
   368.2500      0.0000    366.1724      3.2745     91.6488
   368.5000      0.0000    366.5281      3.2262     94.6768
   368.7500      0.0000    366.7203      3.1723     97.4690
   369.0000      0.0000    366.9165      3.1255    100.8512
   369.2500      0.0000    367.3410      3.0944    104.8507
   369.5000      0.0000    368.4969      3.0799    108.0077
   369.7500      0.0000    371.3223      3.0769    108.5558
   370.0000      0.0000    377.1720      3.0818    105.8230
   370.2500      0.0000    387.6949      3.0991    100.5826
   370.5000      0.0000    404.8117      3.1384     94.6292
   370.7500      0.0000    430.3661      3.2036     89.9658
   371.0000      0.0000    464.5035      3.2867     87.8383
   371.2500      0.0000    503.5714      3.3706     88.2449
   371.5000      0.0000    540.5415      3.4385     90.1812
   371.7500      0.0000    568.9887      3.4817     92.2551
   372.0000      0.0000    587.1119      3.4994     93.5435
   372.2500      0.0000    598.1332      3.4944     94.5023
   372.5000      0.0000    607.6552      3.4688     96.8224
   372.7500      0.0000    620.5872      3.4249    101.7242
   373.0000      0.0000    638.8071      3.3681    108.3350
   373.2500      0.0000    660.0640      3.3088    114.0454
   373.5000      0.0000    679.2677      3.2594    116.5390
   373.7500      0.0000    691.9938      3.2294    115.4773
   374.0000      0.0000    697.4525      3.2232    112.2684
   374.2500      0.0000    698.2664      3.2409    108.3417
   374.5000      0.0000    697.5290      3.2802    104.0370
   374.7500      0.0000    696.2166      3.3360     99.3510
   375.0000      0.0000    693.2916      3.3977     95.1239
   375.2500      0.0000    687.6604      3.4488     92.6766
   375.5000      0.0000    679.4859      3.4726     92.1851
   375.7500      0.0000    670.0237      3.4614     91.9164
   376.0000      0.0000    661.0066      3.4227     89.5998
   376.2500      0.0000    654.2196      3.3749     84.8136
   376.5000      0.0000    651.1898      3.3356     79.8182
   376.7500      0.0000    653.0054      3.3096     77.7221
   377.0000      0.0000    660.0355      3.2875     79.8268
   377.2500      0.0000    671.1085      3.2562     84.8273
   377.5000      0.0000    682.9688      3.2143     90.1930
   377.7500      0.0000    691.4557      3.1768     93.9850
   378.0000      0.0000    693.9523      3.1659     95.7357
   378.2500      0.0000    690.8505      3.1911     96.2804
   378.5000      0.0000    685.0624      3.2368     96.8502
   378.7500      0.0000    680.4127      3.2717     97.8319
   379.0000      0.0000    679.8008      3.2784     98.0947
   379.2500      0.0000    683.7619      3.2757     95.7203
   379.5000      0.0000    690.8178      3.3009     89.7812
   379.7500      0.0000    699.7615      3.3687     81.5492
   380.0000      2.0000    710.8896      3.4529     73.8091
   380.2500      0.0000    723.4818      3.5078     68.8825
   380.5000      0.0000    732.7626      3.5022     67.2969
   380.7500      0.0000    732.2433      3.4356     67.9964
   381.0000      0.0000    719.8218      3.3328     69.4680
   381.2500      0.0000    699.5219      3.2226     70.8700
   381.5000      0.0000    677.0043      3.1181     72.3669
   381.7500      0.0000    655.4618      3.0185     74.4022
   382.0000      0.0000    636.1442      2.9305     76.7291
   382.2500      0.0000    620.6144      2.8743     78.2805
   382.5000      0.0000    610.8215      2.8592     78.0107
   382.7500      0.0000    607.2010      2.8631     75.8993
   383.0000      0.0000    607.6058      2.8472     73.2688
   383.2500      0.0000    608.7346      2.7880     72.0787
   383.5000      0.0000    608.9729      2.6915     73.5309
   383.7500      0.0000    609.4211      2.5824     77.0151
   384.0000      0.0000    611.7703      2.4906     80.6279
   384.2500      0.0000    615.6624      2.4436     82.8733
   384.5000      0.0000    618.7760      2.4573     83.4677
   384.7500      0.0000    619.2567      2.5248     82.5261
   385.0000      0.0000    617.7819      2.6195     79.7865
   385.2500      0.0000    617.3533      2.7130     75.1817
   385.5000      0.0000    620.7570      2.7902     69.8634
   385.7500      0.0000    627.9352      2.8491     65.9681
   386.0000      0.0000    636.2197      2.8924     64.9672
   386.2500      0.0000    642.8732      2.9230     66.5419
   386.5000      0.0000    646.0150      2.9449     69.4647
   386.7500      0.0000    643.6686      2.9654     73.0626
   387.0000      0.0000    634.7361      2.9960     77.3153
   387.2500      0.0000    621.4232      3.0504     82.1680
   387.5000      0.0000    608.5200      3.1369     87.6067
   387.7500      0.0000    599.7286      3.2507     94.0446
   388.0000      0.0000    595.7446      3.3730    101.7258
   388.2500      0.0000    595.6238      3.4813    109.6945
   388.5000      0.0000    598.8424      3.5627    115.8826
   388.7500      0.0000    605.6416      3.6191    118.2650
   389.0000      0.0000    615.6245      3.6605    115.9386
   389.2500      0.0000    626.3853      3.6977    109.8632
   389.5000      0.0000    634.2010      3.7392    102.8797
   389.7500      0.0000    636.6780      3.7899     97.9966
   390.0000      0.0000    634.6343      3.8476     95.9298
   390.2500      0.0000    631.2925      3.9014     94.9056
   390.5000      0.0000    629.6339      3.9368     93.0828
   390.7500      0.0000    630.0765      3.9446     90.3591
   391.0000      0.0000    630.2300      3.9290     87.7074
   391.2500      0.0000    627.1837      3.9066     85.7459
   391.5000      0.0000    620.4154      3.8954     84.4753
   391.7500      0.0000    612.3115      3.9032     83.8192
   392.0000      0.0000    605.9603      3.9243     83.7115
   392.2500      0.0000    603.0329      3.9487     83.7644
   392.5000      0.0000    603.6297      3.9721     83.4531
   392.7500      0.0000    606.9926      3.9987     82.8265
   393.0000      0.0000    611.7089      4.0326     82.7431
   393.2500      0.0000    616.0677      4.0689     84.0769
   393.5000      0.0000    619.4798      4.0939     86.6611
   393.7500      0.0000    623.7764      4.0976     89.3315
