~Version Information
VERS.                      2.0: CWLS Log ASCII Standard - VERSION 2.0
WRAP.                       NO: One line per depth step
~Well Information Block
STRT.FT                15.0000: 
STOP.FT              1532.0000: 
STEP.FT                 0.2500: 
NULL.                -999.2500: 
COMP.          Pioneer Natural Resources: COMPANY
WELL.           Bobsy 34-11 Tr: WELL
FLD.           Purgatoire River: FIELD
LOC.           514' FSL & 1784' FEL: LOCATION
PROV.                 Colorado: PROVINCE
CNTY.               Las Animas: COUNTRY
SRVC.                Patterson: SERVICE COMPANY
DATE.          Fri Jul 22 12:22:14 2005: LOG DATE
UWI.           05 071 08438 00: UNIQUE WELL ID
~Curve Information Block
DEPT.FT            0 000 00 00: Depth
GR.GAPI                       : Gamma Ray
CCL.                          : Casing Collar Locator
TT3.usec                      : CBL 3' Travel Time
AMP3.mV                       : CBL 3' Amplitude
~Parameter Information Block
~A  Depth        GR         CCL         TT3         AMP3    
# ...
   886.0000    164.3214      0.0000    685.0232     12.1988
   886.2500    167.1597      0.0000    682.3845     12.0937
   886.5000    166.4746      0.0000    679.9517     11.8416
   886.7500    164.6536      0.0000    676.3126     11.3977
   887.0000    163.8567      0.0000    670.7014     10.8366
   887.2500    164.4449      0.0000    666.6453     10.2772
   887.5000    164.8225      0.0000    671.8120      9.7657
   887.7500    162.8460      0.0000    690.6127      9.2964
   888.0000    157.5888      0.0000    717.5912      8.9123
   888.2500    150.0648      0.0000    741.4587      8.6900
   888.5000    142.4465      0.0000    755.7250      8.6427
   888.7500    136.7039      2.0943    763.0194      8.7096
   889.0000    133.9813      3.0000    769.3405      8.8298
   889.2500    134.6671      1.6791    777.0653      9.0019
   889.5000    138.1545      0.0000    784.3127      9.2879
   889.7500    142.6467      0.0000    788.0159      9.7507
   890.0000    146.1699      0.0000    785.4495     10.3428
   890.2500    148.1616      0.0000    775.0021     10.8799
   890.5000    149.7697      0.0000    758.3181     11.2001
   890.7500    152.4472      0.0000    741.4288     11.3179
   891.0000    156.2775      0.0000    731.4556     11.3543
   891.2500    159.6628      0.0000    730.9890     11.3787
   891.5000    160.6864      0.0000    735.8503     11.3984
   891.7500    158.6719      0.0000    738.5446     11.4374
   892.0000    154.3884      0.0000    733.8514     11.5353
   892.2500    149.1343      0.0000    721.6487     11.6811
   892.5000    144.1250      0.0000    705.9551     11.7920
   892.7500    140.6084      0.0000    692.4677     11.7655
   893.0000    139.6962      0.0000    686.2602     11.5517
   893.2500    141.4487      0.0000    689.6955     11.1960
   893.5000    144.3126      0.0000    701.1030     10.8237
   893.7500    145.9018      0.0000    715.6585     10.5782
   894.0000    144.4573      0.0000    728.4191     10.5549
   894.2500    139.7247      0.0000    737.0106     10.7638
   894.5000    132.9605      0.0000    741.9121     11.1335
   894.7500    126.3545      0.0000    744.8656     11.5469
   895.0000    122.0014      0.0000    747.1838     11.8936
   895.2500    120.8374      0.0000    749.0220     12.1103
   895.5000    122.2829      0.0000    749.7733     12.1942
   895.7500    124.9035      0.0000    749.0924     12.1896
   896.0000    127.4979      0.0000    747.4702     12.1631
   896.2500    129.6844      0.0000    745.7556     12.1749
   896.5000    131.6927      0.0000    744.2674     12.2581
   896.7500    133.8474      0.0000    742.3867     12.4152
   897.0000    136.2640      0.0000    738.8091     12.6273
   897.2500    138.6467      0.0000    732.3378     12.8644
   897.5000    140.0506      0.0000    722.9990     13.0893
   897.7500    139.2637      0.0000    712.6418     13.2630
   898.0000    136.1163      0.0000    704.1480     13.3551
   898.2500    132.2657      0.0000    699.6946     13.3568
   898.5000    129.9996      0.0000    699.5532     13.2861
   898.7500    130.2455      0.0000    702.3500     13.1804
   899.0000    132.2179      0.0000    706.5334     13.0834
   899.2500    134.8996      0.0000    711.8072     13.0315
   899.5000    138.0799      0.0000    719.0315     13.0369
   899.7500    141.6472      0.0000    728.8501     13.0759
   900.0000    144.6257      0.0000    741.0173     13.0981
   900.2500    145.9006      0.0000    754.7664     13.0589
   900.5000    145.7591      0.0000    768.4152     12.9492
   900.7500    145.7062      0.0000    778.2419     12.7971
   901.0000    146.4569      0.0000    779.3055     12.6416
   901.2500    146.8521      0.0000    768.9896     12.5052
   901.5000    145.2175      0.0000    750.0309     12.3884
   901.7500    141.2336      0.0000    729.5954     12.2876
   902.0000    136.0652      0.0000    715.0138     12.2121
   902.2500    131.2326      0.0000    709.8535     12.1779
   902.5000    127.9375      0.0000    713.0934     12.1863
   902.7500    127.0905      0.0000    721.1921     12.2172
   903.0000    129.1743      0.0000    730.8102     12.2442
   903.2500    133.7977      0.0000    739.6805     12.2504
   903.5000    139.5787      0.0000    745.3614     12.2308
   903.7500    144.7633      0.0000    744.7767     12.1846
   904.0000    148.1890      0.0000    736.4651     12.1115
   904.2500    149.8376      0.0000    722.8508     12.0180
   904.5000    150.5434      0.0000    709.0765     11.9218
   904.7500    151.2272      0.0000    699.4948     11.8448
   905.0000    152.2938      0.0000    695.7186     11.7981
   905.2500    153.3833      0.0000    697.3494     11.7732
   905.5000    153.5761      0.0000    703.1869     11.7485
   905.7500    152.2557      0.0000    711.4346     11.7056
   906.0000    149.9473      0.0000    719.8625     11.6425
   906.2500    147.7753      0.0000    726.7326     11.5750
   906.5000    145.7780      0.0000    731.3547     11.5274
   906.7500    142.2699      0.0000    733.5903     11.5160
   907.0000    135.4384      0.0000    733.6122     11.5382
   907.2500    125.4404      0.0000    732.4716     11.5714
   907.5000    114.6081      0.0000    731.9869     11.5881
   907.7500    105.8633      0.0000    733.3118     11.5753
   908.0000    101.2436      0.0000    735.8760     11.5374
   908.2500    101.4855      0.0000    738.0244     11.4822
   908.5000    106.1078      0.0000    738.3108     11.4156
   908.7500    113.5730      0.0000    735.9907     11.3539
   909.0000    121.7914      0.0000    731.0278     11.3284
   909.2500    128.9900      0.0000    724.3039     11.3694
   909.5000    134.2902      0.0000    717.4668     11.4872
   909.7500    137.6266      0.0000    711.7635     11.6612
   910.0000    139.5119      0.0000    707.0803     11.8414
   910.2500    141.0306      0.0000    702.7241     11.9674
   910.5000    143.5070      0.0000    698.9158     12.0061
   910.7500    147.4445      0.0000    696.9511     11.9754
   911.0000    151.6383      0.0000    697.9116     11.9255
   911.2500    153.6151      0.0000    701.2391     11.8949
   911.5000    151.2677      0.0000    704.3419     11.8884
   911.7500    144.5156      0.0000    704.1436     11.8890
   912.0000    135.7684      0.0000    699.9343     11.8769
   912.2500    128.6241      0.0000    694.4192     11.8382
   912.5000    125.6291      0.0000    691.3021     11.7669
   912.7500    126.7922      0.0000    692.1767     11.6686
   913.0000    129.7868      0.0000    695.9165     11.5626
   913.2500    131.4639      0.0000    700.1099     11.4751
   913.5000    129.7452      0.0000    702.8480     11.4260
   913.7500    124.8740      0.0000    704.0436     11.4217
   914.0000    119.1067      0.0000    705.3975     11.4557
   914.2500    115.0068      0.0000    708.7036     11.5133
   914.5000    113.9124      0.0000    714.1924     11.5783
   914.7500    115.7680      0.0000    720.4739     11.6395
   915.0000    119.7988      0.0000    725.4724     11.6959
   915.2500    125.0979      0.0000    727.3699     11.7562
   915.5000    130.8792      0.0000    725.4499     11.8318
   915.7500    136.4498      0.0000    720.4432     11.9261
   916.0000    141.0742      0.0000    714.0684     12.0327
   916.2500    144.2478      0.0000    708.4818     12.1449
   916.5000    146.2597      0.0000    705.9827     12.2643
   916.7500    147.9888      0.0000    708.0200     12.3950
   917.0000    149.7390      0.0000    713.5045     12.5321
   917.2500    150.5542      0.0000    718.5010     12.6590
   917.5000    149.1984      0.0000    718.8502     12.7605
   917.7500    145.7838      0.0000    713.6517     12.8346
   918.0000    141.8810      0.0000    705.8232     12.8884
   918.2500    138.9403      0.0000    699.2620     12.9211
   918.5000    137.2913      0.0000    696.1196     12.9160
   918.7500    136.9129      0.0000    696.5375     12.8516
   919.0000    138.2544      0.0000    699.7140     12.7185
   919.2500    141.6423      0.0000    704.7313     12.5292
