~Version Information
VERS.                      2.0: CWLS Log ASCII Standard - VERSION 2.0
WRAP.                       NO: One line per depth step
~Well Information Block
STRT.FT                10.0000: 
STOP.FT              1665.0000: 
STEP.FT                 0.1000: 
NULL.                -999.2500: 
COMP.          Pioneer Natural Resources: COMPANY
WELL.          Stock Canyon 34-33: WELL
FLD.           Purgatorie River: FIELD
LOC.           980' FSL & 2191' FEL: LOCATION
PROV.                 Colorado: PROVINCE
CNTY.               Las Animas: COUNTRY
SRVC.                Patterson: SERVICE COMPANY
DATE.          Mon Dec 05 10:33:50 2005: LOG DATE
UWI.                          : UNIQUE WELL ID
~Curve Information Block
DEPT.FT            0 000 00 00: Depth
DCAL.in                       : CDL Caliper
RHOB.g/cc                     : CDL Bulk Density
RHOC.g/cc                     : CDL Density Correction
DPOR.pu                       : CDL Density Porosity
GR.GAPI                       : Gamma Ray
NPOR.pu                       : Neutron Porosity
~Parameter Information Block
~A  Depth       DCAL        RHOB        RHOC        DPOR         GR         NPOR    
    10.0000      2.7444      0.6227      1.8661     -0.0406    135.6814     23.8504
    10.1000      2.7444      0.6224      1.8690     -0.0406    137.1833     24.1869
    10.2000      2.7444      0.6026      1.8626     -0.0410    134.5292     24.3900
    10.3000      2.7444      0.5711      1.8262     -0.0416    132.6371     24.2508
    10.4000      2.7444      0.5360      1.8104     -0.0423    135.0474     23.8197
    10.5000      2.7444      0.5007      1.7535     -0.0430    136.1838     23.7169
    10.6000      2.7444      0.4686      1.7456     -0.0437    133.1116     24.1133
    10.7000      2.7444      0.4417      1.6757     -0.0442    128.4575     24.2731
    10.8000      2.7444      0.4159      1.6902     -0.0447    124.7773     24.1290
    10.9000      2.7444      0.3890      1.5870     -0.0452    121.7053     24.2086
    11.0000      2.7444      0.3691      1.5968     -0.0456    117.5675     24.2850
    11.1000      2.7444      0.3598      1.6165     -0.0458    115.9419     23.8975
    11.2000      2.7444      0.3638      1.5635     -0.0457    121.5532     23.2919
    11.3000      2.7444      0.3905      1.6135     -0.0452    130.4644     22.9129
    11.4000      2.7444      0.4282      1.7182     -0.0445    136.8927     22.8833
    11.5000      2.7444      0.4481      1.7588     -0.0441    140.9899     23.1728
    11.6000      2.7444      0.4441      1.7054     -0.0441    143.4479     23.5056
    11.7000      2.7444      0.4314      1.7213     -0.0444    143.4837     23.6627
    11.8000      2.7444      0.4130      1.7281     -0.0448    143.5424     23.8831
    11.9000      2.7444      0.3848      1.6806     -0.0453    146.0905     24.2753
    12.0000      2.7444      0.3553      1.6299     -0.0459    149.3368     24.5018
    12.1000      2.7444      0.3333      1.6252     -0.0464    150.3630     24.4626
    12.2000      2.7444      0.3118      1.6163     -0.0468    149.3255     24.5457
    12.3000      2.7444      0.2820      1.5856     -0.0474    148.5729     24.9352
    12.4000      2.7444      0.2494      1.5338     -0.0480    146.3836     25.1082
    12.5000      2.7444      0.2257      1.5045     -0.0485    140.7973     24.7257
    12.6000      2.7444      0.2115      1.5258     -0.0488    136.2470     24.1892
    12.7000      2.7444      0.1999      1.5245     -0.0490    135.0751     23.8390
    12.8000      2.7444      0.1973      1.4420     -0.0491    135.2006     23.9138
    12.9000      2.7444      0.2108      1.5316     -0.0488    135.6085     24.5258
    13.0000      2.7444      0.2218      1.5582     -0.0486    137.0877     25.1082
    13.1000      2.7444      0.2137      1.5263     -0.0488    140.6334     25.0104
    13.2000      2.7444      0.1963      1.4833     -0.0491    143.0023     24.3798
    13.3000      2.7444      0.1841      1.4896     -0.0493    138.3884     23.6484
    13.4000      2.7444      0.1786      1.4718     -0.0495    129.1337     23.1270
    13.5000      2.7444      0.1766      1.4743     -0.0495    124.6558     23.0215
    13.6000      2.7444      0.1787      1.4670     -0.0495    129.1675     23.0476
    13.7000      2.7444      0.1848      1.4687     -0.0493    136.0395     22.8717
    13.8000      2.7444      0.1918      1.4966     -0.0492    137.4472     22.6947
    13.9000      2.7444      0.1993      1.4846     -0.0490    133.4083     22.7771
    14.0000      2.7444      0.2105      1.4879     -0.0488    128.8159     23.1613
    14.1000      2.7444      0.2195      1.5535     -0.0486    128.6974     23.8474
    14.2000      2.7444      0.2115      1.5232     -0.0488    133.6225     24.5333
    14.3000      2.7444      0.1859      1.5114     -0.0493    136.5366     24.9257
    14.4000      2.7444      0.1626      1.4147     -0.0498    132.5534     25.2754
    14.5000      2.7444      0.1551      1.4617     -0.0499    126.5842     25.8066
    14.6000      2.7444      0.1520      1.4788     -0.0500    125.2330     26.2426
    14.7000      2.7444      0.1410      1.4233     -0.0502    129.1457     26.3182
    14.8000      2.7444      0.1227      1.4453     -0.0506    133.8125     26.1002
    14.9000      2.7444      0.0996      1.3875     -0.0510    136.8631     25.7260
    15.0000      2.7444      0.0802      1.3655     -0.0514    140.5077     25.4947
    15.1000      2.7444      0.0727      1.3690     -0.0516    145.4998     25.6616
    15.2000      2.7444      0.0762      1.3578     -0.0515    148.7272     25.7762
    15.3000      2.7444      0.0854      1.3893     -0.0513    146.9342     25.4276
    15.4000      2.7444      0.0942      1.3772     -0.0511    141.4400     24.9172
    15.5000      2.7444      0.0981      1.4234     -0.0511    137.1270     24.8580
    15.6000      2.7444      0.0995      1.3734     -0.0510    134.8171     25.6080
    15.7000      2.7444      0.1095      1.3773     -0.0508    133.4085     26.6108
    15.8000      2.7444      0.1288      1.4461     -0.0505    135.0402     27.0423
    15.9000      2.7444      0.1452      1.4259     -0.0501    139.4406     26.7676
    16.0000      2.7444      0.1524      1.4684     -0.0500    142.1960     26.1823
    16.1000      2.7444      0.1513      1.4512     -0.0500    142.1911     25.7583
    16.2000      2.7444      0.1491      1.4243     -0.0500    141.6434     25.7714
    16.3000      2.7444      0.1524      1.4418     -0.0500    141.6553     26.1051
    16.4000      2.7444      0.1550      1.4722     -0.0499    141.2444     26.4099
    16.5000      2.7444      0.1493      1.4420     -0.0500    139.5687     26.5330
    16.6000      2.7444      0.1372      1.4459     -0.0503    138.5501     26.6245
    16.7000      2.7444      0.1236      1.4125     -0.0506    140.7024     26.8705
    16.8000      2.7444      0.1127      1.3978     -0.0508    144.7743     27.2133
    16.9000      2.7444      0.1069      1.3851     -0.0509    145.2232     27.5535
    17.0000      2.7444      0.1027      1.4251     -0.0510    140.2222     28.1465
    17.1000      2.7444      0.0950      1.4062     -0.0511    133.4864     29.1233
    17.2000      2.7444      0.0843      1.3990     -0.0513    130.0967     29.9672
    17.3000      2.7444      0.0784      1.3416     -0.0515    133.7829     30.3601
    17.4000      2.7444      0.0790      1.3824     -0.0514    142.8526     30.4207
    17.5000      2.7444      0.0723      1.4184     -0.0516    150.4118     30.3176
    17.6000      2.7444      0.0578      1.3159     -0.0519    152.9214     30.3842
    17.7000      2.7444      0.0584      1.3154     -0.0519    153.3742     30.7417
    17.8000      2.7444      0.0778      1.4010     -0.0515    153.0820     31.0621
    17.9000      2.7444      0.0946      1.4145     -0.0511    151.1758     31.1341
    18.0000      2.7444      0.0987      1.3904     -0.0511    149.8765     31.0354
    18.1000      2.7444      0.0956      1.4080     -0.0511    150.1787     30.9516
    18.2000      2.7444      0.0947      1.3377     -0.0511    150.8132     31.1696
    18.3000      2.7444      0.1011      1.4291     -0.0510    151.5739     31.9387
    18.4000      2.7444      0.1091      1.4031     -0.0508    151.6241     33.0031
    18.5000      2.7444      0.1120      1.4303     -0.0508    148.5578     33.7656
    18.6000      2.7444      0.1081      1.4159     -0.0509    142.6248     33.8318
    18.7000      2.7444      0.1071      1.3541     -0.0509    138.1464     33.1940
    18.8000      2.7444      0.1191      1.4363     -0.0506    139.0953     32.2888
    18.9000      2.7444      0.1390      1.4544     -0.0502    144.5540     31.5388
    19.0000      2.7444      0.1612      1.4194     -0.0498    149.3656     31.0295
    19.1000      2.7444      0.1821      1.5026     -0.0494    150.7955     30.5000
    19.2000      2.7444      0.1923      1.4579     -0.0492    150.9933     29.9755
    19.3000      2.7444      0.1899      1.4639     -0.0492    151.6015     29.8870
    19.4000      2.7444      0.1817      1.4676     -0.0494    151.9100     30.1374
    19.5000      2.7444      0.1787      1.4723     -0.0495    152.1715     30.2218
