~Version Information
VERS.                      2.0: CWLS Log ASCII Standard - VERSION 2.0
WRAP.                       NO: One line per depth step
~Well Information Block
STRT.FT                65.0000: 
STOP.FT               998.0000: 
STEP.FT                 0.2500: 
NULL.                -999.2500: 
COMP.          Pioneer Natural Resources: COMPANY
WELL.              Gough 14-29: WELL
FLD.           Purgatorie River: FIELD
LOC.           1199' FSL & 676' FWL: LOCATION
PROV.                 Colorado: PROVINCE
CNTY.               Las Animas: COUNTRY
SRVC.                Patterson: SERVICE COMPANY
DATE.          Wed Dec 28 08:38:26 2005: LOG DATE
UWI.                          : UNIQUE WELL ID
~Curve Information Block
DEPT.FT            0 000 00 00: Depth
CCL.                          : Casing Collar Locator
TT3.usec                      : CBL 3' Travel Time
AMP3.mV                       : CBL 3' Amplitude
GR.GAPI                       : Gamma Ray
~Parameter Information Block
~A  Depth       CCL         TT3         AMP3         GR     
# ...
   969.5000      0.0000    333.7619     13.8710     58.2379
   969.7500      0.0000    331.8773     14.0199     58.4162
   970.0000      0.0000    333.7414     14.0805     58.0254
   970.2500      0.0000    337.2953     14.0107     57.2659
   970.5000      0.0000    339.6159     13.8606     56.9141
   970.7500      0.0000    340.1935     13.7204     58.0898
   971.0000      0.0000    339.9623     13.5948     61.3532
   971.2500      0.0000    339.7830     13.3974     66.0575
   971.5000      0.0000    340.3148     13.0716     70.7792
   971.7500      0.0000    342.6483     12.6521     74.4190
   972.0000      0.0000    349.4215     12.2139     76.6759
   972.2500      0.0000    365.2736     11.8273     77.4634
   972.5000      0.0000    393.4893     11.5486     76.4728
   972.7500      0.0000    426.2632     11.3983     73.7847
   973.0000      0.0000    441.6783     11.3604     70.4797
   973.2500      0.0000    426.6243     11.4199     67.9617
   973.5000      0.0000    395.9758     11.5772     66.6889
   973.7500      0.0000    371.7625     11.8312     65.9539
   974.0000      0.0000    360.0387     12.1613     64.8242
   974.2500      0.0000    358.6056     12.4993     62.8828
   974.5000      0.0000    370.9705     12.7517     60.1602
   974.7500      0.0000    402.8078     12.8931     56.9694
   975.0000      0.0000    444.1456     12.9902     54.0800
   975.2500      0.0000    464.1018     13.1033     52.5618
   975.5000      0.0000    445.0435     13.2396     52.8922
   975.7500      0.0000    409.9190     13.4414     54.2992
   976.0000      0.0000    389.8538     13.8038     55.3807
   976.2500      0.0000    390.2715     14.3319     55.3404
   976.5000      0.0000    398.8903     14.8808     54.3940
   976.7500      0.0000    400.5048     15.3006     53.2138
   977.0000      0.0000    387.5186     15.5666     52.3970
   977.2500      0.0000    367.0556     15.7384     52.3670
   977.5000      0.0000    350.9373     15.8684     53.2788
   977.7500      0.0000    342.1577     15.9854     54.7479
   978.0000      0.0000    335.9765     16.1008     55.8318
   978.2500      0.0000    328.1052     16.1977     55.6610
   978.5000      0.0000    319.6420     16.2635     54.3706
   978.7500      0.0000    315.7073     16.3236     53.2511
   979.0000      0.0000    319.5177     16.3814     53.6390
   979.2500      0.0000    329.3451     16.3632     55.6644
   979.5000      0.0000    342.9554     16.1909     58.2827
   979.7500      0.0000    364.6385     15.8748     60.3802
   980.0000      0.0000    406.2201     15.4847     61.5354
   980.2500      0.0000    476.8158     15.0474     61.9033
   980.5000      0.0000    565.9938     14.5330     61.8847
   980.7500      0.0000    644.8104     13.9473     61.7987
   981.0000      0.0000    692.6755     13.3567     61.4288
   981.2500      0.0000    712.6898     12.8141     59.8597
   981.5000      0.0000    718.5247     12.3313     55.8555
   981.7500      0.0000    719.7162     11.9036     48.4694
   982.0000      0.0000    720.0066     11.5199     37.8059
   982.2500      0.0000    720.4099     11.1887     25.5931
   982.5000      0.0000    720.8539     10.9439     14.5824
   982.7500      0.0000    720.9279     10.7777      6.8304
   983.0000      0.0000    720.5182     10.6095      2.5864
   983.2500      0.0000    719.9115     10.3678      0.7823
   983.5000      0.0000    719.3846     10.0648      0.1874
   983.7500      0.0000    718.9461      9.7644      0.0351
   984.0000      0.0000    718.4860      9.4972      0.0048
   984.2500      0.0000    717.9708      9.2457      0.0000
   984.5000      0.0000    717.4265      9.0240   -999.2500
   984.7500      0.0000    716.8582      8.8951   -999.2500
   985.0000      0.0000    716.3109      8.8670   -999.2500
   985.2500      0.0000    716.0855      8.8723   -999.2500
   985.5000      0.0000    716.7640      8.8802   -999.2500
   985.7500      0.0000    718.2029      8.9082   -999.2500
   986.0000      0.0000    717.3011      8.9350   -999.2500
   986.2500      0.0000    708.9109      8.9171   -999.2500
   986.5000      0.0000    692.9337      8.8514   -999.2500
   986.7500      0.0000    674.2531      8.7165   -999.2500
   987.0000      0.0000    645.4637      8.3112   -999.2500
   987.2500      0.0000    574.8118      7.2051   -999.2500
   987.5000      0.0000    434.8249      5.1427   -999.2500
   987.7500      0.0000    254.8779      2.6403   -999.2500
   988.0000      0.0000    107.9180      0.6785   -999.2500
   988.2500      0.0000     31.5194     -0.3136   -999.2500
   988.5000      0.0000      6.1708     -0.6367   -999.2500
   988.7500      0.0000      0.7937     -0.7044   -999.2500
   989.0000      0.0000      0.0637     -0.7135   -999.2500
   989.2500      0.0000   -999.2500   -999.2500   -999.2500
   989.5000      0.0000   -999.2500   -999.2500   -999.2500
   989.7500      0.0000   -999.2500   -999.2500   -999.2500
   990.0000      0.0000   -999.2500   -999.2500   -999.2500
   990.2500      0.0000   -999.2500   -999.2500   -999.2500
   990.5000      0.0000   -999.2500   -999.2500   -999.2500
   990.7500      0.0000   -999.2500   -999.2500   -999.2500
   991.0000      0.0000   -999.2500   -999.2500   -999.2500
   991.2500      0.0000   -999.2500   -999.2500   -999.2500
   991.5000      0.0000   -999.2500   -999.2500   -999.2500
   991.7500      0.0000   -999.2500   -999.2500   -999.2500
   992.0000      0.0000   -999.2500   -999.2500   -999.2500
   992.2500      0.0000   -999.2500   -999.2500   -999.2500
   992.5000      0.0000   -999.2500   -999.2500   -999.2500
   992.7500      0.0000   -999.2500   -999.2500   -999.2500
   993.0000      0.0000   -999.2500   -999.2500   -999.2500
   993.2500      0.0000   -999.2500   -999.2500   -999.2500
   993.5000      0.0000   -999.2500   -999.2500   -999.2500
   993.7500      0.0000   -999.2500   -999.2500   -999.2500
   994.0000      0.0000   -999.2500   -999.2500   -999.2500
   994.2500      0.0000   -999.2500   -999.2500   -999.2500
   994.5000      0.0000   -999.2500   -999.2500   -999.2500
   994.7500      0.0000   -999.2500   -999.2500   -999.2500
   995.0000      0.0000   -999.2500   -999.2500   -999.2500
   995.2500      0.0000   -999.2500   -999.2500   -999.2500
   995.5000   -999.2500   -999.2500   -999.2500   -999.2500
   995.7500   -999.2500   -999.2500   -999.2500   -999.2500
   996.0000   -999.2500   -999.2500   -999.2500   -999.2500
   996.2500   -999.2500   -999.2500   -999.2500   -999.2500
   996.5000   -999.2500   -999.2500   -999.2500   -999.2500
   996.7500   -999.2500   -999.2500   -999.2500   -999.2500
   997.0000   -999.2500   -999.2500   -999.2500   -999.2500
   997.2500   -999.2500   -999.2500   -999.2500   -999.2500
   997.5000   -999.2500   -999.2500   -999.2500   -999.2500
   997.7500   -999.2500   -999.2500   -999.2500   -999.2500
   998.0000   -999.2500   -999.2500   -999.2500   -999.2500
