~Version Information
VERS.                      2.0: CWLS Log ASCII Standard - VERSION 2.0
WRAP.                       NO: One line per depth step
~Well Information Block
STRT.FT                -6.7500: 
STOP.FT              2256.0000: 
STEP.FT                 0.2500: 
NULL.                -999.2500: 
COMP.          Pioneer Natural Resources: COMPANY
WELL.               Relay 12-7: WELL
FLD.           Purgatorie River: FIELD
LOC.           1999' FNL & 848' FWL--: LOCATION
PROV.                       CO: PROVINCE
CNTY.               Las Animas: COUNTRY
SRVC.          Patterson Wireline: SERVICE COMPANY
DATE.          Thu Dec 22 09:06:31 2005: LOG DATE
UWI.           05 071 08453 00: UNIQUE WELL ID
~Curve Information Block
DEPT.FT            0 000 00 00: Depth
CCL.                          : Casing Collar Locator
TT3.usec                      : CBL 3' Travel Time
AMP3.mV                       : CBL 3' Amplitude
GR.GAPI                       : Gamma Ray
~Parameter Information Block
~A  Depth       CCL         TT3         AMP3         GR     
# ...
   596.2500      0.0000    686.2899      7.6155     90.9835
   596.5000      0.0000    685.5514      7.6370     90.7416
   596.7500      0.0000    683.2073      7.6617     90.4507
   597.0000      0.0000    679.9910      7.6855     89.5778
   597.2500      0.0000    676.4693      7.7067     88.1627
   597.5000      0.0000    672.6865      7.7181     86.8937
   597.7500      0.0000    668.9761      7.6958     86.2746
   598.0000      0.0000    667.6349      7.5970     85.7827
   598.2500      0.0000    672.5469      7.3897     84.2592
   598.5000      0.0000    685.4035      7.1023     81.0562
   598.7500      0.0000    702.2952      6.8260     76.5570
   599.0000      0.0000    716.0373      6.6397     71.9366
   599.2500      0.0000    722.9226      6.5437     68.7129
   599.5000      2.0000    725.7610      6.4806     68.0358
   599.7500     -2.0000    729.2369      6.4005     69.8705
   600.0000     -2.0000    733.9178      6.2936     72.8420
   600.2500      0.0000    736.3037      6.1835     75.1436
   600.5000      0.0000    733.5497      6.1062     75.7926
   600.7500      0.0000    726.5413      6.0870     75.1879
   601.0000      0.0000    718.4405      6.1306     74.6920
   601.2500      0.0000    711.3390      6.2403     75.7696
   601.5000      0.0000    705.2293      6.4266     79.2404
   601.7500      0.0000    699.6901      6.6736     85.0577
   602.0000      0.0000    695.1332      6.9163     92.8436
   602.2500      0.0000    692.1602      7.0832    102.4166
   602.5000      0.0000    690.7416      7.1533    113.3230
   602.7500      0.0000    690.3381      7.1598    124.1248
   603.0000      0.0000    690.4099      7.1513    133.0097
   603.2500      0.0000    690.6268      7.1601    139.2914
   603.5000      0.0000    690.8484      7.1966    143.7734
   603.7500      0.0000    691.0470      7.2554    147.5116
   604.0000      0.0000    691.2114      7.3236    150.5963
   604.2500      0.0000    691.2969      7.3857    152.1841
   604.5000      0.0000    691.2384      7.4300    151.4727
   604.7500      0.0000    691.0220      7.4545    148.6900
   605.0000      0.0000    690.7136      7.4665    145.3422
   605.2500      0.0000    690.3996      7.4736    143.3620
   605.5000      0.0000    690.1186      7.4764    143.6556
   605.7500      0.0000    689.8648      7.4703    145.4337
   606.0000      0.0000    689.6404      7.4529    147.1195
   606.2500      0.0000    689.4747      7.4266    147.6582
   606.5000      0.0000    689.3886      7.3964    146.7153
   606.7500      0.0000    689.3612      7.3644    144.2936
   607.0000      0.0000    689.3412      7.3268    141.0418
   607.2500      0.0000    689.2872      7.2802    138.5127
   607.5000      0.0000    689.1900      7.2284    137.9752
   607.7500      0.0000    689.0667      7.1827    138.8872
   608.0000      0.0000    688.9412      7.1518    139.2357
   608.2500      0.0000    688.8335      7.1367    137.4954
   608.5000      0.0000    688.7628      7.1335    133.9515
   608.7500      0.0000    688.7545      7.1382    130.1061
   609.0000      0.0000    688.8313      7.1505    127.2116
   609.2500      0.0000    688.9835      7.1727    125.5836
   609.5000      0.0000    689.1501      7.2060    124.9695
   609.7500      0.0000    689.2405      7.2440    125.2320
   610.0000      0.0000    689.1890      7.2734    126.7988
   610.2500      0.0000    689.0035      7.2856    130.3704
   610.5000      0.0000    688.7689      7.2832    135.7857
   610.7500      0.0000    688.5885      7.2710    141.3459
   611.0000      0.0000    688.5085      7.2445    144.7990
   611.2500      0.0000    688.4986      7.1954    144.9682
   611.5000      0.0000    688.5115      7.1283    142.4004
   611.7500      0.0000    688.5378      7.0643    139.0705
   612.0000      0.0000    688.5820      7.0231    137.5223
   612.2500      0.0000    688.6057      7.0034    139.2002
   612.5000      0.0000    688.5384      6.9826    143.0840
   612.7500      0.0000    688.3561      6.9368    146.5312
   613.0000      0.0000    688.1310      6.8611    147.7673
   613.2500      0.0000    687.9913      6.7718    147.1161
   613.5000      0.0000    688.0327      6.6914    145.6506
   613.7500      0.0000    688.2609      6.6344    143.1431
   614.0000      0.0000    688.5993      6.6055    137.9500
   614.2500      0.0000    688.9407      6.6053    129.1026
   614.5000      0.0000    689.2025      6.6313    118.1315
   614.7500      0.0000    689.3755      6.6744    108.3436
   615.0000      0.0000    689.5924      6.7194    102.3245
   615.2500      0.0000    690.2058      6.7558    100.5653
   615.5000      0.0000    691.7382      6.7873    102.2662
   615.7500      0.0000    694.4998      6.8274    106.3840
   616.0000      0.0000    698.0128      6.8852    111.4402
   616.2500      0.0000    700.9797      6.9574    115.5014
   616.5000      0.0000    702.2538      7.0354    117.6421
   616.7500      0.0000    701.8930      7.1157    118.9072
   617.0000      0.0000    701.0198      7.1993    120.8421
   617.2500      0.0000    700.8395      7.2831    123.4959
   617.5000      0.0000    702.1301      7.3572    125.5742
   617.7500      0.0000    705.2908      7.4143    126.1741
   618.0000      0.0000    710.4212      7.4588    125.7452
   618.2500      0.0000    717.6766      7.5048    125.3932
   618.5000      0.0000    727.8684      7.5622    125.5727
   618.7500      0.0000    742.1152      7.6296    125.5426
   619.0000      0.0000    760.0480      7.6985    124.0247
   619.2500      0.0000    778.1741      7.7603    120.5060
   619.5000      0.0000    790.9352      7.8103    116.0212
   619.7500      0.0000    794.6211      7.8485    112.4406
   620.0000      0.0000    790.2634      7.8767    110.9204
   620.2500      0.0000    781.7501      7.8940    111.5533
   620.5000      0.0000    771.8409      7.8932    114.5335
   620.7500      0.0000    761.6823      7.8646    120.4788
   621.0000      0.0000    752.8969      7.8027    128.8938
   621.2500      0.0000    746.9955      7.7096    137.0821
   621.5000      0.0000    743.0807      7.5961    141.5786
   621.7500      0.0000    738.8542      7.4822    140.9801
   622.0000      0.0000    733.6443      7.3915    137.1926
   622.2500      0.0000    728.2390      7.3399    133.5007
   622.5000      0.0000    722.6240      7.3296    131.4470
   622.7500      0.0000    716.3411      7.3533    130.1996
   623.0000      0.0000    710.3695      7.4006    128.7890
   623.2500      0.0000    706.3969      7.4584    127.7511
   623.5000      0.0000    704.6450      7.5126    128.1680
   623.7500      0.0000    704.0094      7.5538    129.9470
   624.0000      0.0000    703.9951      7.5812    131.4755
   624.2500      0.0000    705.1457      7.6014    130.5251
   624.5000      0.0000    707.6499      7.6210    125.5905
   624.7500      0.0000    710.5791      7.6418    117.1421
   625.0000      0.0000    712.7891      7.6602    107.8115
   625.2500      0.0000    714.0302      7.6720    100.6554
   625.5000      0.0000    715.0912      7.6793     96.6976
   625.7500      0.0000    717.2745      7.6921     94.2526
   626.0000      0.0000    721.8357      7.7219     90.5948
   626.2500      0.0000    729.3841      7.7720     83.9743
   626.5000      0.0000    739.1981      7.8346     74.4222
   626.7500      0.0000    749.0199      7.8985     63.6315
   627.0000      0.0000    756.0237      7.9586     54.4022
   627.2500      0.0000    758.8373      8.0170     49.5093
   627.5000      0.0000    759.0630      8.0770     50.2900
   627.7500      0.0000    760.5974      8.1388     55.9903
   628.0000      0.0000    766.9154      8.1986     64.4458
   628.2500      0.0000    778.0942      8.2467     73.6034
   628.5000      0.0000    789.4268      8.2686     82.5740
   628.7500      0.0000    793.3396      8.2547     91.3110
   629.0000      0.0000    784.8246      8.2101     99.5782
   629.2500      0.0000    766.1139      8.1513    106.7129
   629.5000      0.0000    745.1312      8.0908    112.3449
