~Version Information
VERS.                      2.0: CWLS Log ASCII Standard - VERSION 2.0
WRAP.                       NO: One line per depth step
~Well Information Block
STRT.FT                -8.2500: 
STOP.FT              1653.2500: 
STEP.FT                 0.2500: 
NULL.                -999.2500: 
COMP.          Pioneer Natural Resources: COMPANY
WELL.            Relay 12-7 Tr: WELL
FLD.           Purgatorie River: FIELD
LOC.           2025' FNL & 790' FWL--: LOCATION
PROV.                       CO: PROVINCE
CNTY.               Las Animas: COUNTRY
SRVC.          Patterson Wireline: SERVICE COMPANY
DATE.          Tue Jan 24 10:25:08 2006: LOG DATE
UWI.           05 071 08603 00: UNIQUE WELL ID
~Curve Information Block
DEPT.FT            0 000 00 00: Depth
CCL.                          : Casing Collar Locator
TT3.usec                      : CBL 3' Travel Time
AMP3.mV                       : CBL 3' Amplitude
GR.GAPI                       : Gamma Ray
~Parameter Information Block
~A  Depth       CCL         TT3         AMP3         GR     
# ...
  1298.2500      0.0000    698.0074      5.3456     88.2908
  1298.5000      0.0000    696.4835      5.2342     95.7479
  1298.7500      0.0000    694.9255      5.0978    105.5175
  1299.0000      0.0000    694.6302      4.9722    115.9694
  1299.2500      0.0000    694.2556      4.8967    124.7578
  1299.5000      0.0000    691.1673      4.8862    130.4225
  1299.7500      0.0000    684.4714      4.9215    133.3549
  1300.0000      0.0000    676.8102      4.9651    134.8727
  1300.2500      0.0000    672.6022      4.9847    135.5535
  1300.5000      0.0000    673.7550      4.9669    135.0879
  1300.7500      0.0000    677.6594      4.9188    133.6296
  1301.0000      0.0000    680.1569      4.8620    132.2587
  1301.2500      0.0000    679.7581      4.8178    131.5637
  1301.5000      0.0000    678.2416      4.7928    130.5107
  1301.7500      0.0000    678.0749      4.7818    127.6747
  1302.0000      0.0000    680.2719      4.7803    123.3262
  1302.2500      0.0000    684.3729      4.7914    119.3857
  1302.5000      0.0000    689.5024      4.8194    117.3092
  1302.7500      0.0000    695.0483      4.8626    116.8154
  1303.0000      0.0000    700.6329      4.9132    116.9772
  1303.2500      0.0000    705.7558      4.9643    117.8009
  1303.5000      0.0000    709.5433      5.0120    120.0276
  1303.7500      0.0000    710.9692      5.0538    123.9074
  1304.0000      0.0000    709.5901      5.0871    128.8368
  1304.2500      0.0000    706.0005      5.1111    133.8398
  1304.5000      0.0000    701.4119      5.1283    137.8425
  1304.7500      0.0000    696.9776      5.1452    139.8933
  1305.0000      0.0000    693.5068      5.1694    139.7684
  1305.2500      0.0000    691.2762      5.2059    138.2412
  1305.5000      0.0000    689.6010      5.2532    136.3309
  1305.7500      0.0000    686.6116      5.3046    134.4109
  1306.0000      0.0000    679.7779      5.3517    132.3106
  1306.2500      0.0000    667.1741      5.3864    130.1197
  1306.5000      0.0000    649.3115      5.4026    128.4994
  1306.7500      0.0000    630.8249      5.3984    128.1271
  1307.0000      0.0000    619.5937      5.3786    129.0498
  1307.2500      0.0000    621.6071      5.3515    130.5859
  1307.5000      0.0000    635.5635      5.3226    131.6409
  1307.7500      0.0000    653.8145      5.2915    131.2086
  1308.0000      0.0000    669.0286      5.2554    129.0299
  1308.2500      0.0000    678.9552      5.2151    125.8888
  1308.5000      0.0000    685.2115      5.1734    122.9111
  1308.7500      0.0000    689.5652      5.1297    120.5419
  1309.0000      0.0000    692.3620      5.0812    118.4889
  1309.2500      0.0000    693.4669      5.0305    116.4700
  1309.5000      0.0000    693.2424      4.9886    114.5799
  1309.7500      0.0000    692.2948      4.9703    113.1583
  1310.0000      0.0000    690.9733      4.9857    112.9148
  1310.2500      0.0000    689.4691      5.0334    115.0364
  1310.5000      0.0000    688.0272      5.0993    120.2200
  1310.7500      0.0000    686.7504      5.1613    127.2540
  1311.0000      0.0000    685.3906      5.1976    133.3663
  1311.2500      0.0000    683.5122      5.1927    136.6178
  1311.5000      0.0000    680.9499      5.1412    137.4127
  1311.7500      0.0000    678.2578      5.0551    137.1815
  1312.0000      0.0000    676.6744      4.9676    136.2481
  1312.2500      0.0000    677.2961      4.9230    133.4409
  1312.5000      0.0000    679.9845      4.9580    127.2641
  1312.7500      0.0000    683.2430      5.0875    117.2703
  1313.0000      0.0000    685.5142      5.2968    104.9855
  1313.2500      0.0000    686.4667      5.5431     93.7246
  1313.5000      0.0000    686.6021      5.7698     86.8932
  1313.7500      0.0000    685.8509      5.9333     85.7790
  1314.0000      0.0000    683.4020      6.0224     88.8659
  1314.2500      0.0000    678.9053      6.0601     93.4472
  1314.5000      0.0000    673.1626      6.0906     97.8440
  1314.7500      0.0000    667.6619      6.1603    102.1118
  1315.0000      0.0000    664.0257      6.3010    107.2610
  1315.2500      0.0000    663.6050      6.5139    114.2960
  1315.5000      0.0000    666.6578      6.7604    123.4269
  1315.7500      0.0000    671.8201      6.9695    133.6465
  1316.0000      0.0000    677.0096      7.0695    143.3815
  1316.2500      0.0000    680.9112      7.0269    151.7337
  1316.5000      0.0000    683.1873      6.8633    158.6598
  1316.7500      0.0000    683.4655      6.6337    164.0304
  1317.0000      0.0000    680.9437      6.3900    167.1247
  1317.2500      0.0000    675.0779      6.1611    167.1631
  1317.5000      0.0000    666.2558      5.9570    164.2475
  1317.7500      0.0000    656.1270      5.7854    159.8028
  1318.0000      0.0000    647.5584      5.6611    155.8008
  1318.2500      0.0000    642.9107      5.5994    153.1183
  1318.5000      0.0000    641.0623      5.6008    150.6235
  1318.7500      0.0000    636.9628      5.6440    145.9920
  1319.0000      0.0000    625.6711      5.6952    137.4145
  1319.2500      0.0000    607.6469      5.7253    124.8861
  1319.5000      0.0000    590.8162      5.7226    110.4482
  1319.7500      0.0000    586.5867      5.6927     97.1428
  1320.0000      0.0000    600.8505      5.6496     87.2897
  1320.2500      0.0000    627.8519      5.6057     81.5776
  1320.5000      0.0000    654.1415      5.5664     79.3976
  1320.7500      0.0000    668.3881      5.5312     79.4141
  1321.0000      0.0000    667.3506      5.4980     79.8728
  1321.2500      0.0000    655.5895      5.4663     79.1225
  1321.5000      0.0000    642.2922      5.4361     76.3960
  1321.7500      0.0000    636.6124      5.4053     72.0956
  1322.0000      0.0000    642.3618      5.3697     67.3603
  1322.2500      0.0000    655.8674      5.3267     63.4692
  1322.5000      0.0000    669.6788      5.2784     61.3554
  1322.7500      0.0000    678.7681      5.2314     61.2222
  1323.0000      0.0000    683.2831      5.1927     62.5474
  1323.2500      0.0000    686.1268      5.1659     64.5741
  1323.5000      0.0000    689.0739      5.1471     66.8098
  1323.7500      0.0000    691.3315      5.1248     69.1555
  1324.0000      0.0000    690.8835      5.0869     71.6236
  1324.2500      0.0000    686.6033      5.0326     73.6827
  1324.5000      0.0000    679.3928      4.9823     74.0257
  1324.7500      0.0000    671.6538      4.9742     71.6857
  1325.0000      0.0000    665.2986      5.0435     67.5567
  1325.2500      0.0000    660.1250      5.1936     64.2025
  1325.5000      0.0000    654.6710      5.3863     63.8474
  1325.7500      0.0000    648.9753      5.5623     66.6850
  1326.0000      0.0000    645.3507      5.6728     71.0657
  1326.2500      0.0000    645.2729      5.7044     74.9394
  1326.5000      0.0000    646.7767      5.6929     77.0678
  1326.7500      0.0000    646.7709      5.7048     77.3921
  1327.0000      0.0000    645.1703      5.7716     76.7451
  1327.2500      0.0000    645.4341      5.8448     76.0613
  1327.5000      0.0000    651.8427      5.8533     75.5029
  1327.7500      0.0000    666.6530      5.7934     74.4160
  1328.0000      0.0000    688.2747      5.7156     72.3009
  1328.2500      0.0000    711.0159      5.6391     69.5834
  1328.5000     -2.0000    727.4803      5.5292     67.2546
  1328.7500      0.0000    732.6979      5.3562     66.0913
  1329.0000      0.0000    726.8998      5.1459     66.4905
  1329.2500      0.0000    714.9606      4.9679     68.6850
  1329.5000      0.0000    703.1880      4.8758     72.6286
  1329.7500      0.0000    695.4617      4.8501     77.6473
  1330.0000      0.0000    690.7320      4.8080     82.4398
  1330.2500      0.0000    684.3838      4.6845     85.6108
  1330.5000      0.0000    673.5941      4.4940     86.3609
  1330.7500      0.0000    661.7587      4.2999     84.8072
  1331.0000      0.0000    656.3406      4.1478     81.7477
  1331.2500      0.0000    661.5416      4.0417     78.1215
  1331.5000      0.0000    674.1518      3.9645     74.5988
