~Version Information
VERS.                      2.0: CWLS Log ASCII Standard - VERSION 2.0
WRAP.                       NO: One line per depth step
~Well Information Block
STRT.FT                -8.0000: 
STOP.FT              1323.7500: 
STEP.FT                 0.2500: 
NULL.                -999.2500: 
COMP.          Pioneer Natural Resources: COMPANY
WELL.              Geyser 41-2: WELL
FLD.           Purgatorie River: FIELD
LOC.           506' FNL & 1127' FEL--: LOCATION
PROV.                       CO: PROVINCE
CNTY.               Las Animas: COUNTRY
SRVC.          Patterson Wireline: SERVICE COMPANY
DATE.          Tue Dec 06 09:28:14 2005: LOG DATE
UWI.           08 071 08598 00: UNIQUE WELL ID
~Curve Information Block
DEPT.FT            0 000 00 00: Depth
CCL.                          : Casing Collar Locator
TT3.usec                      : CBL 3' Travel Time
AMP3.mV                       : CBL 3' Amplitude
GR.GAPI                       : Gamma Ray
~Parameter Information Block
~A  Depth       CCL         TT3         AMP3         GR     
# ...
   762.5000      0.0000    818.7948     10.2248    151.1665
   762.7500      0.0000    825.3091     10.1971    152.3195
   763.0000      0.0000    829.8513     10.1955    150.3111
   763.2500      0.0000    832.3315     10.2285    146.6385
   763.5000      0.0000    833.3855     10.2971    142.6898
   763.7500      0.0000    833.6911     10.3894    139.1832
   764.0000      0.0000    833.6489     10.4824    136.4413
   764.2500      0.0000    833.3766     10.5562    134.6169
   764.5000      0.0000    832.7306     10.6106    133.3698
   764.7500      0.0000    831.3635     10.6618    131.7945
   765.0000      0.0000    829.0295     10.7180    129.1241
   765.2500      0.0000    826.0622     10.7634    125.4596
   765.5000      0.0000    823.5029     10.7700    121.6851
   765.7500      0.0000    822.5199     10.7227    118.7014
   766.0000      0.0000    823.5319     10.6272    116.7288
   766.2500      0.0000    825.7859     10.4983    115.3037
   766.5000      0.0000    827.8165     10.3474    113.8309
   766.7500      0.0000    828.5573     10.1807    111.9722
   767.0000      0.0000    828.1419     10.0063    109.6026
   767.2500      0.0000    827.4330      9.8422    106.7330
   767.5000      0.0000    826.6815      9.7135    103.6404
   767.7500      0.0000    825.0717      9.6336    101.0483
   768.0000      0.0000    821.8754      9.5897    100.0797
   768.2500      0.0000    817.5685      9.5560    101.9890
   768.5000      0.0000    813.2546      9.5203    107.6487
   768.7500      0.0000    809.4322      9.4899    116.5332
   769.0000      0.0000    806.0092      9.4678    125.8877
   769.2500      0.0000    803.2532      9.4350    131.7198
   769.5000      0.0000    801.9383      9.3650    131.4506
   769.7500      0.0000    802.3999      9.2560    125.4257
   770.0000      0.0000    803.7827      9.1484    115.8163
   770.2500      0.0000    804.4988      9.1049    104.7232
   770.5000      0.0000    803.5526      9.1635     93.5441
   770.7500      0.0000    801.3419      9.3024     83.4947
   771.0000      0.0000    799.1491      9.4592     76.1475
   771.2500      0.0000    798.1163      9.5809     73.4398
   771.5000      0.0000    798.7098      9.6480     76.9220
   771.7500      0.0000    800.6152      9.6588     86.1987
   772.0000      0.0000    802.7997      9.6143     97.9656
   772.2500      0.0000    804.1197      9.5249    107.6580
   772.5000      0.0000    804.4571      9.4145    113.0023
   772.7500      0.0000    805.1952      9.3094    115.6329
   773.0000      0.0000    808.1107      9.2269    118.7596
   773.2500      0.0000    813.6291      9.1726    123.6315
   773.5000      0.0000    820.2006      9.1434    128.7361
   773.7500      0.0000    825.4362      9.1297    131.7931
   774.0000      0.0000    827.9447      9.1172    131.5894
   774.2500      0.0000    828.2153      9.0909    128.1319
   774.5000      0.0000    827.7628      9.0408    122.2901
   774.7500      0.0000    827.5099      8.9658    115.6198
   775.0000      0.0000    827.3132      8.8727    109.8419
   775.2500      0.0000    827.0669      8.7697    106.2364
   775.5000      0.0000    827.5769      8.6571    105.7803
   775.7500      0.0000    829.7866      8.5272    109.4469
   776.0000      0.0000    833.3810      8.3798    117.5929
   776.2500      0.0000    836.4870      8.2372    128.9853
   776.5000      0.0000    836.7536      8.1350    141.0090
   776.7500      0.0000    833.0079      8.0911    151.0096
   777.0000      0.0000    826.2653      8.0893    157.2981
   777.2500      0.0000    819.0418      8.0938    159.1154
   777.5000      0.0000    813.4217      8.0788    156.5181
   777.7500      0.0000    809.9906      8.0454    150.7206
   778.0000      0.0000    808.6807      8.0143    143.8664
   778.2500      0.0000    809.8370      8.0053    137.8604
   778.5000      0.0000    813.6600      8.0214    133.5506
   778.7500      0.0000    818.9630      8.0515    130.9326
   779.0000      0.0000    823.3117      8.0817    129.7417
   779.2500      0.0000    824.5790      8.1045    129.8093
   779.5000      0.0000    822.0338      8.1224    131.0551
   779.7500      0.0000    815.9550      8.1423    133.1240
   780.0000      0.0000    806.9396      8.1627    135.2157
   780.2500      0.0000    795.9965      8.1689    136.6786
   780.5000      0.0000    784.3365      8.1481    137.6518
   780.7500      0.0000    772.0273      8.1047    138.5820
   781.0000      0.0000    757.9797      8.0534    139.1411
   781.2500      0.0000    742.9116      7.9885    138.2416
   781.5000      0.0000    731.8031      7.8754    135.3043
   781.7500      0.0000    732.2307      7.6920    131.0911
   782.0000      0.0000    749.4644      7.4798    126.9678
   782.2500      0.0000    781.5746      7.3275    123.4890
   782.5000      0.0000    818.5972      7.3022    119.9776
   782.7500      0.0000    848.4231      7.4153    115.5448
   783.0000      0.0000    864.7107      7.6434    110.3247
   783.2500      0.0000    868.5234      7.9421    105.6130
   783.5000      0.0000    864.7098      8.2430    103.0109
   783.7500     -2.0000    859.8237      8.4682    103.4673
   784.0000      2.0000    860.9987      8.5632    106.5287
   784.2500      0.0000    872.6464      8.5512    110.0618
   784.5000      0.0000    895.0281      8.5713    111.1437
   784.7500      0.0000    926.6748      8.8050    107.9536
   785.0000      0.0000    964.8201      9.2922    101.1082
   785.2500      0.0000   1003.0319      9.8477     93.3157
   785.5000      0.0000   1032.6167     10.2317     87.7460
   785.7500      0.0000   1047.9363     10.3695     86.3270
   786.0000      0.0000   1049.0636     10.3515     89.0200
   786.2500      0.0000   1040.1868     10.2862     94.3131
   786.5000      0.0000   1027.1088     10.2194    100.2200
   786.7500      0.0000   1015.3385     10.1553    105.1026
   787.0000      0.0000   1008.5590     10.0891    108.1671
   787.2500      0.0000   1007.8679     10.0188    109.4798
   787.5000      0.0000   1011.6158      9.9462    109.4519
   787.7500      0.0000   1014.8885      9.8752    108.2620
   788.0000      0.0000   1009.9590      9.8069    105.8126
   788.2500      0.0000    990.1483      9.7400    102.2210
   788.5000      0.0000    955.5723      9.6713     98.1035
   788.7500      0.0000    914.7208      9.5968     94.0455
   789.0000      0.0000    878.9399      9.5192     90.0567
   789.2500      0.0000    855.0211      9.4542     86.1467
   789.5000      0.0000    842.9686      9.4237     83.0248
   789.7500      0.0000    839.5468      9.4331     81.2505
   790.0000      0.0000    842.9386      9.4575     80.0747
   790.2500      0.0000    854.5652      9.4547     78.4549
   790.5000      0.0000    876.7948      9.3968     77.1639
   790.7500      0.0000    907.6240      9.2941     78.5368
   791.0000      0.0000    936.9426      9.1879     83.6008
   791.2500      0.0000    950.4304      9.1168     90.3389
   791.5000      0.0000    940.2385      9.0947     95.4342
   791.7500      0.0000    911.9354      9.1189     97.2940
   792.0000      0.0000    879.4861      9.1909     97.0206
   792.2500      0.0000    854.1880      9.3168     96.9391
   792.5000      0.0000    839.8938      9.4855     98.6752
   792.7500      0.0000    837.0831      9.6493    102.3119
   793.0000      0.0000    847.9058      9.7405    106.6667
   793.2500      0.0000    875.5667      9.7211    110.1416
   793.5000      0.0000    918.9914      9.6200    111.6265
   793.7500      0.0000    969.4348      9.5153    110.9988
   794.0000      0.0000   1014.4164      9.4765    109.0489
   794.2500      0.0000   1045.5786      9.5256    106.9527
   794.5000      0.0000   1061.8209      9.6419    105.5631
   794.7500      0.0000   1065.0336      9.7903    104.9956
   795.0000      0.0000   1054.7533      9.9458    104.8286
   795.2500      0.0000   1028.7112     10.0998    104.5931
   795.5000      0.0000    988.9596     10.2529    104.2334
   795.7500      0.0000    945.7728     10.4022    104.4565
