~Version Information
VERS.                      2.0: CWLS Log ASCII Standard - VERSION 2.0
WRAP.                       NO: One line per depth step
~Well Information Block
STRT.FT                -9.5000: 
STOP.FT              1304.7500: 
STEP.FT                 0.2500: 
NULL.                -999.2500: 
COMP.          Pioneer Natural Resources: COMPANY
WELL.            Hamburg 43-35: WELL
FLD.           Purgatorie River: FIELD
LOC.           2444' FSL & 950' FEL--: LOCATION
PROV.                       CO: PROVINCE
CNTY.               Las Animas: COUNTRY
SRVC.          Patterson Wireline: SERVICE COMPANY
DATE.          Thu Dec 08 14:29:45 2005: LOG DATE
UWI.           08 071 08607 00: UNIQUE WELL ID
~Curve Information Block
DEPT.FT            0 000 00 00: Depth
CCL.                          : Casing Collar Locator
TT3.usec                      : CBL 3' Travel Time
AMP3.mV                       : CBL 3' Amplitude
GR.GAPI                       : Gamma Ray
~Parameter Information Block
~A  Depth       CCL         TT3         AMP3         GR     
# ...
    91.0000      0.0000   1034.7888     13.7986     89.7456
    91.2500      0.0000   1063.0004     13.8422     91.8651
    91.5000      0.0000   1088.3979     13.8267     93.8240
    91.7500      0.0000   1100.6486     13.7889     94.2215
    92.0000      0.0000   1093.4026     13.8003     92.6177
    92.2500      0.0000   1069.1595     13.9289     89.7402
    92.5000      0.0000   1041.2109     14.1668     86.9044
    92.7500      0.0000   1026.5975     14.3983     85.2445
    93.0000      0.0000   1032.9274     14.4825     85.2934
    93.2500      0.0000   1051.0134     14.3859     87.0628
    93.5000      0.0000   1062.0109     14.2089     90.0925
    93.7500      0.0000   1053.5320     14.0750     93.1649
    94.0000      0.0000   1030.2292     14.0191     94.4747
    94.2500      0.0000   1009.6691     13.9892     92.9447
    94.5000      0.0000   1007.8862     13.9287     89.4393
    94.7500      0.0000   1026.5281     13.8381     86.0563
    95.0000      0.0000   1051.1035     13.7596     84.2065
    95.2500      0.0000   1061.6940     13.7208     83.8825
    95.5000      0.0000   1048.1460     13.7006     84.5014
    95.7500      0.0000   1017.1362     13.6479     85.6417
    96.0000      0.0000    985.5221     13.5297     86.9896
    96.2500      0.0000    967.2352     13.3590     88.1587
    96.5000      0.0000    964.7918     13.1755     88.5816
    96.7500      0.0000    969.7872     13.0134     87.5555
    97.0000      0.0000    970.5297     12.8918     84.9451
    97.2500      0.0000    961.7100     12.8302     81.9212
    97.5000      0.0000    948.7356     12.8553     80.2221
    97.7500      0.0000    942.9007     12.9749     80.3252
    98.0000      0.0000    952.6673     13.1422     80.8166
    98.2500      0.0000    978.6154     13.2658     79.9180
    98.5000      0.0000   1014.1719     13.2631     77.5206
    98.7500      0.0000   1049.0178     13.0990     75.5757
    99.0000      0.0000   1072.0170     12.7853     76.2946
    99.2500      0.0000   1074.6990     12.3687     79.7508
    99.5000      0.0000   1057.5936     11.9186     83.4476
    99.7500      0.0000   1034.0322     11.5050     84.6714
   100.0000      0.0000   1022.6063     11.1729     83.1795
   100.2500      0.0000   1031.1005     10.9306     81.0225
   100.5000      0.0000   1047.8628     10.7551     80.1323
   100.7500      0.0000   1051.0200     10.6074     81.1498
   101.0000      0.0000   1027.1866     10.4538     84.2447
   101.2500      0.0000    981.6176     10.2895     89.4401
   101.5000      0.0000    931.7564     10.1509     95.8498
   101.7500      0.0000    893.0602     10.0982    101.7497
   102.0000      0.0000    871.3583     10.1685    105.7295
   102.2500      0.0000    866.1483     10.3403    107.1908
   102.5000      0.0000    877.1411     10.5464    106.1019
   102.7500      0.0000    904.9113     10.7229    103.2155
   103.0000      0.0000    945.8058     10.8416    100.0737
   103.2500      0.0000    989.0126     10.9007     97.7202
   103.5000      0.0000   1020.4672     10.9061     95.7413
   103.7500      0.0000   1030.4133     10.8780     93.2642
   104.0000      0.0000   1019.0927     10.8643     90.3039
   104.2500      0.0000    995.8466     10.9289     87.5307
   104.5000      0.0000    970.5703     11.1221     85.3957
   104.7500      0.0000    945.8863     11.4519     84.0671
   105.0000      0.0000    919.7010     11.8649     83.8561
   105.2500      0.0000    892.8477     12.2590     85.0097
   105.5000      0.0000    870.1666     12.5374     87.0894
   105.7500      0.0000    855.5571     12.6677     89.0912
   106.0000      0.0000    848.9316     12.6911     90.3377
   106.2500      0.0000    847.4106     12.6744     90.8149
   106.5000      0.0000    847.9549     12.6542     90.6004
   106.7500      0.0000    848.8765     12.6227     89.5428
   107.0000      0.0000    849.2084     12.5599     87.6599
   107.2500      0.0000    847.4705     12.4721     85.3259
   107.5000      0.0000    842.2780     12.3952     82.8094
   107.7500      0.0000    834.2713     12.3610     80.0962
   108.0000      0.0000    826.4175     12.3660     77.5237
   108.2500      0.0000    821.8030     12.3779     76.1131
   108.5000      0.0000    821.0408     12.3682     76.5920
   108.7500      0.0000    822.1520     12.3334     78.2733
   109.0000      0.0000    823.4085     12.2844     79.5484
   109.2500      0.0000    826.4408     12.2239     79.5034
   109.5000      0.0000    835.5891     12.1393     78.7571
   109.7500      0.0000    852.4957     12.0191     78.8076
   110.0000      0.0000    871.2843     11.8728     80.7767
   110.2500      0.0000    881.9971     11.7303     84.5740
   110.5000      0.0000    881.3812     11.6241     88.9923
   110.7500      0.0000    878.0744     11.5783     92.5605
   111.0000      0.0000    883.6328     11.6071     94.4661
   111.2500      0.0000    900.3036     11.7109     94.8103
   111.5000      0.0000    921.3898     11.8728     94.1089
   111.7500      0.0000    941.8456     12.0665     92.8203
   112.0000      0.0000    962.9500     12.2703     91.4136
   112.2500      0.0000    985.6564     12.4709     90.5208
   112.5000      0.0000   1003.5392     12.6569     90.7280
   112.7500      0.0000   1004.8944     12.8101     92.2603
   113.0000      0.0000    982.3652     12.9080     94.8961
   113.2500      0.0000    941.2834     12.9430     98.1265
   113.5000      0.0000    897.2881     12.9374    101.3088
   113.7500      0.0000    864.3426     12.9348    103.5578
   114.0000      0.0000    845.9784     12.9706    103.6842
   114.2500      0.0000    837.5801     13.0406    100.7311
   114.5000      0.0000    833.7294     13.0969     94.9847
   114.7500      0.0000    831.7036     13.0809     88.3740
   115.0000      0.0000    830.1705     12.9725     83.4681
   115.2500      0.0000    827.5673     12.8169     81.7808
   115.5000      0.0000    822.6833     12.7019     83.0397
   115.7500      0.0000    816.0459     12.6919     85.7474
   116.0000      0.0000    809.7745     12.7701     87.8867
   116.2500      0.0000    806.1606     12.8556     87.4234
   116.5000      0.0000    806.8293     12.8893     83.3585
   116.7500      0.0000    812.8422     12.8881     76.7706
   117.0000      0.0000    824.4695     12.9073     70.1909
   117.2500      0.0000    839.9733     12.9667     65.7986
   117.5000      0.0000    854.7012     13.0329     64.6805
   117.7500      0.0000    862.7054     13.0655     67.2049
   118.0000      0.0000    861.0923     13.0682     72.8743
   118.2500      0.0000    853.2006     13.0899     79.9728
   118.5000      0.0000    846.3161     13.1702     86.4959
   118.7500      0.0000    845.4219     13.2808     91.5454
   119.0000      0.0000    849.3256     13.3375     95.2536
   119.2500      0.0000    852.2329     13.2745     97.6804
   119.5000      0.0000    848.4702     13.1044     98.6731
   119.7500      0.0000    837.1393     12.8982     98.6943
   120.0000      0.0000    824.6141     12.7048     98.9255
   120.2500      0.0000    822.9916     12.4942    100.2692
   120.5000      0.0000    844.1111     12.2006    102.5967
   120.7500      0.0000    892.0165     11.8260    105.0167
   121.0000      0.0000    958.3839     11.4638    106.4513
   121.2500      0.0000   1024.1438     11.1935    105.9460
   121.5000      2.0000   1068.4919     10.9972    103.1681
   121.7500      2.0000   1080.7670     10.8126     99.1081
   122.0000      0.0000   1065.2233     10.6432     95.8904
   122.2500      0.0000   1032.7748     10.6007     95.3765
   122.5000      0.0000    989.3984     10.8477     97.8188
   122.7500      0.0000    937.5095     11.4708    101.7354
   123.0000      0.0000    887.5479     12.3529    104.9542
   123.2500      0.0000    857.2684     13.1821    105.9451
   123.5000      0.0000    854.7615     13.6630    104.4916
   123.7500      0.0000    870.3243     13.7389    101.4402
   124.0000      0.0000    889.5914     13.5786     98.0313
   124.2500      0.0000    907.7699     13.3828     95.3640
