~Version Information
VERS.                      2.0: CWLS Log ASCII Standard - VERSION 2.0
WRAP.                       NO: One line per depth step
~Well Information Block
STRT.FT               420.0000: 
STOP.FT              2888.7500: 
STEP.FT                 0.2500: 
NULL.                -999.2500: 
COMP.          Pioneer Natural Resources: COMPANY
WELL.          Touchstone 11-32: WELL
FLD.           Purgatoire River: FIELD
LOC.           853' FNL & 407' FWL--: LOCATION
CNTY.               Las Animas: COUNTY
SRVC.                Patterson: SERVICE COMPANY
DATE.          Thu Feb 23 14:02:36 2006: LOG DATE
UWI.           05 071 08564 00: UNIQUE WELL ID
STAT.                 Colorado: STATE
~Curve Information Block
DEPT.FT            0 000 00 00: Depth
SN.Ohm-m                      : IEL Short Normal
SP.mV                         : IEL Spontaneous Potential
DIR.Ohm-m                     : IEL Induction Resistivity
GR.GAPI                       : Gamma Ray
~Parameter Information Block
~A  Depth        SN          SP         DIR          GR     
# ...
  2865.5000     19.9197     92.5899     19.2668   -999.2500
  2865.7500     20.0417     92.4704     19.4402   -999.2500
  2866.0000     20.1769     92.3276     19.6235   -999.2500
  2866.2500     20.3247     92.1627     19.8098   -999.2500
  2866.5000     20.4763     91.9813     19.9865   -999.2500
  2866.7500     20.6183     91.7934     20.1421   -999.2500
  2867.0000     20.7411     91.6129     20.2721   -999.2500
  2867.2500     20.8441     91.4554     20.3784   -999.2500
  2867.5000     20.9315     91.3364     20.4660   -999.2500
  2867.7500     21.0048     91.2691     20.5392   -999.2500
  2868.0000     21.0630     91.2613     20.5998   -999.2500
  2868.2500     21.1082     91.3143     20.6475   -999.2500
  2868.5000     21.1474     91.4214     20.6825   -999.2500
  2868.7500     21.1865     91.5681     20.7068   -999.2500
  2869.0000     21.2239     91.7349     20.7237   -999.2500
  2869.2500     21.2538     91.8998     20.7371   -999.2500
  2869.5000     21.2739     92.0424     20.7507   -999.2500
  2869.7500     21.2870     92.1474     20.7701   -999.2500
  2870.0000     21.2948     92.2073     20.8007   -999.2500
  2870.2500     21.2910     92.2228     20.8412   -999.2500
  2870.5000     21.2618     92.2020     20.8767   -999.2500
  2870.7500     21.1967     92.1574     20.8776   -999.2500
  2871.0000     21.0980     92.1028     20.8103   -999.2500
  2871.2500     20.9807     92.0488     20.6533   -999.2500
  2871.5000     20.8645     91.9999     20.4053   -999.2500
  2871.7500     20.7657     91.9524     20.0791   -999.2500
  2872.0000     20.6933     91.8941     19.6852   -999.2500
  2872.2500     20.6451     91.8065     19.2229   -999.2500
  2872.5000     20.6051     91.6693     18.6892   -999.2500
  2872.7500     20.5486     91.4657     18.0972   -999.2500
  2873.0000     20.4524     91.1893     17.4863   -999.2500
  2873.2500     20.3036     90.8492     16.9100   -999.2500
  2873.5000     20.1012     90.4729     16.4112   -999.2500
  2873.7500     19.8477     90.1057     16.0025   -999.2500
  2874.0000     19.5358     89.8056     15.6610   -999.2500
  2874.2500     19.1397     89.6352     15.3372   -999.2500
  2874.5000     18.6249     89.6513     14.9727   -999.2500
  2874.7500     17.9745     89.8944     14.5217   -999.2500
  2875.0000     17.2108     90.3820     13.9694   -999.2500
  2875.2500     16.3880     91.1041     13.3370   -999.2500
  2875.5000     15.5645     92.0247     12.6697   -999.2500
  2875.7500     14.7776     93.0880     12.0655   -999.2500
  2876.0000     14.0377     94.2264     11.4536   -999.2500
  2876.2500     13.3375     95.3706     10.9005   -999.2500
  2876.5000     12.6640     96.4583     10.3978   -999.2500
  2876.7500     12.0096     97.4404      9.9265   -999.2500
  2877.0000     11.3782     98.2843      9.4710   -999.2500
  2877.2500     10.7870     98.9737      9.0288   -999.2500
  2877.5000     10.2591     99.5058      8.6125   -999.2500
  2877.7500      9.8149     99.8873      8.2451   -999.2500
  2878.0000      9.4658    100.1295      7.9558   -999.2500
  2878.2500      9.2132    100.2447      7.7833   -999.2500
  2878.5000      9.0490    100.2423      7.7877   -999.2500
  2878.7500      8.9552    100.1283      8.0700   -999.2500
  2879.0000      8.9110     99.9051      8.8033   -999.2500
  2879.2500      8.9049     99.5733     10.2544   -999.2500
  2879.5000      8.9425     99.1348     13.0950   -999.2500
  2879.7500      9.0421     98.5958     18.5881   -999.2500
  2880.0000      9.2230     97.9665     29.8491   -999.2500
  2880.2500      9.4993     97.2682     55.4904   -999.2500
  2880.5000      9.8775     96.5259    125.2767   -999.2500
  2880.7500     10.3544     95.7628    408.0268   -999.2500
  2881.0000     10.9105     94.9881 100000.0000   -999.2500
  2881.2500     11.5072     94.1789 100000.0000   -999.2500
  2881.5000     12.1000     93.2581 100000.0000   -999.2500
  2881.7500     12.6625     92.0735 100000.0000   -999.2500
  2882.0000     13.2027     90.3848 100000.0000   -999.2500
  2882.2500     13.7512     87.8709    544.9569   -999.2500
  2882.5000     14.3282     84.1642   2239.1868   -999.2500
  2882.7500     14.9152     78.9172 100000.0000   -999.2500
  2883.0000     15.4432     71.8911 100000.0000   -999.2500
  2883.2500     15.7780     63.0446 100000.0000   -999.2500
  2883.5000     15.6828     52.5940 100000.0000   -999.2500
  2883.7500     14.8091     41.0175 100000.0000   -999.2500
  2884.0000     12.8476     28.9913 100000.0000   -999.2500
  2884.2500      9.8444     17.2720 100000.0000   -999.2500
  2884.5000      6.3814      6.5562 100000.0000   -999.2500
  2884.7500      3.3042     -2.6403 100000.0000   -999.2500
  2885.0000      1.1825    -10.0496 100000.0000   -999.2500
  2885.2500      0.0450    -15.6545 100000.0000   -999.2500
  2885.5000     -0.4297    -19.6359 100000.0000   -999.2500
  2885.7500     -0.5838    -22.2919 100000.0000   -999.2500
  2886.0000     -0.6228    -23.9561 100000.0000   -999.2500
  2886.2500     -0.6305    -24.9355 100000.0000   -999.2500
  2886.5000   -999.2500    -25.4768 100000.0000   -999.2500
  2886.7500   -999.2500    -25.7579 100000.0000   -999.2500
  2887.0000   -999.2500    -25.8950 100000.0000   -999.2500
  2887.2500   -999.2500    -25.9579  13312.6992   -999.2500
  2887.5000   -999.2500    -25.9849   4626.7559   -999.2500
  2887.7500   -999.2500    -25.9958   3641.6802   -999.2500
  2888.0000   -999.2500   -999.2500   3387.0020   -999.2500
  2888.2500   -999.2500   -999.2500   3317.1731   -999.2500
  2888.5000   -999.2500   -999.2500   3299.7437   -999.2500
  2888.7500   -999.2500   -999.2500 100000.0000   -999.2500
