~Version Information
VERS.                      2.0: CWLS Log ASCII Standard - VERSION 2.0
WRAP.                       NO: One line per depth step
~Well Information Block
STRT.FT               460.0000: 
STOP.FT              2811.5000: 
STEP.FT                 0.1000: 
NULL.                -999.2500: 
COMP.          Pioneer Natural Resources: COMPANY
WELL.           Dolzanie 34-12: WELL
FLD.           Purgatoire River: FIELD
LOC.           1001' FSL & 1750' FEL--: LOCATION
PROV.                 Colorado: PROVINCE
CNTY.               Las Animas: COUNTRY
SRVC.                Patterson: SERVICE COMPANY
DATE.          Wed Jul 20 07:56:24 2005: LOG DATE
UWI.           05 071 08439 00: UNIQUE WELL ID
~Curve Information Block
DEPT.FT            0 000 00 00: Depth
DCAL.in                       : CDL Caliper
DPOR.pu                       : CDL Density Porosity
NPOR.pu                       : Neutron Porosity
RHOB.g/cc                     : CDL Bulk Density
RHOC.g/cc                     : CDL Density Correction
GR.GAPI                       : Gamma Ray
~Parameter Information Block
~A  Depth       DCAL        DPOR        NPOR        RHOB        RHOC         GR     
# ...
  1391.2000      7.8654      3.6324     30.0816      2.5901      0.0187    121.4605
  1391.3000      7.8661      4.3138     29.6521      2.5788     -0.0092    125.1267
  1391.4000      7.8661      4.6288     29.0600      2.5736      0.0029    128.8168
  1391.5000      7.8679      3.9237     28.8555      2.5853     -0.0036    130.2676
  1391.6000      7.8679      2.7641     29.1678      2.6044      0.0905    130.8267
  1391.7000      7.8679      2.5129     29.6014      2.6085      0.0362    130.3079
  1391.8000      7.8745      3.3289     29.9831      2.5951      0.0612    128.4259
  1391.9000      7.8745      4.1710     30.0507      2.5812     -0.0173    129.4664
  1392.0000      7.8831      4.3435     29.3386      2.5783      0.0264    132.9559
  1392.1000      7.8831      4.2610     28.4294      2.5797      0.0237    132.8725
  1392.2000      7.8831      4.1036     28.2477      2.5823      0.0209    131.0912
  1392.3000      7.8851      3.4037     28.7983      2.5938      0.0052    130.9671
  1392.4000      7.8851      2.0450     29.6110      2.6163      0.0339    129.9210
  1392.5000      7.8824      0.7979     30.1954      2.6368      0.0873    127.0914
  1392.6000      7.8824      0.5676     30.3482      2.6406      0.0449    126.8058
  1392.7000      7.8824      1.2620     30.3715      2.6292      0.0721    131.0834
  1392.8000      7.8795      2.3777     30.5137      2.6108      0.0611    137.4015
  1392.9000      7.8795      3.5494     30.5403      2.5914      0.0332    140.8724
  1393.0000      7.8756      4.4822     30.1132      2.5760      0.0396    138.4093
  1393.1000      7.8756      5.3346     29.4695      2.5620      0.0311    134.6203
  1393.2000      7.8756      6.1076     29.1559      2.5492      0.0073    135.0008
  1393.3000      7.8713      6.4892     28.9260      2.5429      0.0431    139.3629
  1393.4000      7.8713      6.9400     28.3203      2.5355      0.0447    143.4719
  1393.5000      7.8670      7.7340     27.7438      2.5224     -0.0015    145.1853
  1393.6000      7.8670      8.0910     27.6873      2.5165     -0.0060    146.7783
  1393.7000      7.8670      7.8874     27.7871      2.5199      0.0574    149.3799
  1393.8000      7.8642      7.8013     27.6018      2.5213      0.0497    149.9990
  1393.9000      7.8642      7.4706     27.2344      2.5267      0.0397    145.5353
  1394.0000      7.8634      6.0870     26.7581      2.5496      0.0602    137.7805
  1394.1000      7.8634      4.0426     26.3530      2.5833      0.0940    132.6479
  1394.2000      7.8634      2.3373     26.0398      2.6114      0.0844    135.8721
  1394.3000      7.8654      1.4831     25.3839      2.6255      0.1336    144.8638
  1394.4000      7.8654      1.3862     24.4477      2.6271      0.0959    149.2214
  1394.5000      7.8696      1.2334     23.7721      2.6296      0.0835    145.0932
  1394.6000      7.8696      0.2994     23.6858      2.6451      0.0838    137.6975
  1394.7000      7.8696     -1.0258     23.9523      2.6669      0.1172    131.0432
  1394.8000      7.8741     -2.0459     24.2934      2.6838      0.0792    126.8897
  1394.9000      7.8741     -3.1119     24.7264      2.7013      0.0634    124.7400
  1395.0000      7.8770     -4.4243     25.2365      2.7230      0.0730    119.2947
  1395.1000      7.8770     -4.7734     25.6488      2.7288      0.1158    107.2854
  1395.2000      7.8770     -3.3396     25.8418      2.7051      0.0718     93.9809
  1395.3000      7.8746     -0.9727     26.1472      2.6661      0.0278     85.1471
  1395.4000      7.8746      1.1721     26.7730      2.6307      0.0353     79.4105
  1395.5000      7.8706      2.2281     27.2080      2.6132     -0.0108     75.2378
  1395.6000      7.8706      2.1149     27.0267      2.6151      0.0397     74.0278
  1395.7000      7.8706      1.7769     26.6511      2.6207     -0.0187     75.2423
  1395.8000      7.8742      1.6273     26.3811      2.6231     -0.0034     75.3090
  1395.9000      7.8742      1.6502     25.7389      2.6228      0.0299     71.7005
  1396.0000      7.8773      2.0373     24.6996      2.6164      0.0500     66.7475
  1396.1000      7.8773      2.2786     24.0687      2.6124      0.0144     65.0365
  1396.2000      7.8773      1.3565     24.1539      2.6276      0.0752     64.8724
  1396.3000      7.8699     -0.7255     24.2632      2.6620      0.1227     62.3377
  1396.4000      7.8699     -3.0041     23.9599      2.6996      0.1563     60.3740
  1396.5000      7.8617     -4.6161     23.8293      2.7262      0.1221     61.5941
  1396.6000      7.8617     -5.2363     24.3540      2.7364      0.0778     64.0851
  1396.7000      7.8617     -5.0890     25.0079      2.7340      0.0393     66.2391
  1396.8000      7.8612     -4.5068     25.1560      2.7244      0.0314     67.9985
  1396.9000      7.8612     -3.7833     25.1554      2.7124      0.0377     69.6240
  1397.0000      7.8645     -3.6821     25.5832      2.7108     -0.0284     68.8998
  1397.1000      7.8645     -4.7967     26.2079      2.7291      0.0222     64.9325
  1397.2000      7.8645     -6.4206     26.7160      2.7559      0.0249     61.9920
  1397.3000      7.8664     -7.7975     27.1846      2.7787      0.0457     61.5811
  1397.4000      7.8664     -8.7410     27.4494      2.7942      0.0426     61.0713
  1397.5000      7.8683     -8.8877     27.5187      2.7966      0.0467     60.3586
  1397.6000      7.8683     -8.7318     27.7742      2.7941      0.0211     61.3943
  1397.7000      7.8683     -9.2680     28.3339      2.8029      0.0363     62.3371
  1397.8000      7.8729     -9.8276     29.0270      2.8122      0.0387     60.2402
  1397.9000      7.8729     -9.4877     29.6439      2.8065      0.0087     57.2579
  1398.0000      7.8764     -9.3813     30.3227      2.8048      0.0061     57.1041
  1398.1000      7.8764    -10.7719     31.5141      2.8277      0.0209     60.2867
  1398.2000      7.8764    -12.7110     33.2992      2.8597      0.0531     64.1293
  1398.3000      7.8774    -13.5114     35.0328      2.8729      0.0758     65.3560
  1398.4000      7.8774    -13.5313     36.2313      2.8733      0.0010     63.7429
  1398.5000      7.8782    -14.4753     37.0990      2.8888      0.0039     61.0510
  1398.6000      7.8782    -15.8900     37.7979      2.9122      0.0333     56.9925
  1398.7000      7.8782    -14.7116     37.9449      2.8927      0.0765     52.4830
  1398.8000      7.8787     -9.1166     37.1902      2.8004     -0.0444     51.7078
  1398.9000      7.8787     -0.8268     35.8321      2.6636     -0.0996     54.9986
  1399.0000      7.8794      7.1249     34.2825      2.5324     -0.1575     58.0253
  1399.1000      7.8794     12.9378     32.5737      2.4365     -0.1788     58.7461
  1399.2000      7.8794     17.6375     30.8435      2.3590     -0.1279     57.6995
  1399.3000      7.8819     23.6170     29.2235      2.2603     -0.1805     56.1996
  1399.4000      7.8819     32.0086     27.6146      2.1219     -0.2102     55.3929
  1399.5000      7.8883     43.0600     26.1711      1.9395     -0.1515     54.5281
  1399.6000      7.8883     53.5979     25.1798      1.7656     -0.2742     54.1500
  1399.7000      7.8883     55.0634     24.8175      1.7415     -0.2747     55.3519
  1399.8000      7.9271     42.2725     25.1776      1.9525      0.0042     56.1987
  1399.9000      7.9271     20.9189     26.0598      2.3048      0.5672     55.2927
  1400.0000      8.0155      1.4515     27.0794      2.6260      0.6964     55.2597
  1400.1000      8.0155    -10.8839     28.2219      2.8296      0.7524     56.7245
  1400.2000      8.0155    -16.6609     29.5418      2.9249      0.6607     56.6978
  1400.3000      8.0524    -18.5160     30.6852      2.9555      0.4316     54.4035
  1400.4000      8.0524    -19.3172     31.2687      2.9687      0.3577     52.2625
  1400.5000      7.9763    -20.3575     31.2801      2.9859      0.3137     51.9536
  1400.6000      7.9763    -20.7544     30.9969      2.9924      0.2474     52.7467
  1400.7000      7.9763    -19.2156     30.7565      2.9671      0.1885     54.4385
