~Version Information
VERS.                      2.0: CWLS Log ASCII Standard - VERSION 2.0
WRAP.                       NO: One line per depth step
~Well Information Block
STRT.FT                 0.0000: 
STOP.FT              3428.7500: 
STEP.FT                 0.2500: 
NULL.                -999.2500: 
COMP.          Pioneer Natural Resources: COMPANY
WELL.          Cordillera 34-7: WELL
FLD.           Purgatorie River: FIELD
LOC.           598' FSL & 1770' FEL: LOCATION
PROV.                 Colorado: PROVINCE
CNTY.               Las Animas: COUNTRY
SRVC.                Patterson: SERVICE COMPANY
DATE.          Fri Nov 18 07:55:32 2005: LOG DATE
UWI.                          : UNIQUE WELL ID
~Curve Information Block
DEPT.FT            0 000 00 00: Depth
AMP3.mV                       : CBL 3' Amplitude
CCL.                          : Casing Collar Locator
GR.GAPI                       : Gamma Ray
TT3.usec                      : CBL 3' Travel Time
~Parameter Information Block
~A  Depth       AMP3        CCL          GR         TT3     
# ...
   435.5000      6.8067      0.0000     81.7836    796.5370
   435.7500      6.8312      0.0000     85.5832    796.5177
   436.0000      6.8694      0.0000     89.4142    796.5377
   436.2500      6.9094      0.0000     93.2663    796.5630
   436.5000      6.9437      0.0000     97.3850    796.5285
   436.7500      6.9691      0.0000    101.2316    796.3930
   437.0000      6.9831      0.0000    103.4420    796.1844
   437.2500      6.9845      0.0000    102.9375    795.9922
   437.5000      6.9772      0.0000    100.0128    795.9101
   437.7500      6.9689      0.0000     96.1356    795.9666
   438.0000      6.9642      0.0000     92.6687    796.1251
   438.2500      6.9593      0.0000     89.8694    796.3294
   438.5000      6.9395      0.0000     87.1081    796.7916
   438.7500      6.8735      0.0000     83.9250    798.4695
   439.0000      6.7256      0.0000     80.7186    803.8095
   439.2500      6.4995      0.0000     78.2365    816.8083
   439.5000      6.2631      0.0000     76.5791    841.2828
   439.7500      6.0917      0.0000     75.1780    878.3064
   440.0000      5.9901      0.0000     73.7156    925.8386
   440.2500      5.9101      0.0000     72.5647    980.3828
   440.5000      5.8307      0.0000     72.3064   1036.9695
   440.7500      5.7750      0.0000     73.3125   1088.2194
   441.0000      5.7670     -2.0000     76.0195   1126.9283
   441.2500      5.8135      0.0000     81.0939   1150.3375
   441.5000      5.9269      0.0000     88.6670   1160.1379
   441.7500      6.1488      0.0000     97.5207   1158.0269
   442.0000      6.5388      0.0000    105.6128   1141.8806
   442.2500      7.1102      0.0000    111.3829   1106.6532
   442.5000      7.7562      0.0000    114.1356   1050.2937
   442.7500      8.2710      0.0000    113.5758    979.8674
   443.0000      8.4952      0.0000    109.9974    910.9100
   443.2500      8.4371      0.0000    104.9660    858.7377
   443.5000      8.2354      0.0000    100.9023    829.7289
   443.7500      8.0300      0.0000     99.4617    820.4022
   444.0000      7.8860      0.0000    100.2399    823.7125
   444.2500      7.8037      0.0000    100.8540    836.3983
   444.5000      7.7567      0.0000     98.4357    861.7226
   444.7500      7.7191      0.0000     91.7386    905.0291
   445.0000      7.6802      0.0000     82.2488    964.9230
   445.2500      7.6476      0.0000     73.0224   1028.4502
   445.5000      7.6302      0.0000     66.3354   1076.9290
   445.7500      7.6181      0.0000     62.5675   1098.8154
   446.0000      7.5864      0.0000     60.8764   1098.2654
   446.2500      7.5216      0.0000     60.1440   1091.5946
   446.5000      7.4375      0.0000     59.2680   1094.3695
   446.7500      7.3623      0.0000     57.2994   1110.0887
   447.0000      7.3110      0.0000     53.8431   1130.0507
   447.2500      7.2717      0.0000     49.3916   1142.0488
   447.5000      7.2180      0.0000     45.1279   1137.9308
   447.7500      7.1324      0.0000     42.3062   1115.5637
   448.0000      7.0195      0.0000     41.7785   1077.8568
   448.2500      6.9004      0.0000     43.8418   1030.6576
   448.5000      6.7978      0.0000     48.0819    980.0212
   448.7500      6.7279      0.0000     53.2786    931.1155
   449.0000      6.7025      0.0000     57.9093    888.6332
   449.2500      6.7277      0.0000     61.0422    855.7698
   449.5000      6.7950      0.0000     62.6641    832.6097
   449.7500      6.8787      0.0000     63.1965    816.9975
   450.0000      6.9502      0.0000     63.0071    806.7855
   450.2500      6.9965      0.0000     62.4314    800.6052
   450.5000      7.0219      0.0000     61.9279    797.3318
   450.7500      7.0397      0.0000     61.8621    795.8282
   451.0000      7.0654      0.0000     62.1233    795.2296
   451.2500      7.1118      0.0000     62.2366    795.0864
   451.5000      7.1810      0.0000     61.8955    795.3832
   451.7500      7.2614      0.0000     61.2675    796.6132
   452.0000      7.3388      0.0000     60.8661    799.9082
   452.2500      7.4071      0.0000     61.2869    806.9802
   452.5000      7.4676      0.0000     63.0362    819.8911
   452.7500      7.5181      0.0000     66.2732    840.9119
   453.0000      7.5503      0.0000     70.3867    871.9580
   453.2500      7.5576      0.0000     73.9295    912.0071
   453.5000      7.5433      0.0000     75.4085    953.5764
   453.7500      7.5176      0.0000     74.4975    984.4801
   454.0000      7.4860      0.0000     72.3639    997.5576
   454.2500      7.4430      0.0000     70.4841    997.2993
   454.5000      7.3798      0.0000     69.2890    991.6639
   454.7500      7.3010      0.0000     68.2739    979.5764
   455.0000      7.2290      0.0000     67.0505    954.1733
   455.2500      7.1867      0.0000     65.6735    917.9370
   455.5000      7.1808      0.0000     64.1441    886.1008
   455.7500      7.2055      0.0000     62.2278    871.8670
   456.0000      7.2594      0.0000     59.9809    872.4303
   456.2500      7.3508      0.0000     58.1921    872.7547
   456.5000      7.4853      0.0000     57.8977    861.9384
   456.7500      7.6525      0.0000     59.1840    843.6102
   457.0000      7.8264      0.0000     60.6639    831.3457
   457.2500      7.9798      0.0000     60.6056    837.3393
   457.5000      8.1005      0.0000     58.7182    864.1484
   457.7500      8.1934      0.0000     56.5459    901.0955
   458.0000      8.2659      0.0000     56.1472    927.5925
   458.2500      8.3161      0.0000     58.6855    926.4669
   458.5000      8.3421      0.0000     64.0538    897.9387
   458.7500      8.3565      0.0000     71.1585    858.4557
   459.0000      8.3775      0.0000     78.2711    825.5167
   459.2500      8.4029      0.0000     83.4192    806.0422
   459.5000      8.4063      0.0000     85.1158    797.4122
   459.7500      8.3599      0.0000     83.2071    794.4168
   460.0000      8.2568      0.0000     78.9966    793.5244
   460.2500      8.1147      0.0000     74.2222    793.2487
   460.5000      7.9645      0.0000     69.8617    793.1730
   460.7500      7.8353      0.0000     66.0076    793.2057
   461.0000      7.7439      0.0000     62.6913    793.3034
   461.2500      7.6905      0.0000     60.5199    793.4301
   461.5000      7.6631      0.0000     60.4242    793.5501
   461.7500      7.6482      0.0000     62.5647    793.6331
   462.0000      7.6396      0.0000     65.4212    793.6631
   462.2500      7.6362      0.0000     66.5189    793.6547
   462.5000      7.6357      0.0000     64.5966    793.6496
   462.7500      7.6334      0.0000     60.7999    793.6850
   463.0000      7.6265      0.0000     57.5214    793.7626
   463.2500      7.6159      0.0000     56.4187    793.8537
   463.5000      7.6020      0.0000     57.5822    793.9303
   463.7500      7.5848      0.0000     59.8933    793.9901
   464.0000      7.5687      0.0000     61.8183    794.0562
   464.2500      7.5641      0.0000     62.3038    794.1663
   464.5000      7.5802      0.0000     61.3665    794.3504
   464.7500      7.6167      0.0000     59.9163    794.6000
   465.0000      7.6651      0.0000     58.9524    794.8475
   465.2500      7.7175      0.0000     58.8953    794.9897
   465.5000      7.7715      0.0000     59.6314    794.9465
   465.7500      7.8284      0.0000     61.0061    794.7007
   466.0000      7.8896      0.0000     62.9162    794.2957
   466.2500      7.9570      0.0000     64.8556    793.8086
   466.5000      8.0342      0.0000     65.8772    793.3173
   466.7500      8.1253      0.0000     65.2770    792.8670
   467.0000      8.2292      0.0000     63.0631    792.4550
   467.2500      8.3340      0.0000     59.7924    792.0231
   467.5000      8.4225      0.0000     56.4075    791.4283
   467.7500      8.4824      0.0000     54.2246    790.4005
   468.0000      8.5122      0.0000     54.5582    788.6473
   468.2500      8.5159      0.0000     57.9473    786.2471
   468.5000      8.4953      0.0000     63.5410    784.0201
   468.7500      8.4489      0.0000     69.0921    783.1915
