~Version Information
VERS.                      2.0: CWLS Log ASCII Standard - VERSION 2.0
WRAP.                       NO: One line per depth step
~Well Information Block
STRT.FT               880.0000: 
STOP.FT              1996.5000: 
STEP.FT                 0.1000: 
NULL.                -999.2500: 
COMP.          Petrogulf Corporation: COMPANY
WELL.          Collister 17-31R: WELL
FLD.           Purgatorie River: FIELD
LOC.           962' FNL & 1520' FEL: LOCATION
PROV.                 Colorado: PROVINCE
CNTY.               Las Animas: COUNTRY
SRVC.                Patterson: SERVICE COMPANY
DATE.          Mon Sep 26 09:28:52 2005: LOG DATE
UWI.                          : UNIQUE WELL ID
~Curve Information Block
DEPT.FT            0 000 00 00: Depth
DCAL.in                       : CDL Caliper
RHOB.g/cc                     : CDL Bulk Density
RHOC.g/cc                     : CDL Density Correction
DPOR.pu                       : CDL Density Porosity
GR.GAPI                       : Gamma Ray
NPOR.pu                       : Neutron Porosity
~Parameter Information Block
~A  Depth       DCAL        RHOB        RHOC        DPOR         GR         NPOR    
# ...
  1398.4000      7.7883      2.7871      0.0403     -8.3074    117.5877     23.1267
  1398.5000      7.8000      2.7010     -0.0034     -3.0906    115.5794     23.1352
  1398.6000      7.8000      2.6095     -0.0667      2.4558    119.7752     23.2716
  1398.7000      7.8000      2.5417     -0.1241      6.5652    129.3593     23.6922
  1398.8000      7.8029      2.5021     -0.0635      8.9654    139.5622     24.3765
  1398.9000      7.8029      2.4735     -0.0378     10.6984    148.8327     25.0296
  1399.0000      7.8408      2.4586     -0.0233     11.5972    158.6052     25.5880
  1399.1000      7.8408      2.4759      0.0510     10.5542    166.6021     26.1089
  1399.2000      7.8408      2.5155      0.1496      8.1531    170.7736     26.3150
  1399.3000      7.9092      2.5518      0.1934      5.9523    172.5061     26.3910
  1399.4000      7.9092      2.5771      0.2003      4.4153    170.9773     26.9164
  1399.5000      7.9325      2.5921      0.2279      3.5102    167.0948     27.7786
  1399.6000      7.9325      2.5929      0.1974      3.4601    164.4736     28.3472
  1399.7000      7.9325      2.5840      0.1486      3.9974    164.0708     28.5083
  1399.8000      7.8663      2.5765      0.1263      4.4547    162.8314     28.6203
  1399.9000      7.8663      2.5719      0.1255      4.7360    160.0993     28.6978
  1400.0000      7.8823      2.5595      0.1322      5.4826    160.0964     28.6089
  1400.1000      7.8823      2.5442      0.0174      6.4122    163.7364     28.4686
  1400.2000      7.8823      2.5509      0.0349      6.0068    166.9597     28.2190
  1400.3000      7.9122      2.5776      0.0798      4.3861    165.9378     27.6804
  1400.4000      7.9122      2.5953      0.0689      3.3169    161.2004     27.2576
  1400.5000      7.8359      2.5942      0.0771      3.3837    156.9990     27.4015
  1400.6000      7.8359      2.5930      0.0835      3.4526    157.1010     27.7564
  1400.7000      7.8359      2.6061      0.1229      2.6631    161.7162     27.7868
  1400.8000      7.8329      2.6172      0.1508      1.9876    165.3483     27.5164
  1400.9000      7.8329      2.6042      0.1245      2.7785    163.7478     27.2416
  1401.0000      7.8247      2.5758      0.0795      4.4975    160.7678     26.9818
  1401.1000      7.8247      2.5630      0.0397      5.2752    159.7222     26.5450
  1401.2000      7.8247      2.5719      0.0763      4.7335    158.9514     25.9571
  1401.3000      7.8240      2.5821      0.0382      4.1169    158.8789     25.5694
  1401.4000      7.8240      2.5858      0.0462      3.8915    162.1275     25.7039
  1401.5000      7.8892      2.5868      0.0738      3.8281    167.4980     26.2127
  1401.6000      7.8892      2.5821      0.0658      4.1146    170.4786     26.6986
  1401.7000      7.8892      2.5713      0.0428      4.7710    169.8922     27.1300
  1401.8000      7.9128      2.5655      0.0396      5.1182    169.1074     27.4357
  1401.9000      7.9128      2.5724      0.0789      4.7041    171.4768     27.4413
  1402.0000      7.9080      2.5805      0.0693      4.2106    176.8231     27.3570
  1402.1000      7.9080      2.5730      0.0731      4.6670    178.7031     27.3255
  1402.2000      7.9080      2.5505      0.0086      6.0283    172.6568     27.2234
  1402.3000      7.8909      2.5253      0.0272      7.5591    166.6248     27.2549
  1402.4000      7.8909      2.5031     -0.0146      8.9043    167.2448     27.6402
  1402.5000      7.9199      2.4826      0.0658     10.1481    170.7788     28.0059
  1402.6000      7.9199      2.4603      0.0027     11.4970    172.6720     28.0140
  1402.7000      7.9199      2.4425     -0.0083     12.5742    171.2231     27.7220
  1402.8000      7.9298      2.4414     -0.0301     12.6420    165.3100     27.4893
  1402.9000      7.9298      2.4587      0.0067     11.5960    159.2152     27.5879
  1403.0000      7.9339      2.4799      0.0456     10.3089    158.4873     27.9076
  1403.1000      7.9339      2.4945      0.0812      9.4231    161.1569     28.2430
  1403.2000      7.9339      2.5025      0.1130      8.9398    164.6430     28.4369
  1403.3000      7.9302      2.4955      0.1407      9.3661    168.3407     28.4646
  1403.4000      7.9302      2.4634      0.1368     11.3062    170.1303     28.4212
  1403.5000      7.9368      2.4125      0.0807     14.3924    167.4574     28.4674
  1403.6000      7.9368      2.3543      0.0751     17.9198    161.6387     28.8895
  1403.7000      7.9368      2.2959      0.0333     21.4618    159.4311     29.5840
  1403.8000      7.9503      2.2424      0.0286     24.7029    162.9753     30.0454
  1403.9000      7.9503      2.1900      0.0182     27.8779    163.8884     30.2206
  1404.0000      7.9791      2.1357      0.0023     31.1715    157.8257     30.3628
  1404.1000      7.9791      2.0911     -0.0288     33.8746    152.6036     30.4703
  1404.2000      7.9791      2.0589      0.0587     35.8239    153.1795     30.5113
  1404.3000      7.9526      2.0217      0.0508     38.0793    153.3699     30.6464
  1404.4000      7.9526      1.9728      0.0179     41.0428    149.5971     30.8375
  1404.5000      7.9579      1.9138      0.0107     44.6176    146.2291     31.0773
  1404.6000      7.9579      1.8394     -0.0174     49.1266    142.4167     31.5400
  1404.7000      7.9579      1.7597     -0.1244     53.9586    135.2038     32.0591
  1404.8000      7.9598      1.7012     -0.0819     57.5012    129.0765     32.3479
  1404.9000      7.9598      1.6701      0.0024     59.3866    127.8842     32.3406
  1405.0000      7.9505      1.6536     -0.0240     60.3860    126.4916     32.2633
  1405.1000      7.9505      1.6488     -0.0237     60.6807    119.1182     32.5477
  1405.2000      7.9505      1.6556      0.0213     60.2690    108.4622     33.2064
  1405.3000      7.9541      1.6732      0.0130     59.2002    100.4628     33.7214
  1405.4000      7.9541      1.7155      0.0046     56.6366     94.7125     33.7944
  1405.5000      7.9543      1.7954      0.0882     51.7948     88.8324     33.6664
  1405.6000      7.9543      1.8996      0.1550     45.4799     88.0348     33.5144
  1405.7000      7.9543      2.0093      0.1470     38.8323     93.6990     33.3456
  1405.8000      7.9566      2.1249      0.1854     31.8253     99.2975     33.2881
  1405.9000      7.9566      2.2521      0.1976     24.1123    104.1920     33.2654
  1406.0000      7.9438      2.3811      0.1940     16.2999    111.6284     33.0079
  1406.1000      7.9438      2.4845      0.2307     10.0302    117.1789     32.4979
  1406.2000      7.9438      2.5435      0.1544      6.4541    117.2281     31.8795
  1406.3000      7.9315      2.5649      0.0901      5.1600    116.9944     31.3407
  1406.4000      7.9315      2.5634      0.0813      5.2489    119.9635     30.8774
  1406.5000      7.9057      2.5485      0.0912      6.1512    123.0909     30.3305
  1406.6000      7.9057      2.5315      0.0061      7.1847    124.1642     29.7278
  1406.7000      7.9057      2.5232      0.0311      7.6876    123.3530     29.1636
  1406.8000      7.9037      2.5241      0.0228      7.6311    119.8502     28.8699
  1406.9000      7.9037      2.5338      0.0092      7.0428    115.0481     28.8790
  1407.0000      7.9142      2.5494      0.0673      6.0996    114.4025     28.7951
  1407.1000      7.9142      2.5560      0.0941      5.6981    118.6111     28.5055
  1407.2000      7.9142      2.5501      0.0658      6.0564    121.7818     28.3685
  1407.3000      7.9187      2.5468      0.0900      6.2547    121.8304     28.4411
  1407.4000      7.9187      2.5530      0.0689      5.8818    120.9980     28.3327
  1407.5000      7.9326      2.5621      0.0849      5.3282    119.1309     28.0837
  1407.6000      7.9326      2.5632      0.1214      5.2620    116.8277     27.9599
  1407.7000      7.9326      2.5530      0.0614      5.8794    117.9101     27.7925
  1407.8000      7.9211      2.5433      0.0754      6.4662    123.3610     27.5262
  1407.9000      7.9211      2.5429      0.0308      6.4902    126.7878     27.3814
