~Version Information
VERS.                      2.0: CWLS Log ASCII Standard - VERSION 2.0
WRAP.                       NO: One line per depth step
~Well Information Block
STRT.FT                14.0000: 
STOP.FT              1631.0000: 
STEP.FT                 0.1000: 
NULL.                -999.2500: 
COMP.          Pioneer Natural Resources: COMPANY
WELL.            Bluesky 44-17: WELL
FLD.           Purgatorie River: FIELD
LOC.           39' FSL & 288' FEL: LOCATION
STAT.                 Colorado: State
CNTY.               Las Animas: COUNTY
CTRY. USA : Country
SECT. 17 : Section
TOWN. 33S : Township
RANG. 66W : Range
SRVC.                Patterson: SERVICE COMPANY
DATE.          Thu Sep 08 07:30:20 2005: LOG DATE
API. 05-071-08511                         : UNIQUE WELL ID
~Curve Information Block
DEPT.FT            0 000 00 00: Depth
DCAL.in                       : CDL Caliper
RHOB.g/cc                     : CDL Bulk Density
RHOC.g/cc                     : CDL Density Correction
DPOR.pu                       : CDL Density Porosity
GR.GAPI                       : Gamma Ray
NPOR.pu                       : Neutron Porosity
~Parameter Information Block
~A  Depth       DCAL        RHOB        RHOC        DPOR         GR         NPOR    
# ...
   964.4000      7.8188      2.6075      0.1350      2.5773    136.7311     26.1187
   964.5000      7.8520      2.5663      0.0769      5.0752    138.7780     25.5216
   964.6000      7.8520      2.5263      0.0681      7.4970    138.9079     25.1332
   964.7000      7.8520      2.5038      0.0332      8.8591    136.2003     24.9875
   964.8000      7.8332      2.5130      0.0338      8.3028    133.6195     24.9946
   964.9000      7.8332      2.5526      0.0750      5.9045    133.1325     25.2263
   965.0000      7.8389      2.6022      0.1299      2.8964    132.5728     25.5108
   965.1000      7.8389      2.6321      0.1727      1.0841    130.2715     25.7083
   965.2000      7.8389      2.6246      0.1385      1.5380    127.2952     25.9278
   965.3000      7.8449      2.5919      0.1085      3.5196    124.5544     26.0659
   965.4000      7.8449      2.5598      0.0929      5.4641    123.0310     25.9889
   965.5000      7.8414      2.5394      0.0791      6.7039    123.6651     25.9513
   965.6000      7.8414      2.5221      0.0842      7.7491    126.0462     26.0395
   965.7000      7.8414      2.5059      0.0076      8.7352    129.4009     25.8022
   965.8000      7.8808      2.5049      0.0023      8.7926    133.4925     25.1333
   965.9000      7.8808      2.5264      0.0236      7.4907    137.8553     24.4847
   966.0000      7.8629      2.5642      0.0761      5.1996    142.8851     24.1118
   966.1000      7.8629      2.6051      0.1827      2.7242    148.1429     23.9991
   966.2000      7.8629      2.6271      0.2761      1.3897    152.6940     24.2419
   966.3000      7.8825      2.6234      0.2165      1.6110    157.8194     24.8807
   966.4000      7.8825      2.6170      0.2130      1.9980    162.1923     25.4178
   966.5000      7.8996      2.6165      0.2604      2.0295    162.6312     25.4373
   966.6000      7.8996      2.6060      0.2165      2.6687    159.7389     25.3822
   966.7000      7.8996      2.5890      0.1787      3.6970    154.9281     25.5137
   966.8000      7.9236      2.5824      0.1312      4.0955    149.4236     25.5670
   966.9000      7.9236      2.5859      0.1034      3.8876    145.9593     25.6039
   967.0000      7.9409      2.5859      0.1170      3.8846    144.6435     25.9902
   967.1000      7.9409      2.5803      0.0459      4.2264    143.2119     26.7331
   967.2000      7.9409      2.5847      0.0563      3.9600    141.2711     27.2692
   967.3000      7.9620      2.6035      0.0968      2.8205    138.9715     27.2520
   967.4000      7.9620      2.6230      0.0831      1.6334    135.6308     26.9671
   967.5000      7.9894      2.6349      0.0743      0.9157    132.4774     26.8275
   967.6000      7.9894      2.6332      0.0817      1.0198    130.4017     27.0000
   967.7000      7.9894      2.6133      0.0347      2.2215    129.0202     27.1903
   967.8000      7.9677      2.5904     -0.0025      3.6149    128.6856     27.0862
   967.9000      7.9677      2.5846      0.0094      3.9614    129.0392     26.7803
   968.0000      7.9754      2.5954      0.0120      3.3063    128.8201     26.4174
   968.1000      7.9754      2.6086     -0.0005      2.5062    127.7384     26.2425
   968.2000      7.9754      2.6107      0.0392      2.3803    126.8315     26.4428
   968.3000      7.9894      2.5972      0.0244      3.2010    126.0021     26.6782
   968.4000      7.9894      2.5768     -0.0017      4.4343    125.0380     26.6092
   968.5000      7.9763      2.5637     -0.0092      5.2314    124.5572     26.4480
   968.6000      7.9763      2.5684     -0.0270      4.9456    123.9165     26.4285
   968.7000      7.9763      2.5872      0.0169      3.8063    123.7096     26.3356
   968.8000      7.9530      2.6058     -0.0065      2.6775    124.2760     25.9927
   968.9000      7.9530      2.6200      0.0321      1.8156    124.2149     25.7836
   969.0000      7.9361      2.6306      0.0761      1.1742    123.4512     26.0956
   969.1000      7.9361      2.6321      0.0521      1.0824    123.8258     26.5894
   969.2000      7.9361      2.6237      0.0445      1.5921    125.9206     26.6515
   969.3000      7.9360      2.6105      0.0402      2.3967    128.0627     26.3579
   969.4000      7.9360      2.5880      0.0654      3.7560    130.0354     26.1205
   969.5000      7.9336      2.5520      0.0081      5.9372    130.8344     25.9658
   969.6000      7.9336      2.5190     -0.0348      7.9386    129.2524     25.8289
   969.7000      7.9336      2.5054     -0.0056      8.7633    128.3371     25.7460
   969.8000      7.9299      2.5001      0.0212      9.0867    130.3441     25.6421
   969.9000      7.9299      2.4886     -0.0219      9.7813    134.7351     25.5598
   970.0000      7.9327      2.4764     -0.0277     10.5194    140.8923     25.6543
   970.1000      7.9327      2.4678     -0.0035     11.0421    148.1199     25.8903
   970.2000      7.9327      2.4597      0.0461     11.5311    153.6158     26.0267
   970.3000      7.9224      2.4622      0.0087     11.3809    155.0657     25.8090
   970.4000      7.9224      2.4868      0.1507      9.8937    154.6095     25.3148
   970.5000      7.9369      2.5257      0.1408      7.5338    154.9177     25.0343
   970.6000      7.9369      2.5693      0.1864      4.8900    155.0746     25.2113
   970.7000      7.9369      2.6069      0.2227      2.6124    155.2729     25.5179
   970.8000      7.9239      2.6229      0.2388      1.6405    158.9987     25.6988
   970.9000      7.9239      2.6130      0.2252      2.2446    164.6192     25.8490
   971.0000      7.9365      2.5921      0.1810      3.5083    167.4883     26.0017
   971.1000      7.9365      2.5798      0.1487      4.2534    167.2746     26.0887
   971.2000      7.9365      2.5778      0.1549      4.3777    165.4471     26.1857
   971.3000      7.9367      2.5726      0.1258      4.6905    161.8013     26.3536
   971.4000      7.9367      2.5569      0.1285      5.6436    158.2959     26.3819
   971.5000      7.9517      2.5401      0.0809      6.6603    158.5497     26.2399
   971.6000      7.9517      2.5359      0.0761      6.9130    159.6840     26.1324
   971.7000      7.9517      2.5404      0.0988      6.6396    158.8924     26.0642
   971.8000      7.9485      2.5408      0.1244      6.6178    161.8911     25.9171
   971.9000      7.9485      2.5336      0.1292      7.0525    169.7672     25.6935
   972.0000      7.9609      2.5240      0.1800      7.6343    175.5894     25.5454
   972.1000      7.9609      2.5197      0.1111      7.8962    178.1026     25.6683
   972.2000      7.9609      2.5210      0.1583      7.8181    180.4210     26.0382
   972.3000      7.9618      2.5202      0.1361      7.8680    182.2116     26.4316
   972.4000      7.9618      2.5180      0.1283      7.9987    180.1543     26.5731
   972.5000      7.9628      2.5204      0.1186      7.8557    175.1158     26.3613
   972.6000      7.9628      2.5339      0.1268      7.0388    171.5913     26.0435
   972.7000      7.9628      2.5566      0.1706      5.6619    170.2509     25.9563
   972.8000      7.9653      2.5677      0.2002      4.9871    171.7949     26.1622
   972.9000      7.9653      2.5572      0.1245      5.6236    176.5995     26.3956
   973.0000      7.9726      2.5378      0.1667      6.7982    179.4473     26.4153
   973.1000      7.9726      2.5206      0.1348      7.8454    176.6395     26.3339
   973.2000      7.9726      2.5124      0.1089      8.3397    171.0959     26.4479
   973.3000      7.9564      2.5243      0.1095      7.6205    168.5590     26.6392
   973.4000      7.9564      2.5603      0.1849      5.4355    171.4859     26.5429
   973.5000      7.9453      2.5975      0.2196      3.1836    175.4123     26.3478
   973.6000      7.9453      2.6062      0.1960      2.6576    175.7815     26.2369
   973.7000      7.9453      2.5911      0.1430      3.5687    172.1147     26.0310
   973.8000      7.9901      2.5720      0.1147      4.7254    166.9144     25.8888
   973.9000      7.9901      2.5503      0.1127      6.0407    164.8160     26.0772
