~Version Information
VERS.                      2.0: CWLS Log ASCII Standard - VERSION 2.0
WRAP.                       NO: One line per depth step
~Well Information Block
STRT.FT               742.7000: 
STOP.FT              1614.5000: 
STEP.FT                 0.1000: 
NULL.                -999.2500: 
COMP.          Pioneer Natural Resources: COMPANY
WELL.           Kermit 32-7 Tr: WELL
FLD.           Purgatoire River: FIELD
LOC.           2009' FNL & 2196' FEL: LOCATION
PROV.                 Colorado: PROVINCE
CNTY.               Las Animas: COUNTRY
SRVC.                Patterson: SERVICE COMPANY
DATE.          Mon Jan 16 13:19:56 2006: LOG DATE
UWI.           05 071 08664 00: UNIQUE WELL ID
~Curve Information Block
DEPT.FT            0 000 00 00: Depth
DCAL.in                       : CDL Caliper
RHOB.g/cc                     : CDL Bulk Density
RHOC.g/cc                     : CDL Density Correction
DPOR.pu                       : CDL Density Porosity
GR.GAPI                       : Gamma Ray
~Parameter Information Block
~A  Depth       DCAL        RHOB        RHOC        DPOR         GR     
# ...
  1605.1000      7.7657      2.5696      0.1049      4.8718   -999.2500
  1605.2000      7.7657      2.5492      0.0319      6.1119   -999.2500
  1605.3000      7.7874      2.5444      0.0568      6.3979   -999.2500
  1605.4000      7.7874      2.5586      0.0529      5.5419   -999.2500
  1605.5000      7.8175      2.5836      0.1158      4.0224   -999.2500
  1605.6000      7.8175      2.6085      0.1284      2.5126   -999.2500
  1605.7000      7.8175      2.6227      0.1709      1.6559   -999.2500
  1605.8000      7.8326      2.6218      0.1215      1.7071   -999.2500
  1605.9000      7.8326      2.6107      0.1062      2.3799   -999.2500
  1606.0000      7.9317      2.5901      0.0857      3.6327   -999.2500
  1606.1000      7.9317      2.5562      0.0588      5.6861   -999.2500
  1606.2000      7.9317      2.5141      0.0023      8.2385   -999.2500
  1606.3000      7.8879      2.4720      0.0127     10.7907   -999.2500
  1606.4000      7.8879      2.4400     -0.0546     12.7280   -999.2500
  1606.5000      7.8424      2.4307     -0.0291     13.2928   -999.2500
  1606.6000      7.8424      2.4453      0.0094     12.4064   -999.2500
  1606.7000      7.8424      2.4818      0.0231     10.1952   -999.2500
  1606.8000      7.8322      2.5355      0.0837      6.9393   -999.2500
  1606.9000      7.8322      2.5863      0.1164      3.8585   -999.2500
  1607.0000      7.8123      2.6145      0.1589      2.1542   -999.2500
  1607.1000      7.8123      2.6204      0.1981      1.7927   -999.2500
  1607.2000      7.8123      2.6157      0.1599      2.0809   -999.2500
  1607.3000      7.8154      2.6026      0.1734      2.8741   -999.2500
  1607.4000      7.8154      2.5751      0.1436      4.5365   -999.2500
  1607.5000      7.7960      2.5449      0.0585      6.3710   -999.2500
  1607.6000      7.7960      2.5333      0.0490      7.0726   -999.2500
  1607.7000      7.7960      2.5381      0.0488      6.7845   -999.2500
  1607.8000      7.8007      2.5508      0.0232      6.0111   -999.2500
  1607.9000      7.8007      2.5752      0.0411      4.5353   -999.2500
  1608.0000      7.7979      2.6024      0.1290      2.8821   -999.2500
  1608.1000      7.7979      2.6175      0.1469      1.9700   -999.2500
  1608.2000      7.7979      2.6263      0.2212      1.4391   -999.2500
  1608.3000      7.8007      2.6402      0.2039      0.5911   -999.2500
  1608.4000      7.8007      2.6538      0.2054     -0.2274   -999.2500
  1608.5000      7.7260      2.6581      0.1374     -0.4888   -999.2500
  1608.6000      7.7260      2.6625      0.1542     -0.7595   -999.2500
  1608.7000      7.7260      2.6743      0.0975     -1.4714   -999.2500
  1608.8000      7.7196      2.6796      0.1144     -1.7919   -999.2500
  1608.9000      7.7196      2.6680      0.0381     -1.0928   -999.2500
  1609.0000      7.8150      2.6519      0.0229     -0.1181   -999.2500
  1609.1000      7.8150      2.6436      0.0197      0.3902   -999.2500
  1609.2000      7.8150      2.6352      0.0781      0.8967   -999.2500
  1609.3000      7.7943      2.6135      0.0210      2.2104   -999.2500
  1609.4000      7.7943      2.5744      0.0515      4.5791   -999.2500
  1609.5000      7.6929      2.5280      0.0279      7.3938   -999.2500
  1609.6000      7.6929      2.4975     -0.0109      9.2420   -999.2500
  1609.7000      7.6929      2.4963      0.0056      9.3151   -999.2500
  1609.8000      7.4766      2.5125      0.0344      8.3334   -999.2500
  1609.9000      7.4766      2.5303      0.0437      7.2554   -999.2500
  1610.0000      7.1063      2.5534      0.0710      5.8534   -999.2500
  1610.1000      7.1063      2.5905      0.1299      3.6077   -999.2500
  1610.2000      7.1063      2.6293      0.1655      1.2564   -999.2500
  1610.3000      7.0457      2.6494      0.1820      0.0354   -999.2500
  1610.4000      7.0457      2.6431      0.1908      0.4157   -999.2500
  1610.5000      7.0415      2.6201      0.1653      1.8139   -999.2500
  1610.6000      7.0415      2.6085      0.0949      2.5124   -999.2500
  1610.7000      7.0415      2.6305      0.1539      1.1814   -999.2500
  1610.8000      7.0409      2.6891      0.2139     -2.3725   -999.2500
  1610.9000      7.0409      2.7977      0.1827     -8.9491   -999.2500
  1611.0000      7.0422      2.8292      0.2272    -10.8596   -999.2500
  1611.1000      7.0422      2.3577      0.6266     17.7135   -999.2500
  1611.2000      7.0422      1.3335     -0.0300     79.7855   -999.2500
  1611.3000      7.0441      0.4510     -0.0300    133.2755   -999.2500
  1611.4000      7.0441      0.0855   -999.2500    155.4248   -999.2500
  1611.5000      6.7444      0.0088   -999.2500    160.0725   -999.2500
  1611.6000      6.7444      0.0005   -999.2500    160.5771   -999.2500
  1611.7000      6.7444      0.0000   -999.2500    160.6061   -999.2500
  1611.8000      4.5843      0.0000   -999.2500    160.6061   -999.2500
  1611.9000      4.5843   -999.2500   -999.2500   -999.2500   -999.2500
  1612.0000      4.2921   -999.2500   -999.2500   -999.2500   -999.2500
  1612.1000      4.2921   -999.2500   -999.2500   -999.2500   -999.2500
  1612.2000      4.2921   -999.2500   -999.2500   -999.2500   -999.2500
  1612.3000   -999.2500   -999.2500   -999.2500   -999.2500   -999.2500
  1612.4000   -999.2500   -999.2500   -999.2500   -999.2500   -999.2500
  1612.5000   -999.2500   -999.2500   -999.2500   -999.2500   -999.2500
  1612.6000   -999.2500   -999.2500   -999.2500   -999.2500   -999.2500
  1612.7000   -999.2500   -999.2500   -999.2500   -999.2500   -999.2500
  1612.8000   -999.2500   -999.2500   -999.2500   -999.2500   -999.2500
  1612.9000   -999.2500   -999.2500   -999.2500   -999.2500   -999.2500
  1613.0000   -999.2500   -999.2500   -999.2500   -999.2500   -999.2500
  1613.1000   -999.2500   -999.2500   -999.2500   -999.2500   -999.2500
  1613.2000   -999.2500   -999.2500   -999.2500   -999.2500   -999.2500
  1613.3000   -999.2500   -999.2500   -999.2500   -999.2500   -999.2500
  1613.4000   -999.2500   -999.2500   -999.2500   -999.2500   -999.2500
  1613.5000   -999.2500   -999.2500   -999.2500   -999.2500   -999.2500
  1613.6000   -999.2500   -999.2500   -999.2500   -999.2500   -999.2500
  1613.7000   -999.2500   -999.2500   -999.2500   -999.2500   -999.2500
  1613.8000   -999.2500   -999.2500   -999.2500   -999.2500   -999.2500
  1613.9000   -999.2500   -999.2500   -999.2500   -999.2500   -999.2500
  1614.0000   -999.2500   -999.2500   -999.2500   -999.2500   -999.2500
  1614.1000   -999.2500   -999.2500   -999.2500   -999.2500   -999.2500
  1614.2000   -999.2500   -999.2500   -999.2500   -999.2500   -999.2500
  1614.3000   -999.2500   -999.2500   -999.2500   -999.2500   -999.2500
  1614.4000   -999.2500   -999.2500   -999.2500   -999.2500   -999.2500
  1614.5000   -999.2500   -999.2500   -999.2500   -999.2500   -999.2500
