~Version Information
 VERS.                                  2.0 : CWLS LAS VERSION
 WRAP.                                   NO : WRAPING MODE
 SWARE .                 MController 2.5.0J : SOFTWARE VERSION
~Well Information
 WELL.                        Montoya 7-14R : WELL
 COMP.                Petrogulf Corporation : COMPANY
 FLD.                      Purgatoire River : FIELD
 LOC.                 SW/SW Sec 7 T33S R67W : LOCATION
 DATE.                            10/7-8/05 : DATE(S) LOGGED
 SRVC.       BLANCO Geological Services LLC : SERVICE COMPANY
 STAT.                                   CO : STATE
 CNTY.                           Las Animas : COUNTY
 CTRY.                                  USA : COUNTRY
 API.                       05-071-08554-00 : API NUMBER
 STRT.FT                             769.00 : START DEPTH
 STOP.FT                            1960.00 : STOP DEPTH
 STEP.FT                               1.00 : DEPTH INCREMENT
 NULL.                                -9999 : NULL VALUE
~Curve information
 DEPTH.FT                                   :
 ROP.MIN/FT                                 :
 GAS.UNITS                                  :
~ASCII Log data
# ...
       969.0         0.13          0.9 
       970.0         0.20          1.0 
       971.0         0.20          1.1 
       972.0         0.23          1.3 
       973.0         0.17          0.9 
       974.0         0.23          1.2 
       975.0         0.20          1.1 
       976.0         0.20          1.4 
       977.0         0.17          1.6 
       978.0         0.17          1.4 
       979.0         0.20          1.5 
       980.0         0.17          1.5 
       981.0         0.22          1.6 
       982.0         0.20          1.7 
       983.0         0.20          1.5 
       984.0         0.23          1.6 
       985.0         0.20          1.9 
       986.0         0.23          1.6 
       987.0         0.17          1.7 
       988.0         0.17          1.9 
       989.0         0.20          1.7 
       990.0         2.45        146.1 
       991.0         0.37          8.6 
       992.0         0.30          2.8 
       993.0         0.30          1.6 
       994.0         0.30          1.2 
       995.0         0.30          1.3 
       996.0         0.23          1.3 
       997.0         0.23          1.1 
       998.0         0.20          1.2 
       999.0         0.23          1.3 
      1000.0         0.25          1.5 
      1001.0         0.17          1.6 
      1002.0         0.23          1.5 
      1003.0         0.23          1.4 
      1004.0         0.27          1.5 
      1005.0         0.27          1.8 
      1006.0         0.20          1.7 
      1007.0         0.30          2.3 
      1008.0         0.20          2.1 
      1009.0         0.20          1.9 
      1010.0         0.20          1.8 
      1011.0         0.23          1.8 
      1012.0         0.23          2.1 
      1013.0         0.23          2.1 
      1014.0         0.22          2.4 
      1015.0         0.40          2.4 
      1016.0         0.23          2.1 
      1017.0         0.23          2.3 
      1018.0         0.20          2.1 
      1019.0         0.20          2.2 
      1020.0         2.58        280.6 
      1021.0         0.13         14.0 
      1022.0         0.23         10.3 
      1023.0         0.23          6.2 
      1024.0         0.20          3.6 
      1025.0         0.20          2.7 
      1026.0         0.20          2.3 
      1027.0         0.13          2.3 
      1028.0         0.20          2.0 
      1029.0         0.25          1.9 
      1030.0         0.23          2.1 
      1031.0         0.27          2.1 
      1032.0         0.27          2.2 
      1033.0         0.23          2.4 
      1034.0         0.17          2.7 
      1035.0         0.17          2.9 
      1036.0         0.17          2.7 
      1037.0         0.30          3.1 
      1038.0         0.27          2.6 
      1039.0         0.23          3.1 
      1040.0         0.23          2.7 
      1041.0         0.23          2.6 
      1042.0         0.28          3.2 
      1043.0         0.23          2.9 
      1044.0         0.23          3.2 
      1045.0         0.27          3.1 
      1046.0         0.23          3.0 
      1047.0         0.27          3.2 
      1048.0         0.23          3.3 
      1049.0         0.33          3.1 
      1050.0         2.22        337.7 
      1051.0         0.30         52.1 
      1052.0         0.27         26.2 
      1053.0         0.30         13.1 
      1054.0         0.27          6.6 
      1055.0         0.37          3.7 
      1056.0         0.20          3.0 
      1057.0         0.17          2.9 
      1058.0         0.30          2.2 
      1059.0         0.28          1.8 
      1060.0         0.27          1.6 
      1061.0         0.27          1.7 
      1062.0         0.27          1.8 
      1063.0         0.20          1.6 
      1064.0         0.23          1.7 
      1065.0         0.17          1.5 
      1066.0         0.23          1.8 
      1067.0         0.27          1.7 
      1068.0         0.23          1.6 
      1069.0         0.17          1.6 
      1070.0         0.20          1.5 
      1071.0         0.17          1.5 
      1072.0         0.20          1.7 
      1073.0         0.20          1.6 
      1074.0         0.22          1.9 
      1075.0         0.23          2.1 
      1076.0         0.23          1.9 
      1077.0         0.17          1.9 
      1078.0         0.20          1.8 
      1079.0         0.20          2.0 
      1080.0         1.73         25.4 
      1081.0         0.38         21.8 
      1082.0         0.37         10.9 
      1083.0         0.30          5.5 
      1084.0         0.33          3.1 
      1085.0         0.43          2.2 
      1086.0         0.43          2.1 
      1087.0         0.40          2.2 
      1088.0         0.40          2.1 
      1089.0         0.40          2.3 
      1090.0         0.38          2.3 
      1091.0         0.30          2.0 
      1092.0         0.33          2.2 
      1093.0         0.27          2.3 
      1094.0         0.23          2.3 
      1095.0         0.23          2.2 
      1096.0         0.27          2.1 
      1097.0         0.27          2.3 
      1098.0         0.27          2.4 
      1099.0         0.27          2.3 
      1100.0         0.23          2.4 
      1101.0         0.23          2.5 
      1102.0         0.25          2.5 
      1103.0         0.23          2.6 
      1104.0         0.30          2.5 
      1105.0         0.43          2.7 
      1106.0         0.30          2.7 
      1107.0         0.27          2.9 
      1108.0         0.23          2.6 
      1109.0         0.33          2.5 
      1110.0         1.65          9.2 
      1111.0         0.37          8.6 
      1112.0         0.40          6.2 
      1113.0         0.37          3.6 
      1114.0         0.30          2.9 
      1115.0         0.23          3.7 
      1116.0         0.13          3.9 
      1117.0         0.13          4.7 
      1118.0         0.10          5.1 
      1119.0         0.10          5.5 
      1120.0         0.13          6.5 
      1121.0         0.10          6.5 
      1122.0         0.10          6.5 
      1123.0         0.15          6.2 
      1124.0         0.27          6.0 
      1125.0         0.27          5.8 
      1126.0         0.30          5.1 
      1127.0         0.27          4.6 
      1128.0         0.27          4.4 
      1129.0         0.30          4.0 
      1130.0         0.30          3.7 
      1131.0         0.20          3.5 
      1132.0         0.23          3.7 
      1133.0         0.30          3.6 
      1134.0         0.23          3.3 
      1135.0         0.23          3.5 
      1136.0         0.28          3.4 
      1137.0         0.33          3.4 
      1138.0         0.37          3.3 
      1139.0         0.30          3.3 
      1140.0         3.82        121.1 
      1141.0         0.50         19.4 
      1142.0         0.37          7.9 
      1143.0         0.37          5.4 
      1144.0         0.38          4.3 
      1145.0         0.33          3.4 
      1146.0         0.33          2.9 
      1147.0         0.30          3.1 
      1148.0         0.30          2.8 
      1149.0         0.27          3.0 
      1150.0         0.27          3.4 
      1151.0         0.27          3.8 
      1152.0         0.20          4.4 
      1153.0         0.10          4.7 
      1154.0         0.07          4.4 
      1155.0         0.10          4.8 
      1156.0         0.10          4.9 
      1157.0         0.13          5.0 
      1158.0         0.17          5.2 
      1159.0         0.22          5.2 
      1160.0         0.17          4.9 
      1161.0         0.20          4.8 
      1162.0         0.13          4.4 
      1163.0         0.23          4.8 
      1164.0         0.23          4.5 
      1165.0         0.23          4.3 
      1166.0         0.20          4.5 
      1167.0         0.23          4.4 
      1168.0         0.27          4.0 
