~Version Information
VERS.                      2.0: CWLS Log ASCII Standard - VERSION 2.0
WRAP.                       NO: One line per depth step
~Well Information Block
STRT.FT               240.0000: 
STOP.FT              1185.5000: 
STEP.FT                 0.2500: 
NULL.                -999.2500: 
COMP.          Pioneer Natural Resources: COMPANY
WELL.          Whitecoat 14-36: WELL
FLD.           Purgatorie River: FIELD
LOC.           606' FSL & 260' FWL: LOCATION
PROV.                 Colorado: PROVINCE
CNTY.               Las Animas: COUNTRY
SRVC.                Patterson: SERVICE COMPANY
DATE.          Mon Dec 05 16:51:12 2005: LOG DATE
UWI.                          : UNIQUE WELL ID
~Curve Information Block
DEPT.FT            0 000 00 00: Depth
DIR.Ohm-m                     : IEL Induction Resistivity
GR.GAPI                       : Gamma Ray
~Parameter Information Block
~A  Depth       DIR          GR     
# ...
   741.7500     13.8418    143.9705
   742.0000     13.7580    155.2885
   742.2500     13.6717    161.8886
   742.5000     13.5987    169.0018
   742.7500     13.5675    171.8668
   743.0000     13.6141    173.9241
   743.2500     13.7769    174.0335
   743.5000     14.0863    172.2766
   743.7500     14.5509    169.7873
   744.0000     15.1472    164.5029
   744.2500     15.8234    160.5276
   744.5000     16.5184    154.9698
   744.7500     17.1895    151.8964
   745.0000     17.8320    148.1089
   745.2500     18.4800    145.6840
   745.5000     19.1846    141.2381
   745.7500     19.9838    137.4143
   746.0000     20.8838    130.6076
   746.2500     21.8595    125.7807
   746.5000     22.8678    118.7314
   746.7500     23.8549    114.3261
   747.0000     24.7568    108.3729
   747.2500     25.5086    105.0920
   747.5000     26.0673    101.8283
   747.7500     26.4277    101.0779
   748.0000     26.6161    102.3186
   748.2500     26.6668    104.6194
   748.5000     26.6078    109.6938
   748.7500     26.4626    113.5711
   749.0000     26.2523    118.8347
   749.2500     25.9867    121.3002
   749.5000     25.6429    122.9300
   749.7500     25.1556    122.7788
   750.0000     24.4451    121.2492
   750.2500     23.4794    119.5791
   750.5000     22.3221    116.2545
   750.7500     21.1121    113.7171
   751.0000     19.9942    110.4088
   751.2500     19.0634    109.2963
   751.5000     18.3569    110.2637
   751.7500     17.8725    112.7660
   752.0000     17.5809    118.3421
   752.2500     17.4277    122.1517
   752.5000     17.3426    126.0245
   752.7500     17.2718    126.7919
   753.0000     17.2118    125.6386
   753.2500     17.2074    124.2316
   753.5000     17.3091    123.1440
   753.7500     17.5297    124.0501
   754.0000     17.8345    128.3525
   754.2500     18.1665    132.6955
   754.5000     18.4858    139.6167
   754.7500     18.7924    143.2252
   755.0000     19.1218    145.4633
   755.2500     19.5164    144.6776
   755.5000     19.9967    141.2363
   755.7500     20.5476    138.3572
   756.0000     21.1272    134.1736
   756.2500     21.6938    131.7504
   756.5000     22.2276    129.0934
   756.7500     22.7305    128.2242
   757.0000     23.1987    128.3042
   757.2500     23.5933    128.9285
   757.5000     23.8391    129.6961
   757.7500     23.8729    129.5572
   758.0000     23.7047    128.1472
   758.2500     23.4174    126.7445
   758.5000     23.0892    124.8801
   758.7500     22.7171    124.2562
   759.0000     22.2175    124.6293
   759.2500     21.5072    125.6777
   759.5000     20.5871    127.8529
   759.7500     19.5524    129.3055
   760.0000     18.5316    131.1853
   760.2500     17.6208    132.1917
   760.5000     16.8563    132.7450
   760.7500     16.2240    131.7042
   761.0000     15.6850    126.8812
   761.2500     15.1978    121.6934
   761.5000     14.7282    113.2343
   761.7500     14.2492    108.9400
   762.0000     13.7403    106.4727
   762.2500     13.1927    107.4671
   762.5000     12.6150    111.5977
   762.7500     12.0338    115.2572
   763.0000     11.4862    121.1235
   763.2500     11.0080    124.9057
   763.5000     10.6243    129.6882
   763.7500     10.3452    131.8454
   764.0000     10.1685    133.2732
   764.2500     10.0853    133.4310
   764.5000     10.0850    133.7364
   764.7500     10.1575    134.4233
   765.0000     10.2923    135.9209
   765.2500     10.4775    136.9013
   765.5000     10.6985    138.3140
   765.7500     10.9401    139.4400
   766.0000     11.1889    141.5916
   766.2500     11.4370    143.1676
   766.5000     11.6835    144.9651
   766.7500     11.9328    145.0962
   767.0000     12.1910    142.4359
   767.2500     12.4629    138.2239
   767.5000     12.7514    128.0468
   767.7500     13.0581    119.1291
   768.0000     13.3797    104.3080
   768.2500     13.6987     94.8846
   768.5000     13.9739     83.8789
   768.7500     14.1446     79.6638
   769.0000     14.1552     78.7166
   769.2500     13.9861     81.4761
   769.5000     13.6676     89.6135
   769.7500     13.2644     96.6847
   770.0000     12.8450    107.4733
   770.2500     12.4576    113.4571
   770.5000     12.1228    119.3743
   770.7500     11.8392    121.4889
   771.0000     11.5942    123.4145
   771.2500     11.3747    124.7688
   771.5000     11.1713    127.6579
   771.7500     10.9802    130.1046
   772.0000     10.8021    134.0302
   772.2500     10.6417    136.4993
   772.5000     10.5074    139.7287
   772.7500     10.4091    141.6356
   773.0000     10.3547    144.4486
   773.2500     10.3454    146.4494
   773.5000     10.3740    149.5685
   773.7500     10.4276    151.3929
   774.0000     10.4940    152.8551
   774.2500     10.5665    152.5976
   774.5000     10.6430    150.4388
   774.7500     10.7234    148.2168
   775.0000     10.8080    144.3784
   775.2500     10.8981    141.6352
   775.5000     10.9978    137.1504
   775.7500     11.1129    133.7609
   776.0000     11.2479    127.8088
   776.2500     11.4032    123.3099
   776.5000     11.5764    116.7247
   776.7500     11.7660    113.4859
   777.0000     11.9757    111.9858
   777.2500     12.2114    113.4349
   777.5000     12.4741    118.1513
   777.7500     12.7564    122.0100
   778.0000     13.0510    127.7419
   778.2500     13.3630    131.1790
   778.5000     13.7150    134.9758
   778.7500     14.1407    136.0090
   779.0000     14.6739    134.8917
   779.2500     15.3393    132.8204
   779.5000     16.1417    129.3678
   779.7500     17.0528    127.7612
   780.0000     17.9972    127.0574
   780.2500     18.8537    127.4466
   780.5000     19.4918    127.8938
   780.7500     19.8331    126.8765
   781.0000     19.8918    121.2284
   781.2500     19.7525    114.0613
   781.5000     19.5105     99.1838
   781.7500     19.2335     88.2936
   782.0000     18.9594     74.2798
   782.2500     18.7081     68.1616
   782.5000     18.4824     64.9213
   782.7500     18.2620     66.5370
   783.0000     18.0030     73.6796
   783.2500     17.6528     80.8543
   783.5000     17.1799     93.6955
   783.7500     16.6046    102.6768
   784.0000     16.0041    115.3031
   784.2500     15.4796    122.4852
   784.5000     15.1078    130.6456
   784.7500     14.9115    134.1185
   785.0000     14.8630    136.1803
   785.2500     14.9075    135.4491
   785.5000     14.9890    131.7866
   785.7500     15.0626    128.4780
   786.0000     15.0935    123.9953
   786.2500     15.0542    122.0435
   786.5000     14.9278    120.8164
   786.7500     14.7134    120.7047
   787.0000     14.4256    120.5778
   787.2500     14.0849    120.0047
   787.5000     13.7087    118.0115
   787.7500     13.3112    116.1990
   788.0000     12.9103    114.1677
   788.2500     12.5286    114.2098
   788.5000     12.1864    117.0015
   788.7500     11.8930    120.2670
   789.0000     11.6478    125.8606
   789.2500     11.4487    129.3361
   789.5000     11.3001    133.6446
   789.7500     11.2102    135.9911
   790.0000     11.1839    139.0391
   790.2500     11.2175    140.7993
   790.5000     11.3006    142.8989
   790.7500     11.4216    143.9363
   791.0000     11.5720    145.1201
   791.2500     11.7483    145.6936
   791.5000     11.9506    146.1400
   791.7500     12.1803    146.2717
   792.0000     12.4354    146.9118
   792.2500     12.7097    147.9864
   792.5000     12.9956    150.1867
   792.7500     13.2892    151.2998
   793.0000     13.5906    151.3682
   793.2500     13.8966    150.2726
   793.5000     14.1925    147.4846
   793.7500     14.4517    145.2486
   794.0000     14.6471    141.7366
   794.2500     14.7627    139.3212
   794.5000     14.7989    135.2500
   794.7500     14.7644    131.9454
   795.0000     14.6671    126.0609
   795.2500     14.5133    122.0061
   795.5000     14.3130    117.0819
   795.7500     14.0833    115.2139
   796.0000     13.8419    114.9333
   796.2500     13.5979    116.3125
   796.5000     13.3488    120.1852
   796.7500     13.0871    123.5333
   797.0000     12.8115    128.8296
   797.2500     12.5334    131.9932
