~Version Information
VERS.                      2.0: CWLS Log ASCII Standard - VERSION 2.0
WRAP.                       NO: One line per depth step
~Well Information Block
STRT.FT                -8.0000: 
STOP.FT              1661.0000: 
STEP.FT                 0.2500: 
NULL.                -999.2500: 
COMP.          Pioneer Natural Resources: COMPANY
WELL.          Rollerball 34-30: WELL
FLD.           Purgatorie River: FIELD
LOC.           893' FSL & 2408' FEL----: LOCATION
CNTY.               Las Animas: COUNTY
SRVC.          Patterson Wireline: SERVICE COMPANY
DATE.          Mon Feb 20 08:34:38 2006: LOG DATE
UWI.           05 071 08581 00: UNIQUE WELL ID
STAT.                       CO: STATE
~Curve Information Block
DEPT.FT            0 000 00 00: Depth
CCL.                          : Casing Collar Locator
TT3.usec                      : CBL 3' Travel Time
AMP3.mV                       : CBL 3' Amplitude
GR.GAPI                       : Gamma Ray
~Parameter Information Block
~A  Depth       CCL         TT3         AMP3         GR     
# ...
   762.5000      0.0000    766.5844      5.9383    107.9133
   762.7500      0.0000    762.4208      5.9653    106.4856
   763.0000      0.0000    760.2318      5.9266    105.7341
   763.2500      0.0000    758.3527      5.8369    105.4901
   763.5000      0.0000    755.4980      5.7144    105.2495
   763.7500      0.0000    751.2701      5.5855    105.4502
   764.0000      0.0000    746.4532      5.4827    107.2502
   764.2500      0.0000    742.3099      5.4302    111.1328
   764.5000      0.0000    739.1274      5.4327    115.9509
   764.7500      0.0000    735.9151      5.4766    119.5074
   765.0000      0.0000    731.8881      5.5406    120.0902
   765.2500      0.0000    727.6031      5.6044    117.5426
   765.5000      0.0000    724.2216      5.6521    113.2013
   765.7500      0.0000    722.2424      5.6722    108.8765
   766.0000      0.0000    721.3269      5.6575    105.5619
   766.2500      0.0000    720.9297      5.6067    103.0380
   766.5000      0.0000    720.7154      5.5268    100.7894
   766.7500      0.0000    720.5180      5.4342     99.0857
   767.0000      0.0000    720.1682      5.3494     98.8558
   767.2500      0.0000    719.4737      5.2891    100.4327
   767.5000      0.0000    718.3387      5.2608    102.6465
   767.7500      0.0000    716.6938      5.2628    103.5744
   768.0000      0.0000    714.2111      5.2881    102.3070
   768.2500      0.0000    710.4692      5.3286     99.7748
   768.5000      0.0000    705.9312      5.3777     97.9410
   768.7500      0.0000    702.4367      5.4320     98.4303
   769.0000      0.0000    701.8907      5.4921    101.6282
   769.2500      0.0000    704.4887      5.5589    106.5403
   769.5000      0.0000    708.9650      5.6284    111.3391
   769.7500      0.0000    714.3828      5.6910    114.3513
   770.0000      0.0000    720.5143      5.7391    114.8724
   770.2500      0.0000    726.4025      5.7738    113.3651
   770.5000      0.0000    730.1232      5.8034    111.1417
   770.7500      0.0000    730.5197      5.8329    109.7178
   771.0000      0.0000    727.8612      5.8553    109.9388
   771.2500      0.0000    722.3816      5.8547    111.2857
   771.5000      0.0000    713.6732      5.8164    111.9921
   771.7500      0.0000    702.6384      5.7383    110.1291
   772.0000      0.0000    693.2478      5.6322    104.9202
   772.2500      0.0000    690.7762      5.5179     97.2491
   772.5000      0.0000    697.5353      5.4099     89.1139
   772.7500      0.0000    710.7338      5.3084     82.8189
   773.0000      0.0000    725.1414      5.2030     80.3252
   773.2500      0.0000    737.1588      5.0863     82.5876
   773.5000      0.0000    745.2880      4.9623     89.1588
   773.7500      0.0000    747.4656      4.8445     98.6786
   774.0000      0.0000    740.1027      4.7496    109.6434
   774.2500      0.0000    721.0091      4.6917    120.2864
   774.5000      0.0000    693.1003      4.6778    128.0750
   774.7500      0.0000    663.5303      4.7071    130.3856
   775.0000      0.0000    637.4578      4.7752    126.0254
   775.2500      0.0000    614.4439      4.8774    115.7604
   775.5000      0.0000    594.1952      5.0063    101.5300
   775.7500      0.0000    583.6926      5.1436     85.6898
   776.0000      0.0000    592.4942      5.2566     70.7714
   776.2500      0.0000    620.0276      5.3157     58.9883
   776.5000      0.0000    652.1021      5.3224     51.4304
   776.7500      0.0000    671.3664      5.3153     47.9912
   777.0000      0.0000    669.6668      5.3338     48.3042
   777.2500      0.0000    652.3053      5.3800     52.5447
   777.5000      0.0000    633.7471      5.4269     61.0932
   777.7500      0.0000    627.1508      5.4564     73.6582
   778.0000      0.0000    634.1373      5.4748     88.9082
   778.2500      0.0000    645.1993      5.4910    104.7152
   778.5000      0.0000    651.5530      5.4960    118.6367
   778.7500      0.0000    654.2577      5.4749    128.5655
   779.0000      0.0000    659.4276      5.4339    133.5911
   779.2500      0.0000    666.9799      5.4050    134.6505
   779.5000      0.0000    668.3016      5.4189    134.1559
   779.7500      0.0000    655.7947      5.4776    134.3794
   780.0000      0.0000    632.7465      5.5555    135.8805
   780.2500      0.0000    612.6314      5.6260    137.6159
   780.5000      0.0000    608.8727      5.6820    138.5182
   780.7500      0.0000    624.9470      5.7322    138.8037
   781.0000      0.0000    653.1095      5.7827    139.8183
   781.2500      0.0000    681.3515      5.8270    142.5586
   781.5000      0.0000    701.5675      5.8520    146.2348
   781.7500      0.0000    712.3911      5.8525    148.6229
   782.0000      0.0000    716.5199      5.8394    148.1579
   782.2500      0.0000    716.9313      5.8338    145.4659
   782.5000      0.0000    715.3195      5.8535    142.6314
   782.7500      0.0000    712.7747      5.9029    141.1347
   783.0000      0.0000    710.9159      5.9740    140.6607
   783.2500      0.0000    711.6351      6.0526    139.7963
   783.5000      0.0000    715.0630      6.1266    137.7701
   783.7500      0.0000    717.6895      6.1898    135.2654
   784.0000      0.0000    713.7723      6.2398    133.5021
   784.2500      0.0000    700.6365      6.2734    132.9241
   784.5000      0.0000    683.5460      6.2847    132.9133
   784.7500      0.0000    673.8322      6.2690    132.2685
   785.0000      0.0000    680.1190      6.2272    129.8440
   785.2500      0.0000    701.1526      6.1679    125.2428
   785.5000      0.0000    727.5471      6.1056    119.1102
   785.7500      0.0000    749.3609      6.0542    112.5113
   786.0000      0.0000    761.6345      6.0222    106.0749
   786.2500      0.0000    764.8522      6.0133    100.0406
   786.5000      0.0000    762.3136      6.0268     95.0046
   786.7500      0.0000    757.0516      6.0554     92.0754
   787.0000      0.0000    750.4722      6.0857     92.0021
   787.2500      0.0000    743.4584      6.1043     94.4129
   787.5000      0.0000    737.7564      6.1039     98.2497
   787.7500      0.0000    735.0848      6.0850    102.6040
   788.0000      0.0000    734.9507      6.0538    106.6648
   788.2500      0.0000    734.5082      6.0193    109.2963
   788.5000      0.0000    731.4898      5.9928    109.5083
   788.7500      0.0000    727.0491      5.9853    107.3207
   789.0000      0.0000    724.7117      6.0025    103.7534
   789.2500      0.0000    726.1476      6.0410    100.1532
   789.5000      0.0000    728.8828      6.0904     97.8151
   789.7500      0.0000    728.8019      6.1384     97.5978
   790.0000      0.0000    724.4684      6.1736     99.0839
   790.2500      0.0000    718.3189      6.1874    100.5679
   790.5000      0.0000    713.7324      6.1747    100.6870
   790.7500      0.0000    711.7937      6.1351     99.6946
   791.0000      0.0000    711.2664      6.0743     98.7104
   791.2500      0.0000    710.5917      6.0034     98.3809
   791.5000      0.0000    708.9539      5.9397     98.7987
   791.7500      0.0000    706.2892      5.9029    100.1616
   792.0000      0.0000    703.3682      5.9062    102.8709
   792.2500      0.0000    701.4327      5.9461    107.0126
   792.5000      0.0000    700.7808      6.0021    111.9350
   792.7500      0.0000    699.7637      6.0490    116.3332
   793.0000      0.0000    695.8314      6.0694    118.7223
   793.2500      0.0000    687.8152      6.0585    117.9333
   793.5000      0.0000    677.2905      6.0195    113.5224
   793.7500      0.0000    667.6931      5.9600    106.2416
   794.0000      0.0000    661.7747      5.8925     98.1761
   794.2500      0.0000    659.0347      5.8354     91.8537
   794.5000      0.0000    655.7380      5.8075     88.6730
   794.7500      0.0000    649.0384      5.8166     88.0893
   795.0000      0.0000    641.9269      5.8513     88.3346
   795.2500      0.0000    642.0400      5.8887     87.7226
   795.5000      0.0000    653.5198      5.9104     85.3203
   795.7500      0.0000    671.6588      5.9129     80.9076
