~Version Information
VERS.                      2.0: CWLS Log ASCII Standard - VERSION 2.0
WRAP.                       NO: One line per depth step
~Well Information Block
STRT.FT                10.0000: 
STOP.FT               743.5000: 
STEP.FT                 0.1000: 
NULL.                -999.2500: 
COMP.          Pioneer Natural Resources: COMPANY
WELL.                Mia 21-18: WELL
FLD.           Purgatorie River: FIELD
LOC.           1067' FNL & 1824' FWL: LOCATION
PROV.                 Colorado: PROVINCE
CNTY.               Las Animas: COUNTRY
SRVC.                Patterson: SERVICE COMPANY
DATE.          Tue Nov 22 15:40:03 2005: LOG DATE
UWI.           05-071-08559               : UNIQUE WELL ID
~Curve Information Block
DEPT.FT            0 000 00 00: Depth
DCAL.in                       : CDL Caliper
RHOB.g/cc                     : CDL Bulk Density
RHOC.g/cc                     : CDL Density Correction
DPOR.pu                       : CDL Density Porosity
GR.GAPI                       : Gamma Ray
NPOR.pu                       : Neutron Porosity
~Parameter Information Block
~A  Depth       DCAL        RHOB        RHOC        DPOR         GR         NPOR    
# ...
   538.0000      7.9483      2.5999      0.0920      3.0343    106.0425     29.6775
   538.1000      7.9483      2.5814      0.0808      4.1546    112.7689     29.4897
   538.2000      7.9483      2.5532      0.0000      5.8649    115.0603     29.0453
   538.3000      7.9287      2.5329      0.0264      7.0990    112.5155     28.5484
   538.4000      7.9287      2.5211     -0.0097      7.8132    108.6551     28.3736
   538.5000      7.9439      2.5124     -0.0180      8.3364    106.2256     28.5753
   538.6000      7.9439      2.5122     -0.0400      8.3509    105.6976     28.9246
   538.7000      7.9439      2.5226      0.0375      7.7201    106.2455     29.0951
   538.8000      8.0152      2.5324      0.0385      7.1244    105.1054     28.9345
   538.9000      8.0152      2.5375     -0.0012      6.8196    102.1905     28.5596
   539.0000      8.0672      2.5381      0.0479      6.7794    101.7007     28.2205
   539.1000      8.0672      2.5287      0.0323      7.3536    104.3066     28.0599
   539.2000      8.0672      2.5215     -0.0044      7.7907    107.1633     28.1108
   539.3000      8.0479      2.5289      0.0174      7.3413    108.5983     28.3739
   539.4000      8.0479      2.5326      0.0416      7.1141    106.9841     28.5504
   539.5000      8.0247      2.5181      0.0208      7.9954    102.1008     28.4929
   539.6000      8.0247      2.5006     -0.0192      9.0540     97.2384     28.5786
   539.7000      8.0247      2.4986      0.0358      9.1771     95.8864     28.7827
   539.8000      8.0388      2.5125      0.0327      8.3326     97.3146     28.7036
   539.9000      8.0388      2.5314      0.0338      7.1893     99.7753     28.5107
   540.0000      8.0370      2.5367      0.0639      6.8670    102.8716     28.7121
   540.1000      8.0370      2.5171      0.0569      8.0531    104.5078     29.2093
   540.2000      8.0370      2.4869      0.0116      9.8851    104.5211     29.3256
   540.3000      8.0063      2.4685     -0.0030     10.9997    105.9303     28.9588
   540.4000      8.0063      2.4647     -0.0120     11.2280    109.6306     28.7557
   540.5000      8.0003      2.4667     -0.0092     11.1094    113.1886     28.8528
   540.6000      8.0003      2.4750      0.0098     10.6050    112.7507     28.8273
   540.7000      8.0003      2.4942      0.0432      9.4418    108.9295     28.8406
   540.8000      7.9929      2.5142      0.1038      8.2330    106.2089     29.1742
   540.9000      7.9929      2.5185      0.0717      7.9702    105.7813     29.6207
   541.0000      7.9694      2.5114      0.0433      8.3970    107.8992     29.9209
   541.1000      7.9694      2.5038      0.0690      8.8606    112.6384     25.9231
   541.2000      7.9694      2.4909      0.0212      9.6423    116.5167     25.7661
   541.3000      7.9695      2.4740      0.0255     10.6663    118.1218     25.7407
   541.4000      7.9695      2.4621      0.0052     11.3877    120.1982     25.8300
   541.5000      7.9514      2.4520      0.0503     12.0014    122.1537     25.9533
   541.6000      7.9514      2.4315      0.0396     13.2425    119.7585     26.1123
   541.7000      7.9514      2.4022      0.0231     15.0180    115.3111     26.0925
   541.8000      7.9887      2.3802     -0.0026     16.3497    114.6980     25.9038
   541.9000      7.9887      2.3698      0.0317     16.9803    115.1320     25.8512
   542.0000      8.0300      2.3506      0.0292     18.1467    111.4391     25.9940
   542.1000      8.0300      2.3068     -0.0473     20.8016    106.9873     26.0991
   542.2000      8.0300      2.2424     -0.0346     24.7035    107.2673     25.9640
   542.3000      8.0468      2.1562     -0.0116     29.9275    110.1191     25.8458
   542.4000      8.0468      2.0476     -0.0081     36.5082    109.2906     26.1664
   542.5000      8.0345      1.9284     -0.0371     43.7332    103.8276     26.8269
   542.6000      8.0345      1.8101     -0.0710     50.9053     96.5650     27.2491
   542.7000      8.0345      1.6994     -0.0946     57.6101     90.2580     27.2102
   542.8000      8.0619      1.5964     -0.0891     63.8572     84.9417     27.0910
   542.9000      8.0619      1.4962     -0.0676     69.9269     76.8742     27.1760
   543.0000      8.0568      1.4077     -0.0648     75.2905     65.8217     27.3459
   543.1000      8.0568      1.3495     -0.0384     78.8201     56.5720     27.4856
   543.2000      8.0568      1.3223      0.0244     80.4676     51.1195     27.6435
   543.3000      8.0833      1.3110      0.0115     81.1494     48.2165     27.8206
   543.4000      8.0833      1.3108     -0.0049     81.1621     47.1242     28.1451
   543.5000      8.0165      1.3298     -0.0178     80.0129     47.5674     28.7268
   543.6000      8.0165      1.3750      0.0194     77.2700     48.7727     29.3042
   543.7000      8.0165      1.4483      0.0365     72.8313     50.2292     29.6536
   543.8000      8.0271      1.5454      0.0729     66.9471     50.8008     30.0121
   543.9000      8.0271      1.6546      0.1254     60.3273     49.8229     30.4720
   544.0000      8.0590      1.7670      0.1135     53.5129     50.2461     30.6805
   544.1000      8.0590      1.8796      0.1613     46.6891     53.7674     30.5808
   544.2000      8.0590      1.9901      0.1649     39.9936     58.0070     30.5128
   544.3000      8.0961      2.0921      0.2190     33.8135     60.7481     30.5565
   544.4000      8.0961      2.1735      0.1848     28.8802     62.8390     30.5042
   544.5000      8.1248      2.2365      0.1495     25.0633     67.2853     30.2224
   544.6000      8.1248      2.2936      0.1297     21.6011     74.9562     29.7882
   544.7000      8.1248      2.3417      0.1058     18.6838     82.8546     29.3038
   544.8000      8.2100      2.3714      0.0805     16.8846     88.9579     29.0095
   544.9000      8.2100      2.3861      0.0721     15.9915     93.0689     29.1863
   545.0000      8.2100      2.3914      0.0898     15.6738     95.6818     29.5180
   545.1000      8.2100      2.3889      0.0444     15.8217     98.3198     29.5257
   545.2000      8.2100      2.3875      0.0390     15.9112    100.2413     29.3395
   545.3000      8.0735      2.3956      0.0559     15.4159     99.2819     29.2191
   545.4000      8.0735      2.4165      0.0310     14.1518     97.5685     29.1308
   545.5000      8.0727      2.4353      0.0815     13.0107     98.2442     29.0373
   545.6000      8.0727      2.4143      0.0584     14.2830    100.2465     29.0025
   545.7000      8.0727      2.3319      0.0441     19.2768     99.8237     29.0270
   545.8000      8.0467      2.2042     -0.0545     27.0211     96.6127     29.0327
   545.9000      8.0467      2.0643     -0.1014     35.4972     93.9520     29.0197
   546.0000      8.0656      1.9314     -0.0673     43.5494     94.6852     29.0267
   546.1000      8.0656      1.8044     -0.1127     51.2482     96.7733     29.0653
   546.2000      8.0656      1.6834     -0.1456     58.5803     93.5964     29.2554
   546.3000      8.0811      1.5707     -0.0910     65.4121     84.6547     29.5839
   546.4000      8.0811      1.4717     -0.1483     71.4095     75.6703     29.8635
   546.5000      8.0800      1.4045     -0.0972     75.4825     68.2782     30.1449
   546.6000      8.0800      1.3720     -0.0106     77.4524     60.5968     30.6247
   546.7000      8.0800      1.3529      0.0071     78.6107     54.0585     31.2257
   546.8000      8.1500      1.3341      0.0027     79.7533     50.7850     31.6989
   546.9000      8.1500      1.3204     -0.0142     80.5834     49.1166     32.0071
   547.0000      8.0674      1.3186     -0.0081     80.6884     46.6737     32.3106
   547.1000      8.0674      1.3271     -0.0028     80.1747     43.0006     32.6444
   547.2000      8.0674      1.3349      0.0160     79.7018     38.6529     32.9167
   547.3000      8.0646      1.3306     -0.0130     79.9660     35.3968     33.1796
   547.4000      8.0646      1.3188     -0.0387     80.6783     34.2294     33.4085
   547.5000      8.0837      1.3206     -0.0794     80.5714     34.5025     33.2957
