~Version Information
VERS.                      2.0: CWLS Log ASCII Standard - VERSION 2.0
WRAP.                       NO: One line per depth step
~Well Information Block
STRT.FT                 0.0000: 
STOP.FT              2473.5000: 
STEP.FT                 0.2500: 
NULL.                -999.2500: 
COMP.          Petrogulf Corporation: COMPANY
WELL.          Montoya 18-11V-B: WELL
FLD.           Purgatorie River: FIELD
LOC.           848' FNL & 619' FWL: LOCATION
PROV.                 Colorado: PROVINCE
CNTY.               Las Animas: COUNTRY
SRVC.                Patterson: SERVICE COMPANY
DATE.          Wed Nov 09 10:15:13 2005: LOG DATE
UWI.                          : UNIQUE WELL ID
~Curve Information Block
DEPT.FT            0 000 00 00: Depth
CCL.                          : Casing Collar Locator
TT3.usec                      : CBL 3' Travel Time
AMP3.mV                       : CBL 3' Amplitude
GR.GAPI                       : Gamma Ray
~Parameter Information Block
~A  Depth       CCL         TT3         AMP3         GR     
# ...
   804.0000      0.0000    258.7136     74.5269     47.1649
   804.2500      0.0000    258.7140     74.4921     48.1928
   804.5000      0.0000    258.7362     74.4429     48.0899
   804.7500      0.0000    258.7654     74.4349     47.4299
   805.0000      0.0000    258.7786     74.4799     47.1204
   805.2500      0.0000    258.7722     74.5373     48.1257
   805.5000      0.0000    258.7588     74.5794     51.2717
   805.7500      0.0000    258.7445     74.6204     57.2465
   806.0000      0.0000    258.7279     74.6703     66.6999
   806.2500      0.0000    258.7110     74.7113     79.8179
   806.5000      0.0000    258.7000     74.7294     95.4102
   806.7500      0.0000    258.7018     74.7227    110.9313
   807.0000      0.0000    258.7186     74.6795    123.9923
   807.2500      0.0000    258.7395     74.5931    133.5527
   807.5000      0.0000    258.7455     74.4888    139.3704
   807.7500      0.0000    258.7323     74.4053    141.0249
   808.0000      0.0000    258.7161     74.3561    138.4713
   808.2500      0.0000    258.7118     74.3286    133.3305
   808.5000      0.0000    258.7180     74.3136    128.4853
   808.7500      0.0000    258.7265     74.3243    125.9504
   809.0000      0.0000    258.7318     74.3674    125.6616
   809.2500      0.0000    258.7336     74.4060    126.3526
   809.5000      0.0000    258.7353     74.4032    126.8616
   809.7500      0.0000    258.7386     74.3734    126.4006
   810.0000      0.0000    258.7420     74.3429    124.3341
   810.2500      0.0000    258.7443     74.3189    120.4197
   810.5000      0.0000    258.7452     74.3121    115.3663
   810.7500      0.0000    258.7447     74.3373    110.7874
   811.0000      0.0000    258.7416     74.3996    108.0423
   811.2500      0.0000    258.7276     74.5106    106.9855
   811.5000      0.0000    258.6936     74.6797    106.2108
   811.7500      0.0000    258.6522     74.8542    104.5992
   812.0000      0.0000    258.6334     74.9363    102.3879
   812.2500      0.0000    258.6456     74.9004    100.7953
   812.5000      0.0000    258.6692     74.8087    100.8722
   812.7500      0.0000    258.6917     74.7069    102.6109
   813.0000      0.0000    258.7136     74.6179    105.0871
   813.2500      0.0000    258.7229     74.5885    107.5398
   813.5000      0.0000    258.7063     74.6260    109.9881
   813.7500      0.0000    258.6783     74.6564    112.3946
   814.0000      0.0000    258.6613     74.6294    113.6217
   814.2500      0.0000    258.6527     74.5777    112.0021
   814.5000      0.0000    258.6429     74.5383    107.1700
   814.7500      0.0000    258.6403     74.5039    101.1621
   815.0000      0.0000    258.6517     74.4668     97.4979
   815.2500      0.0000    258.6654     74.4499     98.6635
   815.5000      0.0000    258.6732     74.4809    103.8694
   815.7500      0.0000    258.6793     74.5690    109.2714
   816.0000      0.0000    258.6842     74.6954    110.8611
   816.2500      0.0000    258.6858     74.8035    107.4757
   816.5000      0.0000    258.6912     74.8398    101.1798
   816.7500      0.0000    258.7133     74.8073     94.9948
   817.0000      0.0000    258.7524     74.7526     90.5302
   817.2500      0.0000    258.7891     74.7267     87.6007
   817.5000      0.0000    258.8022     74.7422     85.4753
   817.7500      0.0000    258.7901     74.7548     83.9749
   818.0000      0.0000    258.7747     74.7209     83.4389
   818.2500      0.0000    258.7756     74.6490     84.0821
   818.5000      0.0000    258.7906     74.5826     85.7271
   818.7500      0.0000    258.8042     74.5754     87.9771
   819.0000      0.0000    258.8015     74.6634     90.2191
   819.2500      0.0000    258.7743     74.8263     91.5850
   819.5000      0.0000    258.7320     74.9945     91.4305
   819.7500      0.0000    258.7014     75.0978     89.9407
   820.0000      0.0000    258.6976     75.1158     87.9457
   820.2500      0.0000    258.7053     75.0859     86.1536
   820.5000      0.0000    258.7067     75.0359     84.9813
   820.7500      0.0000    258.7050     74.9524     85.0509
   821.0000      0.0000    258.7112     74.8241     87.0055
   821.2500      0.0000    258.7284     74.6633     90.3075
   821.5000      0.0000    258.7443     74.5254     92.6815
   821.7500      0.0000    258.7378     74.4974     91.3566
   822.0000      0.0000    258.7014     74.5936     85.1160
   822.2500      0.0000    258.6540     74.7230     75.2563
   822.5000      0.0000    258.6203     74.7820     64.6505
   822.7500      0.0000    258.6077     74.6903     55.8254
   823.0000      0.0000    258.6337     74.3091     49.8210
   823.2500      0.0000    258.8145     73.3657     46.5503
   823.5000      0.0000    259.4255     71.4105     45.6208
   823.7500      0.0000    260.7231     67.7460     46.4683
   824.0000      0.0000    262.5820     62.0424     48.0230
   824.2500      0.0000    264.4265     55.8334     48.9315
   824.5000      0.0000    265.6877     51.8514     48.4683
   824.7500      0.0000    266.2650     50.8947     47.0506
   825.0000      0.0000    266.4304     51.4233     45.7465
   825.2500      2.0000    266.4757     51.9960     45.5217
   825.5000     -2.0000    266.7004     52.2231     46.8901
   825.7500      0.0000    267.7601     51.9481     49.7115
   826.0000      0.0000    270.5247     50.9091     53.1541
   826.2500      0.0000    274.2522     49.9166     56.3242
   826.5000      0.0000    275.4339     51.0886     59.1450
   826.7500      0.0000    271.7279     54.8949     62.3830
   827.0000      0.0000    265.7595     59.5337     66.9395
   827.2500      0.0000    261.4593     64.1456     73.3827
   827.5000      0.0000    259.6649     68.6068     81.8842
   827.7500      0.0000    259.1917     71.9645     92.0905
   828.0000      0.0000    259.0983     73.6849    102.9814
   828.2500      0.0000    259.0704     74.2995    113.1101
   828.5000      0.0000    259.0511     74.4863    121.2258
   828.7500      0.0000    259.0364     74.5479    126.8751
   829.0000      0.0000    259.0348     74.5270    130.4477
   829.2500      0.0000    259.0521     74.4214    132.4650
   829.5000      0.0000    259.0755     74.2888    132.8283
   829.7500      0.0000    259.0795     74.2248    131.0804
   830.0000      0.0000    259.0551     74.2707    127.3972
   830.2500      0.0000    259.0168     74.3902    122.8896
   830.5000      0.0000    258.9836     74.5328    118.9545
   830.7500      0.0000    258.9674     74.6599    116.6718
   831.0000      0.0000    258.9717     74.7338    116.5101
   831.2500      0.0000    258.9887     74.7440    117.9256
   831.5000      0.0000    259.0018     74.7273    119.3164
   831.7500      0.0000    259.0002     74.7275    118.8739
   832.0000      0.0000    258.9875     74.7402    115.8783
   832.2500      0.0000    258.9746     74.7247    111.4675
   832.5000      0.0000    258.9687     74.6724    108.0733
   832.7500      0.0000    258.9643     74.6203    107.6085
   833.0000      0.0000    258.9523     74.5940    110.0234
   833.2500      0.0000    258.9385     74.5775    113.7983
   833.5000      0.0000    258.9375     74.5400    117.6416
   833.7500      0.0000    258.9469     74.4853    121.3066
   834.0000      0.0000    258.9459     74.4533    125.0011
   834.2500      0.0000    258.9218     74.4698    128.7972
   834.5000      0.0000    258.8838     74.5097    132.7325
   834.7500      0.0000    258.8524     74.5108    136.7384
   835.0000      0.0000    258.8425     74.4514    140.2582
   835.2500      0.0000    258.8496     74.4002    142.6605
   835.5000      0.0000    258.8571     74.4276    144.3294
   835.7500      0.0000    258.8602     74.5105    146.6844
   836.0000      0.0000    258.8665     74.5661    150.7910
   836.2500      0.0000    258.8765     74.5399    156.3082
   836.5000      0.0000    258.8857     74.4547    161.9020
   836.7500      0.0000    258.8906     74.3768    166.2119
   837.0000      0.0000    258.8878     74.3483    168.2083
   837.2500      0.0000    258.8776     74.3661    167.1104
