~Version Information
VERS.                      2.0: CWLS Log ASCII Standard - VERSION 2.0
WRAP.                       NO: One line per depth step
~Well Information Block
STRT.FT                -8.5000: 
STOP.FT              2030.0000: 
STEP.FT                 0.2500: 
NULL.                -999.2500: 
COMP.          Pioneer Natural Resources: COMPANY
WELL.           Alabaster 11-8: WELL
FLD.           Purgatorie River: FIELD
LOC.           1249' FNL & 215' FWL--: LOCATION
PROV.                       CO: PROVINCE
CNTY.               Las Animas: COUNTRY
SRVC.          Patterson Wireline: SERVICE COMPANY
DATE.          Mon Jan 30 11:59:01 2006: LOG DATE
UWI.           05 071 08642 00: UNIQUE WELL ID
~Curve Information Block
DEPT.FT            0 000 00 00: Depth
CCL.                          : Casing Collar Locator
TT3.usec                      : CBL 3' Travel Time
AMP3.mV                       : CBL 3' Amplitude
GR.GAPI                       : Gamma Ray
~Parameter Information Block
~A  Depth       CCL         TT3         AMP3         GR     
    -8.5000   -999.2500   -999.2500   -999.2500     95.9850
    -8.2500   -999.2500   -999.2500   -999.2500     95.4191
    -8.0000   -999.2500   -999.2500   -999.2500     95.5840
    -7.7500   -999.2500   -999.2500   -999.2500     96.6332
    -7.5000   -999.2500   -999.2500   -999.2500     97.5863
    -7.2500   -999.2500   -999.2500   -999.2500     97.5885
    -7.0000   -999.2500   -999.2500   -999.2500     96.8740
    -6.7500   -999.2500   -999.2500   -999.2500     96.0358
    -6.5000   -999.2500   -999.2500   -999.2500     94.7769
    -6.2500   -999.2500   -999.2500   -999.2500     92.1943
    -6.0000   -999.2500   -999.2500   -999.2500     88.3345
    -5.7500   -999.2500   -999.2500   -999.2500     84.7705
    -5.5000   -999.2500   -999.2500   -999.2500     83.1918
    -5.2500   -999.2500   -999.2500   -999.2500     83.7190
    -5.0000   -999.2500   -999.2500   -999.2500     84.9797
    -4.7500   -999.2500   -999.2500   -999.2500     85.7016
    -4.5000   -999.2500   -999.2500   -999.2500     85.8147
    -4.2500   -999.2500   -999.2500   -999.2500     86.1241
    -4.0000   -999.2500   -999.2500   -999.2500     87.4059
    -3.7500   -999.2500   1161.0000     -0.2787     89.7752
    -3.5000   -999.2500   1161.0000     -0.2795     92.5010
    -3.2500   -999.2500   1161.0000     -0.2775     94.2690
    -3.0000   -999.2500   1161.0000     -0.2726     93.7926
    -2.7500   -999.2500   1161.0000     -0.2645     90.5252
    -2.5000   -999.2500   1161.0000     -0.2540     85.1051
    -2.2500   -999.2500   1161.0000     -0.2442     79.0839
    -2.0000   -999.2500   1161.0000     -0.2400     73.8248
    -1.7500   -999.2500   1161.0000     -0.2446     69.4439
    -1.5000   -999.2500   1161.0000     -0.2577     64.9457
    -1.2500   -999.2500   1161.0000     -0.2737     59.4469
    -1.0000   -999.2500   1161.0000     -0.2848     53.0797
    -0.7500   -999.2500   1161.0000     -0.2863     46.8276
    -0.5000   -999.2500   1161.0000     -0.2796     41.8431
    -0.2500   -999.2500   1161.0000     -0.2704     38.8366
     0.0000   -999.2500   1161.0000     -0.2639     37.8084
     0.2500   -999.2500   1161.0000     -0.2623     38.3127
     0.5000   -999.2500   1161.0000     -0.2704     42.5898
     0.7500   -999.2500   1161.0000     -0.2759     46.3160
     1.0000   -999.2500   1161.0000     -0.2801     51.2290
     1.2500      0.0000   1161.0000     -0.2826     57.0770
     1.5000      0.0000   1161.0000     -0.2821     63.0379
     1.7500      0.0000   1161.0000     -0.2783     68.0119
     2.0000      0.0000   1161.0000     -0.2732     71.2007
     2.2500      0.0000   1161.0000     -0.2699     72.5844
     2.5000      0.0000   1161.0000     -0.2694     73.0952
     2.7500      0.0000   1161.0000     -0.2687     74.0928
     3.0000      0.0000   1161.0000     -0.2641     76.1096
     3.2500      0.0000   1161.0000     -0.2568     78.0675
     3.5000      0.0000   1161.0000     -0.2523     78.1612
     3.7500      0.0000   1161.0000     -0.2549     75.6893
     4.0000      0.0000   1161.0000     -0.2634     71.9061
     4.2500      0.0000   1161.0000     -0.2735     69.2911
     4.5000      0.0000   1161.0000     -0.2822     69.9151
     4.7500      0.0000   1161.0000     -0.2886     73.7240
     5.0000      0.0000   1161.0000     -0.2928     78.0712
     5.2500      0.0000   1161.0000     -0.2950     79.5676
     5.5000      0.0000   1161.0000     -0.2939     76.8410
     5.7500      0.0000   1161.0000     -0.2884     71.4271
     6.0000      0.0000   1161.0000     -0.2796     66.2389
     6.2500      0.0000   1161.0000     -0.2712     63.4068
     6.5000      0.0000   1161.0000     -0.2667     63.1412
     6.7500      0.0000   1161.0000     -0.2677     64.1418
     7.0000      0.0000   1161.0000     -0.2732     64.9537
     7.2500      0.0000   1161.0000     -0.2814     64.9152
     7.5000      0.0000   1161.0000     -0.2907     63.9212
     7.7500      0.0000   1161.0000     -0.2990     61.8832
     8.0000      0.0000   1161.0000     -0.3021     58.9836
     8.2500      0.0000   1161.0000     -0.2968     56.1565
     8.5000      0.0000   1161.0000     -0.2845     54.5600
     8.7500      0.0000   1161.0000     -0.2721     54.3931
     9.0000      0.0000   1161.0000     -0.2668     54.6061
     9.2500      0.0000   1161.0000     -0.2722     53.9483
     9.5000      0.0000   1161.0000     -0.2849     52.0551
     9.7500      0.0000   1161.0000     -0.2973     49.6159
    10.0000      0.0000   1161.0000     -0.3024     47.9308
    10.2500      0.0000   1161.0000     -0.2968     48.1141
    10.5000      0.0000   1161.0000     -0.2823     50.0621
    10.7500      0.0000   1161.0000     -0.2637     52.1667
    11.0000      0.0000   1161.0000     -0.2475     52.5181
    11.2500      0.0000   1161.0000     -0.2395     50.5422
    11.5000      0.0000   1161.0000     -0.2417     47.3209
    11.7500      0.0000   1161.0000     -0.2518     44.4492
    12.0000      0.0000   1161.0000     -0.2644     42.8582
    12.2500      0.0000   1161.0000     -0.2733     42.6497
    12.5000      0.0000   1161.0000     -0.2737     43.5203
    12.7500      0.0000   1161.0000     -0.2648     44.9865
    13.0000      0.0000   1161.0000     -0.2507     46.5123
    13.2500      0.0000   1161.0000     -0.2372     47.9880
    13.5000      0.0000   1161.0000     -0.2279     50.0563
    13.7500      0.0000   1161.0000     -0.2255     53.3607
    14.0000      0.0000   1161.0000     -0.2321     57.1912
    14.2500      0.0000   1161.0000     -0.2476     59.4598
    14.5000      0.0000   1161.0000     -0.2679     58.7387
    14.7500      0.0000   1161.0000     -0.2863     56.1129
    15.0000      0.0000   1161.0000     -0.2980     54.2186
    15.2500      0.0000   1161.0000     -0.3029     54.3140
    15.5000      0.0000   1161.0000     -0.3054     54.9898
    15.7500      0.0000   1161.0000     -0.3088     54.0710
    16.0000      0.0000   1161.0000     -0.3127     51.2274
    16.2500      0.0000   1161.0000     -0.3146     48.1300
    16.5000      0.0000   1161.0000     -0.3133     46.3417
    16.7500      0.0000   1161.0000     -0.3088     45.8222
    17.0000      0.0000   1161.0000     -0.3002     45.5498
    17.2500      0.0000   1161.0000     -0.2868     44.8914
    17.5000      0.0000   1161.0000     -0.2719     44.0286
    17.7500      0.0000   1161.0000     -0.2619     43.5562
    18.0000      0.0000   1161.0000     -0.2608     44.0884
    18.2500      0.0000   1161.0000     -0.2658     45.9832
    18.5000      0.0000   1161.0000     -0.2702     48.9647
    18.7500      0.0000   1161.0000     -0.2695     51.9480
    19.0000      0.0000   1161.0000     -0.2653     53.5902
    19.2500      0.0000   1161.0000     -0.2619     53.4298
    19.5000      0.0000   1161.0000     -0.2598     52.5766
    19.7500      0.0000   1161.0000     -0.2555     52.9176
    20.0000      0.0000   1161.0000     -0.2465     55.3855
    20.2500      0.0000   1161.0000     -0.2349     59.1295
    20.5000      0.0000   1161.0000     -0.2263     62.4949
    20.7500      0.0000   1161.0000     -0.2260     64.5838
    21.0000      0.0000   1161.0000     -0.2360     65.7142
    21.2500      0.0000   1161.0000     -0.2526     66.5989
    21.5000      0.0000   1161.0000     -0.2681     67.3821
    21.7500      0.0000   1161.0000     -0.2756     67.4692
    22.0000      0.0000   1161.0000     -0.2742     66.2149
    22.2500      0.0000   1161.0000     -0.2684     63.7457
    22.5000      0.0000   1161.0000     -0.2637     60.9502
    22.7500      0.0000   1161.0000     -0.2633     58.5852
    23.0000      0.0000   1161.0000     -0.2672     56.6185
    23.2500      0.0000   1161.0000     -0.2721     54.5801
    23.5000      0.0000   1161.0000     -0.2736     52.2858
    23.7500      0.0000   1161.0000     -0.2694     50.0798
    24.0000      0.0000   1161.0000     -0.2618     48.7174
    24.2500      0.0000   1161.0000     -0.2552     49.2796
    24.5000      0.0000   1161.0000     -0.2524     52.9087
    24.7500      0.0000   1161.0000     -0.2529     60.1059
