~Version Information
VERS.                      2.0: CWLS Log ASCII Standard - VERSION 2.0
WRAP.                       NO: One line per depth step
~Well Information Block
STRT.FT               580.0000: 
STOP.FT              1029.0000: 
STEP.FT                 0.1000: 
NULL.                -999.2500: 
COMP.          Pioneer Natural Resources: COMPANY
WELL.             Quartz 13-22: WELL
FLD.           Purgatoire River: FIELD
LOC.           1933' FSL & 675' FWL: LOCATION
PROV.                 Colorado: PROVINCE
CNTY.               Las Animas: COUNTRY
SRVC.                Patterson: SERVICE COMPANY
DATE.          Fri Dec 16 10:30:09 2005: LOG DATE
UWI.           05 071 08638 00: UNIQUE WELL ID
~Curve Information Block
DEPT.FT            0 000 00 00: Depth
DCAL.in                       : CDL Caliper
RHOB.g/cc                     : CDL Bulk Density
RHOC.g/cc                     : CDL Density Correction
DPOR.pu                       : CDL Density Porosity
GR.GAPI                       : Gamma Ray
NPOR.pu                       : Neutron Porosity
~Parameter Information Block
~A  Depth       DCAL        RHOB        RHOC        DPOR         GR         NPOR    
# ...
   637.6000      8.0468      2.4681     -0.0113     11.0268    144.7269     24.5631
   637.7000      8.0468      2.4394     -0.0579     12.7633    142.7048     24.2422
   637.8000      8.0332      2.4324     -0.0424     13.1866    143.9176     23.7137
   637.9000      8.0332      2.4431      0.0227     12.5364    143.9175     23.3122
   638.0000      8.0481      2.4524     -0.0165     11.9785    138.3407     23.4513
   638.1000      8.0481      2.4580      0.0005     11.6359    133.1280     23.9514
   638.2000      8.0481      2.4616      0.0296     11.4181    134.0473     24.5041
   638.3000      8.0657      2.4585      0.0402     11.6055    136.8333     24.9879
   638.4000      8.0657      2.4484      0.0071     12.2164    136.4820     25.1490
   638.5000      8.0760      2.4411      0.0155     12.6631    136.1513     24.9805
   638.6000      8.0760      2.4525      0.0129     11.9671    138.4866     24.9617
   638.7000      8.0760      2.4776      0.0681     10.4457    139.4577     25.3636
   638.8000      8.1051      2.4830      0.0888     10.1190    135.8664     25.7446
   638.9000      8.1051      2.4622     -0.0100     11.3828    132.5125     25.5710
   639.0000      8.1800      2.4472     -0.0144     12.2915    136.9669     24.8691
   639.1000      8.1800      2.4508      0.0534     12.0720    146.5286     24.2156
   639.2000      8.1800      2.4611      0.0002     11.4506    150.2288     24.2192
   639.3000      8.1843      2.4695      0.0331     10.9373    144.3389     24.6511
   639.4000      8.1843      2.4666      0.0559     11.1128    134.5858     24.8783
   639.5000      8.1264      2.4550      0.0309     11.8206    131.2625     24.8293
   639.6000      8.1264      2.4525      0.0325     11.9718    140.8249     24.6501
   639.7000      8.1264      2.4616      0.0650     11.4181    151.4387     24.0082
   639.8000      8.1543      2.4748      0.0805     10.6212    149.3210     23.0196
   639.9000      8.1543      2.4913      0.0915      9.6204    141.5918     22.5671
   640.0000      8.0749      2.5047      0.1378      8.8054    141.0408     22.9459
   640.1000      8.0749      2.5077      0.0818      8.6229    146.6285     23.8371
   640.2000      8.0749      2.5071      0.0577      8.6612    148.8647     24.7618
   640.3000      8.0358      2.5089      0.0681      8.5501    143.7435     25.1276
   640.4000      8.0358      2.5075      0.0964      8.6356    136.2774     24.8086
   640.5000      8.0781      2.4990      0.0743      9.1488    129.9931     24.2771
   640.6000      8.0781      2.4913      0.0388      9.6201    125.4592     23.9584
   640.7000      8.0781      2.4885      0.0930      9.7875    127.5445     24.0402
   640.8000      8.0190      2.4868      0.0367      9.8902    137.6476     24.4254
   640.9000      8.0190      2.4869      0.0358      9.8864    146.2533     24.8737
   641.0000      8.0101      2.4878      0.0755      9.8327    148.1696     25.2020
   641.1000      8.0101      2.4895      0.0005      9.7290    147.3082     25.2860
   641.2000      8.0101      2.4955      0.0470      9.3622    148.0590     25.2010
   641.3000      8.0099      2.4997      0.0473      9.1105    152.7590     25.1064
   641.4000      8.0099      2.4960      0.0206      9.3307    156.1013     25.2512
   641.5000      8.0056      2.4832      0.0281     10.1097    149.9426     25.6985
   641.6000      8.0056      2.4643      0.0286     11.2533    139.0771     25.8724
   641.7000      8.0056      2.4530      0.0218     11.9387    134.8420     25.4522
   641.8000      8.0077      2.4516      0.0652     12.0221    137.5468     25.1796
   641.9000      8.0077      2.4433      0.0443     12.5262    140.5440     25.6302
   642.0000      8.0076      2.4198      0.0293     13.9504    138.8230     26.2398
   642.1000      8.0076      2.3939     -0.0475     15.5242    131.2244     26.3157
   642.2000      8.0076      2.3842     -0.0447     16.1118    123.5644     26.0020
   642.3000      8.0077      2.3944      0.0005     15.4894    123.2026     25.7826
   642.4000      8.0077      2.4098      0.0618     14.5574    129.0757     25.6291
   642.5000      8.0107      2.4186      0.0703     14.0216    134.8515     25.3137
   642.6000      8.0107      2.4271      0.0108     13.5086    136.2921     25.0673
   642.7000      8.0107      2.4418      0.0491     12.6211    135.9429     25.2189
   642.8000      8.0256      2.4558      0.0844     11.7708    137.4042     25.7511
   642.9000      8.0256      2.4679      0.0457     11.0378    137.1883     26.3225
   643.0000      8.0237      2.4821      0.0952     10.1769    133.0368     26.6467
   643.1000      8.0237      2.4958      0.0706      9.3451    128.7223     26.7621
   643.2000      8.0237      2.5098      0.0583      8.4998    126.6829     26.7555
   643.3000      8.0230      2.5195      0.1016      7.9082    126.4123     26.6724
   643.4000      8.0230      2.5140      0.0883      8.2399    127.6949     26.5234
   643.5000      8.0263      2.5020      0.0935      8.9687    133.3246     26.3936
   643.6000      8.0263      2.5013      0.1096      9.0131    141.6844     26.3966
   643.7000      8.0263      2.5097      0.1125      8.5042    141.8006     26.5371
   643.8000      8.0394      2.5132      0.1179      8.2918    133.4902     26.6566
   643.9000      8.0394      2.5024      0.0887      8.9457    129.5114     26.5305
   644.0000      8.0535      2.4769      0.0601     10.4912    132.8633     26.1330
   644.1000      8.0535      2.4538      0.0184     11.8916    136.9039     25.5561
   644.2000      8.0535      2.4522      0.0559     11.9886    140.6281     25.1796
   644.3000      8.0495      2.4630      0.0988     11.3310    146.3860     25.2955
   644.4000      8.0495      2.4634      0.0857     11.3083    149.0129     25.5941
   644.5000      8.0445      2.4540      0.0696     11.8803    143.3417     25.5694
   644.6000      8.0445      2.4545      0.0872     11.8503    135.4548     25.1742
   644.7000      8.0445      2.4625      0.1151     11.3638    129.5219     24.6462
   644.8000      8.0432      2.4596      0.0836     11.5378    124.5998     24.1667
   644.9000      8.0432      2.4564      0.0593     11.7307    125.6432     24.0614
   645.0000      8.0348      2.4741      0.1051     10.6616    136.0189     24.2318
   645.1000      8.0348      2.4977      0.1548      9.2296    146.4100     23.9978
   645.2000      8.0348      2.5035      0.1364      8.8763    146.1717     23.5032
   645.3000      8.0398      2.5066      0.1056      8.6908    138.3499     23.5890
   645.4000      8.0398      2.5264      0.1729      7.4933    131.4273     24.1394
   645.5000      8.0544      2.5409      0.2240      6.6119    128.7194     24.3109
   645.6000      8.0544      2.5270      0.1758      7.4541    128.7133     23.9859
   645.7000      8.0544      2.5046      0.0739      8.8124    128.3576     23.5451
   645.8000      8.0549      2.5031      0.0836      8.9057    127.1724     23.0769
   645.9000      8.0549      2.5155      0.1019      8.1522    129.7190     22.6360
   646.0000      8.0589      2.5169      0.1170      8.0696    136.2112     22.4153
   646.1000      8.0589      2.5032      0.0639      8.8942    139.8260     22.6238
   646.2000      8.0589      2.4904      0.0753      9.6724    140.6544     23.2295
   646.3000      8.0337      2.4838      0.0861     10.0741    141.0902     23.7496
   646.4000      8.0337      2.4827      0.0453     10.1403    138.3105     23.8318
   646.5000      8.0195      2.4942      0.0544      9.4404    133.4727     23.8933
   646.6000      8.0195      2.5204      0.0727      7.8518    132.3735     24.2510
   646.7000      8.0195      2.5564      0.0857      5.6730    134.1184     24.4132
   646.8000      8.0495      2.5876      0.1277      3.7829    135.7899     24.2700
   646.9000      8.0495      2.5967      0.1321      3.2304    138.0397     24.0989
   647.0000      8.0752      2.5869      0.1177      3.8247    137.1572     24.0170
   647.1000      8.0752      2.5712      0.0939      4.7773    130.2358     24.3222
