~Version Information
VERS.                      2.0: CWLS Log ASCII Standard - VERSION 2.0
WRAP.                       NO: One line per depth step
~Well Information Block
STRT.FT                -6.7500: 
STOP.FT              2027.0000: 
STEP.FT                 0.2500: 
NULL.                -999.2500: 
COMP.          Pioneer Natural Resources: COMPANY
WELL.             Fleming 11-2: WELL
FLD.           Purgatorie River: FIELD
LOC.           534' FNL & 160' FWL--: LOCATION
CNTY.               Las Animas: COUNTY
SRVC.          Patterson Wireline: SERVICE COMPANY
DATE.          Thu Jul 13 10:28:00 2006: LOG DATE
UWI.           05 071 08491 00: UNIQUE WELL ID
STAT.                       CO: STATE
~Curve Information Block
DEPT.FT            0 000 00 00: Depth
CCL.                          : Casing Collar Locator
TT3.usec                      : CBL 3' Travel Time
AMP3.mV                       : CBL 3' Amplitude
GR.GAPI                       : Gamma Ray
~Parameter Information Block
~A  Depth       CCL         TT3         AMP3         GR     
# ...
  1333.2500      0.0000    458.1698      4.2942    163.1983
  1333.5000      0.0000    466.9195      4.3365    161.3008
  1333.7500      0.0000    481.5042      4.3868    157.8593
  1334.0000      0.0000    497.3606      4.4161    153.4254
  1334.2500      0.0000    509.6164      4.3885    148.8645
  1334.5000      0.0000    518.7223      4.3033    145.4527
  1334.7500      0.0000    530.9060      4.2054    144.2716
  1335.0000      0.0000    550.9555      4.1406    145.2386
  1335.2500      0.0000    574.8559      4.1095    146.8784
  1335.5000      0.0000    590.9023      4.0782    147.4377
  1335.7500      0.0000    588.8427      4.0263    146.3991
  1336.0000      0.0000    568.5888      3.9705    144.8463
  1336.2500      0.0000    541.1710      3.9412    144.4092
  1336.5000      0.0000    522.2025      3.9476    145.9587
  1336.7500      0.0000    523.2498      3.9687    149.2578
  1337.0000      0.0000    545.5092      3.9755    153.5823
  1337.2500      0.0000    578.6447      3.9581    158.3637
  1337.5000      0.0000    606.8007      3.9293    163.1429
  1337.7500      0.0000    619.4523      3.9077    167.3053
  1338.0000      0.0000    618.7965      3.9021    170.3343
  1338.2500      0.0000    616.7912      3.9089    172.0487
  1338.5000      0.0000    624.3149      3.9192    172.1312
  1338.7500      0.0000    642.4781      3.9253    170.0355
  1339.0000      0.0000    663.5656      3.9228    166.1660
  1339.2500      0.0000    679.1193      3.9125    162.8031
  1339.5000      0.0000    686.3232      3.9006    162.8701
  1339.7500      0.0000    687.8422      3.8951    167.1460
  1340.0000      0.0000    687.8220      3.8992    172.5645
  1340.2500      0.0000    688.8118      3.9074    173.8649
  1340.5000      0.0000    691.2375      3.9107    167.6764
  1340.7500      0.0000    694.1196      3.9055    154.9965
  1341.0000      0.0000    695.5001      3.8957    139.7649
  1341.2500      0.0000    692.3836      3.8865    125.9740
  1341.5000      0.0000    680.8534      3.8801    116.2039
  1341.7500      0.0000    657.4833      3.8765    111.3094
  1342.0000      0.0000    622.2478      3.8745    110.2565
  1342.2500      0.0000    580.8622      3.8704    110.6171
  1342.5000      0.0000    543.7648      3.8616    109.8984
  1342.7500      0.0000    522.1239      3.8516    106.6757
  1343.0000      0.0000    523.4459      3.8500    100.8949
  1343.2500      0.0000    547.7014      3.8661     93.6234
  1343.5000      0.0000    584.4167      3.9020     86.5214
  1343.7500      0.0000    614.5679      3.9520     81.1918
  1344.0000      0.0000    620.1976      4.0063     78.6179
  1344.2500      0.0000    596.5686      4.0565     78.8374
  1344.5000      0.0000    556.6058      4.0971     80.9456
  1344.7500      0.0000    523.0110      4.1234     83.6744
  1345.0000      0.0000    514.2450      4.1284     86.3534
  1345.2500      0.0000    534.4594      4.1061     89.3712
  1345.5000      0.0000    572.4214      4.0580     93.7374
  1345.7500      0.0000    608.3943      3.9948    100.2994
  1346.0000      0.0000    624.8069      3.9288    109.0904
  1346.2500      0.0000    614.8367      3.8673    119.0133
  1346.5000      0.0000    584.6553      3.8138    128.1500
  1346.7500      0.0000    549.8620      3.7707    134.7012
  1347.0000      0.0000    528.4293      3.7400    137.9068
  1347.2500      0.0000    532.2601      3.7236    138.3512
  1347.5000      0.0000    561.1648      3.7268    137.4340
  1347.7500      0.0000    603.7084      3.7582    136.2939
  1348.0000      0.0000    644.8197      3.8212    135.0906
  1348.2500      0.0000    674.5339      3.9074    133.4305
  1348.5000      0.0000    691.7551      4.0019    131.4006
  1348.7500      0.0000    701.7308      4.0951    129.7141
  1349.0000      0.0000    710.4802      4.1844    128.5259
  1349.2500      0.0000    720.0958      4.2635    126.6097
  1349.5000      0.0000    727.9726      4.3183    122.6918
  1349.7500      0.0000    730.5015      4.3340    117.9381
  1350.0000      0.0000    727.2493      4.3014    116.2753
  1350.2500      0.0000    720.7230      4.2206    121.2481
  1350.5000      0.0000    713.0416      4.1053    132.4458
  1350.7500      0.0000    705.0706      3.9836    145.4684
  1351.0000      0.0000    698.2671      3.8856    155.6193
  1351.2500      0.0000    694.6647      3.8258    161.5006
  1351.5000      0.0000    694.6774      3.7977    165.1099
  1351.7500      0.0000    696.6342      3.7849    169.2472
  1352.0000      0.0000    698.6464      3.7719    175.2379
  1352.2500      0.0000    699.9728      3.7482    182.2771
  1352.5000      0.0000    700.7559      3.7081    188.0610
  1352.7500      0.0000    701.3030      3.6553    190.1814
  1353.0000      0.0000    701.7794      3.6074    187.5270
  1353.2500      0.0000    702.1977      3.5894    180.6828
  1353.5000      0.0000    702.4512      3.6179    171.3157
  1353.7500      0.0000    702.2959      3.6896    161.6169
  1354.0000      0.0000    701.2030      3.7822    154.1027
  1354.2500      0.0000    698.1393      3.8670    150.9873
  1354.5000      0.0000    691.7287      3.9224    153.0129
  1354.7500      0.0000    681.6407      3.9397    158.7654
  1355.0000      0.0000    670.6763      3.9177    165.3432
  1355.2500      0.0000    664.5681      3.8578    169.9983
  1355.5000      0.0000    667.6576      3.7683    171.5170
  1355.7500      0.0000    678.4362      3.6684    170.3403
  1356.0000      0.0000    690.7559      3.5827    167.6445
  1356.2500      0.0000    699.4312      3.5286    164.4621
  1356.5000      0.0000    703.4901      3.5105    161.3145
  1356.7500      0.0000    704.6477      3.5232    158.1194
  1357.0000      0.0000    704.5591      3.5594    154.5169
  1357.2500      0.0000    703.8255      3.6116    150.5380
  1357.5000      0.0000    702.4537      3.6719    146.7245
  1357.7500      0.0000    700.5583      3.7330    143.4321
  1358.0000      0.0000    698.7379      3.7908    140.3730
  1358.2500      0.0000    697.7338      3.8424    137.0884
  1358.5000      0.0000    697.3734      3.8832    133.8286
  1358.7500      0.0000    695.6815      3.9110    131.9169
  1359.0000      0.0000    689.2573      3.9324    133.0650
  1359.2500      0.0000    675.2857      3.9577    138.1129
  1359.5000      0.0000    654.3250      3.9904    146.5260
  1359.7500      0.0000    631.1051      4.0228    156.9666
  1360.0000      0.0000    610.7484      4.0433    167.5688
  1360.2500      0.0000    593.1404      4.0455    175.4167
  1360.5000      0.0000    572.6415      4.0326    177.0546
  1360.7500      0.0000    544.7659      4.0142    171.1568
  1361.0000      0.0000    511.9048      3.9993    160.4400
  1361.2500      0.0000    481.4217      3.9891    149.8165
  1361.5000      0.0000    459.6512      3.9796    142.6207
  1361.7500      0.0000    448.8884      3.9668    138.8164
  1362.0000      0.0000    448.6873      3.9523    136.0091
  1362.2500      0.0000    457.8637      3.9441    131.5628
  1362.5000      0.0000    475.0684      3.9545    124.3036
  1362.7500      0.0000    498.5487      3.9936    114.9379
  1363.0000      0.0000    525.2173      4.0628    105.0874
  1363.2500      0.0000    548.8428      4.1557     96.0670
  1363.5000      0.0000    560.9854      4.2630     88.5797
  1363.7500      0.0000    558.4754      4.3729     83.1518
  1364.0000      0.0000    550.4898      4.4663     80.4422
  1364.2500      0.0000    552.5371      4.5187     81.0326
  1364.5000      0.0000    569.9591      4.5118     84.9327
  1364.7500      0.0000    590.2173      4.4461     91.3922
  1365.0000      0.0000    593.9869      4.3402     99.3286
  1365.2500      0.0000    572.4396      4.2189    107.9656
  1365.5000      0.0000    533.0048      4.1004    116.8321
  1365.7500      0.0000    491.0364      3.9955    125.1054
  1366.0000      0.0000    458.4339      3.9139    131.2134
  1366.2500      0.0000    439.0001      3.8678    133.3326
  1366.5000      0.0000    430.8117      3.8670    130.3768
