~Version Information
VERS.                      2.0: CWLS Log ASCII Standard - VERSION 2.0
WRAP.                       NO: One line per depth step
~Well Information Block
STRT.FT               400.0000: 
STOP.FT              1577.5000: 
STEP.FT                 0.1000: 
NULL.                -999.2500: 
COMP.          Pioneer Natural Resources: COMPANY
WELL.          Lorencito 10-36-33-67: WELL
FLD.           Purgatoire River: FIELD
LOC.           2130' FSL & 2362' FEL: LOCATION
STAT.                 Colorado: State
CNTY.               Las Animas: COUNTY
CTRY. USA : Country
SECT. 36 : Section
TOWN. 33S : Township
RANG. 67W : Range
SRVC.                Patterson: SERVICE COMPANY
DATE.          Mon Aug 29 07:03:31 2005: LOG DATE
API.           05 071 08501 00: UNIQUE WELL ID
~Curve Information Block
DEPT.FT            0 000 00 00: Depth
DCAL.in                       : CDL Caliper
RHOB.g/cc                     : CDL Bulk Density
RHOC.g/cc                     : CDL Density Correction
DPOR.pu                       : CDL Density Porosity
GR.GAPI                       : Gamma Ray
NPOR.pu                       : Neutron Porosity
~Parameter Information Block
~A  Depth       DCAL        RHOB        RHOC        DPOR         GR         NPOR    
# ...
  1177.6000      7.9475      2.6112      0.0953      2.3535     70.9263     18.5276
  1177.7000      7.9475      2.5921      0.1032      3.5094     74.3757     19.4785
  1177.8000      7.9403      2.5767      0.0788      4.4424     77.9919     19.5258
  1177.9000      7.9403      2.5718      0.0583      4.7418     77.2834     18.7830
  1178.0000      7.9501      2.5721      0.0264      4.7236     72.1444     18.1611
  1178.1000      7.9501      2.5727      0.0243      4.6865     66.6624     18.3347
  1178.2000      7.9501      2.5620      0.0269      5.3317     64.4345     18.7573
  1178.3000      8.0038      2.5303      0.0511      7.2538     62.7669     18.4918
  1178.4000      8.0038      2.4915     -0.0185      9.6086     59.7956     17.7256
  1178.5000      8.1059      2.4754     -0.0582     10.5848     55.7585     17.4082
  1178.6000      8.1059      2.4884      0.0070      9.7924     49.8805     17.6114
  1178.7000      8.1059      2.5032      0.0422      8.8960     45.7032     17.4930
  1178.8000      8.1159      2.5022     -0.0175      8.9570     45.9422     17.1097
  1178.9000      8.1159      2.4914      0.0340      9.6120     46.4693     17.0885
  1179.0000      8.0644      2.4771     -0.0165     10.4776     45.1070     16.9565
  1179.1000      8.0644      2.4640     -0.0038     11.2702     44.8995     16.3613
  1179.2000      8.0644      2.4517     -0.0095     12.0166     48.6492     15.6835
  1179.3000      8.0374      2.4386     -0.0239     12.8096     55.1605     15.0300
  1179.4000      8.0374      2.4320     -0.0377     13.2115     60.3391     14.6445
  1179.5000      8.0127      2.4411     -0.0395     12.6593     62.7693     14.9341
  1179.6000      8.0127      2.4627     -0.0125     11.3518     64.8876     15.6648
  1179.7000      8.0127      2.4782      0.0122     10.4091     67.5810     16.1360
  1179.8000      7.9982      2.4797     -0.0148     10.3199     68.9860     16.0317
  1179.9000      7.9982      2.4786     -0.0247     10.3860     69.1609     15.4410
  1180.0000      7.9776      2.4811      0.0618     10.2387     72.6121     14.8601
  1180.1000      7.9776      2.4828     -0.0346     10.1320     80.3644     15.0602
  1180.2000      7.9776      2.4843      0.0214     10.0411     87.1381     16.3164
  1180.3000      7.9781      2.4854      0.0458      9.9754     90.9683     18.0896
  1180.4000      7.9781      2.4911      0.0161      9.6324     94.5463     19.7434
  1180.5000      7.9651      2.5007      0.0738      9.0506    101.8624     21.0214
  1180.6000      7.9651      2.4816      0.1165     10.2073    114.9160     21.5060
  1180.7000      7.9651      2.4151      0.0303     14.2357    126.5113     21.2624
  1180.8000      7.9925      2.3391     -0.0324     18.8413    128.6871     21.2858
  1180.9000      7.9925      2.2902     -0.0429     21.8072    126.3546     22.3279
  1181.0000      7.9919      2.2592     -0.0203     23.6850    127.5438     23.9170
  1181.1000      7.9919      2.2213     -0.0123     25.9809    128.0633     24.9618
  1181.2000      7.9919      2.1619     -0.0161     29.5810    123.7524     25.3158
  1181.3000      7.9968      2.0885     -0.0023     34.0296    120.5055     25.9003
  1181.4000      7.9968      2.0226     -0.0094     38.0231    119.0620     27.1237
  1181.5000      7.9851      1.9712      0.0176     41.1421    115.9733     28.2610
  1181.6000      7.9851      1.9260      0.0412     43.8783    115.6203     29.0542
  1181.7000      7.9851      1.8871      0.0056     46.2362    120.0415     30.1550
  1181.8000      7.9663      1.8633     -0.0129     47.6792    123.9994     31.4398
  1181.9000      7.9663      1.8561      0.0356     48.1134    127.4559     31.6768
  1182.0000      7.9651      1.8606      0.0671     47.8423    132.0773     30.6072
  1182.1000      7.9651      1.8763      0.0852     46.8901    135.2177     29.4588
  1182.2000      7.9651      1.8978      0.1539     45.5850    136.7322     28.9124
  1182.3000      7.9732      1.9144      0.1047     44.5830    138.2520     28.6340
  1182.4000      7.9732      1.9269      0.1291     43.8268    139.5878     28.6536
  1182.5000      7.9727      1.9398      0.1113     43.0411    140.0839     29.0193
  1182.6000      7.9727      1.9633      0.0505     41.6153    138.9509     29.1819
  1182.7000      7.9727      2.0208      0.0671     38.1347    134.7195     28.8022
  1182.8000      7.9784      2.1183      0.1273     32.2245    126.6646     28.3221
  1182.9000      7.9784      2.2277      0.2090     25.5951    117.2414     28.2289
  1183.0000      7.9581      2.3259      0.1690     19.6410    113.0055     27.8519
  1183.1000      7.9581      2.4159      0.1974     14.1908    115.9777     26.6666
  1183.2000      7.9581      2.4883      0.2382      9.8024    117.2205     25.4129
  1183.3000      7.9534      2.5216      0.1829      7.7817    112.6622     24.5531
  1183.4000      7.9534      2.5210      0.1493      7.8176    110.5910     23.9651
  1183.5000      7.9618      2.5139      0.0648      8.2468    111.9934     23.7507
  1183.6000      7.9618      2.5105      0.0901      8.4554    111.9351     23.8603
  1183.7000      7.9618      2.4994      0.0478      9.1290    114.9151     23.6881
  1183.8000      7.9711      2.4822      0.0306     10.1727    125.7400     22.7773
  1183.9000      7.9711      2.4711      0.0041     10.8408    136.2328     21.4424
  1184.0000      7.9624      2.4743      0.0013     10.6485    136.9921     20.1325
  1184.1000      7.9624      2.4915     -0.0098      9.6067    133.1688     19.4029
  1184.2000      7.9624      2.5082      0.0347      8.5959    135.1247     19.4783
  1184.3000      7.9467      2.5135      0.0778      8.2733    145.9920     19.9867
  1184.4000      7.9467      2.5181      0.1021      7.9963    160.2724     20.7416
  1184.5000      7.9436      2.5281      0.1243      7.3884    169.6813     21.5943
  1184.6000      7.9436      2.5306      0.1033      7.2352    174.2529     22.2993
  1184.7000      7.9436      2.5182      0.1138      7.9871    176.1823     23.1210
  1184.8000      7.9129      2.5018      0.0794      8.9833    172.0915     24.2313
  1184.9000      7.9129      2.4996      0.1058      9.1125    161.9245     24.7905
  1185.0000      7.8869      2.5145      0.1481      8.2095    153.8498     24.5060
  1185.1000      7.8869      2.5323      0.1118      7.1321    154.8667     24.1714
  1185.2000      7.8869      2.5415      0.1431      6.5784    163.3261     23.9712
  1185.3000      7.8885      2.5350      0.0863      6.9685    171.6494     23.3228
  1185.4000      7.8885      2.5149      0.0444      8.1875    175.7495     22.5931
  1185.5000      7.9381      2.4910      0.0513      9.6381    174.0488     22.9531
  1185.6000      7.9381      2.4748      0.0552     10.6186    166.2504     24.1932
  1185.7000      7.9381      2.4737      0.0454     10.6861    159.7235     24.9013
  1185.8000      8.0078      2.4850      0.0383     10.0008    159.2355     24.6621
  1185.9000      8.0078      2.4991      0.0474      9.1437    161.3104     23.8681
  1186.0000      8.0056      2.5071      0.0467      8.6580    161.1666     23.0333
  1186.1000      8.0056      2.5066      0.0482      8.6881    158.1537     22.4030
  1186.2000      8.0056      2.5045      0.0415      8.8207    156.2142     21.8691
  1186.3000      8.0015      2.5114      0.0332      8.3986    157.0392     21.8203
  1186.4000      8.0015      2.5271      0.1124      7.4481    161.0936     22.4724
  1186.5000      8.0023      2.5366      0.0709      6.8743    167.6524     23.3480
  1186.6000      8.0023      2.5338      0.0834      7.0411    169.5704     24.0270
  1186.7000      8.0023      2.5303      0.0508      7.2529    163.9975     24.2711
  1186.8000      8.0008      2.5314      0.0818      7.1900    156.8044     24.1830
  1186.9000      8.0008      2.5258      0.0461      7.5244    153.3006     23.9961
  1187.0000      8.0004      2.5126      0.0569      8.3249    154.6907     23.8749
  1187.1000      8.0004      2.5025      0.0759      8.9404    159.0239     24.3046
