~Version Information
 VERS.                                  2.0 : CWLS LAS VERSION
 WRAP.                                   NO : WRAPING MODE
 SWARE .                 MController 2.5.0E : SOFTWARE VERSION
~Well Information
 WELL.                      Black Cat 13-23 : WELL
 COMP.     Pioneer Natural Resources USA Inc: COMPANY
 FLD.                      Purgatorie River : FIELD
 LOC.                 NW/SW Sec32 T32S R67W : LOCATION
 DATE.                           7/30-31/05 : DATE(S) LOGGED
 SRVC.       Blanco Geological Services LLC : SERVICE COMPANY
 STAT.                                   CO : STATE
 CNTY.                           Las Animas : COUNTY
 CTRY.                                  USA : COUNTRY
 API.                       05-071-08450-00 : API NUMBER
 STRT.FT                             327.00 : START DEPTH
 STOP.FT                            2850.00 : STOP DEPTH
 STEP.FT                               1.00 : DEPTH INCREMENT
 NULL.                                -9999 : NULL VALUE
~Curve information
 DEPTH.FT                                   :
 ROP.MIN/FT                                 :
 GAS.UNITS                                  :
~ASCII Log data
# ...
      2127.0         0.20          6.9 
      2128.0         0.30          7.1 
      2129.0         0.32          9.0 
      2130.0         0.47          9.1 
      2131.0        10.12         35.7 
      2132.0         0.80          4.2 
      2133.0         0.53          5.9 
      2134.0         0.43          7.2 
      2135.0         0.37          7.1 
      2136.0         0.43          8.7 
      2137.0         0.42          8.0 
      2138.0         0.47          7.3 
      2139.0         0.67          6.3 
      2140.0         0.47          8.4 
      2141.0         0.53         16.9 
      2142.0         0.47         21.8 
      2143.0         0.45         21.1 
      2144.0         0.43         12.0 
      2145.0         0.43          7.0 
      2146.0         0.53          4.2 
      2147.0         0.60          5.4 
      2148.0         0.23          4.6 
      2149.0         0.27          3.1 
      2150.0         0.23          3.4 
      2151.0         0.20          3.8 
      2152.0         0.13          3.8 
      2153.0         0.25          2.9 
      2154.0         0.30          4.0 
      2155.0         0.33          4.6 
      2156.0         0.30          4.9 
      2157.0         0.33          5.4 
      2158.0         0.50          5.5 
      2159.0         0.47          6.1 
      2160.0         0.50          7.3 
      2161.0        11.13         21.9 
      2162.0         0.27          4.5 
      2163.0         0.53          4.7 
      2164.0         0.30          4.3 
      2165.0         0.20          3.9 
      2166.0         0.33          4.5 
      2167.0         0.33          4.5 
      2168.0         0.33          6.3 
      2169.0         0.37          8.2 
      2170.0         0.42          8.2 
      2171.0         0.30          7.4 
      2172.0         0.37          6.5 
      2173.0         0.47          6.8 
      2174.0         0.40          6.9 
      2175.0         0.33          7.0 
      2176.0         0.33          6.9 
      2177.0         0.43          6.3 
      2178.0         0.43          5.1 
      2179.0         0.25          6.5 
      2180.0         0.27          6.4 
      2181.0         0.30          6.8 
      2182.0         0.27          6.7 
      2183.0         0.40          5.3 
      2184.0         0.40          5.3 
      2185.0         0.30          5.8 
      2186.0         0.23          7.0 
      2187.0         0.33          7.2 
      2188.0         0.40          6.9 
      2189.0         0.35          6.6 
      2190.0         0.37          7.8 
      2191.0        10.85         35.9 
      2192.0         0.30          7.8 
      2193.0         0.47          4.7 
      2194.0         0.43          4.0 
      2195.0         0.53          3.8 
      2196.0         0.30          3.8 
      2197.0         0.32          3.2 
      2198.0         0.37          4.0 
      2199.0         0.43          3.6 
      2200.0         0.30          3.7 
      2201.0         0.33          3.3 
      2202.0         0.37          3.3 
      2203.0         0.53          3.8 
      2204.0         0.47          4.1 
      2205.0         0.38          4.5 
      2206.0         0.40          5.0 
      2207.0         0.43          3.7 
      2208.0         0.53          3.6 
      2209.0         0.47          3.6 
      2210.0         0.40          3.5 
      2211.0         0.40          2.7 
      2212.0         0.37          3.0 
      2213.0         0.32          2.3 
      2214.0         0.27          2.6 
      2215.0         0.30          3.2 
      2216.0         0.30          1.8 
      2217.0         0.27          2.2 
      2218.0         0.27          2.0 
      2219.0         0.27          2.1 
      2220.0         0.27          1.7 
      2221.0        12.37        290.4 
      2222.0         0.47          1.4 
      2223.0         0.43          1.6 
      2224.0         0.37          2.3 
      2225.0         0.37          2.9 
      2226.0         0.40          3.8 
      2227.0         0.35          4.6 
      2228.0         0.37          6.4 
      2229.0         0.40          7.3 
      2230.0         0.47          6.6 
      2231.0         0.47          5.9 
      2232.0         0.50          5.7 
      2233.0         0.43          5.2 
      2234.0         0.47          3.5 
      2235.0         0.10          2.8 
      2236.0         0.18          2.8 
      2237.0         0.17          2.8 
      2238.0         0.43          2.5 
      2239.0         0.43          2.6 
      2240.0         0.50          3.1 
      2241.0         0.47          2.0 
      2242.0         0.47          1.9 
      2243.0         0.43          1.2 
      2244.0         0.33          2.0 
      2245.0         0.35          2.7 
      2246.0         0.33          3.0 
      2247.0         0.40          3.2 
      2248.0         0.40          2.9 
      2249.0         0.43          3.4 
      2250.0         0.47          4.4 
      2251.0        12.83        160.0 
      2252.0         0.43          1.9 
      2253.0         0.73          0.8 
      2254.0         0.55          1.8 
      2255.0         0.43          1.3 
      2256.0         0.33          1.3 
      2257.0         0.33          2.2 
      2258.0         0.33          2.5 
      2259.0         0.30          2.6 
      2260.0         0.33          3.0 
      2261.0         0.33          2.9 
      2262.0         0.33          2.2 
      2263.0         0.33          2.0 
      2264.0         0.35          0.8 
      2265.0         0.47          0.5 
      2266.0         0.50          2.2 
      2267.0         0.37          2.5 
      2268.0         0.37          2.1 
      2269.0         0.37          1.9 
      2270.0         0.33          1.2 
      2271.0         0.37          2.2 
      2272.0         0.37          2.1 
      2273.0         0.35          2.0 
      2274.0         0.30          2.1 
      2275.0         0.30          1.4 
      2276.0         0.30          1.5 
      2277.0         0.27          1.6 
      2278.0         0.30          2.8 
      2279.0         0.53          3.1 
      2280.0         0.57          3.6 
      2281.0        12.93        182.8 
      2282.0         0.73          0.3 
      2283.0         0.72          0.8 
      2284.0         0.57          0.2 
      2285.0         0.47          0.9 
      2286.0         0.57          1.8 
      2287.0         0.37          2.9 
      2288.0         0.37          4.0 
      2289.0         0.33          4.0 
      2290.0         0.35          5.1 
      2291.0         0.43          4.9 
      2292.0         0.47          3.1 
      2293.0         0.50          1.3 
      2294.0         0.47          0.3 
      2295.0         0.50          0.0 
      2296.0         0.43          0.3 
      2297.0         0.42          0.7 
      2298.0         0.40          1.0 
      2299.0         0.43          3.4 
      2300.0         0.43          3.3 
      2301.0         0.43          4.2 
      2302.0         0.40          4.0 
      2303.0         0.40          2.6 
      2304.0         0.43          1.8 
      2305.0         0.33          2.3 
      2306.0         0.38          2.7 
      2307.0         0.40          4.4 
      2308.0         0.40          4.4 
      2309.0         0.43          4.4 
      2310.0         0.53          4.7 
      2311.0        13.10        160.0 
      2312.0         0.83          5.9 
      2313.0         0.57          0.7 
      2314.0         0.48          1.0 
      2315.0         0.40          1.4 
      2316.0         0.43          1.5 
      2317.0         0.47          1.4 
      2318.0         0.43          1.5 
      2319.0         0.47          1.0 
      2320.0         0.37          1.7 
      2321.0         0.52          2.1 
      2322.0         0.43          1.8 
      2323.0         0.40          0.8 
      2324.0         0.50          1.3 
      2325.0         0.43          0.8 
      2326.0         0.33          1.6 
