~Version Information
VERS.                      2.0: CWLS Log ASCII Standard - VERSION 2.0
WRAP.                       NO: One line per depth step
~Well Information Block
STRT.FT               460.0000: 
STOP.FT              2811.5000: 
STEP.FT                 0.1000: 
NULL.                -999.2500: 
COMP.          Pioneer Natural Resources: COMPANY
WELL.           Dolzanie 34-12: WELL
FLD.           Purgatoire River: FIELD
LOC.           1001' FSL & 1750' FEL--: LOCATION
PROV.                 Colorado: PROVINCE
CNTY.               Las Animas: COUNTRY
SRVC.                Patterson: SERVICE COMPANY
DATE.          Wed Jul 20 07:56:24 2005: LOG DATE
UWI.           05 071 08439 00: UNIQUE WELL ID
~Curve Information Block
DEPT.FT            0 000 00 00: Depth
DCAL.in                       : CDL Caliper
DPOR.pu                       : CDL Density Porosity
NPOR.pu                       : Neutron Porosity
RHOB.g/cc                     : CDL Bulk Density
RHOC.g/cc                     : CDL Density Correction
GR.GAPI                       : Gamma Ray
~Parameter Information Block
~A  Depth       DCAL        DPOR        NPOR        RHOB        RHOC         GR     
# ...
   930.4000      7.7950     17.1410     17.7170      2.3672      0.1895    136.9738
   930.5000      7.7932     13.9670     17.8492      2.4195      0.1546    134.6968
   930.6000      7.7932     11.5391     18.0297      2.4596      0.1355    135.6782
   930.7000      7.7932     10.1000     18.2521      2.4833      0.1436    136.6711
   930.8000      7.7873      9.7565     18.3478      2.4890      0.0809    134.3859
   930.9000      7.7873     10.1040     18.3441      2.4833      0.0653    132.4647
   931.0000      7.7780     10.5115     18.4831      2.4766      0.0380    132.5838
   931.1000      7.7780     10.0176     19.0207      2.4847      0.0302    131.7321
   931.2000      7.7780      8.6394     19.9583      2.5075      0.0866    129.4892
   931.3000      7.7726      7.6398     20.9677      2.5239      0.0803    130.0047
   931.4000      7.7726      7.0536     21.9481      2.5336      0.0189    132.4382
   931.5000      7.7699      6.2179     22.9116      2.5474      0.0777    131.0103
   931.6000      7.7699      5.8009     23.5533      2.5543      0.0723    127.2546
   931.7000      7.7699      6.0256     23.9701      2.5506      0.0570    124.8096
   931.8000      7.7684      5.9162     24.7340      2.5524      0.0393    123.7286
   931.9000      7.7684      5.2179     25.7619      2.5639      0.0722    123.7613
   932.0000      7.7696      4.8466     26.6409      2.5700      0.0735    124.0877
   932.1000      7.7696      5.2392     27.4172      2.5636      0.0386    123.8253
   932.2000      7.7696      5.5970     28.0676      2.5577      0.0350    120.6293
   932.3000      7.7730      5.2321     28.4620      2.5637      0.0878    114.0919
   932.4000      7.7730      4.4661     28.4165      2.5763      0.0706    110.6704
   932.5000      7.7802      3.9432     27.9809      2.5849      0.0583    114.2954
   932.6000      7.7802      4.1096     27.5937      2.5822      0.0378    119.3789
   932.7000      7.7802      5.1974     27.1102      2.5642      0.0441    121.6947
   932.8000      7.7901      6.8508     26.3625      2.5370      0.0248    121.6230
   932.9000      7.7901      8.1008     25.7780      2.5163     -0.0026    120.7891
   933.0000      7.7956      8.4967     25.4207      2.5098      0.0319    124.8284
   933.1000      7.7956      8.0932     25.2293      2.5165      0.0178    132.6622
   933.2000      7.7956      6.8931     25.2510      2.5363      0.0560    135.6500
   933.3000      7.7960      5.5608     25.3544      2.5582      0.0533    132.9534
   933.4000      7.7960      5.2212     25.5670      2.5639      0.0591    131.0021
   933.5000      7.7955      6.2337     25.9860      2.5471      0.0144    130.8627
   933.6000      7.7955      7.7264     26.2986      2.5225     -0.0102    130.1975
   933.7000      7.7955      8.5866     26.1323      2.5083     -0.0229    126.6248
   933.8000      7.7951      8.1458     25.6239      2.5156      0.0007    121.3301
   933.9000      7.7951      6.2183     25.1666      2.5474      0.0393    118.5867
   934.0000      7.7952      3.1998     24.9112      2.5972      0.0492    116.4287
   934.1000      7.7952     -0.1614     24.8098      2.6527      0.0458    112.1521
   934.2000      7.7952     -2.6824     24.7722      2.6943      0.1203    107.9865
   934.3000      7.7952     -3.6453     24.8815      2.7101      0.1166    105.1819
   934.4000      7.7952     -4.1386     25.3203      2.7183      0.1206    103.8897
   934.5000      7.7939     -5.1586     26.0555      2.7351      0.1171    103.6911
   934.6000      7.7939     -5.9441     26.8582      2.7481      0.1393    102.5350
   934.7000      7.7939     -5.7568     27.4059      2.7450      0.1251     99.5599
   934.8000      7.7959     -5.2081     27.3914      2.7359      0.0718     94.9250
   934.9000      7.7959     -5.2223     27.0569      2.7362      0.0439     91.3327
   935.0000      7.8057     -5.7632     27.0715      2.7451      0.0261     91.5555
   935.1000      7.8057     -5.7982     27.7333      2.7457      0.0270     95.7411
   935.2000      7.8057     -4.4618     28.5684      2.7236      0.0446    100.1125
   935.3000      7.8190     -2.3529     29.0246      2.6888     -0.0145    101.9105
   935.4000      7.8190     -0.9063     28.9883      2.6650      0.0001    103.5698
   935.5000      7.8257     -0.3228     28.6887      2.6553     -0.0335    105.6177
   935.6000      7.8257      0.0873     28.3846      2.6486      0.0266    107.0928
   935.7000      7.8257      0.8285     28.3013      2.6363      0.0152    110.1050
   935.8000      7.8267      2.1126     28.3914      2.6151      0.0134    111.4274
   935.9000      7.8267      3.7872     28.3546      2.5875      0.0248    106.9021
   936.0000      7.8279      5.2634     28.2000      2.5632     -0.0088    103.7841
   936.1000      7.8279      6.0060     28.1989      2.5509     -0.0065    107.6245
   936.2000      7.8279      5.9960     28.6471      2.5511      0.0007    112.9503
   936.3000      7.8232      5.2774     29.4739      2.5629      0.0112    116.8787
   936.4000      7.8232      4.0085     29.7400      2.5839      0.0398    118.5838
   936.5000      7.8044      2.7601     28.9740      2.6045      0.0491    115.6929
   936.6000      7.8044      2.1499     28.1072      2.6145      0.0563    112.2161
   936.7000      7.8044      2.1901     27.7142      2.6139      0.0290    111.9972
   936.8000      7.7803      1.9752     27.4357      2.6174      0.0401    112.4887
   936.9000      7.7803      0.8335     27.0986      2.6362      0.0583    111.6980
   937.0000      7.7666     -0.2652     27.1107      2.6544      0.0811    109.4254
   937.1000      7.7666      0.1908     27.7439      2.6469      0.0832    105.4445
   937.2000      7.7666      1.8899     28.6501      2.6188      0.0313    102.1655
   937.3000      7.7587      3.0492     29.5531      2.5997     -0.0023    103.2787
   937.4000      7.7587      3.1341     30.3348      2.5983      0.0672    108.4180
   937.5000      7.7479      2.7857     30.5634      2.6040     -0.0359    114.3999
   937.6000      7.7479      2.0659     30.3196      2.6159      0.0349    118.9616
   937.7000      7.7479      1.4754     30.2622      2.6257      0.0436    121.3966
   937.8000      7.7403      1.8598     30.5076      2.6193      0.0760    121.6303
   937.9000      7.7403      2.9442     30.5951      2.6014      0.0535    119.6545
   938.0000      7.7393      2.8670     30.1297      2.6027     -0.0207    114.0018
   938.1000      7.7393      0.3936     29.4359      2.6435      0.0466    107.6380
   938.2000      7.7393     -2.6131     29.1975      2.6931      0.1512    105.2149
   938.3000      7.7406     -3.9367     29.2545      2.7150      0.1051    106.1113
   938.4000      7.7406     -3.9776     28.9727      2.7156      0.1181    107.9447
   938.5000      7.7400     -3.8346     28.5751      2.7133      0.1023    110.1885
   938.6000      7.7400     -3.8252     28.5404      2.7131      0.1008    115.3930
   938.7000      7.7400     -4.2174     28.8422      2.7196      0.0760    124.0022
   938.8000      7.7399     -5.0250     29.3101      2.7329      0.0768    130.7319
   938.9000      7.7399     -5.1198     29.5876      2.7345      0.0401    133.4474
   939.0000      7.7465     -3.3852     29.6448      2.7059      0.0407    134.2554
   939.1000      7.7465     -0.2907     29.6382      2.6548     -0.0248    133.1746
   939.2000      7.7465      2.9939     29.5361      2.6006     -0.0263    131.1788
   939.3000      7.7577      5.8369     29.6273      2.5537     -0.0341    129.8970
   939.4000      7.7577      7.9567     30.2474      2.5187     -0.0414    127.5520
   939.5000      7.7631      9.4346     31.1427      2.4943      0.0020    124.2442
   939.6000      7.7631     11.0197     31.4537      2.4682      0.0090    121.8722
   939.7000      7.7631     13.2041     30.7058      2.4321     -0.0291    120.7123
   939.8000      7.7635     15.1978     29.6229      2.3992     -0.0402    123.5553
   939.9000      7.7635     15.7213     28.9017      2.3906     -0.0885    132.6139
