~Version Information
VERS.                      2.0: CWLS Log ASCII Standard - VERSION 2.0
WRAP.                       NO: One line per depth step
~Well Information Block
STRT.FT                -8.5000: 
STOP.FT              1263.2500: 
STEP.FT                 0.2500: 
NULL.                -999.2500: 
COMP.          Pioneer Natural Resources: COMPANY
WELL.          Rockfish 11-30 Tr: WELL
FLD.           Purgatoire River: FIELD
LOC.           1063' FNL & 1068' FWL--: LOCATION
STAT.                       CO: State
CNTY.               Las Animas: COUNTY
CTRY. USA : country
SECT. 30 : Section
TOWN. 32S : Township
RANG. 65W : Range
SRVC.          Patterson Wireline: SERVICE COMPANY
DATE.          Tue Nov 22 16:08:49 2005: LOG DATE
API.           05 071 08585 00: UNIQUE WELL ID
~Curve Information Block
DEPT.FT            0 000 00 00: Depth
HVOLTA.V                      : Head Voltage Apparent
CCL.                          : Casing Collar Locator
TT3.usec                      : CBL 3' Travel Time
AMP3.mV                       : CBL 3' Amplitude
GR.GAPI                       : Gamma Ray
~Parameter Information Block
PPT.usec                0.0000: Predicted Pipe Time
~A  Depth      HVOLTA       CCL         TT3         AMP3         GR     
    -8.5000   -999.2500   -999.2500   -999.2500   -999.2500    107.6902
    -8.2500   -999.2500   -999.2500   -999.2500   -999.2500    110.5553
    -8.0000   -999.2500   -999.2500   -999.2500   -999.2500    111.3174
    -7.7500   -999.2500   -999.2500   -999.2500   -999.2500    109.8737
    -7.5000   -999.2500   -999.2500   -999.2500   -999.2500    106.8247
    -7.2500   -999.2500   -999.2500   -999.2500   -999.2500    103.3050
    -7.0000   -999.2500   -999.2500   -999.2500   -999.2500    100.5284
    -6.7500   -999.2500   -999.2500   -999.2500   -999.2500     99.3613
    -6.5000   -999.2500   -999.2500   -999.2500   -999.2500    100.1190
    -6.2500   -999.2500   -999.2500   -999.2500   -999.2500    102.4377
    -6.0000   -999.2500   -999.2500   -999.2500   -999.2500    105.2163
    -5.7500   -999.2500   -999.2500   -999.2500   -999.2500    106.8987
    -5.5000   -999.2500   -999.2500   -999.2500   -999.2500    106.2205
    -5.2500   -999.2500   -999.2500   -999.2500   -999.2500    102.9521
    -5.0000   -999.2500   -999.2500   -999.2500   -999.2500     97.9081
    -4.7500   -999.2500   -999.2500   -999.2500   -999.2500     92.1715
    -4.5000   -999.2500   -999.2500   -999.2500   -999.2500     86.4343
    -4.2500   -999.2500   -999.2500   -999.2500   -999.2500     81.1766
    -4.0000   -999.2500   -999.2500   -999.2500   -999.2500     77.1948
    -3.7500   -999.2500   -999.2500   -999.2500   -999.2500     75.5105
    -3.5000   -999.2500   -999.2500   1158.0000     -0.3658     76.4338
    -3.2500   -999.2500   -999.2500   1158.0000     -0.3631     78.7623
    -3.0000   -999.2500   -999.2500   1158.0000     -0.3656     80.4632
    -2.7500   -999.2500   -999.2500   1158.0000     -0.3706     80.4392
    -2.5000   -999.2500   -999.2500   1158.0000     -0.3740     79.1368
    -2.2500   -999.2500   -999.2500   1158.0000     -0.3743     77.1705
    -2.0000   -999.2500   -999.2500   1158.0000     -0.3729     74.1817
    -1.7500   -999.2500   -999.2500   1158.0000     -0.3718     69.7027
    -1.5000   -999.2500   -999.2500   1158.0000     -0.3709     64.4517
    -1.2500   -999.2500   -999.2500   1158.0000     -0.3685     59.9493
    -1.0000   -999.2500   -999.2500   1158.0000     -0.3651     56.9979
    -0.7500   -999.2500   -999.2500   1158.0000     -0.3635     54.8738
    -0.5000   -999.2500   -999.2500   1158.0000     -0.3656     52.1022
    -0.2500   -999.2500   -999.2500   1158.0000     -0.3699     48.1210
     0.0000   -999.2500   -999.2500   1158.0000     -0.3738     44.0519
     0.2500   -999.2500   -999.2500   1158.0000     -0.3767     41.6510
     0.5000   -999.2500   -999.2500   1158.0000     -0.3796     41.6262
     0.7500   -999.2500   -999.2500   1158.0000     -0.3870     44.4330
     1.0000   -999.2500   -999.2500   1158.0000     -0.3907     44.7580
     1.2500   -999.2500   -999.2500   1158.0000     -0.3927     44.7432
     1.5000   -999.2500   -999.2500   1158.0000     -0.3914     46.2332
     1.7500   -999.2500      0.0000   1158.0000     -0.3876     50.6758
     2.0000   -999.2500      0.0000   1158.0000     -0.3847     57.7897
     2.2500   -999.2500      0.0000   1158.0000     -0.3851     65.6871
     2.5000   -999.2500      0.0000   1158.0000     -0.3887     72.2352
     2.7500     96.3319      0.0000   1158.0000     -0.3939     76.3791
     3.0000     96.0024      0.0000   1158.0000     -0.3997     78.2605
     3.2500     96.1174      0.0000   1158.0000     -0.4063     78.3867
     3.5000     95.8845      0.0000   1158.0000     -0.4133     77.2450
     3.7500     96.2506      0.0000   1158.0000     -0.4187     75.6841
     4.0000     96.1580      0.0000   1158.0000     -0.4196     74.8340
     4.2500     95.7107      0.0000   1158.0000     -0.4142     75.2374
     4.5000     96.1931      0.0000   1158.0000     -0.4035     76.4080
     4.7500     96.0472      0.0000   1158.0000     -0.3909     77.2887
     5.0000     96.1160      0.0000   1158.0000     -0.3809     76.8367
     5.2500     96.1369      0.0000   1158.0000     -0.3752     74.4540
     5.5000     96.0585      0.0000   1157.9467     -0.3689     70.5188
     5.7500     96.0822      0.0000   1157.5936     -0.3411     66.5994
     6.0000     96.0374      0.0000   1155.7931     -0.2243     64.6752
     6.2500     95.9182      0.0000   1148.6332      0.1925     65.7247
     6.5000     96.3852      0.0000   1126.4258      1.4539     68.8544
     6.7500     96.2422      0.0000   1072.6808      4.6278     71.8051
     7.0000     96.1524      0.0000    971.1395     11.1510     72.5066
     7.2500     96.0627      0.0000    821.2821     21.9717     70.3964
     7.5000     96.1692      0.0000    648.3924     36.3385     66.6339
     7.7500     96.1889      0.0000    492.3275     51.5153     63.3912
     8.0000     95.7443      0.0000    381.9829     64.2191     62.5328
     8.2500     96.2239      0.0000    320.7975     72.6256     64.2547
     8.5000     96.3333     -2.0000    294.1532     77.0241     66.9029
     8.7500     96.1945      0.0000    285.0293     78.8563     68.4189
     9.0000     96.0599      0.0000    282.5740     79.4875     68.0173
     9.2500     96.2983      0.0000    282.0622     79.7054     66.4020
     9.5000     95.5873      0.0000    281.9889     79.8278     64.5228
     9.7500     95.9729      0.0000    281.9969     79.9415     62.4453
    10.0000     96.2856      0.0000    282.0059     80.0523     59.6292
    10.2500     96.2829      0.0000    282.0089     80.1482     56.2004
    10.5000     96.5212      0.0000    282.0060     80.2173     53.4416
    10.7500     95.9323      0.0000    281.9994     80.2554     52.6062
    11.0000     96.0738      0.0000    281.9926     80.2702     53.4687
    11.2500     96.1497      0.0000    281.9887     80.2796     54.4465
    11.5000     96.1805      0.0000    281.9889     80.3000     54.0721
    11.7500     96.2156      0.0000    281.9914     80.3336     52.1072
    12.0000     96.2422      0.0000    281.9930     80.3656     49.4176
    12.2500     96.1258      0.0000    281.9913     80.3751     47.1137
    12.5000     96.1244      0.0000    281.9879     80.3433     45.6919
    12.7500     96.1244      0.0000    281.9941     80.2375     44.7054
    13.0000     96.0963      0.0000    282.0490     79.9532     43.3400
    13.2500     96.2058      0.0000    282.2462     79.2238     41.4581
    13.5000     96.0458      0.0000    282.7353     77.5967     39.8552
    13.7500     96.0627      0.0000    283.6510     74.6516     39.3277
    14.0000     96.0711      0.0000    284.9921     70.4660     39.8462
    14.2500     96.0921      0.0000    286.5566     65.9196     40.9572
    14.5000     96.0697      0.0000    288.0202     62.3405     42.5327
    14.7500     96.1749      0.0000    289.1098     60.6361     44.5392
    15.0000     96.0669      0.0000    289.7369     60.7125     46.3238
    15.2500     96.1524      0.0000    289.9989     61.7098     46.7712
    15.5000     96.1875      0.0000    290.0979     62.6888     45.2980
    15.7500     96.2086     -2.0000    290.2821     63.0749     42.4193
    16.0000     96.0402      2.0000    290.8547     62.6504     39.2818
    16.2500     96.6768      0.0000    292.0968     61.4206     36.8416
    16.5000     95.7430      0.0000    293.9323     59.6256     35.5088
    16.7500     95.0111      0.0000    295.6176     57.7389     35.4045
    17.0000     96.6054      0.0000    296.1603     56.1497     36.7299
    17.2500     96.1146      0.0000    295.5235     54.7007     39.5891
    17.5000     96.1469      0.0000    295.3339     52.6930     43.3007
    17.7500     96.0627      0.0000    298.2546     49.4923     46.2967
    18.0000     96.0599      0.0000    307.1339     45.0741     47.2844
    18.2500     96.0655      0.0000    325.7677     39.9671     46.4164
    18.5000     96.0921      0.0000    360.3452     34.8150     44.8556
    18.7500     96.0388      0.0000    417.4223     30.0484     43.4499
    19.0000     96.1202      0.0000    497.1447     25.8469     42.4944
    19.2500     96.0402      0.0000    588.8557     22.2618     42.5146
