~Version Information
VERS.                      2.0: CWLS Log ASCII Standard - VERSION 2.0
WRAP.                       NO: One line per depth step
~Well Information Block
STRT.FT                10.0000: 
STOP.FT              1380.7500: 
STEP.FT                 0.2500: 
NULL.                -999.2500: 
COMP.          Pioneer Natural Resources: COMPANY
WELL.          Baa Baa 34-1 Tr: WELL
FLD.           Purgatoire River: FIELD
LOC.           785' FSL & 2304' FEL: LOCATION
CNTY.               Las Animas: COUNTY
SRVC.                Patterson: SERVICE COMPANY
DATE.          Tue Mar 07 13:08:19 2006: LOG DATE
UWI.           05 071 08710 00: UNIQUE WELL ID
STAT.                 Colorado: STATE
~Curve Information Block
DEPT.FT            0 000 00 00: Depth
GR.GAPI                       : Gamma Ray
CCL.                          : Casing Collar Locator
TT3.usec                      : CBL 3' Travel Time
AMP3.mV                       : CBL 3' Amplitude
~Parameter Information Block
~A  Depth        GR         CCL         TT3         AMP3    
    10.0000   -999.2500   -999.2500   1470.9331     -2.2774
    10.2500   -999.2500   -999.2500   1437.8577     -0.3734
    10.5000   -999.2500   -999.2500   1358.4973      4.0389
    10.7500   -999.2500   -999.2500   1210.1930     12.1455
    11.0000   -999.2500   -999.2500    994.3365     23.8791
    11.2500   -999.2500   -999.2500    749.6271     37.2204
    11.5000   -999.2500   -999.2500    533.5399     49.1418
    11.7500   -999.2500   -999.2500    384.9001     57.5562
    12.0000   -999.2500   -999.2500    305.2387     62.3207
    12.2500   -999.2500   -999.2500    271.9615     64.5839
    12.5000   -999.2500      0.0000    261.1298     65.6005
    12.7500   -999.2500      0.0000    258.4703     66.1248
    13.0000   -999.2500      0.0000    258.4117     66.3965
    13.2500   -999.2500      0.0000    259.9875     66.2644
    13.5000   -999.2500      0.0000    264.2001     65.2417
    13.7500   -999.2500      0.0000    272.2924     62.6629
    14.0000   -999.2500      0.0000    283.8938     58.1277
    14.2500   -999.2500      0.0000    295.8512     52.0202
    14.5000   -999.2500      0.0000    303.9154     45.5158
    14.7500   -999.2500      0.0000    306.2799     39.9258
    15.0000   -999.2500      0.0000    304.8483     36.0025
    15.2500   -999.2500      0.0000    302.7737     33.7704
    15.5000   -999.2500      0.0000    301.6904     32.7960
    15.7500   -999.2500      0.0000    301.4841     32.5521
    16.0000   -999.2500      0.0000    301.5132     32.6714
    16.2500   -999.2500      3.0000    301.3416     33.0080
    16.5000   -999.2500      0.0000    300.7063     33.5935
    16.7500   -999.2500      0.0000    299.4143     34.6395
    17.0000   -999.2500      0.0000    297.4824     36.5537
    17.2500     95.6424      0.0000    295.2587     39.7467
    17.5000     97.5811      0.0000    293.2461     44.1769
    17.7500     99.6704      0.0000    291.8206     49.0443
    18.0000    101.6486      0.0000    291.2382     53.0640
    18.2500    102.9490      0.0000    291.6665     55.1846
    18.5000    102.8834      0.0000    293.0065     55.1149
    18.7500    101.0061      0.0000    295.0806     53.2640
    19.0000     97.5819      0.0000    298.7304     50.3124
    19.2500     93.6455      0.0000    307.5093     46.8551
    19.5000     90.3268      0.0000    328.9616     43.2767
    19.7500     88.1469      0.0000    373.1639     39.7705
    20.0000     87.1019      0.0000    446.3236     36.4160
    20.2500     87.1822      0.0000    542.4743     33.2734
    20.5000     88.4944      0.0000    642.3342     30.4454
    20.7500     90.8484      0.0000    723.8214     28.0656
    21.0000     93.3475      0.0000    775.4485     26.2380
    21.2500     94.6863      0.0000    800.0705     24.9770
    21.5000     94.2211      0.0000    807.9200     24.1904
    21.7500     92.7087      0.0000    807.4269     23.7227
    22.0000     91.5449      0.0000    801.3108     23.4305
    22.2500     91.2121      0.0000    789.9882     23.2342
    22.5000     90.8878      0.0000    777.9785     23.1138
    22.7500     89.5996      0.0000    773.9012     23.0715
    23.0000     87.3177      0.0000    781.4502     23.0962
    23.2500     84.9539      0.0000    792.7136     23.1464
    23.5000     83.6328      0.0000    794.4982     23.1592
    23.7500     83.8530      0.0000    781.4703     23.0825
    24.0000     85.1070      0.0000    761.8561     22.9028
    24.2500     86.3601      0.0000    750.2034     22.6407
    24.5000     86.8806      0.0000    754.7134     22.3243
    24.7500     86.5668      0.0000    771.7886     21.9793
    25.0000     85.7970      0.0000    791.8281     21.6401
    25.2500     85.1872      0.0000    807.4298     21.3488
    25.5000     85.2323      0.0000    815.6414     21.1314
    25.7500     85.9296      0.0000    815.7447     20.9792
    26.0000     86.7658      0.0000    807.1389     20.8592
    26.2500     86.9785      0.0000    789.2200     20.7423
    26.5000     85.7880      0.0000    764.0381     20.6170
    26.7500     82.7949      0.0000    739.4543     20.4780
    27.0000     78.5513      0.0000    726.7346     20.3127
    27.2500     74.5202      0.0000    731.7150     20.1024
    27.5000     72.0519      0.0000    749.2383     19.8304
    27.7500     71.4291      0.0000    768.0454     19.4883
    28.0000     72.1073      0.0000    779.6934     19.0880
    28.2500     73.6281      0.0000    781.7881     18.6664
    28.5000     75.8197      0.0000    775.2011     18.2595
    28.7500     78.1549      0.0000    761.9418     17.8448
    29.0000     79.5962      0.0000    747.4952     17.2970
    29.2500     79.5227      0.0000    744.5679     16.4278
    29.5000     78.5050      0.0000    769.4128     15.1214
    29.7500     77.6586      0.0000    827.7132     13.4582
    30.0000     77.3204      0.0000    903.8758     11.7033
    30.2500     76.8397      0.0000    971.9717     10.1726
    30.5000     75.6250      0.0000   1021.2949      9.0910
    30.7500     73.9127      0.0000   1064.5569      8.5203
    31.0000     72.4738      0.0000   1116.8187      8.3763
    31.2500     71.9450     -3.0000   1175.2727      8.5133
    31.5000     72.5802     -3.0000   1227.3055      8.8273
    31.7500     74.4776      0.0000   1267.8080      9.3235
    32.0000     77.7453      0.0000   1296.7051     10.0972
    32.2500     82.0668      0.0000   1307.4753     11.2274
    32.5000     86.0777      0.0000   1291.9652     12.6595
    32.7500     87.7526      0.0000   1253.0347     14.1907
    33.0000     86.0597      0.0000   1202.2218     15.5677
    33.2500     82.1766      0.0000   1146.8967     16.6017
    33.5000     78.6995      0.0000   1086.6390     17.2419
    33.7500     77.7100      0.0000   1021.9158     17.5959
    34.0000     79.6651      0.0000    960.5027     17.8626
    34.2500     83.5155      0.0000    912.7253     18.1917
    34.5000     87.3532      0.0000    883.0183     18.5843
    34.7500     89.4533      0.0000    868.1681     18.9265
    35.0000     89.2701      0.0000    861.9450     19.1092
    35.2500     87.3552      0.0000    859.2831     19.1089
    35.5000     84.4877      0.0000    857.2235     18.9692
    35.7500     81.4255      0.0000    854.0419     18.7394
    36.0000     79.2154      0.0000    848.9399     18.4523
    36.2500     78.7620      0.0000    842.5767     18.1448
    36.5000     79.9709      0.0000    837.5530     17.8664
    36.7500     81.9486      0.0000    837.1074     17.6516
    37.0000     84.0730      0.0000    842.2753     17.4823
    37.2500     86.2971      0.0000    850.0269     17.2875
    37.5000     88.4452      0.0000    854.9999     16.9942
    37.7500     89.9134      0.0000    854.1110     16.5856
    38.0000     90.3844      0.0000    849.6531     16.1112
    38.2500     90.3273      0.0000    847.1809     15.6444
    38.5000     90.3482      0.0000    850.1835     15.2447
    38.7500     90.3834      0.0000    857.4475     14.9488
    39.0000     89.9241      0.0000    865.5748     14.7731
    39.2500     88.8583      0.0000    872.5381     14.7141
    39.5000     87.7227      0.0000    878.4692     14.7462
    39.7500     87.0450      0.0000    885.3256     14.8193
    40.0000     86.6371      0.0000    898.4578     14.8676
    40.2500     85.7853      0.0000    926.4560     14.8389
    40.5000     84.0640      0.0000    974.9202     14.7249
    40.7500     81.7194      0.0000   1038.1943     14.5585
    41.0000     79.4068      0.0000   1099.5049     14.3800
    41.2500     77.9734      0.0000   1140.8572     14.2162
    41.5000     78.2641      0.0000   1151.8752     14.0920
    41.7500     80.3783      0.0000   1130.8911     14.0415
    42.0000     83.0272      0.0000   1083.8021     14.0853
    42.2500     84.3120      0.0000   1024.4653     14.1981
    42.5000     83.4563      0.0000    970.9044     14.3132
    42.7500     81.3889      0.0000    935.6786     14.3641
    43.0000     79.5369      0.0000    919.6954     14.3265
    43.2500     78.4452      0.0000    915.0737     14.2308
