~Version Information
VERS.                      2.0: CWLS Log ASCII Standard - VERSION 2.0
WRAP.                       NO: One line per depth step
~Well Information Block
STRT.FT               645.0000: 
STOP.FT              2131.0000: 
STEP.FT                 0.1000: 
NULL.                -999.2500: 
COMP.          Pioneer Natural Resources: COMPANY
WELL.          Gunslinger 13-24: WELL
FLD.           Purgatoire River: FIELD
LOC.           1968' FSL & 633' FWL: LOCATION
PROV.                 Colorado: PROVINCE
CNTY.               Las Animas: COUNTRY
SRVC.                Patterson: SERVICE COMPANY
DATE.          Sat Jul 30 08:07:53 2005: LOG DATE
UWI.           05 071 08442 00: UNIQUE WELL ID
~Curve Information Block
DEPT.FT            0 000 00 00: Depth
DCAL.in                       : CDL Caliper
RHOB.g/cc                     : CDL Bulk Density
RHOC.g/cc                     : CDL Density Correction
DPOR.pu                       : CDL Density Porosity
GR.GAPI                       : Gamma Ray
NPOR.pu                       : Neutron Porosity
~Parameter Information Block
~A  Depth       DCAL        RHOB        RHOC        DPOR         GR         NPOR    
# ...
  2113.8000      7.8041      2.5853      0.1095      3.9210    131.9629     21.9037
  2113.9000      7.8041      2.5978      0.1076      3.1645    122.1417     21.4035
  2114.0000      7.8137      2.5896      0.0940      3.6586    106.6390     21.0271
  2114.1000      7.8137      2.5696      0.0852      4.8721     76.8677     20.9907
  2114.2000      7.8137      2.5504      0.0388      6.0340     38.9602     20.9555
  2114.3000      7.7879      2.5441      0.0547      6.4152     12.2874     20.3306
  2114.4000      7.7879      2.5450      0.0845      6.3645      2.2369     19.1958
  2114.5000      7.7830      2.5349      0.0894      6.9731      0.2251     18.3329
  2114.6000      7.7830      2.5167      0.0331      8.0777      0.0119     18.2082
  2114.7000      7.7830      2.5096      0.0139      8.5090      0.0000     18.5127
  2114.8000      7.7922      2.5154      0.0247      8.1577   -999.2500     18.5196
  2114.9000      7.7922      2.5209      0.0554      7.8217   -999.2500     18.1981
  2115.0000      7.8193      2.5211      0.0469      7.8102   -999.2500     18.1921
  2115.1000      7.8193      2.5178      0.0508      8.0138   -999.2500     18.4406
  2115.2000      7.8193      2.5206      0.0026      7.8413   -999.2500     18.6227
  2115.3000      7.7824      2.5447      0.0413      6.3826   -999.2500     19.1666
  2115.4000      7.7824      2.5869      0.0466      3.8272   -999.2500     20.0754
  2115.5000      7.7661      2.6237      0.1370      1.5932   -999.2500     20.7646
  2115.6000      7.7661      2.6331      0.1805      1.0238   -999.2500     21.3684
  2115.7000      7.7661      2.6179      0.0895      1.9426   -999.2500     22.3707
  2115.8000      7.7322      2.5920      0.1783      3.5174   -999.2500     23.5706
  2115.9000      7.7322      2.5614      0.1037      5.3693   -999.2500     24.3458
  2116.0000      7.7266      2.5396      0.0744      6.6886   -999.2500     25.0493
  2116.1000      7.7266      2.5329      0.0774      7.0948   -999.2500     27.5143
  2116.2000      7.7266      2.5317      0.0468      7.1674   -999.2500     33.5125
  2116.3000      7.7728      2.5326      0.0079      7.1132   -999.2500     41.4279
  2116.4000      7.7728      2.5337      0.0578      7.0497   -999.2500     46.8402
  2116.5000      7.7612      2.5279      0.0627      7.4023   -999.2500     48.8017
  2116.6000      7.7612      2.5191      0.0655      7.9364   -999.2500     49.1886
  2116.7000      7.7612      2.5197      0.0535      7.8955   -999.2500     49.2296
  2116.8000      7.7603      2.5320      0.0963      7.1499   -999.2500     49.2319
  2116.9000      7.7603      2.5463      0.0696      6.2878   -999.2500   -999.2500
  2117.0000      7.7758      2.5583      0.0212      5.5606   -999.2500   -999.2500
  2117.1000      7.7758      2.5697      0.0391      4.8668   -999.2500   -999.2500
  2117.2000      7.7758      2.5782      0.0627      4.3537   -999.2500   -999.2500
  2117.3000      7.7774      2.5821      0.0904      4.1171   -999.2500   -999.2500
  2117.4000      7.7774      2.5849      0.0499      3.9430   -999.2500   -999.2500
  2117.5000      7.7733      2.5833      0.0978      4.0431   -999.2500   -999.2500
  2117.6000      7.7733      2.5634      0.0569      5.2503   -999.2500   -999.2500
  2117.7000      7.7733      2.5283     -0.0025      7.3760   -999.2500   -999.2500
  2117.8000      7.7952      2.5018      0.0097      8.9807   -999.2500   -999.2500
  2117.9000      7.7952      2.5027      0.0257      8.9274   -999.2500   -999.2500
  2118.0000      7.7830      2.5310      0.0387      7.2134   -999.2500   -999.2500
  2118.1000      7.7830      2.5719      0.0289      4.7305   -999.2500   -999.2500
  2118.2000      7.7830      2.6067      0.0984      2.6226   -999.2500   -999.2500
  2118.3000      7.7696      2.6261      0.0840      1.4509   -999.2500   -999.2500
  2118.4000      7.7696      2.6319      0.0799      1.0978   -999.2500   -999.2500
  2118.5000      7.7641      2.6211      0.0880      1.7524   -999.2500   -999.2500
  2118.6000      7.7641      2.5956      0.0476      3.2996   -999.2500   -999.2500
  2118.7000      7.7641      2.5672      0.0584      5.0198   -999.2500   -999.2500
  2118.8000      7.7511      2.5355      0.0339      6.9411   -999.2500   -999.2500
  2118.9000      7.7511      2.4942      0.0317      9.4441   -999.2500   -999.2500
  2119.0000      7.7702      2.4540     -0.0662     11.8780   -999.2500   -999.2500
  2119.1000      7.7702      2.4305     -0.0268     13.3051   -999.2500   -999.2500
  2119.2000      7.7702      2.4219      0.0092     13.8213   -999.2500   -999.2500
  2119.3000      7.7776      2.4264      0.0379     13.5529   -999.2500   -999.2500
  2119.4000      7.7776      2.4459      0.0484     12.3679   -999.2500   -999.2500
  2119.5000      7.7819      2.4734      0.0786     10.7042   -999.2500   -999.2500
  2119.6000      7.7819      2.5055      0.0403      8.7582   -999.2500   -999.2500
  2119.7000      7.7819      2.5547      0.1224      5.7730   -999.2500   -999.2500
  2119.8000      7.7610      2.6139      0.2248      2.1889   -999.2500   -999.2500
  2119.9000      7.7610      2.6486      0.2021      0.0864   -999.2500   -999.2500
  2120.0000      7.7219      2.6492      0.2310      0.0511   -999.2500   -999.2500
  2120.1000      7.7219      2.6335      0.2119      1.0001   -999.2500   -999.2500
  2120.2000      7.7219      2.6087      0.1845      2.5008   -999.2500   -999.2500
  2120.3000      7.7165      2.5746      0.0614      4.5727   -999.2500   -999.2500
  2120.4000      7.7165      2.5401      0.0632      6.6579   -999.2500   -999.2500
  2120.5000      7.7746      2.5132      0.0718      8.2929   -999.2500   -999.2500
  2120.6000      7.7746      2.4995      0.0668      9.1212   -999.2500   -999.2500
  2120.7000      7.7746      2.5074      0.0551      8.6420   -999.2500   -999.2500
  2120.8000      7.7898      2.5353      0.1025      6.9518   -999.2500   -999.2500
  2120.9000      7.7898      2.5688      0.1267      4.9183   -999.2500   -999.2500
  2121.0000      7.7857      2.5962      0.1361      3.2603   -999.2500   -999.2500
  2121.1000      7.7857      2.6115      0.1434      2.3359   -999.2500   -999.2500
  2121.2000      7.7857      2.6111      0.1331      2.3569   -999.2500   -999.2500
  2121.3000      7.7799      2.5958      0.1301      3.2855   -999.2500   -999.2500
  2121.4000      7.7799      2.5679      0.1252      4.9761   -999.2500   -999.2500
  2121.5000      7.7459      2.5356      0.0742      6.9327   -999.2500   -999.2500
  2121.6000      7.7459      2.5170      0.0702      8.0599   -999.2500   -999.2500
  2121.7000      7.7459      2.5274     -0.0003      7.4293   -999.2500   -999.2500
  2121.8000      7.7971      2.5592      0.0240      5.5008   -999.2500   -999.2500
  2121.9000      7.7971      2.5825      0.0622      4.0882   -999.2500   -999.2500
  2122.0000      7.8019      2.5814      0.0759      4.1589   -999.2500   -999.2500
  2122.1000      7.8019      2.5718      0.0172      4.7410   -999.2500   -999.2500
  2122.2000      7.8019      2.5699      0.0486      4.8566   -999.2500   -999.2500
  2122.3000      7.7743      2.5710      0.0864      4.7854   -999.2500   -999.2500
  2122.4000      7.7743      2.5711      0.0762      4.7807   -999.2500   -999.2500
  2122.5000      7.7774      2.5821      0.0515      4.1155   -999.2500   -999.2500
  2122.6000      7.7774      2.6090      0.0916      2.4836   -999.2500   -999.2500
  2122.7000      7.7774      2.6308      0.1078      1.1624   -999.2500   -999.2500
  2122.8000      7.7861      2.6296      0.1023      1.2355   -999.2500   -999.2500
  2122.9000      7.7861      2.6091      0.0958      2.4816   -999.2500   -999.2500
  2123.0000      7.8169      2.5776      0.0491      4.3898   -999.2500   -999.2500
  2123.1000      7.8169      2.5432      0.0390      6.4750   -999.2500   -999.2500
  2123.2000      7.8169      2.5167      0.0494      8.0776   -999.2500   -999.2500
  2123.3000      7.7904      2.5073      0.0027      8.6513   -999.2500   -999.2500
