~Version Information
VERS.                      2.0: CWLS Log ASCII Standard - VERSION 2.0
WRAP.                       NO: One line per depth step
~Well Information Block
STRT.FT                -7.0000: 
STOP.FT              1155.0000: 
STEP.FT                 0.2500: 
NULL.                -999.2500: 
COMP.          Pioneer Natural Resources: COMPANY
WELL.          Whitecoat 14-36: WELL
FLD.           Purgatorie River: FIELD
LOC.           606' FSL & 260' FWL--: LOCATION
PROV.                       CO: PROVINCE
CNTY.               Las Animas: COUNTRY
SRVC.          Patterson Wireline: SERVICE COMPANY
DATE.          Mon Dec 12 12:56:49 2005: LOG DATE
UWI.           08 071 08593 00: UNIQUE WELL ID
~Curve Information Block
DEPT.FT            0 000 00 00: Depth
CCL.                          : Casing Collar Locator
TT3.usec                      : CBL 3' Travel Time
AMP3.mV                       : CBL 3' Amplitude
GR.GAPI                       : Gamma Ray
~Parameter Information Block
~A  Depth       CCL         TT3         AMP3         GR     
# ...
   160.5000      0.0000   1044.9287      4.0848     86.4928
   160.7500      0.0000   1034.8644      4.0164     79.9919
   161.0000      0.0000   1025.3297      3.9652     76.0916
   161.2500      0.0000   1017.0557      3.9519     74.1865
   161.5000      0.0000   1014.8661      3.9833     73.8665
   161.7500      0.0000   1017.6289      4.0567     74.7344
   162.0000      0.0000   1013.6628      4.1733     76.3251
   162.2500      0.0000    990.4843      4.3445     78.4612
   162.5000      0.0000    946.4484      4.5752     81.1703
   162.7500      0.0000    893.0782      4.8420     84.1644
   163.0000      0.0000    849.7129      5.0985     86.7273
   163.2500      0.0000    833.7925      5.3105     88.3138
   163.5000      0.0000    850.1500      5.4803     89.2608
   163.7500      0.0000    887.6815      5.6296     90.8774
   164.0000      0.0000    926.9744      5.7684     94.4297
   164.2500      0.0000    952.3231      5.8855     99.5857
   164.5000      0.0000    960.8986      5.9633    104.0870
   164.7500      0.0000    964.4160      5.9906    105.5688
   165.0000      0.0000    978.7863      5.9650    103.6609
   165.2500      0.0000   1007.8411      5.8923    100.0316
   165.5000      0.0000   1038.5623      5.7885     96.6504
   165.7500      0.0000   1053.5387      5.6739     94.1640
   166.0000      0.0000   1046.0215      5.5643     91.5636
   166.2500      0.0000   1023.1032      5.4710     87.0362
   166.5000      0.0000    997.6097      5.4047     79.4166
   166.7500      0.0000    978.6863      5.3726     69.3942
   167.0000      0.0000    968.3368      5.3754     59.4397
   167.2500      0.0000    963.9800      5.4080     52.2153
   167.5000      0.0000    962.4272      5.4599     48.8450
   167.7500      0.0000    961.9682      5.5163     48.6601
   168.0000      0.0000    962.5145      5.5616     50.2705
   168.2500      0.0000    965.1005      5.5833     52.5547
   168.5000      0.0000    971.0009      5.5720     55.0435
   168.7500      0.0000    979.9367      5.5285     58.2390
   169.0000      0.0000    988.3290      5.4746     63.5703
   169.2500      0.0000    990.2911      5.4449     72.0589
   169.5000      0.0000    981.7933      5.4566     82.5839
   169.7500      0.0000    963.7216      5.4893     92.1167
   170.0000      0.0000    940.3712      5.5011     98.0603
   170.2500      0.0000    915.6675      5.4646     99.9356
   170.5000      0.0000    891.3779      5.3863     98.8604
   170.7500      0.0000    868.2361      5.2954     96.2798
   171.0000      0.0000    847.5250      5.2182     93.5067
   171.2500      0.0000    830.5671      5.1616     91.6468
   171.5000      0.0000    816.7130      5.1151     91.1619
   171.7500      0.0000    803.1042      5.0676     91.5394
   172.0000      0.0000    787.5517      5.0178     91.6653
   172.2500      0.0000    771.6046      4.9687     90.5913
   172.5000      0.0000    759.9578      4.9202     88.1640
   172.7500      0.0000    756.0955      4.8703     85.2801
   173.0000      0.0000    758.6094      4.8151     83.4973
   173.2500      0.0000    762.5275      4.7396     83.9321
   173.5000      0.0000    764.1057      4.6196     86.2123
   173.7500      0.0000    763.0668      4.4462     88.6446
   174.0000      0.0000    760.3957      4.2444     89.6542
   174.2500      0.0000    756.1095      4.0662     89.2988
   174.5000      0.0000    750.0436      3.9612     89.5646
   174.7500      0.0000    743.4083      3.9534     92.9653
   175.0000      0.0000    739.2006      4.0419    100.2462
   175.2500      0.0000    743.1278      4.2064    109.1334
   175.5000      0.0000    764.5023      4.3953    115.5870
   175.7500      0.0000    812.2613      4.5220    116.7417
   176.0000      0.0000    885.2831      4.5206    112.8612
   176.2500      0.0000    966.2694      4.4067    106.6255
   176.5000      0.0000   1029.4308      4.2526    100.8498
   176.7500      0.0000   1057.8402      4.1079     96.8918
   177.0000     -2.0000   1054.1804      3.9738     94.5341
   177.2500      0.0000   1034.3282      3.8360     92.8633
   177.5000      0.0000   1010.2570      3.6949     91.2868
   177.7500      0.0000    980.0520      3.5748     89.7977
   178.0000      0.0000    935.9848      3.5148     88.4730
   178.2500      0.0000    879.3909      3.5387     87.2148
   178.5000      0.0000    822.4834      3.6257     86.0432
   178.7500      0.0000    776.8664      3.7285     85.2432
   179.0000      0.0000    745.4958      3.8206     85.0866
   179.2500      0.0000    725.3079      3.9102     85.5117
   179.5000      0.0000    712.6758      4.0184     85.9920
   179.7500      0.0000    705.0521      4.1608     85.7148
   180.0000      0.0000    699.9897      4.3442     84.1226
   180.2500      0.0000    694.3459      4.5647     81.4846
   180.5000      0.0000    684.4333      4.8063     78.9326
   180.7500      0.0000    666.7657      5.0482     77.7845
   181.0000      0.0000    639.0206      5.2790     78.6328
   181.2500      0.0000    600.9569      5.5034     81.0436
   181.5000      0.0000    555.3639      5.7335     83.9939
   181.7500      0.0000    508.2321      5.9716     86.4922
   182.0000      0.0000    466.7839      6.2030     88.0062
   182.2500      0.0000    436.0135      6.4049     88.5966
   182.5000      0.0000    416.6912      6.5641     88.6307
   182.7500      0.0000    406.3157      6.6830     88.3210
   183.0000      0.0000    401.4510      6.7718     87.5869
   183.2500      0.0000    399.3768      6.8403     86.2978
   183.5000      0.0000    398.4698      6.8967     84.5948
   183.7500      0.0000    397.8275      6.9479     82.9291
   184.0000      0.0000    396.7347      6.9981     81.6428
   184.2500      0.0000    394.3593      7.0490     80.5302
   184.5000      0.0000    389.9565      7.1031     79.0196
   184.7500      0.0000    383.4871      7.1671     76.7824
   185.0000      0.0000    376.0156      7.2505     74.0773
   185.2500      0.0000    369.2044      7.3590     71.5759
   185.5000      0.0000    364.2411      7.4876     69.8420
   185.7500      0.0000    361.2645      7.6216     68.8896
   186.0000      0.0000    359.6927      7.7484     68.2660
   186.2500      0.0000    358.8600      7.8662     67.6727
   186.5000      0.0000    358.3485      7.9791     67.4550
   186.7500      0.0000    357.9782      8.0856     68.3280
   187.0000      0.0000    357.6906      8.1761     70.4742
   187.2500      0.0000    357.4656      8.2391     72.9366
   187.5000      0.0000    357.2875      8.2704     74.1812
   187.7500      0.0000    357.1408      8.2771     73.4339
   188.0000      0.0000    357.0158      8.2728     71.2712
   188.2500      0.0000    356.9127      8.2677     68.6874
   188.5000      0.0000    356.8350      8.2604     66.0256
   188.7500      0.0000    356.7827      8.2393     63.2591
   189.0000      0.0000    356.7562      8.1936     60.8982
   189.2500      0.0000    356.7723      8.1196     59.8905
   189.5000      0.0000    356.8970      8.0183     60.6567
   189.7500      0.0000    357.3122      7.8851     62.6625
   190.0000      0.0000    358.4249      7.7072     64.9822
   190.2500      0.0000    360.9061      7.4735     66.9448
   190.5000      0.0000    365.4052      7.1935     68.0841
   190.7500      0.0000    371.9104      6.9087     67.8499
   191.0000      0.0000    379.3410      6.6811     65.9543
   191.2500      0.0000    386.0548      6.5616     63.0962
   191.5000      0.0000    390.9485      6.5593     60.7925
   191.7500      0.0000    394.0079      6.6407     60.0623
   192.0000      0.0000    395.8651      6.7587     60.5963
   192.2500      0.0000    397.0710      6.8802     61.4990
   192.5000      0.0000    397.8609      6.9900     62.4726
   192.7500      0.0000    398.4255      7.0770     63.8658
   193.0000      0.0000    399.2812      7.1240     65.7244
   193.2500      0.0000    401.3750      7.1138     67.1871
   193.5000      0.0000    405.7115      7.0498     67.1411
   193.7500      0.0000    412.7971      6.9750     65.3747
