~Version Information
VERS.                      2.0: CWLS Log ASCII Standard - VERSION 2.0
WRAP.                       NO: One line per depth step
~Well Information Block
STRT.FT                -8.2500: 
STOP.FT              2119.7500: 
STEP.FT                 0.2500: 
NULL.                -999.2500: 
COMP.          Pioneer Natural Resources: COMPANY
WELL.          Hemisphere 32-24: WELL
FLD.           Purgatorie River: FIELD
LOC.           1850' FNL & 2284' FEL--: LOCATION
PROV.                       CO: PROVINCE
CNTY.               Las Animas: COUNTRY
SRVC.          Patterson Wireline: SERVICE COMPANY
DATE.          Sat Aug 27 08:06:42 2005: LOG DATE
UWI.           05 071 08440 00: UNIQUE WELL ID
~Curve Information Block
DEPT.FT            0 000 00 00: Depth
CCL.                          : Casing Collar Locator
TT3.usec                      : CBL 3' Travel Time
AMP3.mV                       : CBL 3' Amplitude
GR.GAPI                       : Gamma Ray
~Parameter Information Block
~A  Depth       CCL         TT3         AMP3         GR     
# ...
  1968.2500      0.0000    683.7941      5.4768     54.5181
  1968.5000      0.0000    693.3889      5.5079     55.3079
  1968.7500      0.0000    703.5491      5.5408     56.1787
  1969.0000      0.0000    710.6989      5.6003     57.7733
  1969.2500      0.0000    713.9390      5.7085     60.4817
  1969.5000      0.0000    715.2676      5.8661     63.7597
  1969.7500      0.0000    717.5546      6.0458     66.0235
  1970.0000      0.0000    722.1151      6.2076     65.8066
  1970.2500      0.0000    727.9633      6.3271     63.1645
  1970.5000      0.0000    732.8135      6.4089     59.5422
  1970.7500      0.0000    734.3649      6.4756     56.3392
  1971.0000      0.0000    731.3984      6.5480     54.0051
  1971.2500      0.0000    725.1538      6.6360     52.3923
  1971.5000      0.0000    719.5949      6.7411     51.3861
  1971.7500      0.0000    718.4336      6.8620     50.8850
  1972.0000      0.0000    721.1997      6.9965     50.4123
  1972.2500      0.0000    723.4111      7.1427     49.2700
  1972.5000      0.0000    721.1154      7.2972     47.4150
  1972.7500      0.0000    714.6968      7.4504     45.8754
  1973.0000      0.0000    707.9944      7.5844     45.7948
  1973.2500      0.0000    704.1155      7.6799     47.2269
  1973.5000      0.0000    702.6904      7.7273     49.3383
  1973.7500      0.0000    701.2573      7.7303     51.5442
  1974.0000      0.0000    698.3948      7.7009     53.8821
  1974.2500      0.0000    694.8976      7.6537     56.3679
  1974.5000      0.0000    692.6679      7.6040     58.5368
  1974.7500      0.0000    693.1682      7.5678     59.7180
  1975.0000      0.0000    696.5262      7.5565     59.4955
  1975.2500      0.0000    701.8714      7.5696     57.8968
  1975.5000      0.0000    708.5418      7.5956     55.3918
  1975.7500      0.0000    715.9459      7.6213     52.8051
  1976.0000      0.0000    722.2053      7.6406     51.0102
  1976.2500      0.0000    725.1038      7.6515     50.5334
  1976.5000      0.0000    725.0127      7.6508     51.4276
  1976.7500      0.0000    724.5692      7.6355     53.4413
  1977.0000      0.0000    724.5574      7.6084     56.1340
  1977.2500      0.0000    722.0472      7.5787     58.8812
  1977.5000      0.0000    713.7065      7.5569     61.0784
  1977.7500      0.0000    699.9105      7.5498     62.4410
  1978.0000      0.0000    684.3709      7.5612     62.8827
  1978.2500      0.0000    669.8199      7.5920     62.1103
  1978.5000      0.0000    654.3918      7.6386     59.7888
  1978.7500      0.0000    631.9691      7.6902     56.2912
  1979.0000      0.0000    596.3803      7.7289     52.9124
  1979.2500      0.0000    547.1251      7.7370     51.0110
  1979.5000      0.0000    492.1220      7.7072     51.0565
  1979.7500      0.0000    443.6052      7.6485     52.6168
  1980.0000      0.0000    410.0192      7.5800     54.8728
  1980.2500      0.0000    391.8147      7.5167     56.8754
  1980.5000      0.0000    384.1317      7.4614     57.9140
  1980.7500      0.0000    381.7240      7.4135     58.3654
  1981.0000      0.0000    381.4370      7.3808     59.7117
  1981.2500      0.0000    382.2429      7.3770     62.9039
  1981.5000      0.0000    384.9665      7.4060     66.8815
  1981.7500      0.0000    392.7668      7.4520     69.3383
  1982.0000      0.0000    411.2312      7.4856     69.0001
  1982.2500      0.0000    445.7929      7.4821     66.8133
  1982.5000      0.0000    496.4088      7.4391     64.7864
  1982.7500      0.0000    554.3842      7.3803     64.0435
  1983.0000      0.0000    606.3027      7.3455     64.4665
  1983.2500      0.0000    642.2562      7.3706     65.8282
  1983.5000      0.0000    660.4659      7.4693     68.2435
  1983.7500      0.0000    665.5231      7.6300     71.2994
  1984.0000      0.0000    664.0643      7.8307     73.6954
  1984.2500      0.0000    661.4757      8.0538     74.4006
  1984.5000      0.0000    660.4089      8.2854     73.8339
  1984.7500      0.0000    660.9966      8.5054     73.5785
  1985.0000      0.0000    662.2217      8.6851     75.0695
  1985.2500      0.0000    663.2465      8.7991     78.4242
  1985.5000      0.0000    663.8363      8.8449     82.1459
  1985.7500      0.0000    664.1382      8.8528     84.0308
  1986.0000      0.0000    664.3660      8.8731     82.6332
  1986.2500      0.0000    664.6370      8.9469     77.9689
  1986.5000      0.0000    664.9559      9.0873     71.1765
  1986.7500      0.0000    665.2797      9.2840     63.9311
  1987.0000      0.0000    665.5964      9.5189     57.9326
  1987.2500      0.0000    665.9260      9.7725     54.3204
  1987.5000      0.0000    666.2618     10.0198     53.3924
  1987.7500      0.0000    666.4885     10.2320     54.9181
  1988.0000      0.0000    666.2891     10.3888     58.6048
  1988.2500      0.0000    665.0347     10.4917     64.1284
  1988.5000      0.0000    661.7445     10.5574     70.7251
  1988.7500      0.0000    655.1978     10.5989     76.8615
  1989.0000      0.0000    643.8647     10.6166     80.6640
  1989.2500      0.0000    625.6758     10.6065     81.0738
  1989.5000      0.0000    599.4516     10.5682     78.6503
  1989.7500      0.0000    568.7536     10.5034     75.0791
  1990.0000      0.0000    542.5159     10.4168     71.8780
  1990.2500      0.0000    526.8383     10.3217     69.5262
  1990.5000      0.0000    516.0995     10.2388     67.6448
  1990.7500      0.0000    497.7532     10.1858     65.8624
  1991.0000      0.0000    466.9879     10.1707     64.4843
  1991.2500      0.0000    432.1846     10.1938     64.3152
  1991.5000      0.0000    405.8987     10.2521     65.8084
  1991.7500      0.0000    395.4142     10.3405     68.3576
  1992.0000      0.0000    402.4301     10.4518     70.5898
  1992.2500      0.0000    426.1140     10.5784     71.6281
  1992.5000      0.0000    462.3259     10.7153     72.0891
  1992.7500      0.0000    501.4464     10.8588     73.5825
  1993.0000      0.0000    531.4598     11.0030     77.0348
  1993.2500      0.0000    546.1251     11.1369     81.5588
  1993.5000      0.0000    550.2953     11.2447     85.0719
  1993.7500      0.0000    555.9672     11.3121     85.9994
  1994.0000      0.0000    572.0186     11.3355     84.3960
  1994.2500      0.0000    597.2737     11.3269     81.6180
  1994.5000      0.0000    622.4322     11.3046     79.2005
  1994.7500      0.0000    636.5596     11.2792     78.0584
  1995.0000      0.0000    631.4815     11.2454     78.3191
  1995.2500      0.0000    603.8029     11.1886     79.4677
  1995.5000      0.0000    557.2630     11.0980     80.7888
  1995.7500      0.0000    503.5806     10.9727     81.9534
  1996.0000      0.0000    457.8594     10.8189     83.1259
  1996.2500      0.0000    431.6362     10.6409     84.4505
  1996.5000      0.0000    430.5396     10.4320     85.5824
  1996.7500      0.0000    455.8647     10.1685     85.6858
  1997.0000      0.0000    503.8660      9.8177     83.8446
  1997.2500      0.0000    563.5114      9.3694     79.8188
  1997.5000      0.0000    619.3176      8.8750     74.5572
  1997.7500      0.0000    659.4697      8.4449     69.6409
  1998.0000      0.0000    682.0579      8.1634     66.1402
  1998.2500      0.0000    694.8941      7.9867     64.1758
  1998.5000      0.0000    709.9925      7.7704     63.2555
  1998.7500      0.0000    736.0424      7.4340     62.4793
  1999.0000      0.0000    773.3917      7.0425     60.5988
  1999.2500      0.0000    814.8643      6.6928     56.6604
  1999.5000      0.0000    850.6394      6.3904     50.9761
  1999.7500      2.0000    872.7082      6.0840     45.2731
  2000.0000      0.0000    876.9564      5.7685     41.6301
  2000.2500      0.0000    863.9657      5.5224     41.0082
  2000.5000      0.0000    838.9875      5.4617     42.5713
  2000.7500      0.0000    809.8679      5.6462     44.4059
  2001.0000      0.0000    782.9860      6.0144     44.9959
  2001.2500      0.0000    759.9341      6.4508     44.0117
  2001.5000      0.0000    736.7994      6.9542     41.9698
