~Version Information
VERS.                      2.0: CWLS Log ASCII Standard - VERSION 2.0
WRAP.                       NO: One line per depth step
~Well Information Block
STRT.FT               340.0000: 
STOP.FT              2342.7000: 
STEP.FT                 0.1000: 
NULL.                -999.2500: 
COMP.          Pioneer Natural Resources: COMPANY
WELL.          Pinkerton 41-12: WELL
FLD.           Purgatoire River: FIELD
LOC.           1222' FNL & 670' FEL--: LOCATION
CNTY.               Las Animas: COUNTY
SRVC.                Patterson: SERVICE COMPANY
DATE.          Thu Mar 16 06:39:17 2006: LOG DATE
UWI.           05 071 08500 00: UNIQUE WELL ID
STAT.                 Colorado: STATE
~Curve Information Block
DEPT.FT            0 000 00 00: Depth
DCAL.in                       : CDL Caliper
RHOB.g/cc                     : CDL Bulk Density
RHOC.g/cc                     : CDL Density Correction
DPOR.pu                       : CDL Density Porosity
NPOR.pu                       : Neutron Porosity
GR.GAPI                       : Gamma Ray
~Parameter Information Block
~A  Depth       DCAL        RHOB        RHOC        DPOR        NPOR         GR     
# ...
  2308.0000      7.7858      2.4049      0.0529     14.8529     22.6341     94.1609
  2308.1000      7.7858      2.3842      0.0562     16.1076     22.6717     89.1160
  2308.2000      7.7858      2.3699     -0.0176     16.9759     22.4694     87.0816
  2308.3000      7.7801      2.3735      0.0383     16.7606     22.1161     92.4742
  2308.4000      7.7801      2.3900      0.0505     15.7579     21.9483    100.8690
  2308.5000      7.7715      2.4026      0.0677     14.9944     22.1234    101.6927
  2308.6000      7.7715      2.4007      0.0489     15.1100     22.0900     96.5245
  2308.7000      7.7715      2.3932      0.0282     15.5652     21.6955     92.5916
  2308.8000      7.7652      2.3911      0.0621     15.6910     21.7655     92.3649
  2308.9000      7.7652      2.3898      0.0455     15.7727     22.4367     94.1597
  2309.0000      7.7602      2.3863      0.0553     15.9840     22.9225     94.8334
  2309.1000      7.7602      2.3920      0.0102     15.6341     22.8927     96.6356
  2309.2000      7.7602      2.4153      0.0658     14.2254     22.7846    104.7187
  2309.3000      7.7579      2.4432      0.0766     12.5344     22.8888    116.6608
  2309.4000      7.7579      2.4589      0.0739     11.5817     23.0085    121.2448
  2309.5000      7.7583      2.4614      0.0827     11.4308     22.9023    113.1917
  2309.6000      7.7583      2.4508      0.1319     12.0729     22.6577    103.6805
  2309.7000      7.7583      2.4232      0.0709     13.7429     22.4175    101.0796
  2309.8000      7.7581      2.3950      0.0285     15.4522     22.0785    102.3817
  2309.9000      7.7581      2.3885      0.0232     15.8514     21.6794    102.8212
  2310.0000      7.7580      2.4011      0.0706     15.0839     21.4727    102.3669
  2310.1000      7.7580      2.4137      0.0697     14.3218     21.5274    102.9556
  2310.2000      7.7580      2.4169      0.0463     14.1255     21.7312    102.8447
  2310.3000      7.7600      2.4150      0.0531     14.2401     21.9353     97.7989
  2310.4000      7.7600      2.4153      0.0846     14.2224     22.0393     84.5750
  2310.5000      7.7624      2.4187      0.0910     14.0154     21.9463     60.6883
  2310.6000      7.7624      2.4182      0.0620     14.0495     21.7372     31.1428
  2310.7000      7.7624      2.4115      0.0683     14.4520     21.6328      9.9878
  2310.8000      7.7628      2.4094      0.0265     14.5833     21.5952      1.8422
  2310.9000      7.7628      2.4193      0.0871     13.9824     21.4720      0.1869
  2311.0000      7.7632      2.4308      0.0958     13.2834     21.3929      0.0100
  2311.1000      7.7632      2.4316      0.0858     13.2393     21.7093      0.0000
  2311.2000      7.7632      2.4203      0.0734     13.9205     22.3291   -999.2500
  2311.3000      7.7651      2.4037      0.0779     14.9260     22.6573   -999.2500
  2311.4000      7.7651      2.3884      0.0518     15.8533     22.3732   -999.2500
  2311.5000      7.7651      2.3766      0.0709     16.5703     21.7876   -999.2500
  2311.6000      7.7651      2.3684      0.0625     17.0677     21.5445   -999.2500
  2311.7000      7.7651      2.3673      0.0519     17.1346     21.9451   -999.2500
  2311.8000      7.7577      2.3681      0.1135     17.0830     22.4055   -999.2500
  2311.9000      7.7577      2.3589      0.0462     17.6425     22.3483   -999.2500
  2312.0000      7.7420      2.3454      0.0443     18.4604     21.9990   -999.2500
  2312.1000      7.7420      2.3443      0.0635     18.5268     21.8620   -999.2500
  2312.2000      7.7420      2.3625      0.0575     17.4243     21.9776   -999.2500
  2312.3000      7.7253      2.3928      0.1195     15.5854     21.9286   -999.2500
  2312.4000      7.7253      2.4194      0.1377     13.9761     21.7042   -999.2500
  2312.5000      7.7163      2.4282      0.1287     13.4429     21.4905   -999.2500
  2312.6000      7.7163      2.4204      0.0907     13.9137     21.2887   -999.2500
  2312.7000      7.7163      2.4152      0.0652     14.2278     21.2871   -999.2500
  2312.8000      7.7216      2.4260      0.0920     13.5771     21.6074   -999.2500
  2312.9000      7.7216      2.4393      0.1380     12.7700     22.0125   -999.2500
  2313.0000      7.7412      2.4354      0.0962     13.0038     22.2425   -999.2500
  2313.1000      7.7412      2.4138      0.0638     14.3163     22.1162   -999.2500
  2313.2000      7.7412      2.3925      0.0148     15.6085     21.8369   -999.2500
  2313.3000      7.7630      2.3916      0.0351     15.6620     21.7957   -999.2500
  2313.4000      7.7630      2.4114      0.0531     14.4586     21.9496   -999.2500
  2313.5000      7.7777      2.4386      0.0877     12.8137     22.0216   -999.2500
  2313.6000      7.7777      2.4627      0.0920     11.3504     21.9061   -999.2500
  2313.7000      7.7777      2.4801      0.0997     10.2988     21.7095   -999.2500
  2313.8000      7.7852      2.4913      0.1060      9.6190     21.4074   -999.2500
  2313.9000      7.7852      2.4947      0.1156      9.4141     20.8635   -999.2500
  2314.0000      7.7850      2.4878      0.0817      9.8309     20.2572   -999.2500
  2314.1000      7.7850      2.4733      0.0843     10.7062     19.9431   -999.2500
  2314.2000      7.7850      2.4583      0.0497     11.6192     19.9909   -999.2500
  2314.3000      7.7819      2.4501      0.0486     12.1151     20.2697   -999.2500
  2314.4000      7.7819      2.4494      0.0527     12.1601     20.6720   -999.2500
  2314.5000      7.7824      2.4553      0.0489     11.7978     20.8354   -999.2500
  2314.6000      7.7824      2.4685      0.0288     11.0025     20.5800   -999.2500
  2314.7000      7.7824      2.4765      0.1029     10.5123     20.4063   -999.2500
  2314.8000      7.7837      2.4680      0.0316     11.0296     20.4850   -999.2500
  2314.9000      7.7837      2.4531      0.0338     11.9305     20.5899   -999.2500
  2315.0000      7.7797      2.4415      0.0163     12.6356     20.8105   -999.2500
  2315.1000      7.7797      2.4336      0.0294     13.1155     20.9365   -999.2500
  2315.2000      7.7797      2.4361     -0.0018     12.9621     20.7092   -999.2500
  2315.3000      7.7761      2.4488      0.0472     12.1921     20.6291   -999.2500
  2315.4000      7.7761      2.4571      0.0583     11.6916     21.1465   -999.2500
  2315.5000      7.7772      2.4625      0.0374     11.3662     21.8787   -999.2500
  2315.6000      7.7772      2.4778      0.0468     10.4346     22.3616   -999.2500
  2315.7000      7.7772      2.4915      0.1021      9.6043     22.7105   -999.2500
  2315.8000      7.7771      2.4875      0.0398      9.8499     23.2793   -999.2500
  2315.9000      7.7771      2.4747      0.0579     10.6243     25.3218   -999.2500
  2316.0000      7.7755      2.4635      0.0673     11.3013     31.1818   -999.2500
  2316.1000      7.7755      2.4578      0.0505     11.6482     39.9304   -999.2500
  2316.2000      7.7755      2.4610      0.0477     11.4575     46.3748   -999.2500
  2316.3000      7.7751      2.4683      0.0676     11.0112     48.8060   -999.2500
  2316.4000      7.7751      2.4746      0.0335     10.6310     49.2939   -999.2500
  2316.5000      7.7777      2.4786      0.0637     10.3880     49.3459   -999.2500
  2316.6000      7.7777      2.4751      0.0392     10.6000     49.3489   -999.2500
  2316.7000      7.7777      2.4648      0.0634     11.2255   -999.2500   -999.2500
  2316.8000      7.7829      2.4616      0.0358     11.4152   -999.2500   -999.2500
  2316.9000      7.7829      2.4743      0.0570     10.6473   -999.2500   -999.2500
  2317.0000      7.7873      2.4874      0.0812      9.8529   -999.2500   -999.2500
  2317.1000      7.7873      2.4810      0.0881     10.2450   -999.2500   -999.2500
  2317.2000      7.7873      2.4598      0.0189     11.5275   -999.2500   -999.2500
  2317.3000      7.7888      2.4407      0.0540     12.6844   -999.2500   -999.2500
  2317.4000      7.7888      2.4358     -0.0165     12.9804   -999.2500   -999.2500
  2317.5000      7.7871      2.4453      0.0775     12.4047   -999.2500   -999.2500
