~Version Information
VERS.                      2.0: CWLS Log ASCII Standard - VERSION 2.0
WRAP.                       NO: One line per depth step
~Well Information Block
STRT.FT               310.0000: 
STOP.FT              2295.5000: 
STEP.FT                 0.1000: 
NULL.                -999.2500: 
COMP.          Pioneer Natural Resources: COMPANY
WELL.               Relay 12-7: WELL
FLD.           Purgatoire River: FIELD
LOC.           1999' FNL & 848' FWL: LOCATION
PROV.                 Colorado: PROVINCE
CNTY.               Las Animas: COUNTRY
SRVC.                Patterson: SERVICE COMPANY
DATE.          Mon Dec 19 07:37:11 2005: LOG DATE
UWI.           05 071 08453 00: UNIQUE WELL ID
~Curve Information Block
DEPT.FT            0 000 00 00: Depth
DCAL.in                       : CDL Caliper
RHOB.g/cc                     : CDL Bulk Density
RHOC.g/cc                     : CDL Density Correction
DPOR.pu                       : CDL Density Porosity
GR.GAPI                       : Gamma Ray
NPOR.pu                       : Neutron Porosity
~Parameter Information Block
~A  Depth       DCAL        RHOB        RHOC        DPOR         GR         NPOR    
# ...
   838.0000      8.2578      2.4431      0.0380     12.5383    154.5656     28.4666
   838.1000      8.2578      2.4354      0.0788     13.0036    152.9722     28.4084
   838.2000      8.2578      2.4143      0.1163     14.2851    149.5589     27.9028
   838.3000      8.2612      2.3910      0.0485     15.6975    144.6261     27.2502
   838.4000      8.2612      2.3781      0.1120     16.4782    144.1704     26.7465
   838.5000      8.2986      2.3631      0.0513     17.3895    149.7207     26.3319
   838.6000      8.2986      2.3389      0.0392     18.8540    156.8699     25.8948
   838.7000      8.2986      2.3222      0.0480     19.8697    159.2987     25.4784
   838.8000      8.2940      2.3306      0.1022     19.3595    157.6339     25.2331
   838.9000      8.2940      2.3687      0.1501     17.0510    160.2830     25.1612
   839.0000      8.2843      2.4285      0.1728     13.4255    171.1067     25.1933
   839.1000      8.2843      2.4905      0.3178      9.6693    182.9012     25.3217
   839.2000      8.2843      2.5296      0.3257      7.2993    186.4512     25.3538
   839.3000      8.2863      2.5468      0.2816      6.2534    182.0014     25.4467
   839.4000      8.2863      2.5682      0.2919      4.9560    177.0356     26.1362
   839.5000      8.2884      2.5930      0.3687      3.4568    174.8445     27.2574
   839.6000      8.2884      2.5878      0.3130      3.7698    171.3650     27.9703
   839.7000      8.2884      2.5411      0.2168      6.5990    163.7436     27.9558
   839.8000      8.3032      2.4824      0.0610     10.1579    157.5374     27.8810
   839.9000      8.3032      2.4366      0.1293     12.9330    155.0562     28.2273
   840.0000      8.3033      2.3945      0.1019     15.4835    152.9353     28.5458
   840.1000      8.3033      2.3538      0.0182     17.9532    153.2236     28.3974
   840.2000      8.3033      2.3225      0.0345     19.8498    155.9946     27.9302
   840.3000      8.3056      2.2887      0.0511     21.8977    154.3453     27.4458
   840.4000      8.3056      2.2536     -0.0178     24.0227    147.1022     27.2784
   840.5000      8.3045      2.2524     -0.0048     24.0959    142.8143     27.4923
   840.6000      8.3045      2.3017      0.1001     21.1079    143.0485     27.7559
   840.7000      8.3045      2.3746      0.1710     16.6883    140.0170     27.7970
   840.8000      8.3036      2.4414      0.2920     12.6453    133.1732     27.3911
   840.9000      8.3036      2.4974      0.3418      9.2469    127.4152     26.5257
   841.0000      8.3072      2.5523      0.3730      5.9198    123.8512     25.7496
   841.1000      8.3072      2.6078      0.3804      2.5562    122.7117     25.5185
   841.2000      8.3072      2.6516      0.4171     -0.0985    125.1381     25.6022
   841.3000      8.3188      2.6656      0.3888     -0.9442    127.8978     25.7768
   841.4000      8.3188      2.6477      0.2633      0.1404    127.5706     26.0620
   841.5000      8.3084      2.6158      0.1933      2.0721    124.5444     26.1936
   841.6000      8.3084      2.5837      0.1908      4.0191    120.7319     25.9286
   841.7000      8.3084      2.5490      0.2382      6.1185    119.4459     25.6910
   841.8000      8.3190      2.5117      0.1194      8.3815    121.0467     25.8933
   841.9000      8.3190      2.4918      0.0150      9.5892    122.8454     26.3977
   842.0000      8.3008      2.4999      0.0686      9.0970    125.8555     26.9469
   842.1000      8.3008      2.5170      0.0909      8.0598    129.4044     27.3051
   842.2000      8.3008      2.5335      0.0413      7.0577    130.0786     27.4575
   842.3000      8.2965      2.5647      0.0914      5.1671    129.1436     27.6795
   842.4000      8.2965      2.6109      0.1180      2.3693    128.5849     27.8391
   842.5000      8.2978      2.6406      0.1566      0.5678    124.1247     27.6829
   842.6000      8.2978      2.6310      0.1206      1.1536    116.1413     27.4975
   842.7000      8.2978      2.6088      0.0622      2.4963    113.4820     27.6383
   842.8000      8.2923      2.6064      0.0735      2.6439    116.8528     27.8707
   842.9000      8.2923      2.6084      0.0698      2.5207    117.1136     27.8824
   843.0000      8.2942      2.5965      0.0200      3.2405    112.0510     27.7329
   843.1000      8.2942      2.5870     -0.0507      3.8201    109.4552     27.4916
   843.2000      8.2942      2.5895      0.0231      3.6642    113.0723     27.1304
   843.3000      8.2936      2.5873      0.1188      3.8026    119.3234     26.6611
   843.4000      8.2936      2.5713      0.1248      4.7671    125.6112     26.0938
   843.5000      8.2929      2.5515      0.0923      5.9711    131.7237     25.5590
   843.6000      8.2929      2.5274      0.2172      7.4316    133.4943     25.2307
   843.7000      8.2929      2.4840      0.1758     10.0619    128.5574     25.0422
   843.8000      8.2927      2.4384      0.0121     12.8229    126.0496     24.8756
   843.9000      8.2927      2.4265      0.0304     13.5484    132.2887     24.7432
   844.0000      8.2950      2.4418      0.0555     12.6193    139.4656     24.7711
   844.1000      8.2950      2.4598      0.0721     11.5252    140.1048     25.1961
   844.2000      8.2950      2.4779      0.0858     10.4303    135.3230     26.2096
   844.3000      8.2951      2.4936      0.1248      9.4815    131.2027     27.3308
   844.4000      8.2951      2.4963      0.1051      9.3151    130.4360     27.7521
   844.5000      8.2932      2.4924      0.1297      9.5485    129.0102     27.3691
   844.6000      8.2932      2.4918      0.1901      9.5876    127.7441     26.6585
   844.7000      8.2932      2.4933      0.1287      9.4987    130.1674     26.1905
   844.8000      8.2893      2.4980      0.1259      9.2115    131.4158     26.3568
   844.9000      8.2893      2.5016      0.1236      8.9964    128.0016     26.7351
   845.0000      8.2887      2.4968      0.0567      9.2850    124.5327     26.3658
   845.1000      8.2887      2.4853      0.0721      9.9799    123.1317     25.2457
   845.2000      8.2887      2.4690      0.0492     10.9724    121.2586     24.3766
   845.3000      8.2812      2.4497      0.0140     12.1390    118.0811     24.2747
   845.4000      8.2812      2.4323      0.0516     13.1931    116.2154     24.5722
   845.5000      8.2797      2.4221      0.0187     13.8110    122.1732     24.8970
   845.6000      8.2797      2.4196      0.0600     13.9616    136.7956     24.9887
   845.7000      8.2797      2.4221      0.0346     13.8096    147.7576     24.8198
   845.8000      8.2765      2.4292      0.1040     13.3791    149.0144     24.7224
   845.9000      8.2765      2.4439      0.0757     12.4919    148.2276     25.0004
   846.0000      8.2809      2.4673      0.1305     11.0703    150.7424     25.7857
   846.1000      8.2809      2.4857      0.1342      9.9590    155.6287     26.8172
   846.2000      8.2809      2.4856      0.1088      9.9647    159.7706     27.5281
   846.3000      8.2789      2.4758      0.0847     10.5604    158.2757     27.7749
   846.4000      8.2789      2.4774      0.0987     10.4596    152.4129     27.9762
   846.5000      8.2794      2.4899      0.1005      9.7043    149.2804     28.2945
   846.6000      8.2794      2.4946      0.1262      9.4208    148.9206     28.4559
   846.7000      8.2794      2.4916      0.0740      9.5998    147.4334     28.3516
   846.8000      8.2790      2.4941      0.1259      9.4515    144.2313     28.1040
   846.9000      8.2790      2.4979      0.0983      9.2167    140.1826     27.6732
   847.0000      8.2789      2.4944      0.0395      9.4322    134.2962     27.1694
   847.1000      8.2789      2.4835      0.0958     10.0929    126.2554     26.9447
   847.2000      8.2789      2.4682      0.0523     11.0162    121.2730     26.9663
   847.3000      8.2780      2.4585      0.0477     11.6034    126.8772     26.9853
   847.4000      8.2780      2.4624      0.0846     11.3684    143.5104     27.0298
   847.5000      8.2744      2.4752      0.1155     10.5967    160.3185     27.3221
