~Version Information
VERS.                      2.0: CWLS Log ASCII Standard - VERSION 2.0
WRAP.                       NO: One line per depth step
~Well Information Block
STRT.FT                -8.0000: 
STOP.FT              1323.7500: 
STEP.FT                 0.2500: 
NULL.                -999.2500: 
COMP.          Pioneer Natural Resources: COMPANY
WELL.              Geyser 41-2: WELL
FLD.           Purgatorie River: FIELD
LOC.           506' FNL & 1127' FEL--: LOCATION
PROV.                       CO: PROVINCE
CNTY.               Las Animas: COUNTRY
SRVC.          Patterson Wireline: SERVICE COMPANY
DATE.          Tue Dec 06 09:28:14 2005: LOG DATE
UWI.           08 071 08598 00: UNIQUE WELL ID
~Curve Information Block
DEPT.FT            0 000 00 00: Depth
CCL.                          : Casing Collar Locator
TT3.usec                      : CBL 3' Travel Time
AMP3.mV                       : CBL 3' Amplitude
GR.GAPI                       : Gamma Ray
~Parameter Information Block
~A  Depth       CCL         TT3         AMP3         GR     
# ...
  1030.5000      0.0000    755.9261     10.2929     50.1701
  1030.7500      0.0000    744.2786     10.5697     47.7724
  1031.0000      0.0000    727.5814     11.0905     46.4241
  1031.2500      0.0000    699.2649     11.8090     46.6954
  1031.5000      0.0000    654.4164     12.6154     48.6370
  1031.7500      0.0000    598.7001     13.3834     51.5554
  1032.0000      0.0000    551.9821     14.0108     54.5750
  1032.2500      0.0000    538.1315     14.4333     57.6097
  1032.5000      0.0000    566.3509     14.6216     61.7888
  1032.7500      0.0000    622.4080     14.5790     68.6437
  1033.0000      0.0000    679.7780     14.3371     78.7755
  1033.2500      0.0000    718.3451     13.9450     91.3509
  1033.5000      0.0000    731.4424     13.4620    104.4773
  1033.7500      0.0000    719.4445     12.9540    115.5913
  1034.0000      0.0000    683.8290     12.4811    122.0063
  1034.2500      0.0000    629.8491     12.0860    122.1915
  1034.5000      0.0000    571.0557     11.7995    116.9007
  1034.7500      0.0000    526.5100     11.6552    108.9223
  1035.0000      0.0000    511.9043     11.6847    101.7058
  1035.2500      0.0000    532.5521     11.8925     97.7868
  1035.5000      0.0000    581.4156     12.2381     97.6564
  1035.7500      0.0000    640.9620     12.6406     99.9166
  1036.0000      0.0000    688.8728     13.0031    102.7856
  1036.2500      0.0000    706.8209     13.2459    105.3854
  1036.5000      0.0000    687.9683     13.3364    107.7318
  1036.7500      0.0000    639.5186     13.2962    110.0219
  1037.0000      0.0000    579.3403     13.1772    112.2473
  1037.2500      0.0000    527.4106     13.0316    114.4397
  1037.5000      0.0000    496.9757     12.8957    117.0719
  1037.7500      0.0000    491.4724     12.7896    120.7636
  1038.0000      0.0000    506.7243     12.7221    125.4379
  1038.2500      0.0000    533.3222     12.6919    130.0267
  1038.5000      0.0000    558.5864     12.6811    132.9749
  1038.7500      0.0000    570.9531     12.6508    132.9255
  1039.0000      0.0000    565.3530     12.5533    129.4332
  1039.2500      0.0000    545.0753     12.3629    123.5611
  1039.5000      0.0000    518.9478     12.0995    117.5005
  1039.7500      0.0000    496.7499     11.8186    113.0092
  1040.0000      0.0000    486.4724     11.5714    110.0462
  1040.2500      0.0000    494.1763     11.3700    107.0487
  1040.5000      0.0000    523.3112     11.1868    102.5307
  1040.7500      0.0000    571.3120     10.9870     96.5143
  1041.0000      0.0000    627.4023     10.7622     90.7904
  1041.2500      0.0000    677.0694     10.5296     87.8015
  1041.5000      0.0000    710.8074     10.2950     88.8706
  1041.7500      0.0000    728.5355     10.0172     93.2177
  1042.0000      0.0000    736.9152      9.6268     98.5087
  1042.2500      0.0000    744.3762      9.1072    102.1860
  1042.5000      0.0000    758.0556      8.5512    102.5979
  1042.7500      0.0000    782.3516      8.1055     99.5563
  1043.0000      0.0000    817.4029      7.8600     94.1300
  1043.2500      0.0000    857.4608      7.8131     87.7360
  1043.5000      0.0000    892.0406      7.9149     81.2774
  1043.7500      0.0000    911.9672      8.0951     75.1401
  1044.0000      0.0000    915.9435      8.2781     69.8856
  1044.2500     -2.0000    910.1610      8.4297     66.5927
  1044.5000      0.0000    901.5504      8.5822     66.2095
  1044.7500      0.0000    892.4029      8.7878     68.6414
  1045.0000      0.0000    880.7495      9.0556     72.8501
  1045.2500      0.0000    864.4563      9.3408     77.8725
  1045.5000      0.0000    844.3247      9.5720     83.4843
  1045.7500      0.0000    823.3583      9.6781     89.8881
  1046.0000      0.0000    804.0389      9.6241     96.9956
  1046.2500      0.0000    787.1090      9.4412    104.0761
  1046.5000      0.0000    772.4022      9.2097    110.0758
  1046.7500      0.0000    759.9307      9.0078    114.3246
  1047.0000      0.0000    749.9534      8.8788    116.7971
  1047.2500      0.0000    742.4048      8.8355    117.7559
  1047.5000      0.0000    736.8458      8.8810    117.5566
  1047.7500      0.0000    733.0715      9.0214    116.7439
  1048.0000      0.0000    731.2988      9.2606    115.5967
  1048.2500      0.0000    731.3365      9.5906    113.3686
  1048.5000      0.0000    732.0364      9.9931    108.4092
  1048.7500      0.0000    732.1629     10.4482     99.3774
  1049.0000      0.0000    731.7150     10.9347     86.5511
  1049.2500      0.0000    731.9347     11.4214     72.1360
  1049.5000      0.0000    734.0334     11.8580     59.2610
  1049.7500      0.0000    738.2219     12.1839     50.4261
  1050.0000      0.0000    743.8218     12.3562     46.6878
  1050.2500      0.0000    749.6257     12.3771     47.9617
  1050.5000      0.0000    753.9932     12.2937     53.4955
  1050.7500      0.0000    755.2288     12.1695     61.8672
  1051.0000      0.0000    752.4993     12.0520     71.2711
  1051.2500      0.0000    746.6826     11.9580     80.5071
  1051.5000      0.0000    740.2730     11.8755     89.4549
  1051.7500      0.0000    735.9836     11.7812     98.2498
  1052.0000      0.0000    734.9236     11.6595    106.2557
  1052.2500      0.0000    735.9939     11.5114    112.1245
  1052.5000      0.0000    736.9750     11.3472    114.5252
  1052.7500      0.0000    736.0510     11.1758    112.6106
  1053.0000      0.0000    732.7247     10.9997    106.2258
  1053.2500      0.0000    728.1530     10.8157     96.3464
  1053.5000      0.0000    724.7183     10.6180     85.3127
  1053.7500      0.0000    724.3582     10.4069     76.0929
  1054.0000      0.0000    726.6870     10.1947     70.8930
  1054.2500      0.0000    728.9756     10.0020     70.1378
  1054.5000      0.0000    728.3275      9.8466     72.3492
  1054.7500      0.0000    723.9686      9.7310     75.0147
  1055.0000      0.0000    717.7030      9.6383     76.0846
  1055.2500      0.0000    712.4147      9.5437     74.9281
  1055.5000      0.0000    709.9991      9.4339     72.1230
  1055.7500      0.0000    710.4317      9.3141     68.7230
  1056.0000      0.0000    712.6425      9.1984     65.5867
  1056.2500      0.0000    716.0247      9.0981     62.9470
  1056.5000      0.0000    720.6656      9.0212     60.5611
  1056.7500      0.0000    726.1876      8.9728     58.3047
  1057.0000      0.0000    731.0813      8.9523     56.4752
  1057.2500      0.0000    733.5920      8.9518     55.6098
  1057.5000      0.0000    733.0553      8.9582     56.1139
  1057.7500      0.0000    730.3698      8.9586     57.8395
  1058.0000      0.0000    727.4459      8.9458     59.8509
  1058.2500      0.0000    726.1328      8.9200     60.8190
  1058.5000      0.0000    727.2578      8.8856     59.7938
  1058.7500      0.0000    730.3100      8.8463     56.5916
  1059.0000      0.0000    733.9371      8.8049     51.6977
  1059.2500      0.0000    736.8764      8.7690     46.1522
  1059.5000      0.0000    738.5711      8.7484     41.4531
  1059.7500      0.0000    739.0350      8.7457     39.0542
  1060.0000      0.0000    738.2933      8.7535     39.4957
  1060.2500      0.0000    736.0960      8.7639     41.9647
  1060.5000      0.0000    732.3299      8.7749     44.9631
  1060.7500      0.0000    727.8165      8.7819     47.5588
  1061.0000      0.0000    724.3593      8.7702     49.8055
  1061.2500      0.0000    723.2969      8.7231     51.8904
  1061.5000      0.0000    723.8179      8.6391     53.4490
  1061.7500      0.0000    723.3232      8.5371     54.0624
  1062.0000      0.0000    719.8540      8.4450     53.8782
  1062.2500      0.0000    713.9108      8.3808     53.2515
  1062.5000      0.0000    707.7581      8.3413     52.1191
  1062.7500      0.0000    703.3299      8.3076     50.1744
  1063.0000      0.0000    701.0248      8.2667     47.6158
  1063.2500      0.0000    700.0975      8.2313     45.5045
  1063.5000      0.0000    699.6563      8.2355     45.1366
  1063.7500      0.0000    699.2774      8.3102     46.8536
