~Version Information
 VERS.                                  2.0 : CWLS LAS VERSION
 WRAP.                                   NO : WRAPING MODE
 SWARE .                 MController 2.5.3A : SOFTWARE VERSION
~Well Information
 WELL.                          Darren 11-7 : WELL
 COMP.  Pioneer Natural Resources USA, Inc. : COMPANY
 FLD.                      Purgatoire River : FIELD
 LOC.              NW/NW Sec. 7, T33S, R65W : LOCATION
 DATE.                           03/19/2006 : DATE(S) LOGGED
 SRVC.                  Entrada GeoSciences : SERVICE COMPANY
 STAT.                             Colorado : STATE
 CNTY.                           Las Animas : COUNTY
 CTRY.                        United States : COUNTRY
 API.                       05-071-08720-00 : API NUMBER
 STRT.FT                             250.00 : START DEPTH
 STOP.FT                            1450.00 : STOP DEPTH
 STEP.FT                               1.00 : DEPTH INCREMENT
 NULL.                                -9999 : NULL VALUE
~Curve information
 DEPTH.FT                                   :
 ROP.MIN/FT                                 :
 GAS.UNITS                                  :
~ASCII Log data
# ...
     1050.00         0.38        418.8 
     1051.00         0.30        424.4 
     1052.00         0.27        424.7 
     1053.00         0.30        420.3 
     1054.00         0.27        400.0 
     1055.00         0.20        149.7 
     1056.00         0.23        146.4 
     1057.00         0.17        142.2 
     1058.00         0.27        144.6 
     1059.00         0.27        157.1 
     1060.00         0.20        142.3 
     1061.00         0.13        131.2 
     1062.00         0.10        113.8 
     1063.00         0.20         96.1 
     1064.00         0.23        100.8 
     1065.00         0.25        107.8 
     1066.00         0.17        107.2 
     1067.00         0.17        107.5 
     1068.00         0.23        111.6 
     1069.00         0.23        115.6 
     1070.00         0.23        115.6 
     1071.00         0.40        115.8 
     1072.00         0.33        113.1 
     1073.00         0.43       1412.8 
     1074.00         0.27       1407.0 
     1075.00         0.33       1001.8 
     1076.00         0.50        596.9 
     1077.00         0.03        518.7 
     1078.00         0.28        503.2 
     1079.00         0.10        473.9 
     1080.00         0.17        451.9 
     1081.00         0.20        439.6 
     1082.00         0.30        444.6 
     1083.00         0.10        444.6 
     1084.00         0.27        427.0 
     1085.00         0.23        418.8 
     1086.00         0.27        400.6 
     1087.00         0.23        400.0 
     1088.00         0.27        145.5 
     1089.00         0.27        130.1 
     1090.00         0.23        121.1 
     1091.00         0.27        120.4 
     1092.00         0.27        114.9 
     1093.00         0.28        111.8 
     1094.00         0.30        111.9 
     1095.00         0.33        112.9 
     1096.00         0.27        113.5 
     1097.00         0.23        114.0 
     1098.00         0.27        113.7 
     1099.00         0.23        114.2 
     1100.00         0.27        115.5 
     1101.00         0.27        117.2 
     1102.00         0.27       1046.6 
     1103.00         0.23       1046.6 
     1104.00         0.23       1550.5 
     1105.00         0.20       1578.7 
     1106.00         1.03       1347.5 
     1107.00         0.40        514.6 
     1108.00         0.33        441.9 
     1109.00         0.33        415.0 
     1110.00         0.27        410.3 
     1111.00         0.23        400.0 
     1112.00         0.27        400.0 
     1113.00         0.43        144.6 
     1114.00         0.27        130.7 
     1115.00         0.35        122.2 
     1116.00         0.30        118.3 
     1117.00         0.30        116.8 
     1118.00         0.33        115.3 
     1119.00         0.30        113.8 
     1120.00         0.30        112.7 
     1121.00         0.30        110.4 
     1122.00         0.30        110.2 
     1123.00         0.30        110.2 
     1124.00         0.23        108.6 
     1125.00         0.27        108.1 
     1126.00         0.30        108.4 
     1127.00         0.25        108.6 
     1128.00         0.27        108.1 
     1129.00         0.27        107.2 
     1130.00         0.27        106.3 
     1131.00         0.23        106.0 
     1132.00         0.27        103.3 
     1133.00         0.23        102.0 
     1134.00         0.33       1682.4 
     1135.00         0.43       1825.3 
     1136.00         0.60       1496.3 
     1137.00         0.43        589.3 
     1138.00         0.43        505.8 
     1139.00         0.37        445.2 
     1140.00         0.37        400.0 
     1141.00         0.32        400.0 
     1142.00         0.27        400.0 
     1143.00         0.13        400.0 
     1144.00         0.13        143.3 
     1145.00         0.13        144.6 
     1146.00         0.27        158.2 
     1147.00         0.20        160.6 
     1148.00         0.27        157.9 
     1149.00         0.27        142.2 
     1150.00         0.20        136.7 
     1151.00         0.13        122.7 
     1152.00         0.10        102.4 
     1153.00         0.13         94.7 
     1154.00         0.13         99.5 
     1155.00         0.23        127.8 
     1156.00         0.23        147.9 
     1157.00         0.35        153.4 
     1158.00         0.27        147.2 
     1159.00         0.27        139.0 
     1160.00         0.27        136.5 
     1161.00         0.27        131.0 
     1162.00         0.27       1369.2 
     1163.00         0.27       1369.2 
     1164.00         0.10       1609.1 
     1165.00         0.17       1609.1 
     1166.00         0.47       2921.0 
     1167.00         0.27       2385.8 
     1168.00         0.27       2136.8 
     1169.00         0.27        751.3 
     1170.00         0.17        710.9 
     1171.00         0.10        566.2 
     1172.00         0.20        571.7 
     1173.00         0.07        571.7 
     1174.00         0.27        573.2 
     1175.00         0.30        503.2 
     1176.00         0.32        482.7 
     1177.00         0.30        438.4 
     1178.00         0.27        436.1 
     1179.00         0.37        436.1 
     1180.00         0.30        424.9 
     1181.00         0.20        420.6 
     1182.00         0.17        404.4 
     1183.00         0.43        400.0 
     1184.00         0.27        218.3 
     1185.00         0.30        237.8 
     1186.00         0.33        231.2 
     1187.00         0.35        218.0 
     1188.00         0.27        202.4 
     1189.00         0.27        195.5 
     1190.00         0.27        178.0 
     1191.00         0.23        175.8 
     1192.00         0.27        325.1 
     1193.00         0.20       1057.2 
     1194.00         0.23       1107.3 
     1195.00         0.20       1448.0 
     1196.00         0.50       1510.4 
     1197.00         0.30       1274.6 
     1198.00         0.23        898.7 
     1199.00         0.07        810.8 
     1200.00         0.23        872.9 
     1201.00         0.17        872.9 
     1202.00         0.22        879.9 
     1203.00         0.23        858.2 
     1204.00         0.20        825.1 
     1205.00         0.10        806.4 
     1206.00         0.27        796.1 
     1207.00         0.10        796.1 
     1208.00         0.27        801.7 
     1209.00         0.07        799.1 
     1210.00         0.27        791.2 
     1211.00         0.23        775.0 
     1212.00         0.23        752.5 
     1213.00         0.23        724.7 
     1214.00         0.20        705.0 
     1215.00         0.20        676.9 
     1216.00         0.20        650.5 
     1217.00         0.23        645.3 
     1218.00         0.23        600.7 
     1219.00         0.18        582.6 
     1220.00         0.20        558.0 
     1221.00         0.23        849.8 
     1222.00         0.20        849.8 
     1223.00         0.17       1175.2 
     1224.00         0.13       1448.0 
     1225.00         0.20       1500.4 
     1226.00         0.97       1547.6 
     1227.00         0.30        940.3 
     1228.00         0.37       1014.1 
     1229.00         0.10       1020.6 
     1230.00         0.10       1020.6 
     1231.00         0.10       1020.6 
     1232.00         0.13       1022.6 
     1233.00         0.27       1018.2 
     1234.00         0.33       1019.1 
     1235.00         0.35       1016.7 
     1236.00         0.33        999.2 
     1237.00         0.30        952.0 
     1238.00         0.30        896.3 
     1239.00         0.30        820.2 
     1240.00         0.33        802.0 
     1241.00         0.33        739.9 
     1242.00         0.33        720.8 
     1243.00         0.27        706.5 
     1244.00         0.17        679.2 
     1245.00         0.20        671.0 
     1246.00         0.23        668.7 
     1247.00         0.22        650.5 
     1248.00         0.13        675.1 
     1249.00         0.10        675.1 
