~Version Information
VERS.                      2.0: CWLS Log ASCII Standard - VERSION 2.0
WRAP.                       NO: One line per depth step
~Well Information Block
STRT.FT               800.0000: 
STOP.FT              3500.0000: 
STEP.FT                 0.2500: 
NULL.                -999.2500: 
COMP.          Pioneer Natural Resources: COMPANY
WELL.          Cordillera 34-7: WELL
FLD.           Purgatoire River: FIELD
LOC.           598' FSL & 1770' FEL--: LOCATION
PROV.                 Colorado: PROVINCE
CNTY.               Las Animas: COUNTRY
SRVC.                Patterson: SERVICE COMPANY
DATE.          Thu Oct 27 20:08:30 2005: LOG DATE
UWI.           05 071 08552 00: UNIQUE WELL ID
~Curve Information Block
DEPT.FT            0 000 00 00: Depth
SN.Ohm-m                      : IEL Short Normal
SP.mV                         : IEL Spontaneous Potential
DIR.Ohm-m                     : IEL Induction Resistivity
GR.GAPI                       : Gamma Ray
~Parameter Information Block
~A  Depth        SN          SP         DIR          GR     
# ...
  1704.5000     40.7294    142.4335     25.8278     76.3248
  1704.7500     43.4462    141.7570     26.7548     69.2898
  1705.0000     45.8183    140.6762     27.8366     62.0573
  1705.2500     47.8680    139.1508     29.0689     59.4699
  1705.5000     49.6862    137.2294     30.4043     58.0801
  1705.7500     51.3363    135.0982     31.7591     57.9398
  1706.0000     52.8323    133.0853     33.0404     57.5499
  1706.2500     54.1834    131.5701     34.1740     56.8451
  1706.5000     55.4095    130.8147     35.1176     55.3261
  1706.7500     56.5239    130.8250     35.8615     54.2241
  1707.0000     57.5318    131.3748     36.4255     52.5846
  1707.2500     58.4465    132.1909     36.8519     51.5590
  1707.5000     59.2877    133.1476     37.1887     50.4502
  1707.7500     60.0650    134.2878     37.4677     50.2815
  1708.0000     60.7809    135.6240     37.6906     51.2172
  1708.2500     61.4420    136.8833     37.8415     52.5878
  1708.5000     62.0742    137.4810     37.9204     55.2887
  1708.7500     62.7317    136.8559     37.9689     57.1839
  1709.0000     63.4741    134.8988     38.0623     59.7097
  1709.2500     64.3364    132.0471     38.2704     60.8888
  1709.5000     65.3199    128.9579     38.6209     61.2976
  1709.7500     66.4005    126.1156     39.0893     60.5110
  1710.0000     67.5543    123.6945     39.6139     58.2137
  1710.2500     68.7813    121.6651     40.1233     56.3990
  1710.5000     70.0910    119.9486     40.5649     53.5632
  1710.7500     71.4687    118.4966     40.9196     51.4905
  1711.0000     72.8590    117.3003     41.1941     48.2324
  1711.2500     74.1760    116.3820     41.3994     46.4138
  1711.5000     75.3285    115.7893     41.5378     44.8995
  1711.7500     76.2531    115.5638     41.6088     44.5742
  1712.0000     76.9433    115.6810     41.6194     44.2727
  1712.2500     77.4260    116.0220     41.5829     43.9267
  1712.5000     77.6948    116.4256     41.5091     43.5896
  1712.7500     77.6997    116.7711     41.4054     43.8617
  1713.0000     77.4046    117.0099     41.2869     45.0092
  1713.2500     76.8156    117.1388     41.1802     45.8550
  1713.5000     75.9561    117.1690     41.1073     46.5139
  1713.7500     74.8525    117.1178     41.0632     46.3879
  1714.0000     73.5462    117.0099     41.0147     45.5524
  1714.2500     72.0957    116.8766     40.9239     44.8804
  1714.5000     70.5576    116.7501     40.7749     44.4253
  1714.7500     68.9746    116.6552     40.5737     44.8438
  1715.0000     67.3762    116.6011     40.3294     46.6911
  1715.2500     65.7899    116.5804     40.0449     48.5181
  1715.5000     64.2665    116.5751     39.7323     51.7825
  1715.7500     62.8763    116.5575     39.4309     54.4766
  1716.0000     61.6842    116.4951     39.2025     60.1869
  1716.2500     60.7433    116.3676     39.1013     65.3442
  1716.5000     60.0887    116.1890     39.1418     73.9008
  1716.7500     59.7112    116.0085     39.2872     78.7280
  1717.0000     59.5487    115.8921     39.4677     82.6386
  1717.2500     59.5203    115.9020     39.6203     82.7476
  1717.5000     59.5700    116.0791     39.7225     80.0700
  1717.7500     59.6822    116.4271     39.7933     77.2794
  1718.0000     59.8722    116.9084     39.8689     72.9292
  1718.2500     60.1769    117.4610     39.9755     70.2625
  1718.5000     60.6356    118.0247     40.1203     66.3848
  1718.7500     61.2550    118.5590     40.2984     63.7222
  1719.0000     61.9868    119.0460     40.5023     60.0831
  1719.2500     62.7385    119.4851     40.7279     58.4700
  1719.5000     63.4174    119.8890     40.9741     57.8624
  1719.7500     63.9716    120.2768     41.2378     58.5053
  1720.0000     64.3877    120.6630     41.5099     60.0516
  1720.2500     64.6645    121.0499     41.7761     60.7398
  1720.5000     64.8129    121.4412     42.0239     60.4031
  1720.7500     64.8673    121.8654     42.2472     59.2762
  1721.0000     64.8721    122.3806     42.4471     57.0251
  1721.2500     64.8588    123.0367     42.6257     55.6883
  1721.5000     64.8389    123.8202     42.7779     54.3642
  1721.7500     64.8055    124.6319     42.8851     53.8604
  1722.0000     64.7377    125.3359     42.9188     53.3969
  1722.2500     64.6169    125.8523     42.8548     53.2827
  1722.5000     64.4387    126.2114     42.6919     53.7390
  1722.7500     64.2017    126.5140     42.4599     54.6744
  1723.0000     63.8990    126.8385     42.2114     57.1659
  1723.2500     63.5345    127.1857     42.0046     59.5040
  1723.5000     63.1348    127.5001     41.8833     63.7478
  1723.7500     62.7351    127.7360     41.8638     66.7632
  1724.0000     62.3631    127.9160     41.9263     70.8768
  1724.2500     62.0445    128.1373     42.0113     73.0745
  1724.5000     61.8020    128.5150     42.0193     75.7652
  1724.7500     61.6247    129.1069     41.8191     77.5683
  1725.0000     61.4592    129.8859     41.2651     80.5824
  1725.2500     61.2387    130.7751     40.2266     82.4491
  1725.5000     60.8969    131.7067     38.6274     84.1255
  1725.7500     60.3557    132.6575     36.4834     84.2685
  1726.0000     59.5189    133.6415     33.9229     83.0879
  1726.2500     58.2702    134.6768     31.1646     81.2310
  1726.5000     56.4589    135.7622     28.4538     76.1305
  1726.7500     53.8969    136.8822     25.9937     71.1160
  1727.0000     50.3953    138.0208     23.9081     62.7764
  1727.2500     45.8824    139.1703     22.2437     58.4131
  1727.5000     40.6173    140.3294     20.9923     56.4332
  1727.7500     35.2773    141.4819     20.1123     58.9269
  1728.0000     30.6410    142.5673     19.5410     67.8875
  1728.2500     27.1160    143.4804     19.2007     76.1461
  1728.5000     24.6368    144.1181     19.0043     89.1997
  1728.7500     22.9393    144.4368     18.8679     97.0234
  1729.0000     21.8203    144.4793     18.7287    106.4380
  1729.2500     21.2176    144.3561     18.5605    110.9726
  1729.5000     21.2141    144.2006     18.3771    114.3401
  1729.7500     22.0161    144.1278     18.2226    113.4632
  1730.0000     23.8485    144.2105     18.1552    106.4939
  1730.2500     26.7820    144.4687     18.2323     98.4625
  1730.5000     30.5734    144.8692     18.5038     84.1819
  1730.7500     34.5858    145.3563     19.0109     75.6633
  1731.0000     37.9373    145.9054     19.7872     68.1780
  1731.2500     39.9698    146.5533     20.8529     67.7586
  1731.5000     40.6661    147.3709     22.1994     73.4648
  1731.7500     40.5217    148.4008     23.7650     80.2589
  1732.0000     40.0716    149.6103     25.4175     92.3039
  1732.2500     39.6194    150.8856     26.9669    100.1676
  1732.5000     39.2701    152.0643     28.2195    109.8344
  1732.7500     39.0495    152.9984     29.0542    114.0850
  1733.0000     38.9665    153.6244     29.4680    116.5248
  1733.2500     39.0064    153.9879     29.5610    115.6166
  1733.5000     39.1339    154.1985     29.4784    111.2903
  1733.7500     39.3445    154.3605     29.3558    107.2095
  1734.0000     39.7022    154.5271     29.2921    101.0100
  1734.2500     40.3101    154.6933     29.3483     97.8812
  1734.5000     41.2104    154.8239     29.5577     95.7985
  1734.7500     42.2958    154.9036     29.9354     95.9503
  1735.0000     43.3566    154.9662     30.4831     96.7831
  1735.2500     44.2438    155.0660     31.1917     96.5741
  1735.5000     44.9882    155.2157     32.0410     94.1581
  1735.7500     45.7499    155.3629     32.9930     91.4737
  1736.0000     46.6652    155.4329     33.9785     87.2805
  1736.2500     47.7644    155.3945     34.8898     85.1072
  1736.5000     48.9806    155.2805     35.5957     83.1810
  1736.7500     50.1905    155.1535     35.9893     82.6235
  1737.0000     51.2866    155.0682     36.0438     82.4640
  1737.2500     52.2258    155.0569     35.8363     82.6092
  1737.5000     53.0103    155.1230     35.5118     82.7269
  1737.7500     53.6671    155.2426     35.2146     82.3625
