~Version Information
VERS.                      2.0: CWLS Log ASCII Standard - VERSION 2.0
WRAP.                       NO: One line per depth step
~Well Information Block
STRT.FT               460.0000: 
STOP.FT              1498.0000: 
STEP.FT                 0.1000: 
NULL.                -999.2500: 
COMP.          Pioneer Natural Resources: COMPANY
WELL.           Amore 32-09 Tr: WELL
FLD.           Purgatoire River: FIELD
LOC.           1941' FNL & 2297' FEL: LOCATION
PROV.                 Colorado: PROVINCE
CNTY.               Las Animas: COUNTRY
SRVC.                Patterson: SERVICE COMPANY
DATE.          Mon Nov 14 13:24:57 2005: LOG DATE
UWI.           05 071 08584 00: UNIQUE WELL ID
~Curve Information Block
DEPT.FT            0 000 00 00: Depth
DCAL.in                       : CDL Caliper
RHOB.g/cc                     : CDL Bulk Density
RHOC.g/cc                     : CDL Density Correction
DPOR.pu                       : CDL Density Porosity
GR.GAPI                       : Gamma Ray
NPOR.pu                       : Neutron Porosity
~Parameter Information Block
~A  Depth       DCAL        RHOB        RHOC        DPOR         GR         NPOR    
# ...
   805.6000      8.0143      2.4584     -0.0109     11.6136     73.7317     15.9666
   805.7000      8.0143      2.4525      0.0205     11.9680     72.1927     15.7306
   805.8000      8.0140      2.4549     -0.0093     11.8225     68.5665     15.6325
   805.9000      8.0140      2.4621      0.0490     11.3882     64.5734     15.5599
   806.0000      8.0133      2.4664      0.0234     11.1280     61.8554     15.7153
   806.1000      8.0133      2.4684      0.0231     11.0054     60.7875     16.2383
   806.2000      8.0133      2.4725      0.0496     10.7563     63.1340     16.9002
   806.3000      8.0129      2.4804      0.0686     10.2817     68.5642     17.1750
   806.4000      8.0129      2.4891      0.0553      9.7513     72.4988     16.9702
   806.5000      8.0131      2.4862      0.0929      9.9243     71.8471     16.5716
   806.6000      8.0131      2.4652      0.0416     11.1997     67.7390     16.0597
   806.7000      8.0131      2.4393      0.0402     12.7694     63.1767     15.5923
   806.8000      8.0132      2.4177      0.0627     14.0793     60.3944     15.3397
   806.9000      8.0132      2.4041      0.0322     14.9058     61.1956     15.3078
   807.0000      8.0129      2.4113      0.0215     14.4653     64.6234     15.5084
   807.1000      8.0129      2.4440      0.0409     12.4819     66.5130     15.7405
   807.2000      8.0129      2.4859      0.0774      9.9454     65.2276     15.6105
   807.3000      8.0124      2.5184      0.0765      7.9747     61.8594     15.1934
   807.4000      8.0124      2.5376      0.1050      6.8129     57.2234     15.0263
   807.5000      8.0114      2.5411      0.1309      6.5973     54.0416     15.3679
   807.6000      8.0114      2.5298      0.0778      7.2864     54.4589     15.9094
   807.7000      8.0114      2.5151      0.1221      8.1732     57.3446     16.5420
   807.8000      8.0102      2.5052      0.0834      8.7743     63.2258     17.3738
   807.9000      8.0102      2.5027      0.0354      8.9249     70.2843     18.3110
   808.0000      8.0096      2.5009      0.0931      9.0387     71.0823     19.2404
   808.1000      8.0096      2.4904      0.0153      9.6733     64.2830     19.9628
   808.2000      8.0096      2.4816      0.0086     10.2051     58.2978     20.1681
   808.3000      8.0090      2.4888      0.0004      9.7705     59.4679     19.8792
   808.4000      8.0090      2.5120      0.0214      8.3649     65.1397     19.5660
   808.5000      8.0084      2.5363      0.0543      6.8921     69.9531     19.2481
   808.6000      8.0084      2.5464      0.0573      6.2797     72.9115     18.7262
   808.7000      8.0084      2.5429      0.0276      6.4914     72.9092     18.2115
   808.8000      8.0079      2.5266      0.0279      7.4792     67.8094     17.7935
   808.9000      8.0079      2.4913      0.0272      9.6166     60.7928     17.2611
   809.0000      8.0069      2.4443     -0.0501     12.4692     57.7748     16.5706
   809.1000      8.0069      2.4064     -0.0653     14.7624     60.6625     15.9562
   809.2000      8.0069      2.3897     -0.0507     15.7728     66.1433     15.4981
   809.3000      8.0027      2.3896     -0.0170     15.7848     69.4824     15.2460
   809.4000      8.0027      2.4008     -0.0089     15.1043     68.8617     15.1934
   809.5000      7.9908      2.4293      0.0126     13.3783     66.1667     15.1477
   809.6000      7.9908      2.4733      0.1149     10.7082     64.2927     15.1005
   809.7000      7.9908      2.5140      0.1609      8.2395     64.7394     15.1727
   809.8000      7.9730      2.5378      0.1765      6.7995     66.3900     15.3939
   809.9000      7.9730      2.5454      0.1940      6.3417     66.4194     15.6747
   810.0000      7.9690      2.5374      0.1740      6.8222     63.9919     15.8035
   810.1000      7.9690      2.5113      0.1765      8.4037     60.5506     15.7766
   810.2000      7.9690      2.4788      0.0843     10.3785     59.6113     15.8118
   810.3000      7.9901      2.4639      0.0903     11.2768     63.7019     15.7808
   810.4000      7.9901      2.4707      0.0981     10.8671     69.4831     15.5643
   810.5000      8.0150      2.4815      0.1036     10.2108     71.7860     15.2454
   810.6000      8.0150      2.4876      0.0577      9.8400     69.6551     14.8292
   810.7000      8.0150      2.5006      0.0631      9.0534     66.1631     14.5439
   810.8000      8.0262      2.5218      0.0931      7.7676     64.7628     14.7875
   810.9000      8.0262      2.5365      0.1012      6.8803     65.7797     15.5063
   811.0000      8.0284      2.5396      0.0708      6.6894     68.5850     16.1757
   811.1000      8.0284      2.5336      0.0877      7.0556     71.8550     16.4774
   811.2000      8.0284      2.5211      0.0821      7.8142     72.6644     16.3299
   811.3000      8.0284      2.5136      0.0619      8.2695     71.0172     15.9463
   811.4000      8.0284      2.5189      0.0642      7.9430     72.6070     15.8165
   811.5000      8.0272      2.5292      0.0548      7.3205     77.7177     16.3009
   811.6000      8.0272      2.5339      0.0606      7.0391     80.2953     17.5408
   811.7000      8.0272      2.5300      0.0151      7.2702     80.8043     19.2358
   811.8000      8.0254      2.5172      0.0957      8.0488     80.4296     20.6761
   811.9000      8.0254      2.4980      0.0318      9.2151     77.4948     21.3005
   812.0000      8.0242      2.4839      0.0535     10.0683     75.1264     21.2027
   812.1000      8.0242      2.4815      0.0048     10.2092     76.7812     21.0709
   812.2000      8.0242      2.4891      0.0583      9.7489     79.7315     21.3241
   812.3000      8.0215      2.5021      0.0529      8.9641     82.1313     21.7405
   812.4000      8.0215      2.5232      0.0360      7.6833     87.8376     21.8842
   812.5000      8.0124      2.5554      0.0877      5.7321     95.9647     21.5539
   812.6000      8.0124      2.5884      0.1154      3.7340    100.2322     20.7759
   812.7000      8.0124      2.6155      0.1166      2.0912     96.5250     19.8056
   812.8000      7.9926      2.6309      0.1738      1.1580     86.4770     19.0852
   812.9000      7.9926      2.6182      0.1959      1.9284     76.1963     18.7000
   813.0000      7.9707      2.5796      0.1280      4.2676     71.1869     18.4804
   813.1000      7.9707      2.5401      0.1095      6.6593     71.6912     18.2797
   813.2000      7.9707      2.5104      0.1129      8.4632     74.5344     17.6973
   813.3000      7.9684      2.4854      0.0874      9.9749     76.7217     16.6206
   813.4000      7.9684      2.4692      0.0186     10.9553     75.3717     15.8848
   813.5000      7.9875      2.4765      0.0236     10.5160     70.4655     15.8200
   813.6000      7.9875      2.5080      0.1158      8.6057     66.5280     15.8539
   813.7000      7.9875      2.5402      0.1678      6.6558     65.7392     15.7179
   813.8000      8.0059      2.5535      0.1841      5.8504     66.1995     15.7082
   813.9000      8.0059      2.5489      0.1663      6.1263     67.3408     15.9106
   814.0000      8.0152      2.5346      0.1561      6.9916     69.9514     16.1448
   814.1000      8.0152      2.5192      0.1177      7.9264     74.0401     16.4145
   814.2000      8.0152      2.5099      0.0988      8.4909     76.7085     16.7576
   814.3000      8.0283      2.5053      0.1062      8.7717     74.5397     16.9529
   814.4000      8.0283      2.5001      0.0702      9.0847     70.0651     16.8322
   814.5000      8.0428      2.4970      0.0512      9.2721     67.1994     16.4329
   814.6000      8.0428      2.5042      0.0638      8.8363     65.4198     16.1043
   814.7000      8.0428      2.5194      0.0934      7.9159     63.5247     16.1697
   814.8000      8.0482      2.5318      0.0650      7.1639     61.8561     16.4239
   814.9000      8.0482      2.5335      0.1115      7.0621     63.1042     16.5035
   815.0000      8.0482      2.5243      0.0382      7.6177     66.7824     16.3457
   815.1000      8.0482      2.5135      0.0533      8.2751     68.7641     16.3878
