~Version Information
VERS.                      2.0: CWLS Log ASCII Standard - VERSION 2.0
WRAP.                       NO: One line per depth step
~Well Information Block
STRT.FT                 0.0000: 
STOP.FT               968.2500: 
STEP.FT                 0.2500: 
NULL.                -999.2500: 
COMP.          Pioneer Natural Resources: COMPANY
WELL.              Atlas 32-18: WELL
FLD.           Purgatorie River: FIELD
LOC.           1892' FNL & 1456' FEL: LOCATION
PROV.                 Colorado: PROVINCE
CNTY.               Las Animas: COUNTRY
SRVC.                Patterson: SERVICE COMPANY
DATE.          Fri Dec 02 11:37:22 2005: LOG DATE
UWI.                          : UNIQUE WELL ID
~Curve Information Block
DEPT.FT            0 000 00 00: Depth
CCL.                          : Casing Collar Locator
TT3.usec                      : CBL 3' Travel Time
AMP3.mV                       : CBL 3' Amplitude
GR.GAPI                       : Gamma Ray
~Parameter Information Block
~A  Depth       CCL         TT3         AMP3         GR     
# ...
   502.5000      0.0000    644.8392      9.4041    135.7215
   502.7500      0.0000    624.7297      9.2842    128.7641
   503.0000      0.0000    642.1596      9.2062    120.9420
   503.2500      0.0000    668.8677      9.1822    113.6323
   503.5000      0.0000    659.3978      9.2130    107.9578
   503.7500      0.0000    599.4343      9.2959    103.9910
   504.0000      0.0000    520.4562      9.4253    101.8477
   504.2500      0.0000    472.6978      9.5890    102.5817
   504.5000      0.0000    469.5629      9.7664    106.7872
   504.7500      0.0000    471.4417      9.9213    112.7218
   505.0000      0.0000    442.7603      9.9938    117.0555
   505.2500      0.0000    396.9617      9.9529    117.5862
   505.5000      0.0000    363.8539      9.8509    114.5682
   505.7500      0.0000    350.0457      9.7634    109.5819
   506.0000      0.0000    346.5460      9.7133    104.0061
   506.2500      0.0000    347.1024      9.6810     98.7088
   506.5000      0.0000    353.4079      9.6406     94.3458
   506.7500      0.0000    374.7559      9.5803     91.2798
   507.0000      0.0000    420.6290      9.5040     89.4263
   507.2500      0.0000    483.8419      9.4237     88.6618
   507.5000      0.0000    542.5143      9.3516     89.1299
   507.7500      0.0000    589.3124      9.2923     90.6605
   508.0000      0.0000    627.0767      9.2474     92.3434
   508.2500      0.0000    635.0291      9.2170     93.3298
   508.5000      0.0000    589.2917      9.1923     93.7004
   508.7500      0.0000    508.3059      9.1811     94.0220
   509.0000      0.0000    437.6018      9.2113     94.4721
   509.2500      0.0000    399.9937      9.2941     94.8506
   509.5000      0.0000    386.1774      9.4207     95.0586
   509.7500      0.0000    380.1259      9.5672     95.1874
   510.0000      0.0000    374.3038      9.6918     95.3329
   510.2500      0.0000    368.1385      9.7586     95.4467
   510.5000      0.0000    362.1116      9.7816     95.2818
   510.7500      0.0000    355.9081      9.8335     94.5938
   511.0000      0.0000    351.1207      9.9695     93.4569
   511.2500      0.0000    351.6349     10.1830     92.2506
   511.5000      0.0000    361.1760     10.4179     91.3918
   511.7500      0.0000    378.9084     10.5877     91.2432
   512.0000      0.0000    396.4656     10.6646     92.1033
   512.2500      0.0000    404.8835     10.7197     93.8670
   512.5000      0.0000    403.3979     10.8106     95.7172
   512.7500      0.0000    401.1977     10.9116     96.5705
   513.0000      0.0000    411.0231     10.9754     95.9407
   513.2500      0.0000    431.0736     10.9918     94.2431
   513.5000      0.0000    441.1203     10.9630     92.5029
   513.7500      0.0000    427.1787     10.8951     91.8434
   514.0000      0.0000    399.9561     10.8158     92.7013
   514.2500      0.0000    382.3937     10.7501     94.1960
   514.5000      0.0000    382.9220     10.7112     94.6799
   514.7500      0.0000    388.4262     10.7120     93.1944
   515.0000      0.0000    385.1575     10.7509     90.2119
   515.2500      0.0000    374.9848     10.7982     86.9549
   515.5000      0.0000    367.2070     10.8189     84.2471
   515.7500      0.0000    366.5424     10.8101     81.9760
   516.0000      0.0000    370.1301     10.7838     79.4551
   516.2500      0.0000    371.9536     10.7421     76.2085
   516.5000      0.0000    370.5338     10.6844     72.4580
   516.7500      0.0000    369.2821     10.6026     68.8865
   517.0000      0.0000    371.6744     10.4897     66.0459
   517.2500      0.0000    380.8635     10.3613     64.1244
   517.5000      0.0000    402.6720     10.2391     63.1936
   517.7500      0.0000    443.6467     10.1335     63.3543
   518.0000      0.0000    496.7777     10.0591     64.5423
   518.2500      0.0000    538.6447     10.0312     66.3929
   518.5000      0.0000    562.6912     10.0532     68.4036
   518.7500      0.0000    592.9482     10.1284     70.1809
   519.0000      0.0000    639.9436     10.2447     71.5117
   519.2500      0.0000    678.8568     10.3623     72.2758
   519.5000      0.0000    683.9299     10.4676     72.4989
   519.7500      0.0000    656.8637     10.5960     72.4831
   520.0000      0.0000    626.7585     10.7704     72.5808
   520.2500      0.0000    625.4824     10.9566     72.7719
   520.5000      0.0000    651.1670     11.0943     72.7650
   520.7500      0.0000    671.8456     11.1527     72.4263
   521.0000      0.0000    671.3192     11.1415     71.7972
   521.2500      0.0000    667.7371     11.0986     70.8857
   521.5000      0.0000    680.1204     11.0808     69.8585
   521.7500      0.0000    701.3411     11.1317     69.2528
   522.0000      0.0000    716.1217     11.2302     69.5165
   522.2500      0.0000    721.6988     11.3048     70.3764
   522.5000      0.0000    722.8162     11.3194     71.1278
   522.7500      0.0000    722.8558     11.3006     71.7820
   523.0000      0.0000    722.8446     11.2800     73.3910
   523.2500      0.0000    722.8797     11.2595     76.6070
   523.5000      0.0000    722.9043     11.2100     80.2100
   523.7500      0.0000    722.8546     11.0821     81.8553
   524.0000      0.0000    722.6393     10.8148     80.4376
   524.2500      0.0000    722.1246     10.3185     77.3762
   524.5000      0.0000    721.1622      9.5038     75.5049
   524.7500      0.0000    720.6060      8.4484     76.7823
   525.0000      0.0000    725.0997      7.5382     80.8033
   525.2500      0.0000    743.0007      7.1279     85.1426
   525.5000      0.0000    778.0239      6.9859     87.1010
   525.7500      0.0000    823.3708      6.6696     85.5099
   526.0000      0.0000    867.5262      6.3073     81.3791
   526.2500      0.0000    900.7474      6.2379     76.9393
   526.5000     -2.0000    918.0658      6.3992     73.7330
   526.7500      2.0000    914.4113      6.5559     71.5193
   527.0000      0.0000    884.2598      6.6075     69.1356
   527.2500      0.0000    841.4888      6.5699     66.2654
   527.5000      0.0000    809.8965      6.6017     64.0637
   527.7500      0.0000    789.5872      7.0964     64.0070
   528.0000      0.0000    768.8573      8.3189     66.2805
   528.2500      0.0000    749.4362      9.7368     69.4421
   528.5000      0.0000    736.5940     10.4684     71.6668
   528.7500      0.0000    729.4561     10.4238     72.1900
   529.0000      0.0000    725.9200     10.1556     71.5292
   529.2500      0.0000    724.6111     10.0488     70.6578
   529.5000      0.0000    724.3574     10.1258     70.3524
   529.7500      0.0000    724.4357     10.2323     71.2454
   530.0000      0.0000    724.5331     10.2536     73.9033
   530.2500      0.0000    724.5616     10.2078     78.3188
   530.5000      0.0000    724.5422     10.1743     83.3362
   530.7500      0.0000    724.5451     10.1895     87.0081
   531.0000      0.0000    724.6248     10.2407     87.9484
   531.2500      0.0000    724.7775     10.3167     86.5072
   531.5000      0.0000    724.9718     10.4034     84.5168
   531.7500      0.0000    725.1879     10.4634     83.7496
   532.0000      0.0000    725.3976     10.4721     84.5380
   532.2500      0.0000    725.5302     10.4558     85.7206
   532.5000      0.0000    725.4940     10.4601     85.7460
   532.7500      0.0000    725.2648     10.4922     83.9238
   533.0000      0.0000    724.9316     10.5243     80.8321
   533.2500      0.0000    724.5975     10.5541     77.5817
   533.5000      0.0000    724.2616     10.6312     74.9181
   533.7500      0.0000    723.8798     10.7909     73.2889
   534.0000      0.0000    723.5042     11.0006     73.3100
   534.2500      0.0000    723.2497     11.2100     75.2685
   534.5000      0.0000    723.1439     11.4035     78.2070
   534.7500      0.0000    723.1217     11.5745     80.2630
   535.0000      0.0000    723.1443     11.7094     80.1054
   535.2500      0.0000    723.2101     11.8203     77.7099
   535.5000      0.0000    723.2501     11.9506     73.9110
   535.7500      0.0000    723.1467     12.1300     69.8363
