~Version Information
VERS.                      2.0: CWLS Log ASCII Standard - VERSION 2.0
WRAP.                       NO: One line per depth step
~Well Information Block
STRT.FT               845.0000: 
STOP.FT              2102.0000: 
STEP.FT                 0.1000: 
NULL.                -999.2500: 
COMP.          Petrogulf Corporation: COMPANY
WELL.               YWAM 7-32R: WELL
FLD.           Purgatorie River: FIELD
LOC.           2355' FNL & 2376' FEL: LOCATION
PROV.                 Colorado: PROVINCE
CNTY.               Las Animas: COUNTRY
SRVC.                Patterson: SERVICE COMPANY
DATE.          Fri Sep 30 11:07:31 2005: LOG DATE
UWI.                          : UNIQUE WELL ID
~Curve Information Block
DEPT.FT            0 000 00 00: Depth
DCAL.in                       : CDL Caliper
RHOB.g/cc                     : CDL Bulk Density
RHOC.g/cc                     : CDL Density Correction
DPOR.pu                       : CDL Density Porosity
GR.GAPI                       : Gamma Ray
NPOR.pu                       : Neutron Porosity
~Parameter Information Block
~A  Depth       DCAL        RHOB        RHOC        DPOR         GR         NPOR    
# ...
  1008.2000      8.1970      2.5804     -0.0263      4.2199    120.1997     25.3763
  1008.3000      8.2004      2.5631     -0.0488      5.2638    118.4525     25.1896
  1008.4000      8.2004      2.5664     -0.0206      5.0666    116.8349     24.9160
  1008.5000      8.1889      2.5734      0.0643      4.6421    117.3281     24.4992
  1008.6000      8.1889      2.5655     -0.0268      5.1232    120.8813     24.0316
  1008.7000      8.1889      2.5539     -0.0210      5.8227    126.3846     23.7617
  1008.8000      8.1977      2.5483      0.0034      6.1614    132.9702     23.7791
  1008.9000      8.1977      2.5439      0.0053      6.4309    140.5903     23.8851
  1009.0000      8.1999      2.5388     -0.0262      6.7419    145.9442     24.0261
  1009.1000      8.1999      2.5373      0.0000      6.8291    145.9755     24.4659
  1009.2000      8.1999      2.5467      0.0054      6.2598    143.1846     25.1387
  1009.3000      8.2078      2.5651      0.0417      5.1470    138.6704     25.5078
  1009.4000      8.2078      2.5822      0.0387      4.1071    134.1352     25.3633
  1009.5000      8.2268      2.5981      0.0240      3.1437    132.1791     25.1900
  1009.6000      8.2268      2.6160      0.0310      2.0610    130.7256     25.4594
  1009.7000      8.2268      2.6265      0.0437      1.4272    130.1275     26.0749
  1009.8000      8.2190      2.6133      0.0734      2.2231    133.4955     26.8418
  1009.9000      8.2190      2.5801      0.0120      4.2372    138.8250     27.6801
  1010.0000      8.2273      2.5527     -0.0324      5.8989    141.8558     28.2536
  1010.1000      8.2273      2.5443      0.0016      6.4068    142.8234     28.3309
  1010.2000      8.2273      2.5479     -0.0195      6.1875    143.0337     28.1530
  1010.3000      8.2254      2.5482      0.0505      6.1669    143.6804     28.0737
  1010.4000      8.2254      2.5358     -0.0065      6.9184    146.4224     28.2529
  1010.5000      8.2390      2.5272     -0.0218      7.4443    150.4596     28.5944
  1010.6000      8.2390      2.5361      0.0363      6.9054    153.5201     28.8055
  1010.7000      8.2390      2.5507      0.0428      6.0166    154.8046     28.7892
  1010.8000      8.2408      2.5610      0.0506      5.3918    153.2655     28.9141
  1010.9000      8.2408      2.5644      0.0433      5.1852    149.6618     29.4388
  1011.0000      8.2523      2.5582      0.0107      5.5642    146.5531     29.9655
  1011.1000      8.2523      2.5474      0.0109      6.2173    144.2826     29.9218
  1011.2000      8.2523      2.5431     -0.0217      6.4764    144.0179     29.4165
  1011.3000      8.2804      2.5478     -0.0033      6.1947    147.5408     29.0635
  1011.4000      8.2804      2.5534      0.0118      5.8571    152.5586     29.0746
  1011.5000      8.2789      2.5571      0.0025      5.6283    155.2789     29.2773
  1011.6000      8.2789      2.5632     -0.0196      5.2610    153.9832     29.4690
  1011.7000      8.2789      2.5682      0.0058      4.9599    148.6247     29.5407
  1011.8000      8.2776      2.5687     -0.0052      4.9248    143.0699     29.6341
  1011.9000      8.2776      2.5673     -0.0058      5.0148    141.2171     29.7689
  1012.0000      8.2735      2.5615     -0.0075      5.3648    140.2604     29.8349
  1012.1000      8.2735      2.5527     -0.0208      5.8967    138.1174     29.9275
  1012.2000      8.2735      2.5414     -0.0063      6.5820    137.8608     29.9978
  1012.3000      8.2727      2.5269     -0.0496      7.4619    139.1722     29.8912
  1012.4000      8.2727      2.5209     -0.0412      7.8241    138.3748     29.6513
  1012.5000      8.2830      2.5302     -0.0132      7.2620    137.1147     29.4536
  1012.6000      8.2830      2.5455      0.0262      6.3309    138.2321     29.2728
  1012.7000      8.2830      2.5538      0.0038      5.8321    141.3976     28.9391
  1012.8000      8.3050      2.5476      0.0184      6.2087    146.6805     28.6617
  1012.9000      8.3050      2.5307     -0.0160      7.2279    151.6829     28.5344
  1013.0000      8.3212      2.5174     -0.0293      8.0393    152.3247     28.4634
  1013.1000      8.3212      2.5147      0.0076      8.2008    148.5905     28.5417
  1013.2000      8.3212      2.5175     -0.0117      8.0281    144.7807     28.6615
  1013.3000      8.2941      2.5210     -0.0177      7.8184    145.3324     28.7034
  1013.4000      8.2941      2.5205      0.0217      7.8484    148.6386     28.7680
  1013.5000      8.3319      2.5183     -0.0248      7.9822    150.7419     28.9438
  1013.6000      8.3319      2.5260     -0.0049      7.5169    153.5911     29.3406
  1013.7000      8.3319      2.5441      0.0338      6.4175    158.1585     29.7621
  1013.8000      8.3196      2.5617     -0.0116      5.3492    160.0704     29.7897
  1013.9000      8.3196      2.5721      0.0303      4.7203    158.0543     29.4491
  1014.0000      8.3087      2.5726      0.0384      4.6923    157.0032     29.1217
  1014.1000      8.3087      2.5676      0.0231      4.9939    159.2479     28.9813
  1014.2000      8.3087      2.5692     -0.0295      4.8959    159.6900     28.8968
  1014.3000      8.3111      2.5815      0.0427      4.1492    156.2693     28.7417
  1014.4000      8.3111      2.5947      0.0137      3.3516    153.2656     28.6054
  1014.5000      8.2973      2.5997      0.0360      3.0483    153.3059     28.5405
  1014.6000      8.2973      2.5940     -0.0049      3.3910    155.1078     28.4207
  1014.7000      8.2973      2.5830      0.0308      4.0577    155.3679     28.2747
  1014.8000      8.2767      2.5795     -0.0215      4.2733    151.3044     28.0903
  1014.9000      8.2767      2.5919      0.0553      3.5186    144.5828     27.7733
  1015.0000      8.2799      2.6133      0.0081      2.2241    139.2588     27.5018
  1015.1000      8.2799      2.6322      0.0285      1.0809    136.6520     27.3794
  1015.2000      8.2799      2.6420      0.0092      0.4854    135.5023     27.3650
  1015.3000      8.2743      2.6450      0.0186      0.3011    133.9276     27.3631
  1015.4000      8.2743      2.6472      0.0182      0.1714    131.2668     27.1048
  1015.5000      8.2686      2.6497      0.0235      0.0193    129.6662     26.7022
  1015.6000      8.2686      2.6452      0.0556      0.2895    129.5692     26.4803
  1015.7000      8.2686      2.6288     -0.0041      1.2842    127.8893     26.2882
  1015.8000      8.2994      2.6118     -0.0109      2.3176    125.6544     25.8453
  1015.9000      8.2994      2.6051     -0.0570      2.7186    125.8353     25.3474
  1016.0000      8.3064      2.6041     -0.0190      2.7826    125.8965     25.1319
  1016.1000      8.3064      2.5993     -0.0011      3.0723    124.6408     25.1225
  1016.2000      8.3064      2.5891      0.0473      3.6936    125.8509     25.0108
  1016.3000      8.3026      2.5767      0.0044      4.4403    131.7536     24.8733
  1016.4000      8.3026      2.5685     -0.0174      4.9419    138.8993     24.8105
  1016.5000      8.2709      2.5654      0.0005      5.1282    141.1541     24.6610
  1016.6000      8.2709      2.5675     -0.0374      4.9979    136.6255     24.5250
  1016.7000      8.2709      2.5799      0.0167      4.2455    130.5084     24.6893
  1016.8000      8.2606      2.5935      0.0158      3.4247    129.3816     25.0918
  1016.9000      8.2606      2.5910      0.0132      3.5737    133.2441     25.3636
  1017.0000      8.2707      2.5797     -0.0343      4.2632    136.4338     25.3644
  1017.1000      8.2707      2.5778      0.0197      4.3781    136.8166     25.2887
  1017.2000      8.2707      2.5848      0.0222      3.9500    136.9905     25.3961
  1017.3000      8.1957      2.5935      0.0230      3.4229    137.4331     25.7011
  1017.4000      8.1957      2.6026      0.0408      2.8748    136.6019     25.9189
  1017.5000      8.2117      2.6103      0.0582      2.4047    136.1410     25.7713
  1017.6000      8.2117      2.6153      0.0293      2.1000    137.4047     25.4041
  1017.7000      8.2117      2.6195      0.0167      1.8481    138.2678     25.4785
