~Version Information
VERS.                      2.0: CWLS Log ASCII Standard - VERSION 2.0
WRAP.                       NO: One line per depth step
~Well Information Block
STRT.FT                 0.0000: 
STOP.FT              1147.5000: 
STEP.FT                 0.2500: 
NULL.                -999.2500: 
COMP.          Pioneer Natural Resources: COMPANY
WELL.          Tin Barn 14-20 TR: WELL
FLD.           Purgatorie River: FIELD
LOC.           925 FSL & 1151 FWL: LOCATION
PROV.                 Colorado: PROVINCE
CNTY.               Las Animas: COUNTRY
SRVC.                Patterson: SERVICE COMPANY
DATE.          Wed Jan 18 12:02:25 2006: LOG DATE
UWI.                          : UNIQUE WELL ID
~Curve Information Block
DEPT.FT            0 000 00 00: Depth
CCL.                          : Casing Collar Locator
TT3.usec                      : CBL 3' Travel Time
AMP3.mV                       : CBL 3' Amplitude
GR.GAPI                       : Gamma Ray
~Parameter Information Block
~A  Depth       CCL         TT3         AMP3         GR     
# ...
   134.0000      0.0000    537.5571     15.5262     74.3123
   134.2500      0.0000    537.5375     15.5141     75.8304
   134.5000      0.0000    584.6257     15.4315     78.9967
   134.7500      0.0000    638.0408     15.3521     83.1879
   135.0000      0.0000    669.7339     15.3380     86.8122
   135.2500      0.0000    682.3310     15.4183     88.5159
   135.5000      0.0000    681.5272     15.5765     88.1843
   135.7500      0.0000    655.9449     15.7734     86.8959
   136.0000      0.0000    592.3165     15.9901     86.0873
   136.2500      0.0000    507.7675     16.2301     86.4494
   136.5000      0.0000    447.0643     16.4606     87.3729
   136.7500      0.0000    444.2515     16.5985     87.6962
   137.0000      0.0000    500.7204     16.5961     87.0943
   137.2500      0.0000    586.1313     16.5064     86.4962
   137.5000      0.0000    656.7315     16.4263     87.1596
   137.7500      0.0000    689.5227     16.4069     89.4471
   138.0000      0.0000    693.5361     16.4303     92.4005
   138.2500      0.0000    688.2262     16.4533     94.3931
   138.5000      0.0000    684.2183     16.4555     94.3304
   138.7500      0.0000    682.7427     16.4525     92.3747
   139.0000      0.0000    682.2971     16.4680     89.6118
   139.2500      0.0000    682.0248     16.4781     87.2198
   139.5000      0.0000    681.7903     16.4147     85.9358
   139.7500      0.0000    681.6691     16.2575     85.7716
   140.0000      0.0000    681.6866     16.0614     85.9343
   140.2500      0.0000    681.7598     15.8701     85.4581
   140.5000      0.0000    681.7455     15.6888     84.2768
   140.7500      0.0000    681.5645     15.5392     83.3912
   141.0000      0.0000    681.2913     15.4642     83.7052
   141.2500      0.0000    681.0769     15.4980     84.8798
   141.5000      0.0000    680.9961     15.6336     85.5212
   141.7500      0.0000    681.0145     15.8048     84.4358
   142.0000      0.0000    681.0757     15.9419     81.6377
   142.2500      0.0000    681.1727     16.0189     78.1736
   142.5000      0.0000    681.3288     16.0377     75.1061
   142.7500      0.0000    681.4859     16.0135     72.8276
   143.0000      0.0000    681.4862     15.9492     71.2805
   143.2500      0.0000    681.2982     15.8324     70.4046
   143.5000      0.0000    681.1061     15.6848     70.0997
   143.7500      0.0000    681.0231     15.5577     70.0616
   144.0000      0.0000    680.9432     15.4904     69.9172
   144.2500      0.0000    680.7676     15.5049     69.3829
   144.5000      0.0000    680.5604     15.5663     68.2896
   144.7500      0.0000    680.4186     15.5702     66.8443
   145.0000      0.0000    680.3361     15.4587     65.8882
   145.2500      0.0000    680.2485     15.2763     66.3855
   145.5000      0.0000    680.1338     15.0776     68.3815
   145.7500      0.0000    680.0265     14.8954     70.7542
   146.0000      0.0000    679.9285     14.7888     72.0953
   146.2500      0.0000    679.5865     14.7907     71.7768
   146.5000      0.0000    677.3578     14.8545     70.3506
   146.7500      0.0000    666.9990     14.9230     69.0417
   147.0000      0.0000    636.7460     14.9805     68.7368
   147.2500      0.0000    583.9840     15.0301     69.4071
   147.5000      0.0000    537.1705     15.0647     70.4241
   147.7500      0.0000    537.0465     15.0498     71.1745
   148.0000      0.0000    583.7382     14.9582     71.3221
   148.2500      0.0000    636.5872     14.8357     70.9161
   148.5000      0.0000    666.9875     14.7677     70.5737
   148.7500      0.0000    677.1791     14.8069     71.3015
   149.0000      0.0000    677.1971     14.9714     73.5496
   149.2500      0.0000    666.7704     15.2343     76.4022
   149.5000      0.0000    634.1085     15.5112     78.1254
   149.7500      0.0000    570.5930     15.7337     77.8123
   150.0000      0.0000    493.0712     15.9240     76.2859
   150.2500      0.0000    439.8945     16.1247     75.2623
   150.5000      0.0000    439.8293     16.2729     75.8185
   150.7500      0.0000    492.9441     16.2665     77.8095
   151.0000      0.0000    570.4940     16.1327     80.3644
   151.2500      0.0000    634.0529     15.9991     82.4981
   151.5000      0.0000    666.7855     15.9365     83.4632
   151.7500      0.0000    677.5735     15.9270     83.0208
   152.0000      0.0000    679.8411     15.9354     81.4467
   152.2500      0.0000    680.0911     15.9346     79.2124
   152.5000      0.0000    680.0500     15.9087     76.7435
   152.7500      0.0000    680.0566     15.8794     74.4471
   153.0000      0.0000    680.1468     15.8742     72.7702
   153.2500      0.0000    680.2300     15.8456     72.0918
   153.5000      0.0000    680.1995     15.7068     72.4720
   153.7500      0.0000    679.7852     15.4735     73.5314
   154.0000      0.0000    677.1973     15.2711     74.6330
   154.2500      0.0000    665.5986     15.2013     75.2235
   154.5000      0.0000    632.4233     15.2909     74.9616
   154.7500      0.0000    575.6911     15.5209     73.6373
   155.0000      0.0000    526.8995     15.8130     71.2689
   155.2500      0.0000    528.8195     16.0384     68.3951
   155.5000      0.0000    579.4657     16.1326     65.9435
   155.7500      0.0000    635.1050     16.1518     64.5099
   156.0000      0.0000    666.5366     16.1733     63.8212
   156.2500      0.0000    676.8802     16.2012     63.0911
   156.5000      0.0000    676.8022     16.1782     61.8712
   156.7500      0.0000    666.0312     16.0716     60.4011
   157.0000      0.0000    632.2189     15.9359     59.1724
   157.2500      0.0000    566.6687     15.8688     58.3551
   157.5000      0.0000    490.5767     15.9023     57.7426
   157.7500      0.0000    452.1513     15.9427     57.1482
   158.0000      0.0000    479.7764     15.8538     56.6537
   158.2500      0.0000    549.9969     15.6180     56.4162
   158.5000      0.0000    616.9497     15.3805     56.3491
   158.7500      0.0000    658.9022     15.3186     56.0650
   159.0000      0.0000    680.0803     15.4590     55.1487
   159.2500      0.0000    687.2032     15.6328     53.6382
   159.5000      0.0000    678.9544     15.6840     52.4017
   159.7500      0.0000    644.5160     15.6745     52.8295
   160.0000      0.0000    575.0468     15.7517     55.7890
   160.2500      0.0000    489.0821     15.8993     60.7551
   160.5000      0.0000    428.2110     15.9756     66.0459
   160.7500      0.0000    416.5794     15.9288     69.9649
   161.0000      0.0000    438.8600     15.8190     71.6995
   161.2500      0.0000    460.0461     15.6047     71.3249
   161.5000      0.0000    468.6396     15.0355     69.4121
   161.7500      0.0000    486.3454     13.9700     66.8577
   162.0000      0.0000    519.5587     12.8734     64.7313
   162.2500      0.0000    549.7819     12.4832     63.9091
   162.5000      0.0000    585.6317     12.6456     64.6922
   162.7500      0.0000    655.3706     12.4889     66.5629
   163.0000      0.0000    747.7175     11.8375     68.2743
   163.2500      0.0000    818.2261     11.1891     68.6273
   163.5000     -2.0000    849.4313     10.8298     67.4442
   163.7500      2.0000    860.0139     10.7391     65.5542
   164.0000      2.0000    854.4123     10.7972     63.7960
   164.2500      0.0000    820.3404     10.8753     62.3992
   164.5000      0.0000    762.7977     11.0042     61.3804
   164.7500      0.0000    689.1558     11.5435     61.0380
   165.0000      0.0000    600.4232     12.7999     61.7412
   165.2500      0.0000    520.1381     14.2331     63.3328
   165.5000      0.0000    477.2639     14.9882     64.9998
   165.7500      0.0000    458.3372     15.2181     65.9405
   166.0000      0.0000    433.0692     15.5588     66.1458
   166.2500      0.0000    405.3607     16.0424     66.3423
   166.5000      0.0000    397.5142     16.3991     67.0788
   166.7500      0.0000    423.0180     16.5362     68.0665
   167.0000      0.0000    485.9697     16.4753     68.4903
   167.2500      0.0000    572.2640     16.2620     67.7873
