~Version Information
 VERS.                                  2.0 : CWLS LAS VERSION
 WRAP.                                   NO : WRAPING MODE
 SWARE .                 MController 2.5.3A : SOFTWARE VERSION
~Well Information
 WELL.                          Darren 11-7 : WELL
 COMP.  Pioneer Natural Resources USA, Inc. : COMPANY
 FLD.                      Purgatoire River : FIELD
 LOC.              NW/NW Sec. 7, T33S, R65W : LOCATION
 DATE.                           03/19/2006 : DATE(S) LOGGED
 SRVC.                  Entrada GeoSciences : SERVICE COMPANY
 STAT.                             Colorado : STATE
 CNTY.                           Las Animas : COUNTY
 CTRY.                        United States : COUNTRY
 API.                       05-071-08720-00 : API NUMBER
 STRT.FT                             250.00 : START DEPTH
 STOP.FT                            1450.00 : STOP DEPTH
 STEP.FT                               1.00 : DEPTH INCREMENT
 NULL.                                -9999 : NULL VALUE
~Curve information
 DEPTH.FT                                   :
 ROP.MIN/FT                                 :
 GAS.UNITS                                  :
~ASCII Log data
# ...
     1250.00         0.20        752.8 
     1251.00         0.20        834.5 
     1252.00         0.20        916.8 
     1253.00         0.20        831.3 
     1254.00         0.23       1166.2 
     1255.00         0.20       1608.8 
     1256.00         0.52       2258.6 
     1257.00         0.13       2295.0 
     1258.00         0.27       2199.5 
     1259.00         0.27       1878.9 
     1260.00         0.27       1561.1 
     1261.00         0.13       1250.8 
     1262.00         0.27       1301.2 
     1263.00         0.13       1301.2 
     1264.00         0.23       1344.9 
     1265.00         0.20       1342.5 
     1266.00         0.07       1298.6 
     1267.00         0.27       1243.2 
     1268.00         0.27       1204.8 
     1269.00         0.03       1189.6 
     1270.00         0.27       1192.8 
     1271.00         0.03       1228.9 
     1272.00         0.27       1262.8 
     1273.00         0.25       1262.8 
     1274.00         0.17       1327.3 
     1275.00         0.13       1327.3 
     1276.00         0.17       1380.9 
     1277.00         0.27       1508.6 
     1278.00         0.27       1520.4 
     1279.00         0.03       1519.8 
     1280.00         0.27       1514.2 
     1281.00         0.03       1480.2 
     1282.00         0.13       1337.0 
     1283.00         0.17       1333.1 
     1284.00         0.27       1314.7 
     1285.00         0.10       1293.6 
     1286.00         0.33       1284.2 
     1287.00         0.28       1284.2 
     1288.00         0.03       1284.2 
     1289.00         0.17       1284.2 
     1290.00         0.23       1275.4 
     1291.00         0.27       1257.3 
     1292.00         0.27       1248.2 
     1293.00         0.27       1232.1 
     1294.00         0.27       1213.0 
     1295.00         0.27       1211.0 
     1296.00         0.03       1204.8 
     1297.00         0.27       1209.5 
     1298.00         0.10       1211.3 
     1299.00         0.10       1211.3 
     1300.00         0.27       1229.7 
     1301.00         0.07       1229.7 
     1302.00         0.27       1237.1 
     1303.00         0.20       1245.6 
     1304.00         0.28       1200.1 
     1305.00         0.10       1200.1 
     1306.00         0.27       1154.1 
     1307.00         0.27       1178.2 
     1308.00         0.27       1543.5 
     1309.00         0.27       1984.4 
     1310.00         0.07       1984.4 
     1311.00         0.07       1984.4 
     1312.00         0.07       2785.1 
     1313.00         0.20       2621.9 
     1314.00         0.27       2460.8 
     1315.00         0.27       2002.3 
     1316.00         0.33       1667.7 
     1317.00         0.28       1784.6 
     1318.00         0.10       1784.6 
     1319.00         0.20       1800.1 
     1320.00         0.33       1793.7 
     1321.00         0.30       1630.5 
     1322.00         0.60       1550.5 
     1323.00         0.50       1503.7 
     1324.00         0.47       1433.3 
     1325.00         0.47       1375.6 
     1326.00         0.45       1326.7 
     1327.00         0.47       1287.7 
     1328.00         0.47       1269.0 
     1329.00         0.40       1252.3 
     1330.00         0.40       1231.2 
     1331.00         0.43       1221.2 
     1332.00         0.50       1207.5 
     1333.00         0.43       1204.5 
     1334.00         0.42       1206.3 
     1335.00         0.40       1204.8 
     1336.00         0.40       1204.8 
     1337.00         0.43       1201.6 
     1338.00         0.47       1190.2 
     1339.00         0.37       1182.6 
     1340.00         0.40       1192.2 
     1341.00         0.37       1299.8 
     1342.00         0.32       1341.9 
     1343.00         0.33       1594.5 
     1344.00         0.30       2122.1 
     1345.00         0.27       2644.5 
     1346.00         0.60       3240.1 
     1347.00         0.27       2841.9 
     1348.00         0.53       2766.9 
     1349.00         0.27       1462.6 
     1350.00         0.30       1438.9 
     1351.00         0.40       1251.4 
     1352.00         0.43       1265.8 
     1353.00         0.42       1307.7 
     1354.00         0.33       1183.4 
     1355.00         0.33       1154.7 
     1356.00         0.30       1083.8 
     1357.00         0.27       1042.5 
     1358.00         0.27       1037.2 
     1359.00         0.30        988.0 
     1360.00         0.23        958.4 
     1361.00         0.27        936.5 
     1362.00         0.27        930.9 
     1363.00         0.23        862.9 
     1364.00         0.27        859.7 
     1365.00         0.25        840.1 
     1366.00         0.23        837.4 
     1367.00         0.23        807.6 
     1368.00         0.27        800.8 
     1369.00         0.03        787.3 
     1370.00         0.30        799.7 
     1371.00         0.27        837.7 
     1372.00         0.13        840.4 
     1373.00         0.17       1640.5 
     1374.00         0.17       1640.5 
     1375.00         0.57       2423.9 
     1376.00         0.57       2357.1 
     1377.00         0.17       1535.9 
     1378.00         0.47       1380.6 
     1379.00         0.37       1312.3 
     1380.00         0.30       1189.0 
     1381.00         0.30       1095.0 
     1382.00         0.30        960.8 
     1383.00         0.27        918.3 
     1384.00         0.20        935.0 
     1385.00         0.22        968.1 
     1386.00         0.20        991.5 
     1387.00         0.23       1002.4 
     1388.00         0.17        998.3 
     1389.00         0.23        986.9 
     1390.00         0.20        986.9 
     1391.00         0.30        969.9 
     1392.00         0.23        925.0 
     1393.00         0.23        904.8 
     1394.00         0.23        923.0 
     1395.00         0.23        916.8 
     1396.00         0.23        899.3 
     1397.00         0.23        892.8 
     1398.00         0.23        847.7 
     1399.00         0.25        806.1 
     1400.00         0.17        802.9 
     1401.00         0.20       1122.8 
     1402.00         0.17       1122.8 
     1403.00         0.20       1606.2 
     1404.00         0.20       2205.3 
     1405.00         0.17       2205.3 
     1406.00         0.75       2626.3 
     1407.00         0.37       1679.4 
     1408.00         0.37       1395.6 
     1409.00         0.33       1289.2 
     1410.00         0.37       1102.0 
     1411.00         0.30        908.6 
     1412.00         0.07        763.0 
     1413.00         0.10        720.0 
     1414.00         0.20        710.9 
     1415.00         0.07        687.7 
     1416.00         0.27        688.6 
     1417.00         0.03        688.6 
     1418.00         0.23        755.7 
     1419.00         0.13        755.7 
     1420.00         0.17        792.6 
     1421.00         0.12        792.6 
     1422.00         0.20        808.4 
     1423.00         0.27        810.8 
     1424.00         0.10        807.3 
     1425.00         0.27        780.6 
     1426.00         0.20        780.9 
     1427.00         0.23        784.4 
     1428.00         0.27        753.4 
     1429.00         0.07        753.4 
     1430.00         0.27        714.7 
     1431.00         0.07        747.8 
     1432.00         0.27        586.7 
     1433.00         0.13        606.9 
     1434.00         0.27        641.7 
     1435.00         0.20        671.0 
     1436.00         0.27        691.3 
     1437.00         0.10        700.0 
     1438.00         0.23        716.4 
     1439.00         0.33        731.7 
     1440.00         0.33        748.4 
     1441.00         0.10        748.4 
     1442.00         0.33        754.5 
     1443.00         0.43        761.0 
     1444.00         0.10        761.0 
     1445.00         0.55        763.9 
     1446.00         0.27        765.7 
     1447.00         0.53       9761.0 
     1448.00         0.20        256.1 
     1449.00         0.13        173.8 
