~Version Information
 VERS.                                  2.0 : CWLS LAS VERSION
 WRAP.                                   NO : WRAPING MODE
 SWARE .                 MController 2.5.0N : SOFTWARE VERSION
~Well Information
 WELL.                     CORTINA 23-25 TR : WELL
 COMP.    PIONEER NATURAL RESOURCES USA INC : COMPANY
 FLD.                      PURGATOIRE RIVER : FIELD
 LOC.                NE/SW SEC 25 T32S R67W : LOCATION
 DATE.                             09/24/05 : DATE(S) LOGGED
 SRVC.       BLANCO GEOLOGICAL SERVICES LLC : SERVICE COMPANY
 STAT.                             COLORADO : STATE
 CNTY.                           LAS ANIMAS : COUNTY
 CTRY.                                  USA : COUNTRY
 API.                       05-071-08534-00 : API NUMBER
 STRT.FT                             388.00 : START DEPTH
 STOP.FT                            1890.00 : STOP DEPTH
 STEP.FT                               1.00 : DEPTH INCREMENT
 NULL.                                -9999 : NULL VALUE
~Curve information
 DEPTH.FT                                   :
 ROP.MIN/FT                                 :
 GAS.UNITS                                  :
~ASCII Log data
# ...
      1788.0         8.27        111.7 
      1789.0         0.10         62.2 
      1790.0         0.08         62.2 
      1791.0         0.13         67.5 
      1792.0         0.30         75.7 
      1793.0         0.33         83.9 
      1794.0         0.30         86.3 
      1795.0         0.27         92.4 
      1796.0         0.40        103.0 
      1797.0         0.47        109.2 
      1798.0         0.40        113.4 
      1799.0         0.37        113.6 
      1800.0         0.33        113.0 
      1801.0         0.28        111.5 
      1802.0         0.23        109.8 
      1803.0         0.13        108.7 
      1804.0         0.20        108.4 
      1805.0         0.30        107.2 
      1806.0         0.27        105.3 
      1807.0         0.30        103.2 
      1808.0         0.30        101.7 
      1809.0         0.33         96.5 
      1810.0         0.37         95.6 
      1811.0         0.30         92.9 
      1812.0         0.30         91.8 
      1813.0         0.35         89.2 
      1814.0         0.37         87.3 
      1815.0         0.37         86.3 
      1816.0         0.37         92.1 
      1817.0         0.33         93.8 
      1818.0         0.37         92.7 
      1819.0         0.30         91.7 
      1820.0         0.23         83.1 
      1821.0         0.92         81.8 
      1822.0         0.47         69.3 
      1823.0         0.10         64.9 
      1824.0         0.20         60.0 
      1825.0         0.33         58.9 
      1826.0         0.57         56.4 
      1827.0         0.40         60.9 
      1828.0         0.37         71.7 
      1829.0         0.37         79.9 
      1830.0         0.33         88.7 
      1831.0         0.32         97.8 
      1832.0         0.27        106.1 
      1833.0         0.33        112.2 
      1834.0         0.43        114.3 
      1835.0         0.37        114.3 
      1836.0         0.37        110.4 
      1837.0         0.33        107.8 
      1838.0         0.20        106.1 
      1839.0         0.37        105.7 
      1840.0         0.33        104.2 
      1841.0         0.48        101.7 
      1842.0         0.53         99.9 
      1843.0         0.33         97.4 
      1844.0         0.23         97.3 
      1845.0         0.30         94.2 
      1846.0         0.27         92.9 
      1847.0         0.27         91.0 
      1848.0         0.33         89.7 
      1849.0         0.27         88.7 
      1850.0         0.30         94.9 
      1851.0         0.32         99.8 
      1852.0         0.47         98.5 
      1853.0         0.47         92.7 
      1854.0         0.87         86.6 
      1855.0         0.83         77.7 
      1856.0         0.72         65.3 
      1857.0         0.63         70.5 
      1858.0         0.30         77.0 
      1859.0         0.30         83.8 
      1860.0         0.27         88.3 
      1861.0         0.27         93.0 
      1862.0         0.27         96.6 
      1863.0         0.43        105.7 
      1864.0         0.53        109.1 
      1865.0         0.48        109.2 
      1866.0         0.47        106.6 
      1867.0         0.23        105.3 
      1868.0         0.30        104.4 
      1869.0         0.27        104.3 
      1870.0         0.27        102.7 
      1871.0         0.23        102.6 
      1872.0         0.23         99.3 
      1873.0         0.30         99.1 
      1874.0         0.30         96.5 
      1875.0         0.28         95.4 
      1876.0         0.30         93.4 
      1877.0         0.30         90.1 
      1878.0         0.27         89.5 
      1879.0         0.30         94.9 
      1880.0         0.23         99.3 
      1881.0         0.23         99.4 
      1882.0         0.20         99.4 
      1883.0         0.27         97.9 
      1884.0         0.33         95.0 
      1885.0         0.53         89.5 
      1886.0         9.62         84.1 
      1887.0         0.82         70.8 
      1888.0         0.80         70.9 
      1889.0         0.80         71.4 
      1890.0         0.90         71.5 
