~Version Information
VERS.                      2.0: CWLS Log ASCII Standard - VERSION 2.0
WRAP.                       NO: One line per depth step
~Well Information Block
STRT.FT               -12.2500: 
STOP.FT              1442.2500: 
STEP.FT                 0.2500: 
NULL.                -999.2500: 
COMP.          Pioneer Natural Resources: COMPANY
WELL.              Lucky 21-36: WELL
FLD.           Purgatorie River: FIELD
LOC.           799' FNL & 1578' FWL--: LOCATION
CDN. :
PROV. :
UWI. :
STAT. :
CNTY. :
CTRY. :
API. :
COMP. :
WELL. :
FLD. :
LOC. :
DATE. :
SRVC. :
CNTY.               Las Animas: COUNTY
SRVC.          Superior Well Services: SERVICE COMPANY
DATE.          Mon Jul 21 12-16-21 2008: LOG DATE
UWI.           05 071 08456 00: UNIQUE WELL ID
STAT.                       CO: STATE
~Curve Information Block
DEPT.FT            0 000 00 00: Depth
CCL.                          : Casing Collar Locator
TT3.usec                      : CBL 3' Travel Time
AMP3.mV                       : CBL 3' Amplitude
GR.GAPI                       : Gamma Ray
~Parameter Information Block
~A  Depth       CCL         TT3         AMP3         GR     
# ...
  1394.7500     -2.0000    697.3221      3.7579     64.0788
  1395.0000      0.0000    692.4557      3.7268     67.1373
  1395.2500      0.0000    687.1124      3.7522     69.8251
  1395.5000      0.0000    682.9279      3.8164     71.1191
  1395.7500      0.0000    680.7256      3.8701     71.6749
  1396.0000      0.0000    679.6736      3.8610     72.6843
  1396.2500      0.0000    678.3268      3.7914     74.3249
  1396.5000      0.0000    676.8599      3.7295     75.7440
  1396.7500      0.0000    677.3629      3.7511     76.3346
  1397.0000      0.0000    681.4962      3.8844     76.4895
  1397.2500      0.0000    688.4909      4.1181     76.9293
  1397.5000      0.0000    695.7775      4.4378     77.5680
  1397.7500      0.0000    701.1812      4.8387     77.4606
  1398.0000      0.0000    704.2157      5.3135     75.9359
  1398.2500      0.0000    705.6744      5.8428     73.4521
  1398.5000      0.0000    706.5464      6.3993     71.0799
  1398.7500      0.0000    707.3456      6.9543     69.3730
  1399.0000      0.0000    708.0498      7.4804     68.0434
  1399.2500      0.0000    708.2869      7.9570     66.6317
  1399.5000      0.0000    707.5601      8.3867     65.1386
  1399.7500      0.0000    705.5959      8.8014     64.0081
  1400.0000      0.0000    702.7830      9.2317     63.8063
  1400.2500      0.0000    700.2774      9.6557     64.9687
  1400.5000      0.0000    699.4280      9.9905     67.4773
  1400.7500      0.0000    701.0121     10.1454     70.5334
  1401.0000      0.0000    705.0762     10.0857     72.7685
  1401.2500      0.0000    711.6165      9.8461     73.1759
  1401.5000      0.0000    721.0820      9.4966     71.9630
  1401.7500      0.0000    733.2717      9.1030     70.3558
  1402.0000      0.0000    745.4471      8.7042     69.4515
  1402.2500      0.0000    753.0900      8.3139     69.2965
  1402.5000      0.0000    754.2189      7.9377     68.9443
  1402.7500      0.0000    752.5330      7.5886     67.2911
  1403.0000      0.0000    755.4028      7.2864     64.0227
  1403.2500      0.0000    768.6653      7.0471     59.9014
  1403.5000      0.0000    791.8492      6.8752     56.1362
  1403.7500      0.0000    816.4512      6.7638     53.6223
  1404.0000      0.0000    830.6730      6.6988     52.8064
  1404.2500      0.0000    829.2770      6.6629     53.9082
  1404.5000      0.0000    818.9249      6.6375     56.7991
  1404.7500      0.0000    812.2088      6.6023     60.6681
  1405.0000      0.0000    816.8198      6.5378     64.3669
  1405.2500      0.0000    830.5662      6.4365     67.4749
  1405.5000      0.0000    844.4603      6.3124     70.7720
  1405.7500      0.0000    848.8089      6.1931     75.3436
  1406.0000      0.0000    837.7296      6.0954     81.3245
  1406.2500      0.0000    811.6141      6.0131     87.6325
  1406.5000      0.0000    777.6414      5.9250     92.8330
  1406.7500      0.0000    746.4240      5.8099     96.2661
  1407.0000      0.0000    725.8278      5.6527     98.4803
  1407.2500      0.0000    717.3297      5.4448    100.5992
  1407.5000      0.0000    717.6140      5.1870    103.2548
  1407.7500      0.0000    722.5510      4.8952    106.1682
  1408.0000      0.0000    729.8878      4.6030    108.5234
  1408.2500      0.0000    739.3047      4.3499    109.3561
  1408.5000      0.0000    751.2462      4.1598    107.7340
  1408.7500      0.0000    766.0633      4.0292    103.3245
  1409.0000      0.0000    782.9836      3.9388     96.9891
  1409.2500      0.0000    798.5755      3.8735     90.3360
  1409.5000      0.0000    808.0013      3.8334     84.6195
  1409.7500      0.0000    809.9221      3.8287     80.1850
  1410.0000      0.0000    808.7780      3.8727     76.6104
  1410.2500      0.0000    810.2875      3.9721     73.1519
  1410.5000      0.0000    815.6750      4.1170     69.4006
  1410.7500      0.0000    821.2183      4.2793     65.6957
  1411.0000      0.0000    822.3729      4.4256     62.8312
  1411.2500      0.0000    817.6574      4.5363     61.4410
  1411.5000      0.0000    808.7443      4.6170     61.8093
  1411.7500      0.0000    797.6539      4.6925     64.0774
  1412.0000      0.0000    785.4415      4.7878     68.0527
  1412.2500      0.0000    773.4652      4.9100     72.5684
  1412.5000      0.0000    764.0653      5.0447     75.6159
  1412.7500      0.0000    759.4968      5.1660     75.8192
  1413.0000      0.0000    761.0127      5.2481     73.7501
  1413.2500      0.0000    768.2250      5.2698     71.4887
  1413.5000      0.0000    777.8371      5.2207     70.9296
  1413.7500      0.0000    783.5992      5.1096     72.6138
  1414.0000      0.0000    780.0692      4.9651     76.0409
  1414.2500      0.0000    767.5263      4.8194     80.7583
  1414.5000      0.0000    752.1583      4.6894     86.8384
  1414.7500      0.0000    740.9399      4.5713     94.3030
  1415.0000      0.0000    737.1111      4.4522    102.2545
  1415.2500      0.0000    739.8895      4.3281    108.8151
  1415.5000      0.0000    745.8703      4.2113    112.2509
  1415.7500      0.0000    749.7495      4.1233    112.2654
  1416.0000      0.0000    746.3956      4.0815    110.0313
  1416.2500      0.0000    735.0386      4.0893    107.0958
  1416.5000      0.0000    720.7388      4.1387    104.4623
  1416.7500      0.0000    710.0277      4.2153    102.3035
  1417.0000      0.0000    705.6338      4.3058     99.9701
  1417.2500      0.0000    706.0969      4.4024     96.3612
  1417.5000      0.0000    709.0422      4.5050     90.8038
  1417.7500      0.0000    713.6345      4.6162     83.8402
  1418.0000      0.0000    720.4635      4.7310     77.1178
  1418.2500      0.0000    729.7842      4.8316     72.3972
  1418.5000      0.0000    739.9537      4.8955     70.4766
  1418.7500      0.0000    747.9832      4.9110     70.9141
  1419.0000      0.0000    752.2988      4.8881     72.7718
  1419.2500      0.0000    754.6204      4.8535     75.6757
  1419.5000      0.0000    758.5128      4.8368     79.9236
  1419.7500      0.0000    766.0743      4.8567     85.4646
  1420.0000      0.0000    776.0217      4.9114     91.0910
  1420.2500      0.0000    784.7606      4.9779     94.9020
  1420.5000      0.0000    789.4395      5.0240     95.4405
  1420.7500      0.0000    790.4451      5.0256     92.4406
  1421.0000      0.0000    791.1401      4.9742     87.0021
  1421.2500      0.0000    794.7594      4.8710     81.2516
  1421.5000      0.0000    800.9145      4.7213     77.3943
  1421.7500      0.0000    805.1372      4.5392     76.6583
  1422.0000      0.0000    802.4735      4.3508     79.0066
  1422.2500      0.0000    791.9763      4.1798     83.6017
  1422.5000      0.0000    777.2784      4.0295     89.3002
  1422.7500      0.0000    762.6625      3.8830     94.9532
  1423.0000      0.0000    749.5818      3.7198     99.5824
  1423.2500      0.0000    737.2426      3.5361    102.3658
  1423.5000      0.0000    725.3850      3.3501    102.5962
  1423.7500      0.0000    715.5690      3.1909    100.1407
  1424.0000      0.0000    709.8538      3.0798     95.9737
  1424.2500      0.0000    708.4536      3.0208     91.6466
  1424.5000      0.0000    708.8902      3.0047     88.0401
  1424.7500      0.0000    707.8705      3.0178     85.1342
  1425.0000      0.0000    704.2337      3.0493     83.0301
  1425.2500      0.0000    699.7405      3.0974     82.4598
  1425.5000      0.0000    696.8037      3.1693     83.8909
  1425.7500      0.0000    696.0690      3.2721     86.6113
  1426.0000      0.0000    696.7379      3.4036     89.1972
  1426.2500      0.0000    698.3528      3.5531     90.6681
  1426.5000      0.0000    700.9015      3.7111     90.9234
  1426.7500      0.0000    703.4924      3.8748     90.3619
  1427.0000      0.0000    704.4611      4.0441     89.2390
  1427.2500      0.0000    703.1799      4.2188     87.1569
  1427.5000      0.0000    700.8517      4.3967     83.0013
  1427.7500      0.0000    699.0408      4.5675     75.4290
  1428.0000      0.0000    697.9704      4.7070     63.6362
