~Version Information
VERS.                      2.0: CWLS Log ASCII Standard - VERSION 2.0
WRAP.                       NO: One line per depth step
~Well Information Block
STRT.FT                14.0000: 
STOP.FT              1631.0000: 
STEP.FT                 0.1000: 
NULL.                -999.2500: 
COMP.          Pioneer Natural Resources: COMPANY
WELL.            Bluesky 44-17: WELL
FLD.           Purgatorie River: FIELD
LOC.           39' FSL & 288' FEL: LOCATION
STAT.                 Colorado: State
CNTY.               Las Animas: COUNTY
CTRY. USA : Country
SECT. 17 : Section
TOWN. 33S : Township
RANG. 66W : Range
SRVC.                Patterson: SERVICE COMPANY
DATE.          Thu Sep 08 07:30:20 2005: LOG DATE
API. 05-071-08511                         : UNIQUE WELL ID
~Curve Information Block
DEPT.FT            0 000 00 00: Depth
DCAL.in                       : CDL Caliper
RHOB.g/cc                     : CDL Bulk Density
RHOC.g/cc                     : CDL Density Correction
DPOR.pu                       : CDL Density Porosity
GR.GAPI                       : Gamma Ray
NPOR.pu                       : Neutron Porosity
~Parameter Information Block
~A  Depth       DCAL        RHOB        RHOC        DPOR         GR         NPOR    
# ...
  1386.8000      7.7903      2.4435      0.0008     12.5142    103.3783     27.5822
  1386.9000      7.7903      2.4740      0.0299     10.6646    102.8326     27.9338
  1387.0000      7.7858      2.5236      0.0962      7.6577    101.9576     28.0631
  1387.1000      7.7858      2.5618      0.0935      5.3451    104.1004     27.9326
  1387.2000      7.7858      2.5746      0.0901      4.5712    108.4652     27.5539
  1387.3000      7.7835      2.5726      0.0501      4.6927    108.0875     27.0692
  1387.4000      7.7835      2.5748      0.0751      4.5566    100.5225     26.8060
  1387.5000      7.7703      2.5912      0.0497      3.5623     92.9405     26.8558
  1387.6000      7.7703      2.6074      0.1320      2.5828     91.9968     26.8753
  1387.7000      7.7703      2.5987      0.0707      3.1114     95.7563     26.6286
  1387.8000      7.7703      2.5723      0.0155      4.7075     99.2617     26.3643
  1387.9000      7.7703      2.5553      0.0282      5.7373    101.5087     26.2878
  1388.0000      7.7706      2.5542      0.0079      5.8081    102.0047     26.2717
  1388.1000      7.7706      2.5594      0.0616      5.4879     99.5930     26.0996
  1388.2000      7.7706      2.5657      0.0173      5.1104     96.8089     25.8479
  1388.3000      7.7866      2.5665      0.0270      5.0612     97.6468     25.9385
  1388.4000      7.7866      2.5493      0.0375      6.1027    100.9485     26.3563
  1388.5000      7.7955      2.5207     -0.0351      7.8369    104.4729     26.5432
  1388.6000      7.7955      2.5045      0.0292      8.8181    108.9066     26.4937
  1388.7000      7.7955      2.5072     -0.0081      8.6550    112.9804     26.6084
  1388.8000      7.7991      2.5173      0.0469      8.0454    114.9660     26.8962
  1388.9000      7.7991      2.5213      0.0985      7.8015    114.1045     27.0176
  1389.0000      7.7897      2.5165      0.0685      8.0914    111.0220     26.7425
  1389.1000      7.7897      2.5098      0.0616      8.4987    108.6103     26.2997
  1389.2000      7.7897      2.5047      0.0700      8.8046    108.3541     26.0495
  1389.3000      7.7903      2.5023      0.0497      8.9526    107.9687     26.1047
  1389.4000      7.7903      2.5042      0.0562      8.8340    105.1994     26.2890
  1389.5000      7.7830      2.5093      0.0707      8.5295    100.9009     26.6127
  1389.6000      7.7830      2.5164      0.0785      8.0940     98.2872     27.1539
  1389.7000      7.7830      2.5208      0.1149      7.8286     99.3469     27.5708
  1389.8000      7.7846      2.5106      0.0915      8.4499    104.9207     27.7680
  1389.9000      7.7846      2.4847      0.0611     10.0196    113.3662     28.1328
  1390.0000      7.7778      2.4618      0.0346     11.4081    118.0195     28.6809
  1390.1000      7.7778      2.4595      0.0437     11.5453    115.8335     28.8683
  1390.2000      7.7778      2.4743      0.0680     10.6496    112.5167     28.6943
  1390.3000      7.7978      2.4925      0.0571      9.5428    113.9326     28.7872
  1390.4000      7.7978      2.5071      0.0434      8.6611    117.9047     29.1399
  1390.5000      7.7970      2.5102      0.0807      8.4754    119.4136     29.3631
  1390.6000      7.7970      2.5000      0.0687      9.0927    118.0328     29.4706
  1390.7000      7.7970      2.4925      0.0490      9.5452    115.4666     29.5245
  1390.8000      7.7836      2.4968      0.0863      9.2835    112.6128     29.4034
  1390.9000      7.7836      2.4998      0.1110      9.1034    109.4527     29.1340
  1391.0000      7.7766      2.4929      0.0968      9.5194    106.4500     28.8536
  1391.1000      7.7766      2.4845      0.0762     10.0287    104.4750     28.5084
  1391.2000      7.7766      2.4800      0.0533     10.3013    103.9680     28.0876
  1391.3000      7.7763      2.4779      0.0196     10.4331    105.1991     27.8160
  1391.4000      7.7763      2.4778      0.0433     10.4368    108.2680     27.7876
  1391.5000      7.7885      2.4771      0.0556     10.4800    111.6718     27.9184
  1391.6000      7.7885      2.4697      0.0713     10.9274    113.5989     28.1787
  1391.7000      7.7885      2.4488      0.0488     12.1935    113.7032     28.4563
  1391.8000      7.8014      2.4044      0.0815     14.8876    111.7275     28.6806
  1391.9000      7.8014      2.3330      0.0495     19.2106    106.7988     28.8983
  1392.0000      7.7807      2.2556      0.0035     23.9024    100.5376     29.0084
  1392.1000      7.7807      2.2008     -0.0198     27.2249     97.1315     29.1145
  1392.2000      7.7807      2.1799     -0.0102     28.4901     97.3601     29.5300
  1392.3000      7.7746      2.1870      0.0100     28.0602     94.9617     30.2275
  1392.4000      7.7746      2.2091      0.0837     26.7239     88.0602     31.0186
  1392.5000      7.8032      2.2383      0.0675     24.9528     84.2826     31.6820
  1392.6000      7.8032      2.2695      0.1674     23.0599     85.9754     31.9487
  1392.7000      7.8032      2.2857      0.2411     22.0764     87.3410     31.7567
  1392.8000      7.8138      2.2825      0.1168     22.2750     86.9560     31.1672
  1392.9000      7.8138      2.2921      0.0575     21.6919     88.8225     30.4949
  1393.0000      7.8779      2.3436      0.0378     18.5715     94.2859     30.0945
  1393.1000      7.8779      2.4212      0.0673     13.8680    101.0158     29.8751
  1393.2000      7.8779      2.4868      0.0621      9.8929    106.0779     29.7172
  1393.3000      7.8340      2.5232      0.0717      7.6825    108.2045     29.7499
  1393.4000      7.8340      2.5359      0.0448      6.9178    108.4444     29.8540
  1393.5000      7.8051      2.5338      0.0322      7.0442    107.3037     29.6661
  1393.6000      7.8051      2.5262      0.0011      7.5016    104.8730     29.1345
  1393.7000      7.8051      2.5190      0.0340      7.9400    102.5332     28.4017
  1393.8000      7.7914      2.5110      0.0285      8.4216    101.9877     27.6078
  1393.9000      7.7914      2.5022      0.0569      8.9586    103.9475     26.9830
  1394.0000      7.7858      2.4949      0.0334      9.3993    107.4264     26.7532
  1394.1000      7.7858      2.4870      0.0648      9.8765    109.3033     26.9733
  1394.2000      7.7858      2.4726      0.0607     10.7501    106.7232     27.3931
  1394.3000      7.7826      2.4626      0.0038     11.3585    101.5082     27.6168
  1394.4000      7.7826      2.4777      0.0692     10.4410     97.3723     27.6163
  1394.5000      7.7618      2.5182      0.1178      7.9881     93.8630     27.6425
  1394.6000      7.7618      2.5710      0.1459      4.7893     90.2834     27.7241
  1394.7000      7.7618      2.6267      0.1538      1.4102     86.6401     27.6553
  1394.8000      7.7522      2.6772      0.1832     -1.6465     82.7974     27.2707
  1394.9000      7.7522      2.7114      0.2059     -3.7233     80.2568     26.6216
  1395.0000      7.7598      2.7259      0.1542     -4.6007     79.0363     25.9128
  1395.1000      7.7598      2.7260      0.1391     -4.6078     76.6048     25.2455
  1395.2000      7.7598      2.7074      0.1333     -3.4762     73.3622     24.6470
  1395.3000      7.7586      2.6699      0.0081     -1.2077     72.4523     24.2374
  1395.4000      7.7586      2.6428     -0.0239      0.4337     74.2877     24.0320
  1395.5000      7.7723      2.6447      0.0134      0.3240     76.0515     23.6988
  1395.6000      7.7723      2.6518      0.0763     -0.1097     77.4482     23.0450
  1395.7000      7.7723      2.6367      0.0112      0.8035     81.8584     22.4987
  1395.8000      7.7884      2.6021      0.0113      2.9040     89.7916     22.2533
  1395.9000      7.7884      2.5602      0.0382      5.4403     97.7791     22.1235
  1396.0000      7.8008      2.5195     -0.0193      7.9120    103.2373     22.2970
  1396.1000      7.8008      2.4948     -0.0515      9.4044    105.4759     22.8517
  1396.2000      7.8008      2.4997      0.0161      9.1119    105.3824     23.5201
  1396.3000      7.8249      2.5274      0.0711      7.4314    104.0624     24.2108
