~Version Information
VERS.                      2.0: CWLS Log ASCII Standard - VERSION 2.0
WRAP.                       NO: One line per depth step
~Well Information Block
STRT.FT               595.0000: 
STOP.FT              1693.0000: 
STEP.FT                 0.1000: 
NULL.                -999.2500: 
COMP.          Pioneer Natural Resources: COMPANY
WELL.          Rollerball 34-30: WELL
FLD.           Purgatoire River: FIELD
LOC.           893' FSL & 2408' FEL: LOCATION
CNTY.               Las Animas: COUNTY
SRVC.                Patterson: SERVICE COMPANY
DATE.          Tue Feb 14 15:43:01 2006: LOG DATE
UWI.           05 071 08581 00: UNIQUE WELL ID
STAT.                 Colorado: STATE
~Curve Information Block
DEPT.FT            0 000 00 00: Depth
DCAL.in                       : CDL Caliper
RHOB.g/cc                     : CDL Bulk Density
RHOC.g/cc                     : CDL Density Correction
DPOR.pu                       : CDL Density Porosity
GR.GAPI                       : Gamma Ray
NPOR.pu                       : Neutron Porosity
~Parameter Information Block
~A  Depth       DCAL        RHOB        RHOC        DPOR         GR         NPOR    
# ...
   739.0000      8.1019      2.4629      0.1233     11.3415    149.0224     25.8949
   739.1000      8.1019      2.4532      0.0680     11.9249    148.4883     25.5081
   739.2000      8.1019      2.4355      0.0985     13.0005    141.8904     25.0575
   739.3000      8.1012      2.4044      0.0866     14.8840    135.5158     25.0424
   739.4000      8.1012      2.3590      0.0107     17.6376    135.9430     25.7072
   739.5000      8.1084      2.3106      0.0239     20.5691    137.6702     26.2260
   739.6000      8.1084      2.2681     -0.0405     23.1450    137.6818     25.9334
   739.7000      8.1084      2.2397     -0.0404     24.8688    141.4905     25.7281
   739.8000      8.1044      2.2283     -0.0509     25.5585    146.8616     25.9478
   739.9000      8.1044      2.2254     -0.0290     25.7359    147.3438     25.7173
   740.0000      8.0972      2.2165     -0.0085     26.2755    144.2206     25.2287
   740.1000      8.0972      2.1957      0.0267     27.5340    140.6472     25.2518
   740.2000      8.0972      2.1771      0.0675     28.6579    135.5709     25.1785
   740.3000      8.0889      2.1764      0.1403     28.7016    129.5145     24.4926
   740.4000      8.0889      2.1889      0.1285     27.9455    123.7245     23.9685
   740.5000      8.0872      2.2036      0.1217     27.0552    118.4645     24.4854
   740.6000      8.0872      2.2241      0.1132     25.8103    117.3206     25.5712
   740.7000      8.0872      2.2603      0.1441     23.6211    120.7993     25.6172
   740.8000      8.0957      2.3069      0.2047     20.7929    121.4102     24.5118
   740.9000      8.0957      2.3542      0.2401     17.9274    115.2779     23.9153
   741.0000      8.1358      2.4082      0.2137     14.6528    109.1560     24.5176
   741.1000      8.1358      2.4690      0.2872     10.9680    110.5329     25.5265
   741.2000      8.1358      2.5135      0.1735      8.2731    116.7790     25.9757
   741.3000      8.0790      2.5275      0.1345      7.4233    121.8972     25.7300
   741.4000      8.0790      2.5202      0.0683      7.8696    122.7522     25.5640
   741.5000      8.0396      2.5104      0.0620      8.4590    118.8061     25.9460
   741.6000      8.0396      2.5056      0.0476      8.7516    114.9365     26.7324
   741.7000      8.0396      2.5011      0.0262      9.0267    115.5855     27.5826
   741.8000      8.0215      2.4986      0.0100      9.1737    119.1054     28.5890
   741.9000      8.0215      2.5070      0.0451      8.6670    123.6697     29.8322
   742.0000      8.0330      2.5268      0.0619      7.4637    128.5438     30.6159
   742.1000      8.0330      2.5455      0.0759      6.3349    131.8166     30.5263
   742.2000      8.0330      2.5469      0.0679      6.2474    130.9116     29.9576
   742.3000      8.0295      2.5337      0.0014      7.0470    126.9004     29.3346
   742.4000      8.0295      2.5223      0.0648      7.7424    123.9373     28.6306
   742.5000      8.0186      2.5150      0.0434      8.1794    124.4054     27.7474
   742.6000      8.0186      2.5094      0.0238      8.5241    127.5551     26.9050
   742.7000      8.0186      2.5091     -0.0124      8.5404    131.6836     26.7294
   742.8000      8.0185      2.5110     -0.0051      8.4217    133.8517     27.4269
   742.9000      8.0185      2.5026      0.0334      8.9361    129.0201     28.1082
   743.0000      8.0177      2.4872     -0.0353      9.8691    117.9182     27.8258
   743.1000      8.0177      2.4866     -0.0019      9.9049    108.6849     26.6383
   743.2000      8.0177      2.5038     -0.0282      8.8619    105.2222     25.3260
   743.3000      8.0187      2.5195      0.0009      7.9088    104.9235     24.4155
   743.4000      8.0187      2.5205     -0.0040      7.8509    103.4226     23.8607
   743.5000      8.0180      2.5039      0.0079      8.8572     99.9362     23.2196
   743.6000      8.0180      2.4593      0.0124     11.5556     97.5362     22.3452
   743.7000      8.0180      2.3831     -0.0368     16.1772     95.3687     21.7055
   743.8000      8.0172      2.2988     -0.0486     21.2836     91.7683     21.9013
   743.9000      8.0172      2.2337     -0.0763     25.2293     86.7826     23.0856
   744.0000      8.0203      2.2005     -0.0993     27.2449     82.7934     24.6964
   744.1000      8.0203      2.2015     -0.0651     27.1830     85.4464     26.0094
   744.2000      8.0203      2.2326     -0.0540     25.2942     94.1844     26.9998
   744.3000      8.0201      2.2886      0.0501     21.9007    100.8818     28.1310
   744.4000      8.0201      2.3662      0.1186     17.1990    100.3352     29.1031
   744.5000      8.0227      2.4641      0.2424     11.2677     98.8345     29.3709
   744.6000      8.0227      2.5668      0.3691      5.0444    105.9943     29.2412
   744.7000      8.0227      2.6396      0.3567      0.6315    116.0917     29.3230
   744.8000      8.0290      2.6559      0.2638     -0.3552    117.4274     29.9466
   744.9000      8.0290      2.6278      0.1103      1.3470    110.6319     30.8297
   745.0000      8.0260      2.5975      0.0727      3.1818    102.4012     31.1557
   745.1000      8.0260      2.5867      0.0501      3.8356     96.0928     30.6653
   745.2000      8.0260      2.5782      0.0809      4.3532     92.6533     30.0967
   745.3000      8.0238      2.5495     -0.0026      6.0893     92.7023     29.7841
   745.4000      8.0238      2.5063     -0.0194      8.7070     94.8002     29.3941
   745.5000      8.0184      2.4769     -0.0454     10.4936     97.7223     29.0666
   745.6000      8.0184      2.4839      0.0065     10.0692    104.1131     28.9375
   745.7000      8.0184      2.5280      0.0425      7.3927    113.9755     28.5673
   745.8000      8.0202      2.5900      0.1132      3.6365    123.0909     28.1303
   745.9000      8.0202      2.6324      0.2093      1.0655    127.6650     28.2199
   746.0000      8.0205      2.6307      0.1647      1.1687    127.4291     28.5198
   746.1000      8.0205      2.6039      0.1375      2.7933    128.4312     28.7246
   746.2000      8.0205      2.5730      0.1908      4.6688    134.1557     29.2617
   746.3000      8.0226      2.5359      0.1262      6.9167    138.7516     30.2110
   746.4000      8.0226      2.4974      0.0897      9.2457    142.0192     31.2043
   746.5000      8.0356      2.4706      0.0393     10.8747    150.8078     32.1524
   746.6000      8.0356      2.4580      0.0292     11.6353    162.2878     32.9698
   746.7000      8.0356      2.4538      0.0239     11.8928    166.2348     33.3631
   746.8000      8.0366      2.4545      0.0116     11.8478    161.8931     33.2345
   746.9000      8.0366      2.4634      0.0239     11.3117    157.3681     32.7895
   747.0000      8.0316      2.4838      0.0351     10.0745    157.2929     32.6967
   747.1000      8.0316      2.5143      0.0786      8.2253    160.8724     33.1977
   747.2000      8.0316      2.5505      0.0759      6.0275    166.7578     33.9183
   747.3000      8.0250      2.5841      0.1619      3.9966    172.7448     34.4834
   747.4000      8.0250      2.6041      0.1189      2.7838    174.5211     34.4586
   747.5000      8.0257      2.6092      0.1565      2.4737    169.7542     33.7402
   747.6000      8.0257      2.6001      0.1477      3.0247    163.2828     32.9108
   747.7000      8.0257      2.5792      0.0713      4.2888    161.5033     32.3216
   747.8000      8.0327      2.5577      0.0076      5.5958    162.1550     31.9166
   747.9000      8.0327      2.5477     -0.0179      6.1984    158.2003     31.8998
   748.0000      8.0344      2.5485      0.0155      6.1521    147.9180     31.8659
   748.1000      8.0344      2.5487      0.0065      6.1394    137.6041     31.1720
   748.2000      8.0344      2.5505     -0.0101      6.0278    131.3673     30.0875
   748.3000      8.0326      2.5595      0.0776      5.4853    127.7134     29.2437
   748.4000      8.0326      2.5588      0.0569      5.5282    125.3105     28.6360
   748.5000      8.0298      2.5386     -0.0020      6.7503    122.2309     27.8788
