~Version Information
VERS.                      2.0: CWLS Log ASCII Standard - VERSION 2.0
WRAP.                       NO: One line per depth step
~Well Information Block
STRT.FT               420.0000: 
STOP.FT              2888.7000: 
STEP.FT                 0.1000: 
NULL.                -999.2500: 
COMP.          Pioneer Natural Resources: COMPANY
WELL.          Touchstone 11-32: WELL
FLD.           Purgatoire River: FIELD
LOC.           853' FNL & 407' FWL--: LOCATION
CNTY.               Las Animas: COUNTY
SRVC.                Patterson: SERVICE COMPANY
DATE.          Fri Feb 24 11:16:52 2006: LOG DATE
UWI.           05 071 08564 00: UNIQUE WELL ID
STAT.                 Colorado: STATE
~Curve Information Block
DEPT.FT            0 000 00 00: Depth
DCAL.in                       : CDL Caliper
RHOB.g/cc                     : CDL Bulk Density
RHOC.g/cc                     : CDL Density Correction
DPOR.pu                       : CDL Density Porosity
NPOR.pu                       : Neutron Porosity
GR.GAPI                       : Gamma Ray
~Parameter Information Block
~A  Depth       DCAL        RHOB        RHOC        DPOR        NPOR         GR     
# ...
  1879.2000      7.9658      2.5674      0.0647      5.0047     26.5493    124.0843
  1879.3000      7.9722      2.5683      0.0119      4.9512     26.2993    122.9691
  1879.4000      7.9722      2.5790      0.0833      4.3054     26.1102    119.0334
  1879.5000      7.9755      2.5899      0.0541      3.6408     26.3252    115.4086
  1879.6000      7.9755      2.5978      0.0701      3.1610     26.6618    117.8979
  1879.7000      7.9755      2.5934      0.0969      3.4322     26.7715    124.5650
  1879.8000      7.9750      2.5714      0.0206      4.7634     26.6269    128.3538
  1879.9000      7.9750      2.5479      0.0375      6.1862     26.1499    128.2145
  1880.0000      7.9742      2.5340      0.0402      7.0291     25.6372    127.6982
  1880.1000      7.9742      2.5323      0.0059      7.1346     25.5695    125.8360
  1880.2000      7.9742      2.5481      0.0159      6.1779     25.8268    123.0272
  1880.3000      7.9748      2.5780      0.0435      4.3655     26.1079    123.1262
  1880.4000      7.9748      2.6054      0.0946      2.7060     26.2776    127.4661
  1880.5000      7.9751      2.6198      0.0638      1.8323     26.1638    133.0739
  1880.6000      7.9751      2.6309      0.0464      1.1546     25.9979    135.1118
  1880.7000      7.9751      2.6455      0.0861      0.2724     25.9920    131.2764
  1880.8000      7.9750      2.6475      0.1315      0.1504     25.9060    126.6195
  1880.9000      7.9750      2.6204      0.1087      1.7953     25.8261    129.1261
  1881.0000      7.9754      2.5746      0.0188      4.5698     25.8388    136.6044
  1881.1000      7.9754      2.5370      0.0011      6.8495     25.8254    138.4626
  1881.2000      7.9754      2.5221      0.0388      7.7487     25.9819    134.1022
  1881.3000      7.9776      2.5313      0.0071      7.1951     26.2873    133.7835
  1881.4000      7.9776      2.5554      0.0668      5.7360     26.2990    139.3199
  1881.5000      7.9795      2.5676      0.0498      4.9925     26.2376    141.4337
  1881.6000      7.9795      2.5557      0.0201      5.7156     26.7143    133.7741
  1881.7000      7.9795      2.5428      0.0152      6.4975     27.3685    125.3624
  1881.8000      7.9806      2.5522      0.0133      5.9257     27.6390    125.4861
  1881.9000      7.9806      2.5750      0.0350      4.5446     27.5968    128.9544
  1882.0000      7.9807      2.5829      0.0764      4.0668     27.2635    130.7168
  1882.1000      7.9807      2.5685      0.0292      4.9385     26.4226    132.4851
  1882.2000      7.9807      2.5552      0.0389      5.7440     25.1815    134.1841
  1882.3000      7.9788      2.5590      0.0277      5.5143     24.2025    134.8529
  1882.4000      7.9788      2.5694      0.0657      4.8856     23.8122    132.9570
  1882.5000      7.9736      2.5747      0.0445      4.5655     23.6786    128.0355
  1882.6000      7.9736      2.5755      0.0592      4.5182     23.7052    124.3654
  1882.7000      7.9736      2.5654      0.0802      5.1253     23.8202    125.0342
  1882.8000      7.9657      2.5443      0.0098      6.4041     23.6069    126.1957
  1882.9000      7.9657      2.5284      0.0204      7.3701     22.9342    122.8446
  1883.0000      7.9619      2.5227      0.0132      7.7126     22.2419    116.2096
  1883.1000      7.9619      2.5192      0.0243      7.9255     21.9158    110.9427
  1883.2000      7.9619      2.5148     -0.0389      8.1953     22.1522    111.8344
  1883.3000      7.9621      2.5192      0.0084      7.9294     22.8829    118.1038
  1883.4000      7.9621      2.5358      0.0367      6.9209     23.3820    122.0644
  1883.5000      7.9551      2.5520      0.0724      5.9393     23.2047    121.6932
  1883.6000      7.9551      2.5588      0.0413      5.5263     22.7577    121.9094
  1883.7000      7.9551      2.5651      0.0212      5.1449     22.5342    121.9424
  1883.8000      7.9373      2.5800      0.0259      4.2429     22.5484    117.6107
  1883.9000      7.9373      2.5963      0.0617      3.2541     22.7760    112.0274
  1884.0000      7.9231      2.5992      0.0863      3.0784     23.3223    110.2343
  1884.1000      7.9231      2.5812      0.0896      4.1692     23.5776    110.9137
  1884.2000      7.9231      2.5597      0.0032      5.4733     22.9546    111.0143
  1884.3000      7.9178      2.5606      0.0448      5.4188     22.1484    109.8074
  1884.4000      7.9178      2.5774      0.0601      4.3979     21.9178    109.9026
  1884.5000      7.9159      2.5861      0.0754      3.8754     22.0279    112.2516
  1884.6000      7.9159      2.5842      0.0363      3.9906     21.8183    113.6111
  1884.7000      7.9159      2.5808      0.0613      4.1929     21.2831    112.0976
  1884.8000      7.9132      2.5705      0.0375      4.8157     21.0340    107.9714
  1884.9000      7.9132      2.5550      0.0190      5.7579     21.0181    102.6695
  1885.0000      7.9127      2.5503      0.0075      6.0432     21.0120     98.3300
  1885.1000      7.9127      2.5567     -0.0016      5.6520     21.5775     95.4785
  1885.2000      7.9127      2.5610      0.0294      5.3940     22.6250     91.6606
  1885.3000      7.9157      2.5612      0.0140      5.3828     22.9413     87.3537
  1885.4000      7.9157      2.5661      0.0323      5.0840     22.3300     88.7406
  1885.5000      7.9208      2.5731      0.0525      4.6632     21.7813     97.0879
  1885.6000      7.9208      2.5706      0.0541      4.8143     21.7079    105.3804
  1885.7000      7.9208      2.5610      0.0268      5.3967     22.0991    107.4635
  1885.8000      7.9313      2.5543      0.0462      5.8022     22.8904    104.6419
  1885.9000      7.9313      2.5555      0.0302      5.7253     23.6581    100.5972
  1886.0000      7.9448      2.5629      0.0427      5.2807     23.8442     97.9878
  1886.1000      7.9448      2.5659      0.0843      5.0986     23.1092     98.4352
  1886.2000      7.9448      2.5670      0.0438      5.0301     21.7450     98.6248
  1886.3000      7.9539      2.5796      0.0805      4.2679     20.7350     95.3082
  1886.4000      7.9539      2.5995      0.1039      3.0583     20.8506     88.7936
  1886.5000      7.9569      2.6140      0.1095      2.1801     21.5675     81.8730
  1886.6000      7.9569      2.6165      0.1160      2.0321     21.7276     78.1403
  1886.7000      7.9569      2.6090      0.0973      2.4844     21.0421     76.2066
  1886.8000      7.9505      2.5984      0.1081      3.1282     20.1757     74.0920
  1886.9000      7.9505      2.5907      0.0786      3.5909     20.0918     72.8036
  1887.0000      7.9392      2.5875      0.0690      3.7852     20.8870     72.2673
  1887.1000      7.9392      2.5790      0.1100      4.3007     21.3548     70.2088
  1887.2000      7.9392      2.5623      0.0103      5.3138     20.9620     67.3741
  1887.3000      7.9316      2.5500      0.0586      6.0600     20.4045     65.8774
  1887.4000      7.9316      2.5454      0.0350      6.3421     19.8816     67.0076
  1887.5000      7.9276      2.5472      0.0363      6.2315     19.4590     71.1447
  1887.6000      7.9276      2.5589      0.0534      5.5208     19.8145     72.7210
  1887.7000      7.9276      2.5756      0.0776      4.5073     20.8599     68.0846
  1887.8000      7.9248      2.5816      0.0742      4.1478     21.2808     62.6312
  1887.9000      7.9248      2.5633      0.0830      5.2527     20.6207     58.7876
  1888.0000      7.9223      2.5291      0.0484      7.3279     19.6282     55.4701
  1888.1000      7.9223      2.5063      0.0135      8.7087     19.0282     56.6914
  1888.2000      7.9223      2.5005      0.0654      9.0577     19.2790     63.1106
  1888.3000      7.9220      2.4893      0.0646      9.7423     20.0621     69.3348
  1888.4000      7.9220      2.4761     -0.0042     10.5400     20.4649     71.6824
  1888.5000      7.9222      2.4852      0.0172      9.9873     20.3114     68.6763
  1888.6000      7.9222      2.5089      0.0573      8.5529     19.9679     63.2614
  1888.7000      7.9222      2.5264      0.0508      7.4887     19.6535     62.1531
