~Version Information
VERS.                      2.0: CWLS Log ASCII Standard - VERSION 2.0
WRAP.                       NO: One line per depth step
~Well Information Block
STRT.FT               655.0000: 
STOP.FT              2623.7000: 
STEP.FT                 0.1000: 
NULL.                -999.2500: 
COMP.          Pioneer Natural Resources: COMPANY
WELL.             Aviator 12-4: WELL
FLD.           Purgatoire River: FIELD
LOC.           1969' FNL & 732' FWL--: LOCATION
CNTY.               Las Animas: COUNTY
SRVC.                Patterson: SERVICE COMPANY
DATE.          Mon Apr 10 07:35:20 2006: LOG DATE
UWI.           05 071 08714 00: UNIQUE WELL ID
STAT.                 Colorado: STATE
~Curve Information Block
DEPT.FT            0 000 00 00: Depth
DCAL.in                       : CDL Caliper
RHOB.g/cc                     : CDL Bulk Density
RHOC.g/cc                     : CDL Density Correction
DPOR.pu                       : CDL Density Porosity
NPOR.pu                       : Neutron Porosity
GR.GAPI                       : Gamma Ray
~Parameter Information Block
~A  Depth       DCAL        RHOB        RHOC        DPOR        NPOR         GR     
# ...
  1557.4000      8.0499      2.5650      0.0868      5.1502     26.5857    106.0921
  1557.5000      8.0510      2.5528      0.0633      5.8923     26.6735    112.6334
  1557.6000      8.0510      2.5494      0.0384      6.0942     26.6806    112.6015
  1557.7000      8.0510      2.5609      0.0578      5.3978     26.7532    108.4696
  1557.8000      8.0502      2.5720      0.0299      4.7299     26.5906    108.4121
  1557.9000      8.0502      2.5729      0.0404      4.6735     26.3804    110.1465
  1558.0000      8.0499      2.5701      0.0506      4.8453     26.6154    106.9754
  1558.1000      8.0499      2.5705      0.0737      4.8164     26.8162    103.1025
  1558.2000      8.0499      2.5762      0.0410      4.4724     26.3435    105.2205
  1558.3000      8.0497      2.5862      0.0975      3.8690     25.7412    108.3656
  1558.4000      8.0497      2.5931      0.0831      3.4468     25.7648    107.7444
  1558.5000      8.0477      2.5959      0.0597      3.2762     26.2421    109.4838
  1558.6000      8.0477      2.5966      0.0874      3.2389     26.5850    113.9217
  1558.7000      8.0477      2.5916      0.0673      3.5409     26.7267    114.5016
  1558.8000      8.0440      2.5888      0.0386      3.7065     26.9383    112.9611
  1558.9000      8.0440      2.5927      0.0835      3.4716     27.1208    114.6509
  1559.0000      8.0407      2.5908      0.0640      3.5897     27.2262    115.1553
  1559.1000      8.0407      2.5842      0.0834      3.9862     27.3777    108.9094
  1559.2000      8.0407      2.5898      0.0541      3.6512     27.4382    104.7227
  1559.3000      8.0399      2.6076      0.0725      2.5671     27.4584    108.5982
  1559.4000      8.0399      2.6180      0.0782      1.9379     27.1705    115.0691
  1559.5000      8.0417      2.6157      0.0197      2.0816     25.9424    116.9805
  1559.6000      8.0417      2.6162      0.0652      2.0509     24.2390    110.6630
  1559.7000      8.0417      2.6222      0.0495      1.6847     23.3901     99.9140
  1559.8000      8.0444      2.6203      0.0942      1.8024     23.5814     93.6539
  1559.9000      8.0444      2.6056      0.0336      2.6908     23.5997     96.4647
  1560.0000      8.0466      2.5926      0.0456      3.4771     22.9580    100.3335
  1560.1000      8.0466      2.5897      0.0143      3.6555     22.1868     96.2683
  1560.2000      8.0466      2.5911      0.0050      3.5719     21.7091     88.1967
  1560.3000      8.0466      2.5937      0.0353      3.4143     21.9299     84.4586
  1560.4000      8.0466      2.5955      0.0717      3.3045     22.5961     82.9457
  1560.5000      8.0460      2.5928      0.0713      3.4672     22.8155     81.0383
  1560.6000      8.0460      2.5853      0.1001      3.9192     22.5875     83.7158
  1560.7000      8.0460      2.5682      0.1244      4.9551     22.5142     91.4142
  1560.8000      8.0463      2.5414      0.0517      6.5840     22.4386     97.0481
  1560.9000      8.0463      2.5233      0.0219      7.6817     22.0590     96.2323
  1561.0000      8.0468      2.5230      0.0426      7.6980     21.7475     91.5218
  1561.1000      8.0468      2.5287      0.0569      7.3506     21.7221     88.6591
  1561.2000      8.0468      2.5312      0.0625      7.1985     22.0123     89.7371
  1561.3000      8.0487      2.5305      0.0558      7.2413     22.6168     90.1155
  1561.4000      8.0487      2.5285      0.0210      7.3664     23.1039     87.9775
  1561.5000      8.0499      2.5270      0.0401      7.4539     23.2063     85.6638
  1561.6000      8.0499      2.5314      0.0238      7.1852     22.9409     82.8503
  1561.7000      8.0499      2.5402      0.0790      6.6557     22.5057     80.4689
  1561.8000      8.0477      2.5370      0.0665      6.8512     22.2370     80.8552
  1561.9000      8.0477      2.5188      0.0568      7.9493     21.8413     83.1655
  1562.0000      8.0435      2.5004      0.0427      9.0637     20.8704     84.7533
  1562.1000      8.0435      2.4937      0.0368      9.4757     20.1481     84.1770
  1562.2000      8.0435      2.5019      0.0692      8.9765     20.5847     79.5543
  1562.3000      8.0407      2.5184      0.1030      7.9759     21.5691     71.3756
  1562.4000      8.0407      2.5406      0.0848      6.6307     21.9365     65.6479
  1562.5000      8.0421      2.5718      0.0997      4.7408     21.5318     66.9653
  1562.6000      8.0421      2.5970      0.1152      3.2126     21.2478     70.5942
  1562.7000      8.0421      2.5933      0.1443      3.4382     21.2819     69.6939
  1562.8000      8.0450      2.5645      0.0700      5.1802     20.8656     66.7219
  1562.9000      8.0450      2.5357      0.0422      6.9278     20.1166     66.2656
  1563.0000      8.0447      2.5159      0.0782      8.1246     19.9083     68.5234
  1563.1000      8.0447      2.5055      0.0499      8.7604     20.2618     72.9990
  1563.2000      8.0447      2.5135      0.0219      8.2701     20.8858     77.2325
  1563.3000      8.0451      2.5372      0.0957      6.8343     21.6764     77.7478
  1563.4000      8.0451      2.5509      0.0911      6.0086     22.0161     75.3790
  1563.5000      8.0466      2.5372      0.1085      6.8361     21.8535     74.8674
  1563.6000      8.0466      2.5083      0.0349      8.5853     21.7613     76.6194
  1563.7000      8.0466      2.4912     -0.0192      9.6224     21.5425     77.1102
  1563.8000      8.0472      2.4997      0.0106      9.1113     20.8785     75.9135
  1563.9000      8.0472      2.5254      0.0428      7.5490     20.0944     74.1180
  1564.0000      8.0462      2.5547      0.0756      5.7776     19.5645     72.3317
  1564.1000      8.0462      2.5761      0.0997      4.4783     19.2322     71.0267
  1564.2000      8.0462      2.5825      0.1278      4.0921     18.7321     69.2036
  1564.3000      8.0448      2.5821      0.0594      4.1152     17.6216     67.7397
  1564.4000      8.0448      2.5904      0.0796      3.6091     16.2912     67.8687
  1564.5000      8.0451      2.6041      0.0678      2.7840     15.9170     67.4022
  1564.6000      8.0451      2.6133      0.0770      2.2260     16.5743     65.6073
  1564.7000      8.0451      2.6192      0.0633      1.8677     17.2963     64.2494
  1564.8000      8.0464      2.6229      0.1045      1.6407     17.8452     63.3554
  1564.9000      8.0464      2.6203      0.0715      1.7973     18.5164     59.9334
  1565.0000      8.0474      2.6102      0.0603      2.4148     19.1027     53.8935
  1565.1000      8.0474      2.5932      0.0319      3.4437     19.2263     50.6011
  1565.2000      8.0474      2.5758      0.0333      4.4977     19.0017     51.0496
  1565.3000      8.0495      2.5640      0.0466      5.2111     18.7124     54.0099
  1565.4000      8.0495      2.5536      0.0665      5.8442     18.3701     60.2583
  1565.5000      8.0507      2.5429      0.0316      6.4911     17.8877     65.9265
  1565.6000      8.0507      2.5377      0.0353      6.8061     17.5031     67.5241
  1565.7000      8.0507      2.5392      0.0578      6.7148     17.7607     67.8355
  1565.8000      8.0492      2.5444      0.0425      6.3984     18.7566     68.8562
  1565.9000      8.0492      2.5555      0.0426      5.7258     19.8301     68.7794
  1566.0000      8.0481      2.5772      0.0690      4.4144     20.4476     67.2427
  1566.1000      8.0481      2.5998      0.1156      3.0446     20.5700     66.8888
  1566.2000      8.0481      2.6054      0.0773      2.7033     20.3975     68.1671
  1566.3000      8.0483      2.5888      0.0548      3.7100     20.1213     68.7093
  1566.4000      8.0483      2.5604      0.0596      5.4308     19.9007     68.4520
  1566.5000      8.0491      2.5403      0.0027      6.6510     19.5530     69.0424
  1566.6000      8.0491      2.5394      0.0520      6.7047     19.0768     70.8815
  1566.7000      8.0491      2.5507      0.0669      6.0156     19.2315     74.6829
  1566.8000      8.0496      2.5690      0.0481      4.9103     20.3063     80.2575
  1566.9000      8.0496      2.5870      0.0829      3.8170     21.5427     85.6132
