~Version Information
VERS.                      2.0: CWLS Log ASCII Standard - VERSION 2.0
WRAP.                       NO: One line per depth step
~Well Information Block
STRT.FT               315.0000: 
STOP.FT              1292.5000: 
STEP.FT                 0.1000: 
NULL.                -999.2500: 
COMP.          Pioneer Natural Resources: COMPANY
WELL.          Hot Tomatoes 22-20: WELL
FLD.           Purgatoire River: FIELD
LOC.           2120' FNL & 2585' FWL: LOCATION
CNTY.               Las Animas: COUNTY
SRVC.                Patterson: SERVICE COMPANY
DATE.          Mon Feb 27 07:06:41 2006: LOG DATE
UWI.           05 071 08701 00: UNIQUE WELL ID
STAT.                 Colorado: STATE
~Curve Information Block
DEPT.FT            0 000 00 00: Depth
DCAL.in                       : CDL Caliper
RHOB.g/cc                     : CDL Bulk Density
RHOC.g/cc                     : CDL Density Correction
DPOR.pu                       : CDL Density Porosity
GR.GAPI                       : Gamma Ray
NPOR.pu                       : Neutron Porosity
~Parameter Information Block
~A  Depth       DCAL        RHOB        RHOC        DPOR         GR         NPOR    
# ...
   574.2000      7.9629      2.5838      0.0271      4.0138    114.6600     19.7395
   574.3000      7.9279      2.5621      0.0187      5.3295    123.7330     19.4660
   574.4000      7.9279      2.5476      0.0262      6.2080    129.4571     19.9615
   574.5000      7.9381      2.5382      0.0562      6.7762    129.0128     21.3005
   574.6000      7.9381      2.5341      0.0547      7.0226    127.0251     22.5052
   574.7000      7.9381      2.5380      0.0705      6.7876    131.3992     22.4657
   574.8000      7.9385      2.5441      0.0153      6.4203    139.1666     21.7055
   574.9000      7.9385      2.5512      0.0667      5.9865    141.1564     21.1326
   575.0000      7.9372      2.5662      0.0562      5.0784    135.9742     20.8515
   575.1000      7.9372      2.5912      0.0427      3.5666    132.0638     20.9145
   575.2000      7.9372      2.6146      0.1106      2.1437    136.1548     21.3194
   575.3000      7.9393      2.6183      0.1352      1.9233    143.6750     21.5339
   575.4000      7.9393      2.6010      0.0700      2.9674    146.3816     21.4603
   575.5000      7.9395      2.5782      0.0711      4.3491    143.5993     21.8347
   575.6000      7.9395      2.5550      0.0842      5.7603    140.4482     22.5910
   575.7000      7.9395      2.5322      0.0038      7.1374    138.7405     22.9457
   575.8000      7.9446      2.5154      0.0376      8.1579    138.9582     23.3135
   575.9000      7.9446      2.5048      0.0003      8.7970    142.5219     24.1397
   576.0000      7.9653      2.5062     -0.0327      8.7139    145.0750     24.5229
   576.1000      7.9653      2.5197      0.0603      7.8940    141.5922     24.3949
   576.2000      7.9653      2.5252      0.0501      7.5616    135.4549     24.3688
   576.3000      7.9962      2.5105      0.0167      8.4540    134.1800     24.2608
   576.4000      7.9962      2.4893      0.0226      9.7391    139.1947     23.7486
   576.5000      8.0120      2.4845     -0.0211     10.0280    146.0945     23.0905
   576.6000      8.0120      2.5014      0.0402      9.0081    149.7991     22.6477
   576.7000      8.0120      2.5199      0.0522      7.8874    148.1034     22.6347
   576.8000      7.9930      2.5254     -0.0210      7.5524    144.4857     22.9649
   576.9000      7.9930      2.5266     -0.0054      7.4773    144.9211     23.2602
   577.0000      7.9755      2.5313      0.0113      7.1925    147.6426     23.4516
   577.1000      7.9755      2.5335      0.0270      7.0590    147.8618     23.6353
   577.2000      7.9755      2.5314      0.0005      7.1900    145.8712     23.7455
   577.3000      7.9738      2.5261      0.0679      7.5072    143.3527     24.1261
   577.4000      7.9738      2.5174      0.0395      8.0336    140.2421     24.9183
   577.5000      7.9827      2.5101      0.0380      8.4758    136.8611     25.4362
   577.6000      7.9827      2.5058      0.0232      8.7367    137.1835     25.3476
   577.7000      7.9827      2.5056      0.0151      8.7545    142.2074     25.4329
   577.8000      7.9839      2.5118      0.0325      8.3778    147.3528     26.2080
   577.9000      7.9839      2.5242     -0.0066      7.6256    148.0551     27.1075
   578.0000      7.9833      2.5433      0.0200      6.4697    144.2229     27.7084
   578.1000      7.9833      2.5721     -0.0150      4.7213    139.2582     27.9243
   578.2000      7.9833      2.6075      0.0807      2.5742    133.7551     27.4236
   578.3000      7.9793      2.6307      0.0601      1.1679    129.5390     26.5580
   578.4000      7.9793      2.6359      0.0065      0.8526    131.9172     25.9296
   578.5000      7.9844      2.6393      0.0331      0.6464    139.7807     25.6460
   578.6000      7.9844      2.6443      0.0630      0.3461    147.3102     25.6929
   578.7000      7.9844      2.6393      0.0412      0.6498    147.4045     25.7070
   578.8000      7.9855      2.6254     -0.0071      1.4919    139.4717     25.1986
   578.9000      7.9855      2.6102     -0.0134      2.4093    133.3624     24.3453
   579.0000      7.9882      2.5875     -0.0603      3.7851    136.0779     23.7615
   579.1000      7.9882      2.5524     -0.0758      5.9124    146.0760     23.6918
   579.2000      7.9882      2.5147     -0.0750      8.1996    159.9665     23.9532
   579.3000      7.9875      2.4911     -0.0161      9.6283    169.3269     24.3738
   579.4000      7.9875      2.4944     -0.0063      9.4295    167.6449     24.6572
   579.5000      7.9893      2.5089      0.0836      8.5536    161.4350     24.6171
   579.6000      7.9893      2.5065     -0.0196      8.6989    160.3094     24.6034
   579.7000      7.9893      2.4944      0.0179      9.4318    165.4057     25.1566
   579.8000      7.9903      2.4913      0.0164      9.6194    172.8558     25.8244
   579.9000      7.9903      2.4954      0.0303      9.3704    180.9994     25.5793
   580.0000      8.0174      2.4988      0.0308      9.1612    188.1938     24.9529
   580.1000      8.0174      2.5002      0.0377      9.0769    192.9447     25.1582
   580.2000      8.0174      2.4950      0.0797      9.3940    194.5982     26.1113
   580.3000      8.0532      2.4758      0.0150     10.5572    192.2805     26.6770
   580.4000      8.0532      2.4593     -0.0800     11.5572    187.2409     26.1612
   580.5000      8.0268      2.4698      0.0011     10.9194    181.9274     24.7702
   580.6000      8.0268      2.4941      0.0425      9.4513    177.4607     23.1068
   580.7000      8.0268      2.5025      0.0230      8.9404    173.2337     21.8745
   580.8000      8.0030      2.4912      0.0097      9.6257    168.3449     21.3375
   580.9000      8.0030      2.4783      0.0195     10.4056    161.7910     21.0972
   581.0000      8.0036      2.4758      0.0397     10.5564    154.3831     20.7890
   581.1000      8.0036      2.4751      0.0337     10.5996    151.6972     20.8543
   581.2000      8.0036      2.4649      0.0789     11.2207    154.8067     21.6729
   581.3000      7.9970      2.4521      0.0260     11.9950    157.9023     22.6053
   581.4000      7.9970      2.4515      0.0568     12.0319    159.8326     22.9298
   581.5000      7.9953      2.4527      0.1073     11.9605    163.5383     22.9047
   581.6000      7.9953      2.4431      0.0299     12.5377    168.4623     23.2944
   581.7000      7.9953      2.4407      0.0322     12.6848    168.9827     23.9653
   581.8000      7.9939      2.4557      0.0509     11.7752    164.6879     24.3553
   581.9000      7.9939      2.4778      0.0618     10.4339    162.9156     24.8826
   582.0000      8.0303      2.5028      0.0785      8.9231    162.7894     25.6538
   582.1000      8.0303      2.5295      0.0743      7.3023    157.9323     25.8492
   582.2000      8.0303      2.5485      0.0530      6.1512    150.8522     25.2307
   582.3000      8.0828      2.5563      0.0025      5.6797    146.9335     24.2788
   582.4000      8.0828      2.5591      0.0574      5.5069    145.8657     23.4675
   582.5000      8.1472      2.5577     -0.0355      5.5958    145.5248     22.9388
   582.6000      8.1472      2.5584      0.0389      5.5507    145.7581     22.9127
   582.7000      8.1472      2.5672      0.0125      5.0169    148.1236     23.6621
   582.8000      8.0629      2.5707      0.0721      4.8075    152.9121     24.5459
   582.9000      8.0629      2.5488      0.0732      6.1339    154.4449     24.4709
   583.0000      8.0324      2.5091     -0.0262      8.5403    150.2090     23.5381
   583.1000      8.0324      2.4773     -0.0047     10.4675    149.2277     22.9110
   583.2000      8.0324      2.4624     -0.0251     11.3701    157.0683     23.1611
   583.3000      8.0295      2.4616     -0.0138     11.4178    163.7231     24.3138
   583.4000      8.0295      2.4668      0.0402     11.1039    162.2982     25.8430
   583.5000      8.0283      2.4717      0.0130     10.8071    162.9629     26.9521
   583.6000      8.0283      2.4800      0.0166     10.3006    170.0999     27.7575
   583.7000      8.0283      2.4924      0.0732      9.5538    175.2948     28.5081
