~Version Information
 VERS.                                  2.0 : CWLS LAS VERSION
 WRAP.                                   NO : WRAPING MODE
 SWARE .                MController 2.5.0QA : SOFTWARE VERSION
~Well Information
 WELL.                      Sculpin 32-30Tr : WELL
 COMP.    Pioneer Natural Resources USA Inc : COMPANY
 FLD.                      Purgatoire River : FIELD
 LOC.                 SW/NE Sec30 T32S R65W : LOCATION
 DATE.                             07/19/06 : DATE(S) LOGGED
 SRVC.       Blanco Geological Services LLC : SERVICE COMPANY
 STAT.                             Colorado : STATE
 CNTY.                           Las Animas : COUNTY
 CTRY.                                  USA : COUNTRY
 API.                       05-071-08706-00 : API NUMBER
 STRT.FT                             411.00 : START DEPTH
 STOP.FT                             950.00 : STOP DEPTH
 STEP.FT                               1.00 : DEPTH INCREMENT
 NULL.                                -9999 : NULL VALUE
~Curve information
 DEPTH.FT                                   :
 ROP.MIN/FT                                 :
 GAS.UNITS                                  :
~ASCII Log data
# ...
       811.0         0.27         19.4 
       812.0         0.20         19.9 
       813.0         0.35         21.8 
       814.0         0.27         23.9 
       815.0         0.30         24.6 
       816.0         0.20         24.6 
       817.0         0.23         23.0 
       818.0         0.27         21.8 
       819.0         0.20         22.2 
       820.0         0.23         24.0 
       821.0         0.27         25.7 
       822.0         0.27         27.5 
       823.0         0.33         27.3 
       824.0         0.30         27.2 
       825.0         0.23         26.9 
       826.0         0.28         27.6 
       827.0         0.23         27.6 
       828.0         0.27         28.2 
       829.0         0.23         28.9 
       830.0         0.27         28.0 
       831.0         0.27         26.6 
       832.0         3.72        152.2 
       833.0         0.50         79.7 
       834.0         0.47         57.1 
       835.0         0.40         50.2 
       836.0         0.35         42.8 
       837.0         0.33         36.6 
       838.0         0.27         32.1 
       839.0         0.23         27.4 
       840.0         0.20         26.1 
       841.0         0.17         26.1 
       842.0         0.20         28.2 
       843.0         0.63         31.8 
       844.0         0.27         30.3 
       845.0         0.23         30.2 
       846.0         0.23         30.3 
       847.0         0.48         32.7 
       848.0         0.27         30.7 
       849.0         0.20         30.1 
       850.0         0.23         28.8 
       851.0         0.23         30.7 
       852.0         0.23         30.9 
       853.0         0.23         32.2 
       854.0         0.23         32.9 
       855.0         0.17         35.0 
       856.0         0.20         37.9 
       857.0         0.27         40.6 
       858.0         0.23         41.2 
       859.0         0.23         40.6 
       860.0         0.23         38.8 
       861.0         0.25         38.4 
       862.0         3.45         85.5 
       863.0         0.40         69.4 
       864.0         0.33         68.6 
       865.0         0.40         62.8 
       866.0         0.43         54.4 
       867.0         0.37         40.3 
       868.0         0.33         32.6 
       869.0         0.27         30.9 
       870.0         0.30         29.8 
       871.0         0.33         32.6 
       872.0         0.38         32.3 
       873.0         0.23         29.4 
       874.0         0.23         27.7 
       875.0         0.23         29.7 
       876.0         0.23         34.0 
       877.0         0.23         34.0 
       878.0         0.23         37.7 
       879.0         0.17         51.5 
       880.0         0.13         51.5 
       881.0         0.20         68.4 
       882.0         0.30         77.5 
       883.0         0.37         83.4 
       884.0         0.23         83.4 
       885.0         0.28         78.0 
       886.0         0.30         72.2 
       887.0         0.30         67.3 
       888.0         0.33         66.3 
       889.0         0.33         62.2 
       890.0         0.30         55.9 
       891.0         0.33         49.6 
       892.0         3.22        164.6 
       893.0         0.47        118.3 
       894.0         0.50        115.7 
       895.0         0.27        101.8 
       896.0         0.32         86.2 
       897.0         0.57         73.3 
       898.0         0.30         58.9 
       899.0         0.23         55.1 
       900.0         0.27         52.8 
       901.0         0.30         54.6 
       902.0         0.23         57.4 
       903.0         0.27         57.6 
       904.0         0.23         58.9 
       905.0         0.33         62.0 
       906.0         0.23         62.5 
       907.0         0.20         60.9 
       908.0         0.22         60.9 
       909.0         0.17         60.4 
       910.0         0.17         62.8 
       911.0         0.23         64.2 
       912.0         0.23         67.0 
       913.0         0.23         68.0 
       914.0         0.27         67.0 
       915.0         0.27         66.5 
       916.0         0.20         63.5 
       917.0         0.23         63.0 
       918.0         0.17         60.9 
       919.0         0.20         62.9 
       920.0         0.33         61.5 
       921.0         0.47         57.7 
       922.0         3.15        175.8 
       923.0         0.42        115.5 
       924.0         0.43        110.8 
       925.0         0.43        108.9 
       926.0         0.37         96.9 
       927.0         0.40         86.4 
       928.0         0.30         53.0 
       929.0         0.20         50.4 
       930.0         0.23         47.4 
       931.0         0.23         46.9 
       932.0         0.47         53.8 
       933.0         0.38         57.6 
       934.0         0.27         57.8 
       935.0         0.30         54.9 
       936.0         0.17         54.2 
       937.0         0.27         54.4 
       938.0         0.20         57.7 
       939.0         0.20         60.5 
       940.0         0.23         62.8 
       941.0         0.33         66.2 
       942.0         0.43         67.2 
       943.0         0.27         65.7 
       944.0         0.23         57.0 
       945.0         0.20         55.6 
       946.0         0.28         46.9 
       947.0         0.37         51.7 
       948.0         0.40         56.1 
       949.0         0.40         63.0 
       950.0         0.20         76.6 
