~Version Information
VERS.                      2.0: CWLS Log ASCII Standard - VERSION 2.0
WRAP.                       NO: One line per depth step
~Well Information Block
STRT.FT                -6.2500: 
STOP.FT              1327.5000: 
STEP.FT                 0.2500: 
NULL.                -999.2500: 
COMP.          Pioneer Natural Resources: COMPANY
WELL.            Avant 14-3 Tr: WELL
FLD.           Purgatorie River: FIELD
LOC.           170' FSL & 1174' FWL--: LOCATION
STAT.                       CO: State
CNTY.               Las Animas: COUNTY
CTRY. USA : Country
SECT. 3 : Section
TOWN. 33S : Township
RANG. 67W : Range
SRVC.          Patterson Wireline: SERVICE COMPANY
DATE.          Tue Aug 23 16:44:25 2005: LOG DATE
API.           05 071 08463 00: UNIQUE WELL ID
~Curve Information Block
DEPT.FT            0 000 00 00: Depth
CCL.                          : Casing Collar Locator
TT3.usec                      : CBL 3' Travel Time
AMP3.mV                       : CBL 3' Amplitude
GR.GAPI                       : Gamma Ray
~Parameter Information Block
~A  Depth       CCL         TT3         AMP3         GR     
# ...
   261.7500      0.0000    782.6605     20.2168     98.4526
   262.0000      0.0000    783.8077     20.3809     98.8145
   262.2500      0.0000    786.7838     20.5820     96.6930
   262.5000      0.0000    792.9370     20.8189     92.5050
   262.7500      0.0000    803.7399     21.0715     87.7444
   263.0000      0.0000    820.0238     21.3101     83.0855
   263.2500      0.0000    840.8411     21.5128     78.4812
   263.5000      0.0000    862.7606     21.6757     74.6505
   263.7500      0.0000    880.8090     21.8065     73.3654
   264.0000      0.0000    890.6066     21.9097     75.9645
   264.2500      0.0000    889.6675     21.9823     81.8587
   264.5000      0.0000    877.4926     22.0258     88.6975
   264.7500      0.0000    855.7295     22.0546     94.0724
   265.0000      0.0000    827.7360     22.0884     97.0507
   265.2500      0.0000    795.6845     22.1377     98.1544
   265.5000      0.0000    757.3875     22.1992     98.2832
   265.7500      0.0000    709.0507     22.2646     98.0065
   266.0000      0.0000    653.9367     22.3268     97.5585
   266.2500      0.0000    606.4612     22.3820     96.8757
   266.5000      0.0000    583.7913     22.4299     95.6159
   266.7500      0.0000    593.1188     22.4745     93.5803
   267.0000      0.0000    628.1060     22.5240     91.1293
   267.2500      0.0000    674.6898     22.5876     88.8781
   267.5000      0.0000    717.9560     22.6715     86.9806
   267.7500      0.0000    746.6035     22.7779     84.9092
   268.0000      0.0000    754.0757     22.9072     82.1230
   268.2500      0.0000    736.3040     23.0621     78.9856
   268.5000      0.0000    690.8550     23.2488     76.7548
   268.7500      0.0000    621.4409     23.4668     76.3890
   269.0000      0.0000    541.9499     23.7010     77.4004
   269.2500      0.0000    471.1281     23.9259     78.2230
   269.5000      0.0000    420.8086     24.1228     77.8871
   269.7500      0.0000    390.1323     24.2894     77.1198
   270.0000      0.0000    370.5723     24.4340     77.4925
   270.2500      0.0000    355.0685     24.5616     79.7041
   270.5000      0.0000    343.3632     24.6595     83.0865
   270.7500      0.0000    341.8398     24.6896     86.5938
   271.0000      0.0000    359.3323     24.5931     89.7571
   271.2500      0.0000    399.6576     24.3191     92.6469
   271.5000      0.0000    453.9723     23.8825     95.3306
   271.7500      0.0000    502.9916     23.3945     97.5852
   272.0000      0.0000    534.1177     22.9639     98.9497
   272.2500      0.0000    556.8162     22.5184     98.8766
   272.5000      0.0000    593.3570     21.8072     96.9290
   272.7500      0.0000    652.8790     20.6846     93.0281
   273.0000      0.0000    720.8045     19.3417     87.6178
   273.2500      0.0000    774.0330     18.1661     81.7234
   273.5000      0.0000    800.3549     17.4122     76.9390
   273.7500      0.0000    802.0837     17.0709     75.1587
   274.0000      0.0000    786.7305     17.0048     77.7572
   274.2500      0.0000    758.9639     17.1300     84.5118
   274.5000      0.0000    721.8718     17.4752     93.3134
   274.7500      0.0000    682.6656     18.0929    101.3055
   275.0000      0.0000    652.5323     18.9135    106.5760
   275.2500      0.0000    639.3724     19.7347    108.9752
   275.5000      0.0000    643.1064     20.4088    109.6503
   275.7500      0.0000    660.3173     20.9829    109.8233
   276.0000      0.0000    690.3770     21.5731    109.6648
   276.2500      0.0000    732.2460     22.1689    108.2679
   276.5000      0.0000    777.7064     22.6455    104.8742
   276.7500      0.0000    814.1978     22.9126     99.9907
   277.0000      0.0000    834.2971     22.9805     95.1225
   277.2500      0.0000    839.3902     22.9196     91.6129
   277.5000      0.0000    835.4131     22.8081     89.9922
   277.7500      0.0000    827.4900     22.7122     90.2131
   278.0000      0.0000    818.0204     22.6806     91.9533
   278.2500      0.0000    807.3011     22.7399     94.3948
   278.5000      0.0000    794.4550     22.8876     96.0570
   278.7500      0.0000    776.8652     23.0928     95.6231
   279.0000      0.0000    749.5111     23.3118     93.2950
   279.2500      0.0000    707.3129     23.5094     90.9207
   279.5000      0.0000    649.5276     23.6725     90.2904
   279.7500      0.0000    580.9462     23.8069     91.5436
   280.0000      0.0000    508.7772     23.9273     93.5854
   280.2500      0.0000    440.4809     24.0491     95.5085
   280.5000      0.0000    383.7435     24.1852     96.9644
   280.7500      0.0000    344.2166     24.3417     97.6790
   281.0000      0.0000    321.9874     24.5125     97.3649
   281.2500      0.0000    312.0888     24.6804     95.9529
   281.5000      0.0000    308.5935     24.8285     93.6900
   281.7500      0.0000    307.5693     24.9554     91.1757
   282.0000      0.0000    307.2528     25.0832     89.1826
   282.2500      0.0000    307.0421     25.2477     88.0419
   282.5000      0.0000    306.8017     25.4753     87.2149
   282.7500      0.0000    306.5191     25.7636     85.8860
   283.0000      0.0000    306.2422     26.0861     84.1740
   283.2500      0.0000    306.0108     26.4124     83.2835
   283.5000      0.0000    305.8336     26.7233     83.9439
   283.7500      0.0000    305.6937     27.0110     85.1681
   284.0000      0.0000    305.5707     27.2748     85.2384
   284.2500      0.0000    305.4538     27.5206     83.6820
   284.5000      0.0000    305.3398     27.7616     81.7056
   284.7500      0.0000    305.2240     28.0123     80.7614
   285.0000      0.0000    305.0974     28.2786     81.0387
   285.2500      0.0000    304.9547     28.5534     81.4014
   285.5000      0.0000    304.8021     28.8233     80.5968
   285.7500      0.0000    304.6538     29.0791     78.4070
   286.0000      0.0000    304.5216     29.3198     75.6853
   286.2500      0.0000    304.4079     29.5507     73.4999
   286.5000      0.0000    304.3085     29.7784     72.4304
   286.7500      0.0000    304.2206     30.0050     72.4843
   287.0000      0.0000    304.1505     30.2226     73.1820
   287.2500      0.0000    304.1094     30.4116     73.5963
   287.5000      0.0000    304.1031     30.5455     72.7552
   287.7500      0.0000    304.1267     30.5986     70.3825
   288.0000      0.0000    304.1722     30.5557     67.1974
   288.2500      0.0000    304.2370     30.4202     64.4773
   288.5000      0.0000    304.3212     30.2113     63.2795
   288.7500      0.0000    304.4205     29.9530     63.7288
   289.0000      0.0000    304.5244     29.6627     64.9254
   289.2500      0.0000    304.6222     29.3521     65.7882
   289.5000      0.0000    304.7058     29.0363     65.9029
   289.7500      0.0000    304.7672     28.7418     65.3967
   290.0000      0.0000    304.7996     28.5031     64.5106
   290.2500      0.0000    304.8044     28.3407     63.8121
   290.5000      0.0000    304.7969     28.2399     64.4658
   290.7500      0.0000    304.8010     28.1560     67.7290
   291.0000      0.0000    304.8384     28.0409     74.0109
   291.2500      0.0000    304.9223     27.8646     82.1496
   291.5000      0.0000    305.0545     27.6199     89.4818
   291.7500      0.0000    305.2216     27.3201     93.1451
   292.0000      0.0000    305.3965     26.9969     91.9671
   292.2500      0.0000    305.5506     26.6881     87.2551
   292.5000      0.0000    305.6736     26.4163     81.7600
   292.7500      0.0000    305.8236     26.1803     77.8404
   293.0000      0.0000    306.2718     25.9626     76.1725
   293.2500      0.0000    308.0818     25.7443     75.6965
   293.5000      0.0000    314.4304     25.5131     74.8587
   293.7500      0.0000    332.2743     25.2640     73.0917
   294.0000      0.0000    371.8996     24.9958     71.1158
   294.2500      0.0000    440.9848     24.7142     70.0938
   294.5000      0.0000    534.9377     24.4395     71.0194
   294.7500      0.0000    633.6973     24.2056     74.6164
   295.0000      0.0000    712.7304     24.0420     80.7757
