~Version Information
VERS.                      2.0: CWLS Log ASCII Standard - VERSION 2.0
WRAP.                       NO: One line per depth step
~Well Information Block
STRT.FT               645.0000: 
STOP.FT              1320.0000: 
STEP.FT                 0.1000: 
NULL.                -999.2500: 
COMP.          Pioneer Natural Resources: COMPANY
WELL.          Rockfish 11-30 Tr: WELL
FLD.           Purgatoire River: FIELD
LOC.           1063' FNL & 1068' FWL: LOCATION
STAT.                 Colorado: State
CNTY.               Las Animas: COUNTY
CTRY. USA : Country
SECT. 30 : Section
TOWN. 32S : Township
RANG. 65W : Range
SRVC.                Patterson: SERVICE COMPANY
DATE.          Wed Nov 16 07:46:07 2005: LOG DATE
API.           05 071 08585 00: UNIQUE WELL ID
~Curve Information Block
DEPT.FT            0 000 00 00: Depth
DCAL.in                       : CDL Caliper
RHOB.g/cc                     : CDL Bulk Density
RHOC.g/cc                     : CDL Density Correction
DPOR.pu                       : CDL Density Porosity
GR.GAPI                       : Gamma Ray
NPOR.pu                       : Neutron Porosity
~Parameter Information Block
~A  Depth       DCAL        RHOB        RHOC        DPOR         GR         NPOR    
# ...
   693.0000      8.2730      2.1853      0.0832     28.1640    115.5912     21.2043
   693.1000      8.2730      2.1983      0.0532     27.3766    117.0114     21.3982
   693.2000      8.2730      2.2063      0.1033     26.8909    119.8375     21.7216
   693.3000      8.2996      2.1954      0.0916     27.5529    123.7863     22.0131
   693.4000      8.2996      2.1585      0.0736     29.7859    129.4346     22.1894
   693.5000      8.3446      2.1149      0.0476     32.4301    131.6356     22.0668
   693.6000      8.3446      2.0930      0.0850     33.7604    127.1101     21.6067
   693.7000      8.3446      2.0874      0.1341     34.0975    122.6742     21.2096
   693.8000      8.2167      2.0723      0.0477     35.0111    126.4820     21.2601
   693.9000      8.2167      2.0520     -0.0115     36.2439    137.6040     21.7767
   694.0000      8.1266      2.0479     -0.0281     36.4911    144.8198     22.2310
   694.1000      8.1266      2.0614      0.0582     35.6699    141.8156     22.2799
   694.2000      8.1266      2.0901      0.0209     33.9348    138.2937     22.3738
   694.3000      8.1636      2.1310      0.1510     31.4532    143.0299     22.7231
   694.4000      8.1636      2.1586      0.1414     29.7821    150.8670     22.9574
   694.5000      8.1702      2.1600      0.0807     29.6997    153.1472     22.9402
   694.6000      8.1702      2.1546      0.0785     30.0268    149.9107     23.0023
   694.7000      8.1702      2.1518      0.0743     30.1911    146.4246     23.3054
   694.8000      8.1348      2.1459      0.0737     30.5536    146.4086     23.7218
   694.9000      8.1348      2.1453      0.0491     30.5902    148.7025     23.9144
   695.0000      8.1109      2.1655      0.0776     29.3617    149.3523     23.8603
   695.1000      8.1109      2.2066      0.0825     26.8746    146.0562     24.1623
   695.2000      8.1109      2.2542      0.1278     23.9860    140.4422     24.9499
   695.3000      8.1527      2.2947      0.1385     21.5363    135.2566     25.8087
   695.4000      8.1527      2.3317      0.1317     19.2936    130.8680     26.3478
   695.5000      8.2595      2.3735      0.1563     16.7592    125.5723     26.7023
   695.6000      8.2595      2.4090      0.1722     14.6043    118.5362     27.2489
   695.7000      8.2595      2.4297      0.1281     13.3540    114.5814     27.8597
   695.8000      8.2988      2.4512      0.0990     12.0509    118.0140     27.9958
   695.9000      8.2988      2.4876      0.1051      9.8420    125.1333     27.4687
   696.0000      8.1659      2.5322      0.1032      7.1409    129.5986     27.0048
   696.1000      8.1659      2.5679      0.1587      4.9765    128.7108     27.2082
   696.2000      8.1659      2.5819      0.1440      4.1259    126.7454     27.6805
   696.3000      8.0319      2.5746      0.0876      4.5710    128.7614     27.7576
   696.4000      8.0319      2.5448      0.0723      6.3741    133.9188     27.1607
   696.5000      8.0118      2.4964     -0.0053      9.3068    138.9174     26.3401
   696.6000      8.0118      2.4545     -0.0443     11.8491    137.5317     26.0600
   696.7000      8.0118      2.4395     -0.0708     12.7598    128.0386     26.4258
   696.8000      8.0078      2.4513     -0.0517     12.0396    123.1641     26.9181
   696.9000      8.0078      2.4835     -0.0058     10.0905    132.9670     27.0804
   697.0000      7.9825      2.5197      0.0532      7.8970    146.3145     26.9047
   697.1000      7.9825      2.5310      0.0562      7.2104    150.9957     26.8350
   697.2000      7.9825      2.5075      0.0516      8.6365    147.1809     27.0327
   697.3000      7.9800      2.4802     -0.0262     10.2931    139.8178     26.8884
   697.4000      7.9800      2.4876     -0.0031      9.8440    134.9437     26.4618
   697.5000      7.9856      2.5257      0.0505      7.5361    133.7809     26.4611
   697.6000      7.9856      2.5594      0.1301      5.4913    131.4921     26.8516
   697.7000      7.9856      2.5770      0.0448      4.4254    128.7736     27.2093
   697.8000      7.9741      2.5924      0.0795      3.4904    131.9570     27.2827
   697.9000      7.9741      2.6031      0.1211      2.8453    141.3441     26.8667
   698.0000      7.9638      2.6004      0.0857      3.0033    147.6179     26.1519
   698.1000      7.9638      2.5920      0.1085      3.5137    142.7906     25.8061
   698.2000      7.9638      2.5869      0.0857      3.8256    131.2737     26.1424
   698.3000      7.9588      2.5886      0.1098      3.7182    121.9653     26.4941
   698.4000      7.9588      2.5982      0.0955      3.1387    120.8777     26.1568
   698.5000      7.9651      2.6151      0.1183      2.1152    127.1250     25.4825
   698.6000      7.9651      2.6316      0.0829      1.1125    133.7699     25.2265
   698.7000      7.9651      2.6395      0.0844      0.6363    138.0161     25.4277
   698.8000      7.9717      2.6386      0.0799      0.6907    137.2891     25.5269
   698.9000      7.9717      2.6300      0.0823      1.2123    130.0960     25.2702
   699.0000      7.9730      2.6133      0.0276      2.2264    123.8835     25.0513
   699.1000      7.9730      2.5906      0.0449      3.6001    121.6680     25.2683
   699.2000      7.9730      2.5603      0.0562      5.4376    118.6550     25.7836
   699.3000      7.9742      2.5276      0.0059      7.4206    113.9877     26.3696
   699.4000      7.9742      2.5066      0.0409      8.6901    109.3392     26.8775
   699.5000      7.9839      2.5017      0.0593      8.9895    107.5871     27.1717
   699.6000      7.9839      2.5105      0.0114      8.4562    111.5434     27.6020
   699.7000      7.9839      2.5277      0.0527      7.4100    118.6527     28.4790
   699.8000      7.9876      2.5526      0.0158      5.9053    121.6685     29.6465
   699.9000      7.9876      2.6053      0.0257      2.7119    116.8687     30.8898
   700.0000      7.9710      2.6995      0.1130     -3.0020    107.5358     32.0102
   700.1000      7.9710      2.8211      0.1168    -10.3697    102.7136     32.9109
   700.2000      7.9710      2.9566      0.1321    -18.5848    106.9162     33.8571
   700.3000      7.9669      3.0986      0.2277    -27.1857    112.4035     34.9514
   700.4000      7.9669      3.2159      0.2844    -34.2967    111.3564     35.8381
   700.5000      7.9535      3.2721      0.2599    -37.7053    105.1824     36.2880
   700.6000      7.9535      3.2824      0.1491    -38.3297     97.1803     36.3027
   700.7000      7.9535      3.2949      0.0822    -39.0821     86.9325     36.0649
   700.8000      7.9182      3.3152      0.0375    -40.3134     75.4317     35.7295
   700.9000      7.9182      3.3119      0.0195    -40.1155     64.4011     35.1068
   701.0000      7.8751      3.2611     -0.0069    -37.0369     56.1907     33.9940
   701.1000      7.8751      3.1665     -0.0783    -31.3005     53.2975     32.4718
   701.2000      7.8751      3.0443     -0.0807    -23.8945     51.9169     30.8166
   701.3000      7.9030      2.9138     -0.1395    -15.9885     47.5661     28.9383
   701.4000      7.9030      2.8007     -0.1567     -9.1330     43.7531     26.8064
   701.5000      7.9091      2.7122     -0.1228     -3.7718     44.5671     24.9121
   701.6000      7.9091      2.6393     -0.1007      0.6479     49.0796     23.6459
   701.7000      7.9091      2.5815     -0.0836      4.1509     56.3161     22.9127
   701.8000      7.8921      2.5527     -0.0543      5.8945     67.0053     22.4487
   701.9000      7.8921      2.5596      0.0647      5.4786     79.4062     22.1944
   702.0000      7.9082      2.5826      0.1511      4.0838     90.1590     22.1272
   702.1000      7.9082      2.5947      0.2014      3.3508     98.2747     22.1204
   702.2000      7.9082      2.5880      0.2014      3.7549    102.9187     22.1515
   702.3000      7.8891      2.5830      0.0963      4.0625    104.1403     22.3206
   702.4000      7.8891      2.5952      0.2039      3.3218    102.7971     22.6581
   702.5000      7.8651      2.6076      0.1698      2.5715    100.5668     23.1153
