~Version Information
 VERS.                                  2.0 : CWLS LAS VERSION
 WRAP.                                   NO : WRAPING MODE
 SWARE .                 MController 2.5.0N : SOFTWARE VERSION
~Well Information
 WELL.                            Mac 22-36 : WELL
 COMP.    Pioneer Natural Resouces USA Inc. : COMPANY
 FLD.                      Purgatoire River : FIELD
 LOC.            SE/NW Sec 36 , T34S, R65W  : LOCATION
 DATE.                             12/04/05 : DATE(S) LOGGED
 SRVC.       BLANCO Geological Services LLC : SERVICE COMPANY
 STAT.                                   CO : STATE
 CNTY.                           Las Animas : COUNTY
 CTRY.                                  USA : COUNTRY
 API.                          05-071-08594 : API NUMBER
 STRT.FT                             168.00 : START DEPTH
 STOP.FT                            1055.00 : STOP DEPTH
 STEP.FT                               1.00 : DEPTH INCREMENT
 NULL.                                -9999 : NULL VALUE
~Curve information
 DEPTH.FT                                   :
 ROP.MIN/FT                                 :
 GAS.UNITS                                  :
~ASCII Log data
# ...
       368.0         0.30          9.7 
       369.0         0.32         10.4 
       370.0         0.23          9.9 
       371.0         0.30         10.4 
       372.0         0.27          9.7 
       373.0         0.30          9.8 
       374.0         0.27         10.3 
       375.0         0.30          9.8 
       376.0         0.27          8.3 
       377.0         0.40          8.3 
       378.0         0.37          8.0 
       379.0         0.23          7.5 
       380.0         0.48          6.7 
       381.0         2.82         14.1 
       382.0         0.47          9.6 
       383.0         0.50          9.1 
       384.0         0.50          8.0 
       385.0         0.50          8.8 
       386.0         0.55          9.5 
       387.0         0.37         10.3 
       388.0         0.40         10.4 
       389.0         0.40          9.9 
       390.0         0.37         10.1 
       391.0         0.40         10.0 
       392.0         0.42          9.8 
       393.0         0.40         10.1 
       394.0         0.40         10.3 
       395.0         0.37         10.3 
       396.0         0.40         12.9 
       397.0         0.40         12.6 
       398.0         0.37         11.3 
       399.0         0.42          9.5 
       400.0         0.43          8.4 
       401.0         0.33          8.3 
       402.0         0.40          8.3 
       403.0         0.37          8.2 
       404.0         0.50          7.8 
       405.0         0.33          7.8 
       406.0         0.30          8.9 
       407.0         0.25          8.4 
       408.0         0.27          7.6 
       409.0         0.37          7.4 
       410.0         0.13          6.7 
       411.0         4.40         17.2 
       412.0         0.33          8.2 
       413.0         0.33          7.8 
       414.0         0.37          7.9 
       415.0         0.30          8.2 
       416.0         0.27          8.1 
       417.0         0.28          8.3 
       418.0         0.27          7.9 
       419.0         0.30          8.3 
       420.0         0.27          8.1 
       421.0         0.30          7.6 
       422.0         0.27          8.0 
       423.0         0.33          8.3 
       424.0         0.30          8.2 
       425.0         0.40          8.0 
       426.0         0.43          7.7 
       427.0         0.42          7.8 
       428.0         0.37          8.5 
       429.0         0.33          8.4 
       430.0         0.37          8.5 
       431.0         0.37          8.7 
       432.0         0.35          8.6 
       433.0         0.33          9.2 
       434.0         0.37          8.6 
       435.0         0.33          8.2 
       436.0         0.37          8.3 
       437.0         0.40          8.9 
       438.0         0.40          8.3 
       439.0         0.40          8.0 
       440.0         0.10          6.9 
       441.0         2.58         35.8 
       442.0         0.23         33.8 
       443.0         0.20         29.8 
       444.0         0.23         27.4 
       445.0         0.27         20.0 
       446.0         0.35         17.2 
       447.0         0.33         15.4 
       448.0         0.30         14.9 
       449.0         0.30         14.5 
       450.0         0.27         13.5 
       451.0         0.30         12.7 
       452.0         0.30         13.2 
       453.0         0.30         13.4 
       454.0         0.27         14.4 
       455.0         0.27         12.4 
       456.0         0.53         12.4 
       457.0         0.32         11.9 
       458.0         0.27         11.3 
       459.0         0.27         11.3 
       460.0         0.30         11.0 
       461.0         0.30         12.5 
       462.0         0.27         11.3 
       463.0         0.30         11.4 
       464.0         0.23         11.3 
       465.0         0.30         11.4 
       466.0         0.27         11.9 
       467.0         0.27         11.3 
       468.0         0.27         10.0 
       469.0         0.32          9.3 
       470.0         0.40          8.7 
       471.0         4.05         41.6 
       472.0         0.33         10.9 
       473.0         0.40          9.7 
       474.0         0.37          9.8 
       475.0         0.37         10.1 
       476.0         0.37          9.8 
       477.0         0.42          9.8 
       478.0         0.33          9.4 
       479.0         0.33          9.8 
       480.0         0.33          9.7 
       481.0         0.43          9.4 
       482.0         0.40          9.5 
       483.0         0.33          9.3 
       484.0         0.33          9.7 
       485.0         0.33         10.0 
       486.0         0.38          9.8 
       487.0         0.47          9.8 
       488.0         0.37         10.0 
       489.0         0.30          9.1 
       490.0         0.30          9.3 
       491.0         0.30          9.5 
       492.0         0.30          9.6 
       493.0         0.27          9.6 
       494.0         0.33          9.5 
       495.0         0.30          9.2 
       496.0         0.35          9.5 
       497.0         0.33          9.3 
       498.0         0.33          9.1 
       499.0         0.33         37.3 
       500.0         0.73        392.4 
       501.0         3.35         39.9 
       502.0         0.37          9.5 
       503.0         0.32          9.3 
       504.0         0.30          9.5 
       505.0         0.27          9.5 
       506.0         0.27          9.3 
       507.0         0.27         10.0 
       508.0         0.30          9.5 
       509.0         0.37          9.2 
       510.0         0.40          8.8 
       511.0         0.30          9.2 
       512.0         0.37          9.0 
       513.0         0.30          9.2 
       514.0         0.35         10.0 
       515.0         0.33         10.1 
       516.0         0.33         10.2 
       517.0         0.33          9.4 
       518.0         0.37         10.2 
       519.0         0.33         10.4 
       520.0         0.37         11.2 
       521.0         0.30         10.7 
       522.0         0.30         10.4 
       523.0         0.33         10.8 
       524.0         0.32         12.2 
       525.0         0.33         12.7 
       526.0         0.33         12.6 
       527.0         0.33         10.9 
       528.0         0.40         10.1 
       529.0         0.43          9.5 
       530.0         0.37          9.3 
       531.0         2.72         26.7 
       532.0         0.43         12.7 
       533.0         0.30         12.0 
       534.0         0.38         11.3 
       535.0         0.27         11.0 
       536.0         0.33          9.7 
       537.0         0.30         10.0 
       538.0         0.27         10.4 
       539.0         0.30         10.5 
       540.0         0.30         10.1 
       541.0         0.33          9.8 
       542.0         0.30          9.3 
       543.0         0.30          9.2 
       544.0         0.32          9.2 
       545.0         0.30          9.6 
       546.0         0.27         10.1 
       547.0         0.30         10.4 
       548.0         0.27          9.4 
       549.0         0.33          9.2 
       550.0         0.37          9.4 
       551.0         0.30          9.9 
       552.0         0.33          9.8 
       553.0         0.30         10.2 
       554.0         0.27          9.6 
       555.0         0.38          9.7 
       556.0         0.30          9.5 
       557.0         0.33          9.5 
       558.0         0.33          9.6 
       559.0         0.30          8.6 
       560.0         0.30          8.4 
       561.0         2.92         26.3 
       562.0         0.23         11.1 
       563.0         0.23         10.1 
       564.0         0.33         13.3 
       565.0         0.27         27.5 
       566.0         0.25         33.6 
       567.0         0.23         31.6 
