~Version Information
VERS.                      2.0: CWLS Log ASCII Standard - VERSION 2.0
WRAP.                       NO: One line per depth step
~Well Information Block
STRT.FT                -6.7500: 
STOP.FT              1661.0000: 
STEP.FT                 0.2500: 
NULL.                -999.2500: 
COMP.          Pioneer Natural Resources: COMPANY
WELL.           Pedri 42-33 Tr: WELL
FLD.           Purgatorie River: FIELD
LOC.           1933'' FNL & 662' FEL--: LOCATION
PROV.                       CO: PROVINCE
CNTY.               Las Animas: COUNTRY
SRVC.          Patterson Wireline: SERVICE COMPANY
DATE.          Tue Dec 27 08:53:52 2005: LOG DATE
UWI.           05 071 08640 00: UNIQUE WELL ID
~Curve Information Block
DEPT.FT            0 000 00 00: Depth
CCL.                          : Casing Collar Locator
TT3.usec                      : CBL 3' Travel Time
AMP3.mV                       : CBL 3' Amplitude
GR.GAPI                       : Gamma Ray
~Parameter Information Block
~A  Depth       CCL         TT3         AMP3         GR     
    -6.7500   -999.2500   -999.2500   -999.2500     89.4585
    -6.5000   -999.2500   -999.2500   -999.2500     85.0979
    -6.2500   -999.2500   -999.2500   -999.2500     81.6324
    -6.0000   -999.2500   -999.2500   -999.2500     81.1850
    -5.7500   -999.2500   -999.2500   -999.2500     84.2261
    -5.5000   -999.2500   -999.2500   -999.2500     89.0483
    -5.2500   -999.2500   -999.2500   -999.2500     92.9832
    -5.0000   -999.2500   -999.2500   -999.2500     94.2866
    -4.7500   -999.2500   -999.2500   -999.2500     92.9914
    -4.5000   -999.2500   -999.2500   -999.2500     90.1305
    -4.2500   -999.2500   -999.2500   -999.2500     86.7336
    -4.0000   -999.2500   -999.2500   -999.2500     83.9081
    -3.7500   -999.2500   -999.2500   -999.2500     83.1021
    -3.5000   -999.2500   -999.2500   -999.2500     85.2238
    -3.2500   -999.2500   -999.2500   -999.2500     89.6049
    -3.0000   -999.2500   -999.2500   -999.2500     94.4243
    -2.7500   -999.2500   -999.2500   -999.2500     98.0484
    -2.5000   -999.2500   -999.2500   -999.2500     99.7471
    -2.2500   -999.2500   -999.2500   -999.2500     99.5013
    -2.0000   -999.2500   -999.2500   -999.2500     97.6220
    -1.7500   -999.2500   1167.0000      0.9549     94.5889
    -1.5000   -999.2500   1167.0000      0.9434     91.1037
    -1.2500   -999.2500   1167.0000      0.9358     88.0685
    -1.0000   -999.2500   1167.0000      0.9347     86.1225
    -0.7500   -999.2500   1167.0000      0.9382     85.1859
    -0.5000   -999.2500   1167.0000      0.9430     84.7070
    -0.2500   -999.2500   1167.0000      0.9483     84.1243
     0.0000   -999.2500   1167.0000      0.9674     80.0367
     0.2500   -999.2500   1167.0000      0.9803     75.7495
     0.5000   -999.2500   1167.0000      0.9889     70.7134
     0.7500   -999.2500   1167.0000      0.9881     65.5792
     1.0000   -999.2500   1167.0000      0.9780     60.0333
     1.2500   -999.2500   1167.0000      0.9646     53.3628
     1.5000   -999.2500   1167.0000      0.9552     45.6131
     1.7500   -999.2500   1167.0000      0.9534     38.0577
     2.0000   -999.2500   1167.0000      0.9577     32.6933
     2.2500   -999.2500   1167.0000      0.9648     31.1671
     2.5000   -999.2500   1167.0000      0.9724     33.7819
     2.7500   -999.2500   1167.0000      0.9800     39.2284
     3.0000   -999.2500   1167.0000      0.9863     45.3115
     3.2500   -999.2500   1167.0000      0.9884     50.1591
     3.5000      0.0000   1167.0000      0.9848     53.0702
     3.7500      0.0000   1167.0000      0.9771     54.5887
     4.0000      0.0000   1167.0000      0.9695     55.8998
     4.2500      0.0000   1167.0000      0.9664     57.9243
     4.5000      0.0000   1167.0000      0.9698     60.6683
     4.7500      0.0000   1167.0000      0.9781     63.3953
     5.0000      0.0000   1167.0000      0.9878     65.6083
     5.2500      0.0000   1167.0000      0.9961     67.7911
     5.5000      0.0000   1167.0000      1.0022     70.8583
     5.7500      0.0000   1167.0000      1.0071     74.9161
     6.0000      0.0000   1167.0000      1.0125     78.9045
     6.2500      0.0000   1167.0000      1.0189     81.4432
     6.5000      0.0000   1166.9788      1.0268     81.8892
     6.7500      0.0000   1166.8008      1.0410     80.7832
     7.0000      0.0000   1165.8407      1.0809     79.4070
     7.2500      0.0000   1161.7561      1.2411     78.6024
     7.5000      0.0000   1148.0394      1.8496     78.0283
     7.7500      0.0000   1111.6378      3.7144     76.8633
     8.0000      0.0000   1035.2448      8.2006     74.9584
     8.2500      0.0000    908.4310     16.6507     72.9953
     8.5000      0.0000    741.9523     29.1206     71.8576
     8.7500      0.0000    569.2339     43.5453     72.0187
     9.0000      0.0000    427.7678     56.6316     73.2140
     9.2500      0.0000    336.4115     65.9520     74.5505
     9.5000      0.0000    289.9609     71.1813     75.2185
     9.7500      0.0000    271.3897     73.5207     75.1915
    10.0000      0.0000    265.5587     74.3900     74.9532
    10.2500      0.0000    264.1277     74.6942     74.4463
    10.5000      0.0000    263.8675     74.8350     72.7981
    10.7500      0.0000    263.8576     74.9586     69.5009
    11.0000      0.0000    263.8917     75.1071     65.4177
    11.2500      0.0000    263.9191     75.2667     61.9957
    11.5000      0.0000    263.9323     75.3892     59.8966
    11.7500      0.0000    263.9322     75.4231     58.8782
    12.0000      0.0000    263.9261     75.3218     58.3715
    12.2500      0.0000    263.9236     74.9963     57.7642
    12.5000      0.0000    263.9431     74.2240     56.9438
    12.7500      0.0000    264.0255     72.6183     56.7967
    13.0000      0.0000    264.2669     69.7755     58.2016
    13.2500      0.0000    264.8827     65.5455     60.3751
    13.5000      0.0000    266.3077     60.1806     61.3279
    13.7500      0.0000    269.2158     54.1999     60.2110
    14.0000      0.0000    274.2426     48.1189     58.1964
    14.2500      0.0000    281.4592     42.2920     56.7563
    14.5000      0.0000    290.1792     36.9141     55.9954
    14.7500      0.0000    299.5667     32.0643     55.0132
    15.0000      0.0000    309.4182     27.7419     53.2007
    15.2500      0.0000    320.1072     23.9192     50.6866
    15.5000      0.0000    331.8563     20.5925     48.0973
    15.7500      0.0000    344.3195     17.7874     46.4923
    16.0000      0.0000    356.6509     15.5312     47.0102
    16.2500      0.0000    367.6532     13.8326     49.7376
    16.5000      0.0000    376.1387     12.6679     53.1969
    16.7500      0.0000    381.5934     11.9612     55.6381
    17.0000      0.0000    384.4807     11.5839     56.6459
    17.2500      0.0000    385.7823     11.3901     57.0033
    17.5000      0.0000    386.3268     11.2629     57.3803
    17.7500      0.0000    386.5352     11.1412     57.7350
    18.0000      0.0000    386.5648     11.0175     57.7088
    18.2500      0.0000    386.4898     10.9137     56.9349
    18.5000      0.0000    386.3493     10.8478     55.0087
    18.7500      0.0000    386.1422     10.8158     51.9639
    19.0000      0.0000    385.8556     10.7994     49.0110
    19.2500      0.0000    385.5098     10.7849     47.9367
    19.5000      0.0000    385.1579     10.7704     49.3663
    19.7500      0.0000    384.8570     10.7604     52.1573
    20.0000      0.0000    384.6527     10.7603     54.6829
    20.2500      0.0000    384.5718     10.7768     56.0728
    20.5000      0.0000    384.6105     10.8143     56.2598
    20.7500      0.0000    384.7357     10.8686     55.7332
    21.0000      0.0000    384.9171     10.9270     55.3767
    21.2500      0.0000    385.1536     10.9750     55.9143
    21.5000      0.0000    385.4537     11.0035     57.4457
    21.7500      0.0000    385.8195     11.0093     59.6866
    22.0000      0.0000    386.3170     10.9899     62.1889
    22.2500      0.0000    387.5063     10.9411     63.9881
    22.5000      0.0000    391.4713     10.8624     63.7278
    22.7500      0.0000    403.3679     10.7620     60.9402
    23.0000      0.0000    431.7782     10.6510     56.8869
    23.2500      0.0000    484.7641     10.5346     53.5008
    23.5000      0.0000    561.7611     10.4114     51.8339
    23.7500      0.0000    648.8889     10.2800     51.9145
    24.0000      0.0000    725.5066     10.1427     53.3878
    24.2500      0.0000    777.3869     10.0019     55.5497
    24.5000      0.0000    803.3049      9.8566     57.3046
    24.7500      0.0000    810.6886      9.7042     57.9395
    25.0000      0.0000    808.1691      9.5472     57.9930
    25.2500      0.0000    802.0101      9.3945     59.1766
    25.5000      0.0000    795.9460      9.2555     63.5009
    25.7500      0.0000    791.7010      9.1322     72.2306
    26.0000      0.0000    789.5203      9.0199     84.8252
    26.2500      0.0000    788.9935      8.9161     98.3763
    26.5000      0.0000    789.6365      8.8268    108.7364
