~Version Information
VERS.                      2.0: CWLS Log ASCII Standard - VERSION 2.0
WRAP.                       NO: One line per depth step
~Well Information Block
STRT.FT                -7.7500: 
STOP.FT              2248.5000: 
STEP.FT                 0.2500: 
NULL.                -999.2500: 
COMP.          Pioneer Natural Resources: COMPANY
WELL.          Interceptor 43-13 Tr: WELL
FLD.           Purgatoire River: FIELD
LOC.           2006' FSL & 438' FEL--: LOCATION
PROV.                       CO: PROVINCE
CNTY.               Las Animas: COUNTRY
SRVC.          Patterson Wireline: SERVICE COMPANY
DATE.          Thu Nov 17 10:14:59 2005: LOG DATE
UWI.           05 071 08549 00: UNIQUE WELL ID
~Curve Information Block
DEPT.FT            0 000 00 00: Depth
CCL.                          : Casing Collar Locator
TT3.usec                      : CBL 3' Travel Time
AMP3.mV                       : CBL 3' Amplitude
GR.GAPI                       : Gamma Ray
~Parameter Information Block
~A  Depth       CCL         TT3         AMP3         GR     
# ...
   126.2500      0.0000    281.4850     83.0233    129.6351
   126.5000      0.0000    281.4791     83.0529    128.9776
   126.7500      0.0000    281.4779     83.0495    127.5569
   127.0000      0.0000    281.4799     83.0351    127.8464
   127.2500      0.0000    281.4828     83.0370    130.4378
   127.5000      0.0000    281.4841     83.0669    132.9271
   127.7500      0.0000    281.4833     83.1169    132.2560
   128.0000      0.0000    281.4820     83.1723    127.8549
   128.2500      0.0000    281.4814     83.2234    122.1939
   128.5000      0.0000    281.4808     83.2623    118.4759
   128.7500      0.0000    281.4790     83.2774    118.0521
   129.0000      0.0000    281.4762     83.2598    119.8745
   129.2500      0.0000    281.4733     83.2129    121.9030
   129.5000      0.0000    281.4702     83.1515    122.6267
   129.7500      0.0000    281.4644     83.0952    121.4750
   130.0000      0.0000    281.4542     83.0616    118.4593
   130.2500      0.0000    281.4418     83.0580    113.9394
   130.5000      0.0000    281.4333     83.0729    108.6903
   130.7500      0.0000    281.4329     83.0820    103.7481
   131.0000      0.0000    281.4395     83.0694     99.9692
   131.2500      0.0000    281.4487     83.0415     97.7702
   131.5000      0.0000    281.4570     83.0185     97.1259
   131.7500      0.0000    281.4638     83.0138     97.4869
   132.0000      0.0000    281.4702     83.0243     97.8645
   132.2500      0.0000    281.4766     83.0365     97.4411
   132.5000      0.0000    281.4820     83.0458     96.1856
   132.7500      0.0000    281.4853     83.0644     94.7849
   133.0000      0.0000    281.4858     83.1070     94.2155
   133.2500      0.0000    281.4842     83.1718     95.3885
   133.5000      0.0000    281.4819     83.2389     98.5861
   133.7500      0.0000    281.4799     83.2841    102.7855
   134.0000      0.0000    281.4784     83.2917    105.9040
   134.2500      0.0000    281.4773     83.2613    106.3361
   134.5000      0.0000    281.4772     83.2071    104.2039
   134.7500      0.0000    281.4783     83.1497    100.7916
   135.0000      0.0000    281.4805     83.1075     97.1289
   135.2500      0.0000    281.4825     83.0915     93.7210
   135.5000      0.0000    281.4837     83.0996     91.3349
   135.7500      0.0000    281.4853     83.1127     91.0307
   136.0000      0.0000    281.4894     83.1078     92.8870
   136.2500      0.0000    281.4960     83.0799     95.0816
   136.5000      0.0000    281.5029     83.0458     95.0400
   136.7500      0.0000    281.5080     83.0241     91.8101
   137.0000      0.0000    281.5113     83.0195     86.9495
   137.2500      0.0000    281.5141     83.0255     83.0785
   137.5000      0.0000    281.5176     83.0340     82.0800
   137.7500      0.0000    281.5226     83.0379     84.5974
   138.0000      0.0000    281.5289     83.0300     90.3864
   138.2500      0.0000    281.5350     83.0083     98.4461
   138.5000      0.0000    281.5384     82.9840    106.9534
   138.7500      0.0000    281.5377     82.9765    113.8465
   139.0000      0.0000    281.5340     82.9954    118.1105
   139.2500      0.0000    281.5293     83.0289    120.3898
   139.5000      0.0000    281.5242     83.0541    121.9569
   139.7500      0.0000    281.5197     83.0569    123.1576
   140.0000      0.0000    281.5173     83.0400    123.2366
   140.2500      0.0000    281.5183     83.0157    121.4576
   140.5000      0.0000    281.5212     82.9952    117.7870
   140.7500      0.0000    281.5238     82.9837    112.6499
   141.0000      0.0000    281.5253     82.9833    106.8032
   141.2500      0.0000    281.5262     82.9957    101.5321
   141.5000      0.0000    281.5272     83.0229     98.1427
   141.7500      0.0000    281.5266     83.0678     96.6427
   142.0000      0.0000    281.5227     83.1306     95.2323
   142.2500      0.0000    281.5151     83.1996     91.7171
   142.5000      0.0000    281.5059     83.2475     85.4876
   142.7500      0.0000    281.4979     83.2472     77.8968
   143.0000      0.0000    281.4934     83.1929     71.0019
   143.2500      0.0000    281.4933     83.1024     66.2451
   143.5000      0.0000    281.4975     83.0051     63.9334
   143.7500      0.0000    281.5045     82.9281     63.5353
   144.0000      0.0000    281.5118     82.8871     64.4537
   144.2500      0.0000    281.5164     82.8806     66.3684
   144.5000      0.0000    281.5165     82.8966     68.8675
   144.7500      0.0000    281.5121     82.9265     71.4593
   145.0000      0.0000    281.5058     82.9702     74.2021
   145.2500      0.0000    281.4997     83.0278     77.6876
   145.5000      0.0000    281.4935     83.0909     82.2083
   145.7500      0.0000    281.4858     83.1401     87.2686
   146.0000      0.0000    281.4781     83.1549     91.6805
   146.2500      0.0000    281.4744     83.1273     93.8330
   146.5000      0.0000    281.4772     83.0701     92.4515
   146.7500      0.0000    281.4857     83.0113     87.7355
   147.0000      0.0000    281.4967     82.9749     81.3633
   147.2500      0.0000    281.5074     82.9650     74.9180
   147.5000      0.0000    281.5169     82.9669     68.6864
   147.7500      0.0000    281.5249     82.9659     62.3672
   148.0000      0.0000    281.5307     82.9638     56.4366
   148.2500      0.0000    281.5326     82.9727     52.2040
   148.5000      0.0000    281.5287     82.9939     50.6042
   148.7500      0.0000    281.5184     83.0158     51.3782
   149.0000      0.0000    281.5027     83.0303     53.4708
   149.2500      0.0000    281.4833     83.0411     56.0005
   149.5000      0.0000    281.4628     83.0486     58.8462
   149.7500      0.0000    281.4442     83.0287     62.4715
   150.0000      0.0000    281.4335     82.8864     67.1366
   150.2500      0.0000    281.4486     82.3805     72.1306
   150.5000      0.0000    281.5396     81.0699     75.8464
   150.7500      0.0000    281.8105     78.4947     76.8633
   151.0000      0.0000    282.4044     74.6567     75.0470
   151.2500      0.0000    283.4146     70.3552     71.5761
   151.5000      0.0000    284.7648     66.7770     67.7964
   151.7500      0.0000    286.1884     64.6154     64.0430
   152.0000      0.0000    287.3717     63.7130     59.7671
   152.2500      0.0000    288.1460     63.4946     54.8172
   152.5000      0.0000    288.5455     63.4875     50.1700
   152.7500      0.0000    288.7092     63.4794     47.2217
   153.0000     -2.0000    288.7561     63.4618     46.6856
   153.2500      2.0000    288.7390     63.4962     48.2991
   153.5000      0.0000    288.6592     63.5827     51.1587
   153.7500      0.0000    288.4683     63.7033     54.0545
   154.0000      0.0000    288.0461     64.0626     55.9176
   154.2500      0.0000    287.2375     65.1831     56.5185
   154.5000      0.0000    285.9969     67.5439     56.6848
   154.7500      0.0000    284.5181     71.0694     57.5134
   155.0000      0.0000    283.1570     75.0305     59.3259
   155.2500      0.0000    282.1898     78.4919     61.4737
   155.5000      0.0000    281.6579     80.8789     62.9578
   155.7500      0.0000    281.4279     82.1929     62.9940
   156.0000      0.0000    281.3441     82.7907     61.2287
   156.2500      0.0000    281.3134     83.0381     57.9669
   156.5000      0.0000    281.3014     83.1405     54.2837
   156.7500      0.0000    281.2996     83.1738     51.6036
   157.0000      0.0000    281.3045     83.1715     50.9855
   157.2500      0.0000    281.3122     83.1612     52.6571
   157.5000      0.0000    281.3193     83.1621     55.8787
   157.7500      0.0000    281.3245     83.1792     59.0792
   158.0000      0.0000    281.3277     83.2117     60.3742
   158.2500      0.0000    281.3282     83.2583     58.5199
   158.5000      0.0000    281.3250     83.3120     53.8556
   158.7500      0.0000    281.3188     83.3545     48.3415
   159.0000      0.0000    281.3133     83.3611     44.2796
   159.2500      0.0000    281.3116     83.3171     42.7640
   159.5000      0.0000    281.3134     83.2323     43.3900
