~Version Information
VERS.                      2.0: CWLS Log ASCII Standard - VERSION 2.0
WRAP.                       NO: One line per depth step
~Well Information Block
STRT.FT                 0.0000: 
STOP.FT               712.5000: 
STEP.FT                 0.2500: 
NULL.                -999.2500: 
COMP.          Pioneer Natural Resources: COMPANY
WELL.                Mia 21-18: WELL
FLD.           Purgatorie River: FIELD
LOC.           1067' FNL & 1824' FWL: LOCATION
PROV.                 Colorado: PROVINCE
CNTY.               Las Animas: COUNTRY
SRVC.                Patterson: SERVICE COMPANY
DATE.          Mon Nov 28 13:12:22 2005: LOG DATE
UWI.           05-071-08559               : UNIQUE WELL ID
~Curve Information Block
DEPT.FT            0 000 00 00: Depth
CCL.                          : Casing Collar Locator
TT3.usec                      : CBL 3' Travel Time
AMP3.mV                       : CBL 3' Amplitude
GR.GAPI                       : Gamma Ray
~Parameter Information Block
~A  Depth       CCL         TT3         AMP3         GR     
# ...
   268.0000      0.0000    496.7319      8.7441     72.9358
   268.2500      0.0000    485.9037      8.9644     79.4678
   268.5000      0.0000    468.9345      9.2531     83.9752
   268.7500      0.0000    445.0687      9.5970     87.2958
   269.0000      0.0000    431.2040      9.9602     90.3607
   269.2500      0.0000    444.2476     10.2996     93.2428
   269.5000      0.0000    480.2758     10.5700     95.3389
   269.7500      0.0000    513.5969     10.7556     96.2990
   270.0000      0.0000    530.4273     10.8754     96.6196
   270.2500      0.0000    548.7857     10.9295     97.0885
   270.5000      0.0000    579.0582     10.8853     97.7300
   270.7500      0.0000    597.0746     10.7450     97.7518
   271.0000      0.0000    576.7713     10.5588     96.6143
   271.2500      0.0000    523.1182     10.3525     94.7724
   271.5000      0.0000    463.9379     10.1063     93.2801
   271.7500      0.0000    421.3680      9.8162     92.8151
   272.0000      0.0000    399.1134      9.5305     93.0272
   272.2500      0.0000    390.4770      9.3002     92.7736
   272.5000      0.0000    389.7848      9.1280     91.0894
   272.7500      0.0000    399.4691      9.0102     88.0259
   273.0000      0.0000    431.1237      8.9630     84.6986
   273.2500      0.0000    493.2556      8.9686     82.7150
   273.5000      0.0000    572.6871      8.9801     83.3969
   273.7500      0.0000    640.7767      8.9752     87.0330
   274.0000      0.0000    680.3531      8.9571     92.5706
   274.2500      0.0000    694.2599      8.9347     98.2585
   274.5000      0.0000    694.8204      8.9070    102.9455
   274.7500      0.0000    691.7812      8.8620    106.7530
   275.0000      0.0000    687.7679      8.8099    110.2924
   275.2500      0.0000    683.7886      8.7850    113.4475
   275.5000      0.0000    682.3312      8.7887    115.3435
   275.7500      0.0000    684.9014      8.7758    115.4627
   276.0000      0.0000    690.5232      8.7173    114.3701
   276.2500      0.0000    695.9603      8.6269    113.2391
   276.5000      0.0000    698.1251      8.5262    112.9565
   276.7500      0.0000    695.9789      8.4343    113.6813
   277.0000      0.0000    690.3653      8.3740    114.8809
   277.2500      0.0000    683.9967      8.3516    115.5392
   277.5000      0.0000    679.4417      8.3605    114.6119
   277.7500      0.0000    677.0355      8.4184    111.7334
   278.0000      0.0000    676.0258      8.5549    107.6382
   278.2500      0.0000    676.1585      8.7688    103.6847
   278.5000      0.0000    678.1070      9.0370    100.7537
   278.7500      0.0000    683.4872      9.3431     98.6159
   279.0000      0.0000    693.3547      9.6700     96.5322
   279.2500      0.0000    705.4450     10.0135     94.4207
   279.5000      0.0000    715.1073     10.4043     93.1914
   279.7500      0.0000    719.8580     10.8514     93.9368
   280.0000      0.0000    720.0423     11.3076     96.9602
   280.2500      0.0000    715.6592     11.7469    101.4915
   280.5000      0.0000    706.5229     12.2097    106.0307
   280.7500      0.0000    695.8514     12.7369    109.0187
   281.0000      0.0000    688.7305     13.3130    109.6311
   281.2500      0.0000    682.6161     13.8905    108.0511
   281.5000      0.0000    663.3557     14.4293    104.8494
   281.7500      0.0000    623.9314     14.8887    100.3119
   282.0000      0.0000    586.3205     15.2182     94.5104
   282.2500      0.0000    578.8303     15.4011     87.5916
   282.5000      0.0000    593.9901     15.4716     79.8472
   282.7500      0.0000    594.4993     15.4774     71.9310
   283.0000      0.0000    556.1134     15.4616     65.0658
   283.2500      0.0000    499.4386     15.4523     60.6526
   283.5000      0.0000    476.6533     15.4372     59.5401
   283.7500      0.0000    517.7972     15.3796     61.5730
   284.0000      0.0000    598.1597     15.2836     65.5983
   284.2500      0.0000    666.8625     15.2048     70.0395
   284.5000      0.0000    694.6243     15.1641     73.8757
   284.7500      0.0000    682.2206     15.1000     77.1635
   285.0000      0.0000    649.7318     14.9411     80.5666
   285.2500      0.0000    632.3047     14.6871     84.5315
   285.5000      0.0000    650.8647     14.4065     88.9102
   285.7500      0.0000    686.6096     14.1765     93.0360
   286.0000      0.0000    711.6443     14.0256     95.9268
   286.2500      0.0000    720.9366     13.9322     96.5965
   286.5000      0.0000    722.6204     13.8813     94.6493
   286.7500      0.0000    722.4869     13.9017     90.8010
   287.0000      0.0000    722.3017     14.0342     86.5694
   287.2500      0.0000    722.2874     14.2685     83.3226
   287.5000      0.0000    722.3356     14.5272     81.7116
   287.7500      0.0000    722.3315     14.7336     81.8874
   288.0000      0.0000    722.2476     14.8673     83.8482
   288.2500      0.0000    722.1180     14.9324     87.2775
   288.5000      0.0000    721.9839     14.9201     91.1824
   288.7500      0.0000    721.8828     14.8188     94.1535
   289.0000      0.0000    721.8386     14.6273     95.3396
   289.2500      0.0000    721.6697     14.3495     95.1995
   289.5000      0.0000    720.5858     13.9943     95.2545
   289.7500      0.0000    717.4191     13.5956     97.1033
   290.0000      0.0000    712.7399     13.2196    101.4565
   290.2500      0.0000    709.9557     12.9335    107.6394
   290.5000      0.0000    710.4349     12.7745    113.7494
   290.7500      0.0000    709.0963     12.7246    117.5483
   291.0000      0.0000    700.6564     12.7024    117.6835
   291.2500      0.0000    689.2306     12.6244    114.3405
   291.5000      0.0000    685.3581     12.4768    108.8435
   291.7500      0.0000    691.6016     12.2920    102.8268
   292.0000      0.0000    700.0232     12.1103     97.7239
   292.2500      0.0000    705.9490     11.9907     94.6351
   292.5000      0.0000    711.4373     11.9872     94.3188
   292.7500      0.0000    716.8453     12.1260     97.0410
   293.0000      0.0000    720.2911     12.4101    102.2741
   293.2500      0.0000    721.6646     12.7664    108.7535
   293.5000      0.0000    722.0720     13.0166    115.2876
   293.7500      0.0000    722.1454     13.0029    121.5726
   294.0000      0.0000    722.0341     12.7271    127.8701
   294.2500      0.0000    721.6710     12.3135    133.7123
   294.5000      0.0000    720.4812     11.8749    137.4037
   294.7500      0.0000    717.4910     11.4514    137.4139
   295.0000      0.0000    713.2589     11.0414    134.0643
   295.2500      0.0000    711.0415     10.6542    129.2523
   295.5000      0.0000    712.5229     10.3175    124.6610
   295.7500      0.0000    714.2263     10.0346    120.7674
   296.0000      0.0000    713.1301      9.7863    117.2229
   296.2500      0.0000    711.8891      9.5835    113.4524
   296.5000      0.0000    712.9418      9.4128    108.9432
   296.7500      0.0000    711.6996      9.1310    103.6525
   297.0000      0.0000    701.3334      8.6106     98.5723
   297.2500      0.0000    683.1447      8.0778     95.7104
   297.5000      0.0000    670.4878      7.9212     96.8939
   297.7500      0.0000    680.4908      7.9952    102.0813
   298.0000      0.0000    716.0016      7.8403    108.9645
   298.2500      0.0000    756.5279      7.5224    114.6295
   298.5000      0.0000    778.0970      7.3639    117.6764
   298.7500      2.0000    777.2726      7.3488    118.7209
   299.0000      2.0000    764.9207      7.3209    119.3091
   299.2500     -2.0000    752.9831      7.2401    120.5633
   299.5000      0.0000    748.1772      7.1308    122.5187
   299.7500      0.0000    738.9348      7.0844    124.5397
   300.0000      0.0000    704.4302      7.3351    126.2496
   300.2500      0.0000    652.3314      8.0454    127.7788
   300.5000      0.0000    624.0566      8.9102    129.2605
   300.7500      0.0000    642.5231      9.5301    130.6269
   301.0000      0.0000    682.1245     10.0639    131.9499
   301.2500      0.0000    709.9250     10.7801    133.5057
