~Version Information
VERS.                      2.0: CWLS Log ASCII Standard - VERSION 2.0
WRAP.                       NO: One line per depth step
~Well Information Block
STRT.FT               -10.2500: 
STOP.FT              2871.7500: 
STEP.FT                 0.2500: 
NULL.                -999.2500: 
COMP.          Pioneer Natural Resources: COMPANY
WELL.          Grey Goose 33-30: WELL
FLD.           Purgatorie River: FIELD
LOC.           2136' FSL & 2065' FEL--: LOCATION
STAT.                       CO: State
CNTY.               Las Animas: COUNTY
CTRY. USA : Country
SECT. 30  : Section
TOWN. 32S : Township
RANG. 67W : Range
SRVC.          Patterson Wireline: SERVICE COMPANY
DATE.          Tue Dec 06 12:24:57 2005: LOG DATE
API.            05 071 0854600: UNIQUE WELL ID
~Curve Information Block
DEPT.FT            0 000 00 00: Depth
CCL.                          : Casing Collar Locator
TT3.usec                      : CBL 3' Travel Time
AMP3.mV                       : CBL 3' Amplitude
GR.GAPI                       : Gamma Ray
~Parameter Information Block
~A  Depth       CCL         TT3         AMP3         GR     
# ...
   559.2500      0.0000    685.3165      6.9100    118.3001
   559.5000      0.0000    676.3647      6.6174    108.1926
   559.7500      0.0000    670.7373      6.2742     99.7395
   560.0000      0.0000    672.5975      5.9788     94.6536
   560.2500      0.0000    683.1351      5.8396     92.4718
   560.5000      0.0000    698.5354      5.9184     91.2498
   560.7500      0.0000    712.1221      6.1883     89.1772
   561.0000      0.0000    720.2126      6.5514     85.8588
   561.2500      2.0000    725.7891      6.9056     82.2575
   561.5000     -2.0000    735.0483      7.1988     79.5734
   561.7500      0.0000    750.2410      7.4315     78.1928
   562.0000      0.0000    767.0689      7.6483     77.4822
   562.2500      0.0000    779.2367      7.9534     76.4732
   562.5000      0.0000    783.9498      8.4877     74.8164
   562.7500      0.0000    781.6566      9.2976     73.1545
   563.0000      0.0000    772.5269     10.2198     72.5832
   563.2500      0.0000    756.8435     10.9748     73.5840
   563.5000      0.0000    738.0546     11.3947     75.3434
   563.7500      0.0000    721.7577     11.5214     76.3763
   564.0000      0.0000    711.3226     11.5098     75.9484
   564.2500      0.0000    706.2736     11.4901     74.6311
   564.5000      0.0000    704.3308     11.5102     73.5517
   564.7500      0.0000    703.6290     11.5503     73.6582
   565.0000      0.0000    703.2610     11.5653     75.5420
   565.2500      0.0000    702.9559     11.5204     79.2201
   565.5000      0.0000    702.7442     11.4079     83.9227
   565.7500      0.0000    702.8459     11.2463     88.5323
   566.0000      0.0000    703.7720     11.0744     92.3996
   566.2500      0.0000    706.3185     10.9385     95.7260
   566.5000      0.0000    711.1447     10.8739     99.3176
   566.7500      0.0000    717.9237     10.8859    104.1208
   567.0000      0.0000    724.9304     10.9462    110.6556
   567.2500      0.0000    729.9691     11.0149    118.2633
   567.5000      0.0000    731.9313     11.0704    125.0628
   567.7500      0.0000    731.1523     11.1189    129.4461
   568.0000      0.0000    728.3718     11.1763    131.7402
   568.2500      0.0000    724.1913     11.2472    133.8056
   568.5000      0.0000    719.6998     11.3209    136.8608
   568.7500      0.0000    716.5469     11.3866    140.1653
   569.0000      0.0000    715.7730     11.4451    141.8673
   569.2500      0.0000    717.2177     11.5031    140.7505
   569.5000      0.0000    720.3821     11.5545    137.2281
   569.7500      0.0000    724.9958     11.5786    133.2021
   570.0000      0.0000    730.2442     11.5631    131.0123
   570.2500      0.0000    734.2878     11.5257    132.0175
   570.5000      0.0000    735.3687     11.5042    135.7269
   570.7500      0.0000    733.2124     11.5277    140.1345
   571.0000      0.0000    729.0878     11.5963    143.0834
   571.2500      0.0000    724.7528     11.6842    143.6893
   571.5000      0.0000    721.4589     11.7548    142.7096
   571.7500      0.0000    719.5550     11.7771    141.6131
   572.0000      0.0000    718.6171     11.7388    141.3561
   572.2500      0.0000    717.9382     11.6515    142.0425
   572.5000      0.0000    716.9024     11.5417    143.4076
   572.7500      0.0000    715.0891     11.4338    145.1109
   573.0000      0.0000    712.6085     11.3415    146.4590
   573.2500      0.0000    710.5452     11.2689    146.3518
   573.5000      0.0000    710.6427     11.2114    144.0675
   573.7500      0.0000    714.1791     11.1556    140.0648
   574.0000      0.0000    720.8976     11.0828    135.6229
   574.2500      0.0000    728.8169     10.9758    131.7051
   574.5000      0.0000    735.1128     10.8233    128.4907
   574.7500      0.0000    737.5135     10.6261    125.9812
   575.0000      0.0000    735.3667     10.4081    124.6778
   575.2500      0.0000    730.0701     10.2151    125.3206
   575.5000      0.0000    724.7938     10.0911    127.8707
   575.7500      0.0000    723.1451     10.0493    130.9967
   576.0000      0.0000    727.2071     10.0659    133.1222
   576.2500      0.0000    736.3953     10.0978    134.2635
   576.5000      0.0000    747.8279     10.1068    136.2575
   576.7500      0.0000    757.5739     10.0724    140.3095
   577.0000      0.0000    762.3433      9.9956    144.6582
   577.2500      0.0000    761.3172      9.8980    146.0857
   577.5000      0.0000    756.6298      9.8109    144.0237
   577.7500      0.0000    751.5594      9.7595    141.7834
   578.0000      0.0000    748.3122      9.7488    143.1775
   578.2500      0.0000    747.7317      9.7611    148.8387
   578.5000      0.0000    750.6704      9.7681    155.9072
   578.7500      0.0000    758.9904      9.7481    160.2302
   579.0000      0.0000    774.6578      9.6960    158.8141
   579.2500      0.0000    797.2844      9.6197    151.2737
   579.5000      0.0000    822.6118      9.5276    139.7048
   579.7500      0.0000    844.2819      9.4209    127.2721
   580.0000      0.0000    857.5585      9.2949    116.6329
   580.2500      0.0000    861.3121      9.1484    108.9501
   580.5000      0.0000    857.3067      8.9903    103.8003
   580.7500      0.0000    848.7996      8.8331    100.0502
   581.0000      0.0000    839.3616      8.6843     97.0648
   581.2500      0.0000    831.3592      8.5479     95.0858
   581.5000      0.0000    825.0519      8.4301     94.5732
   581.7500      0.0000    819.6525      8.3364     95.4738
   582.0000      0.0000    815.0634      8.2650     97.1834
   582.2500      0.0000    811.9333      8.2106     99.1361
   582.5000      0.0000    810.6826      8.1764    101.5002
   582.7500      0.0000    811.5557      8.1761    105.3632
   583.0000      0.0000    815.2420      8.2214    111.9663
   583.2500      0.0000    821.8472      8.3077    121.3545
   583.5000      0.0000    829.1174      8.4137    131.6455
   583.7500      0.0000    833.6645      8.5150    139.8842
   584.0000      0.0000    835.0506      8.5962    144.1992
   584.2500      0.0000    836.9250      8.6515    145.2891
   584.5000      0.0000    842.4684      8.6793    145.3993
   584.7500      0.0000    850.0488      8.6805    145.7120
   585.0000      0.0000    854.9241      8.6606    145.1294
   585.2500      0.0000    854.1815      8.6308    141.7657
   585.5000      0.0000    848.7026      8.6036    135.5563
   585.7500      0.0000    840.8970      8.5856    129.2313
   586.0000      0.0000    831.6627      8.5764    126.3160
   586.2500      0.0000    819.9404      8.5765    128.0061
   586.5000      0.0000    805.5126      8.5931    132.4626
   586.7500      0.0000    792.1221      8.6351    137.0807
   587.0000      0.0000    786.2542      8.7037    140.4181
   587.2500      0.0000    790.7595      8.7895    141.8354
   587.5000      0.0000    800.2672      8.8766    140.7627
   587.7500      0.0000    805.3298      8.9493    137.2499
   588.0000      0.0000    801.0547      8.9978    132.4724
   588.2500      0.0000    789.6917      9.0227    127.5918
   588.5000      0.0000    776.0688      9.0353    122.1230
   588.7500      0.0000    763.9644      9.0499    114.1488
   589.0000      0.0000    756.2185      9.0746    102.5691
   589.2500      0.0000    754.3053      9.1085     88.8511
   589.5000      0.0000    756.3671      9.1451     76.2987
   589.7500      0.0000    757.4034      9.1765     67.9693
   590.0000      0.0000    752.8116      9.1985     65.6976
   590.2500      0.0000    741.9639      9.2128     70.5560
   590.5000      0.0000    728.3525      9.2241     83.1577
   590.7500      0.0000    716.4710      9.2336    103.0091
   591.0000      0.0000    708.6944      9.2412    127.5408
   591.2500      0.0000    704.7250      9.2547    151.7841
   591.5000      0.0000    703.0638      9.2928    169.7818
   591.7500      0.0000    702.4526      9.3741    177.8892
   592.0000      0.0000    702.2898      9.4950    177.2173
   592.2500      0.0000    702.3748      9.6203    172.4049
   592.5000      0.0000    702.5984      9.7038    168.0885
