~Version Information
VERS.                      2.0: CWLS Log ASCII Standard - VERSION 2.0
WRAP.                       NO: One line per depth step
~Well Information Block
STRT.FT               370.0000: 
STOP.FT              2832.5000: 
STEP.FT                 0.1000: 
NULL.                -999.2500: 
COMP.          Pioneer Natural Resources: COMPANY
WELL.          Black Cat 13-32: WELL
FLD.           Purgatoire River: FIELD
LOC.           1865' FSL & 1120' FWL--: LOCATION
PROV.                 Colorado: PROVINCE
CNTY.               Las Animas: COUNTRY
SRVC.                Patterson: SERVICE COMPANY
DATE.          Sun Jul 31 08:38:44 2005: LOG DATE
UWI.           05 071 08450 00: UNIQUE WELL ID
~Curve Information Block
DEPT.FT            0 000 00 00: Depth
DCAL.in                       : CDL Caliper
DPOR.pu                       : CDL Density Porosity
NPOR.pu                       : Neutron Porosity
RHOB.g/cc                     : CDL Bulk Density
RHOC.g/cc                     : CDL Density Correction
GR.GAPI                       : Gamma Ray
~Parameter Information Block
~A  Depth       DCAL        DPOR        NPOR        RHOB        RHOC         GR     
# ...
  2510.8000      7.8984      7.3193     24.7462      2.5292      0.0599    133.0988
  2510.9000      7.8984      7.3388     24.6670      2.5289      0.0434    139.7504
  2511.0000      7.8968      6.6786     24.7640      2.5398      0.0386    144.9624
  2511.1000      7.8968      5.4010     24.4082      2.5609      0.0641    131.5160
  2511.2000      7.8968      4.8081     23.4443      2.5707      0.0872    101.1468
  2511.3000      7.8940      5.1209     22.5898      2.5655      0.0381     77.5981
  2511.4000      7.8940      5.1876     21.9095      2.5644      0.0557     72.1718
  2511.5000      7.8929      5.0917     21.1672      2.5660      0.0738     77.0337
  2511.6000      7.8929      5.6736     20.7989      2.5564      0.0379     79.1584
  2511.7000      7.8929      6.5461     20.8522      2.5420      0.0188     76.2645
  2511.8000      7.8943      6.9515     20.8822      2.5353      0.0195     81.9723
  2511.9000      7.8943      6.8052     20.6666      2.5377     -0.0055     99.1980
  2512.0000      7.8964      6.5444     20.1762      2.5420      0.0828    112.0831
  2512.1000      7.8964      6.4106     19.6359      2.5442      0.0178    110.3342
  2512.2000      7.8964      5.7848     19.5450      2.5546      0.0302     99.4191
  2512.3000      7.8964      4.4628     20.1520      2.5764      0.0654     89.7073
  2512.4000      7.8964      3.1386     20.9753      2.5982      0.0353     84.8812
  2512.5000      7.8949      2.3024     21.3474      2.6120      0.0433     85.8166
  2512.6000      7.8949      2.1385     20.9943      2.6147      0.0593     86.5591
  2512.7000      7.8949      2.7388     20.2427      2.6048      0.0712     80.2527
  2512.8000      7.8949      3.9455     19.8638      2.5849      0.0324     74.5486
  2512.9000      7.8949      5.4482     20.2887      2.5601      0.0420     76.0256
  2513.0000      7.8965      6.6801     21.2546      2.5398      0.0060     74.8955
  2513.1000      7.8965      6.9845     22.2006      2.5348      0.0160     67.9188
  2513.2000      7.8965      6.9065     22.7594      2.5360      0.0493     67.5629
  2513.3000      7.8990      7.7579     22.8948      2.5220      0.0317     78.3426
  2513.4000      7.8990      9.6044     23.1043      2.4915      0.0140     96.4701
  2513.5000      7.9005     11.0802     23.8192      2.4672     -0.0792    115.9981
  2513.6000      7.9005     11.5370     24.7051      2.4596      0.0071    124.5587
  2513.7000      7.9005     11.7726     25.2446      2.4558     -0.0166    119.3598
  2513.8000      7.9002     11.9732     25.4414      2.4524      0.0264    114.6938
  2513.9000      7.9002     11.8261     25.7726      2.4549     -0.0001    117.0124
  2514.0000      7.8992     11.6511     26.4629      2.4578      0.0464    115.8183
  2514.1000      7.8992     11.8947     26.9449      2.4537      0.0339    102.9108
  2514.2000      7.8992     12.2675     26.5554      2.4476      0.0161     87.8750
  2514.3000      7.8986     12.3523     25.9326      2.4462      0.0067     92.5519
  2514.4000      7.8986     12.4378     26.1421      2.4448      0.0391    122.0261
  2514.5000      7.8981     12.6475     26.9064      2.4413      0.0242    152.5334
  2514.6000      7.8981     12.5062     27.2810      2.4436      0.0010    166.2250
  2514.7000      7.8981     12.1805     27.1483      2.4490      0.0255    169.1241
  2514.8000      7.8961     12.5412     27.2549      2.4431      0.0612    165.4852
  2514.9000      7.8961     13.6640     27.7664      2.4245     -0.0146    159.4152
  2515.0000      7.8944     14.6389     28.0708      2.4085      0.0014    160.0417
  2515.1000      7.8944     14.9377     27.9328      2.4035      0.0066    157.9527
  2515.2000      7.8944     14.5285     27.7488      2.4103      0.0249    143.4084
  2515.3000      7.8947     13.5955     28.0220      2.4257      0.0126    131.8239
  2515.4000      7.8947     12.9412     28.4399      2.4365      0.0736    128.4340
  2515.5000      7.8958     13.3736     28.5463      2.4293      0.0419    123.5764
  2515.6000      7.8958     14.2245     28.6711      2.4153      0.0166    121.1656
  2515.7000      7.8958     13.9623     28.9526      2.4196     -0.0331    129.5834
  2515.8000      7.8975     12.6535     28.8782      2.4412      0.0826    148.7910
  2515.9000      7.8975     12.2065     28.2250      2.4486      0.0922    164.5101
  2516.0000      7.8993     13.1216     27.1918      2.4335      0.0333    164.8767
  2516.1000      7.8993     13.9927     26.0361      2.4191      0.0269    158.1294
  2516.2000      7.8993     14.1936     25.3784      2.4158      0.0510    153.8508
  2516.3000      7.8994     14.0330     25.8011      2.4185      0.0352    148.3797
  2516.4000      7.8994     13.5333     26.9628      2.4267      0.0300    138.5923
  2516.5000      7.8972     13.1078     27.8867      2.4337      0.0574    127.7641
  2516.6000      7.8972     13.5146     28.0329      2.4270      0.0484    122.3331
  2516.7000      7.8972     14.3501     27.4112      2.4132      0.0091    124.1570
  2516.8000      7.8961     14.6305     26.1587      2.4086      0.0394    127.0899
  2516.9000      7.8961     14.1477     24.7637      2.4166      0.0497    128.8257
  2517.0000      7.8980     13.0589     24.0863      2.4345      0.0759    138.5583
  2517.1000      7.8980     11.4919     24.6186      2.4604      0.0491    158.6740
  2517.2000      7.8980      9.9170     25.7914      2.4864      0.0370    167.9780
  2517.3000      7.8990      9.1527     26.5036      2.4990      0.0756    156.7347
  2517.4000      7.8990      9.0811     26.5411      2.5002      0.0266    143.9454
  2517.5000      7.8975      8.7196     26.2539      2.5061      0.0343    144.6141
  2517.6000      7.8975      8.6657     25.5472      2.5070      0.0263    146.5013
  2517.7000      7.8975     10.1739     24.7014      2.4821     -0.0165    138.6787
  2517.8000      7.8970     12.5352     24.1897      2.4432     -0.0393    136.2705
  2517.9000      7.8970     13.7700     23.9832      2.4228     -0.0308    145.4315
  2518.0000      7.8976     13.1382     23.7935      2.4332      0.0004    147.9358
  2518.1000      7.8976     11.8274     23.4646      2.4548      0.0167    132.9133
  2518.2000      7.8976     10.9372     23.2002      2.4695      0.0155    113.6958
  2518.3000      7.8973     10.0403     23.4102      2.4843      0.0640    105.0020
  2518.4000      7.8973      8.5655     23.8277      2.5087      0.0655    100.0493
  2518.5000      7.8957      7.1107     23.5072      2.5327      0.1130     92.7183
  2518.6000      7.8957      6.4197     22.6113      2.5441      0.0656     91.0708
  2518.7000      7.8957      6.5136     22.0948      2.5425      0.1053     92.2322
  2518.8000      7.8951      7.1457     22.2159      2.5321      0.0603     88.7436
  2518.9000      7.8951      7.9933     22.5721      2.5181      0.0732     86.2577
  2519.0000      7.8956      8.6262     22.7739      2.5077      0.0359     90.7504
  2519.1000      7.8956      8.5170     22.7997      2.5095      0.0643     98.6279
  2519.2000      7.8956      8.0743     22.6243      2.5168      0.0681    110.7627
  2519.3000      7.8956      8.3021     22.1905      2.5130      0.0601    126.7577
  2519.4000      7.8956      8.8308     21.5774      2.5043     -0.0025    128.9675
  2519.5000      7.8961      8.3097     20.6628      2.5129      0.0606    115.7660
  2519.6000      7.8961      6.8130     19.3700      2.5376      0.0690    103.9226
  2519.7000      7.8961      5.6290     18.1562      2.5571      0.0850     95.2804
  2519.8000      7.8971      5.1191     17.4247      2.5655      0.0410     82.2623
  2519.9000      7.8971      4.2824     17.1386      2.5793      0.0297     69.2146
  2520.0000      7.8976      2.4524     17.0722      2.6095      0.0378     66.0004
  2520.1000      7.8976      0.9806     17.0900      2.6338      0.1066     70.8485
  2520.2000      7.8976      1.7963     17.3654      2.6204      0.0672     76.0918
  2520.3000      7.8979      4.2821     17.9572      2.5793      0.0181     82.0798
