~Version Information
VERS.                      2.0: CWLS Log ASCII Standard - VERSION 2.0
WRAP.                       NO: One line per depth step
~Well Information Block
STRT.FT               340.0000: 
STOP.FT              2342.7000: 
STEP.FT                 0.1000: 
NULL.                -999.2500: 
COMP.          Pioneer Natural Resources: COMPANY
WELL.          Pinkerton 41-12: WELL
FLD.           Purgatoire River: FIELD
LOC.           1222' FNL & 670' FEL--: LOCATION
CNTY.               Las Animas: COUNTY
SRVC.                Patterson: SERVICE COMPANY
DATE.          Thu Mar 16 06:39:17 2006: LOG DATE
UWI.           05 071 08500 00: UNIQUE WELL ID
STAT.                 Colorado: STATE
~Curve Information Block
DEPT.FT            0 000 00 00: Depth
DCAL.in                       : CDL Caliper
RHOB.g/cc                     : CDL Bulk Density
RHOC.g/cc                     : CDL Density Correction
DPOR.pu                       : CDL Density Porosity
NPOR.pu                       : Neutron Porosity
GR.GAPI                       : Gamma Ray
~Parameter Information Block
~A  Depth       DCAL        RHOB        RHOC        DPOR        NPOR         GR     
# ...
  1520.8000      7.8402      2.5220      0.0194      7.7571     22.2233     51.9290
  1520.9000      7.8402      2.5075      0.0532      8.6387     21.8321     49.6177
  1521.0000      7.8336      2.4899      0.0206      9.7028     21.2239     52.9996
  1521.1000      7.8336      2.4810      0.0226     10.2455     20.8976     57.5614
  1521.2000      7.8336      2.4777      0.0230     10.4436     20.9241     57.9499
  1521.3000      7.8096      2.4722     -0.0024     10.7732     21.2541     54.9999
  1521.4000      7.8096      2.4673      0.0185     11.0749     21.6844     53.3261
  1521.5000      7.7881      2.4691      0.0296     10.9660     22.0663     52.7756
  1521.6000      7.7881      2.4836      0.0392     10.0855     22.5009     53.9666
  1521.7000      7.7881      2.5013      0.0729      9.0113     22.8963     57.6244
  1521.8000      7.7831      2.5022      0.0448      8.9578     22.9905     58.6354
  1521.9000      7.7831      2.4838      0.0453     10.0718     22.5877     54.4004
  1522.0000      7.7910      2.4529      0.0577     11.9467     21.8718     49.3097
  1522.1000      7.7910      2.4117     -0.0169     14.4399     21.4333     46.4030
  1522.2000      7.7910      2.3644      0.0244     17.3096     21.5622     44.3755
  1522.3000      7.7989      2.3159     -0.0109     20.2485     22.1425     42.5617
  1522.4000      7.7989      2.2777     -0.0282     22.5617     22.9486     42.5245
  1522.5000      7.7980      2.2603     -0.0197     23.6203     23.5012     43.4095
  1522.6000      7.7980      2.2570     -0.0092     23.8185     23.6260     43.6719
  1522.7000      7.7980      2.2472      0.0350     24.4104     23.9068     44.4006
  1522.8000      7.8010      2.2191      0.0010     26.1178     24.4319     44.9613
  1522.9000      7.8010      2.1847      0.0111     28.1974     24.6157     43.7627
  1523.0000      7.8214      2.1618      0.0478     29.5865     24.4930     41.7749
  1523.1000      7.8214      2.1618      0.0719     29.5898     24.5776     40.6632
  1523.2000      7.8214      2.1947      0.1171     27.5958     24.8965     40.8740
  1523.3000      7.8413      2.2602      0.1725     23.6216     24.9703     41.7210
  1523.4000      7.8413      2.3297      0.2431     19.4116     24.7967     43.3344
  1523.5000      7.8472      2.3659      0.2475     17.2159     24.8808     44.7913
  1523.6000      7.8472      2.3794      0.1699     16.3983     25.0190     42.8266
  1523.7000      7.8472      2.4137      0.2452     14.3182     24.5061     38.7323
  1523.8000      7.8471      2.4723      0.3153     10.7726     23.4927     36.7543
  1523.9000      7.8471      2.5248      0.3160      7.5907     22.8492     37.2876
  1524.0000      7.8500      2.5596      0.2791      5.4758     22.9963     37.5669
  1524.1000      7.8500      2.5759      0.3216      4.4908     23.4996     37.8090
  1524.2000      7.8500      2.5698      0.2755      4.8589     23.8207     41.9309
  1524.3000      7.8539      2.5595      0.1997      5.4860     23.8492     49.2270
  1524.4000      7.8539      2.5624      0.2139      5.3087     23.6886     54.7973
  1524.5000      7.8554      2.5670      0.1703      5.0284     23.4658     55.2247
  1524.6000      7.8554      2.5599      0.1515      5.4635     23.1697     50.6728
  1524.7000      7.8554      2.5459      0.0959      6.3102     22.7715     45.7809
  1524.8000      7.8566      2.5436      0.1006      6.4479     22.2494     44.3054
  1524.9000      7.8566      2.5598      0.1118      5.4672     21.7907     45.4546
  1525.0000      7.8614      2.5781      0.1283      4.3564     21.7226     47.7833
  1525.1000      7.8614      2.5812      0.1171      4.1681     22.0083     47.5185
  1525.2000      7.8614      2.5685      0.0927      4.9398     22.3562     43.2147
  1525.3000      7.8626      2.5512      0.1149      5.9850     22.4649     40.2902
  1525.4000      7.8626      2.5397      0.0865      6.6866     22.2726     42.5070
  1525.5000      7.8447      2.5292      0.1102      7.3195     22.3229     47.3772
  1525.6000      7.8447      2.5061      0.1116      8.7233     23.0442     51.2584
  1525.7000      7.8447      2.4789      0.0239     10.3717     23.8370     53.0800
  1525.8000      7.8173      2.4658      0.0475     11.1636     23.8038     51.0782
  1525.9000      7.8173      2.4588      0.0756     11.5854     22.9276     45.5232
  1526.0000      7.8027      2.4490      0.0249     12.1830     21.9047     41.8344
  1526.1000      7.8027      2.4516      0.0445     12.0267     21.4454     43.0731
  1526.2000      7.8027      2.4740      0.0447     10.6638     21.6991     45.8942
  1526.3000      7.8056      2.4958      0.0846      9.3485     22.3276     46.6320
  1526.4000      7.8056      2.4983      0.0479      9.1959     23.0337     45.3751
  1526.5000      7.8174      2.4880      0.0576      9.8187     23.4532     44.4966
  1526.6000      7.8174      2.4722      0.0851     10.7753     23.2763     44.4857
  1526.7000      7.8174      2.4543      0.0071     11.8601     22.6247     44.9815
  1526.8000      7.8219      2.4493     -0.0004     12.1641     22.0402     46.1047
  1526.9000      7.8219      2.4582      0.0335     11.6236     21.9387     46.3697
  1527.0000      7.8210      2.4620      0.0632     11.3910     22.2327     44.4257
  1527.1000      7.8210      2.4584      0.0340     11.6151     22.5579     41.4155
  1527.2000      7.8210      2.4619      0.0507     11.4025     22.5813     39.2155
  1527.3000      7.8274      2.4779      0.0382     10.4306     22.3939     39.1057
  1527.4000      7.8274      2.4986      0.0675      9.1746     22.2543     40.7162
  1527.5000      7.8348      2.5107      0.0902      8.4430     22.2328     43.3828
  1527.6000      7.8348      2.5121      0.0653      8.3605     22.4463     44.6627
  1527.7000      7.8348      2.5191      0.0460      7.9312     22.6425     42.2502
  1527.8000      7.8370      2.5358      0.0832      6.9217     22.4392     38.7159
  1527.9000      7.8370      2.5441      0.1052      6.4192     22.1979     37.5741
  1528.0000      7.8443      2.5392      0.0859      6.7176     22.1891     39.0335
  1528.1000      7.8443      2.5368      0.0727      6.8583     21.9824     39.4745
  1528.2000      7.8443      2.5482      0.0559      6.1723     21.5137     36.5910
  1528.3000      7.8526      2.5643      0.0945      5.1947     21.3207     34.7981
  1528.4000      7.8526      2.5705      0.0642      4.8171     21.5412     35.5895
  1528.5000      7.8426      2.5668      0.0401      5.0417     21.7310     34.8283
  1528.6000      7.8426      2.5576      0.0738      5.6028     21.5893     33.1054
  1528.7000      7.8426      2.5421      0.0477      6.5392     21.1965     32.7713
  1528.8000      7.8173      2.5246      0.0302      7.6014     20.7702     33.5480
  1528.9000      7.8173      2.5076      0.0378      8.6332     20.3501     35.6174
  1529.0000      7.8035      2.4854      0.0247      9.9769     19.9381     39.2570
  1529.1000      7.8035      2.4593      0.0145     11.5547     19.8996     42.4741
  1529.2000      7.8035      2.4447     -0.0236     12.4450     20.2789     44.1023
  1529.3000      7.8058      2.4528      0.0145     11.9497     20.5758     46.2796
  1529.4000      7.8058      2.4641      0.1101     11.2653     20.5960     49.8065
  1529.5000      7.8081      2.4553      0.0212     11.7995     20.5346     51.2428
  1529.6000      7.8081      2.4380      0.0437     12.8470     20.6741     49.5761
  1529.7000      7.8081      2.4294      0.0205     13.3679     21.0999     48.5486
  1529.8000      7.7941      2.4315      0.0611     13.2441     21.6019     48.8732
  1529.9000      7.7941      2.4417      0.0270     12.6220     21.9732     48.8651
  1530.0000      7.7693      2.4574      0.0748     11.6756     22.0569     47.6082
  1530.1000      7.7693      2.4711      0.1005     10.8403     21.8112     43.6400
  1530.2000      7.7693      2.4808      0.1326     10.2556     21.4757     41.1085
  1530.3000      7.7465      2.4913      0.1299      9.6198     21.4250     43.7310
