~Version Information
VERS.                      2.0: CWLS Log ASCII Standard - VERSION 2.0
WRAP.                       NO: One line per depth step
~Well Information Block
STRT.FT               294.3000: 
STOP.FT              1461.0000: 
STEP.FT                 0.1000: 
NULL.                -999.2500: 
COMP.          Pioneer Natural Resources: COMPANY
WELL.              Lucky 21-36: WELL
FLD.           Purgatoire River: FIELD
CDN. :
PROV. :
UWI. :
STAT. :
CNTY. :
CTRY. :
API. :
COMP. :
WELL. :
FLD. :
LOC. :
DATE. :
SRVC. :
LOC.           799' FNL & 1578' FWL--: LOCATION
CNTY.               Las Animas: COUNTY
SRVC.          Superior Well Services: SERVICE COMPANY
DATE.          Tue Jul 08 08-29-33 2008: LOG DATE
UWI.           05 071 08456 00: UNIQUE WELL ID
STAT.                 Colorado: STATE
~Curve Information Block
DEPT.FT            0 000 00 00: Depth
DCAL.in                       : CDL Caliper
RHOB.g/cc                     : CDL Bulk Density
RHOC.g/cc                     : CDL Density Correction
DPOR.pu                       : CDL Density Porosity
NPOR.pu                       : Neutron Porosity
GR.GAPI                       : Gamma Ray
~Parameter Information Block
~A  Depth       DCAL        RHOB        RHOC        DPOR        NPOR         GR     
# ...
  1273.5000      7.9271      2.3632      0.0999     17.3817     29.6946    117.9663
  1273.6000      7.9286      2.3622      0.0864     17.4445     29.3954    116.1940
  1273.7000      7.9298      2.3507      0.0665     18.1381     29.7403    113.6988
  1273.8000      7.9305      2.3361      0.0483     19.0263     30.1986    112.7362
  1273.9000      7.9304      2.3302      0.0260     19.3797     30.2604    112.3801
  1274.0000      7.9295      2.3326      0.0810     19.2369     30.1283    112.9659
  1274.1000      7.9282      2.3319      0.0290     19.2794     29.9714    116.7503
  1274.2000      7.9269      2.3311      0.0193     19.3285     29.8531    119.9200
  1274.3000      7.9260      2.3423     -0.0029     18.6502     29.7758    120.9614
  1274.4000      7.9257      2.3626      0.0589     17.4179     29.7673    122.5863
  1274.5000      7.9259      2.3705      0.0887     16.9402     29.9257    121.3228
  1274.6000      7.9262      2.3546      0.0701     17.9057     30.0322    112.7656
  1274.7000      7.9264      2.3285      0.0433     19.4834     29.7180    101.4536
  1274.8000      7.9264      2.3054      0.0508     20.8859     29.1121     98.8777
  1274.9000      7.9265      2.2877      0.0085     21.9554     28.6448    103.9237
  1275.0000      7.9264      2.2852      0.0005     22.1110     28.5500    109.3497
  1275.1000      7.9261      2.3019      0.0269     21.0953     28.7344    116.1955
  1275.2000      7.9256      2.3208      0.0618     19.9509     28.7685    119.5552
  1275.3000      7.9250      2.3297      0.0393     19.4104     28.3802    113.6808
  1275.4000      7.9244      2.3413      0.0298     18.7079     27.7997    102.1116
  1275.5000      7.9242      2.3659      0.0668     17.2176     27.2882     92.7193
  1275.6000      7.9244      2.3946      0.0711     15.4813     27.0599     90.6130
  1275.7000      7.9250      2.4168      0.0574     14.1315     27.1602     92.4260
  1275.8000      7.9260      2.4279      0.0549     13.4612     27.2192     92.4004
  1275.9000      7.9273      2.4272      0.0907     13.5051     27.0605     90.0045
  1276.0000      7.9285      2.4208      0.0388     13.8882     26.8697     89.3839
  1276.1000      7.9296      2.4169      0.0439     14.1300     26.8064     91.9419
  1276.2000      7.9303      2.4183      0.0192     14.0445     26.7537     93.7448
  1276.3000      7.9306      2.4292      0.0025     13.3807     26.6101     91.2684
  1276.4000      7.9304      2.4492      0.0552     12.1676     26.4550     86.2341
  1276.5000      7.9299      2.4603      0.0741     11.4976     26.3661     82.6235
  1276.6000      7.9291      2.4522      0.0250     11.9862     26.3119     83.5688
  1276.7000      7.9282      2.4456     -0.0005     12.3854     26.2031     85.5289
  1276.8000      7.9276      2.4521      0.0568     11.9921     25.9147     83.1222
  1276.9000      7.9276      2.4553      0.0578     11.8009     25.5644     79.4281
  1277.0000      7.9283      2.4548      0.0306     11.8297     25.4206     76.8857
  1277.1000      7.9299      2.4674      0.0216     11.0683     25.1737     75.7824
  1277.2000      7.9318      2.4920      0.0614      9.5764     24.3715     78.9541
  1277.3000      7.9334      2.5171      0.0547      8.0557     23.3442     83.8089
  1277.4000      7.9341      2.5364      0.0942      6.8867     22.7904     85.3585
  1277.5000      7.9338      2.5413      0.0862      6.5875     22.8134     87.4293
  1277.6000      7.9328      2.5318      0.0820      7.1624     22.9140     90.5187
  1277.7000      7.9318      2.5273      0.0307      7.4350     22.5474     87.9492
  1277.8000      7.9313      2.5382      0.0715      6.7735     21.7076     84.3612
  1277.9000      7.9316      2.5518      0.0536      5.9501     20.9785     85.3907
  1278.0000      7.9326      2.5655      0.0379      5.1238     20.6638     86.4561
  1278.1000      7.9342      2.5821      0.0880      4.1149     20.5488     85.4260
  1278.2000      7.9362      2.5974      0.0259      3.1905     20.5432     82.9043
  1278.3000      7.9384      2.6116      0.0435      2.3286     20.8507     77.6953
  1278.4000      7.9408      2.6171      0.0972      1.9968     21.5505     69.7781
  1278.5000      7.9430      2.6028      0.0554      2.8626     22.1698     65.4851
  1278.6000      7.9445      2.5756      0.0433      4.5075     22.3556     67.9403
  1278.7000      7.9451      2.5527      0.0343      5.8981     22.4613     70.7385
  1278.8000      7.9447      2.5485      0.0150      6.1503     22.6770     69.5250
  1278.9000      7.9435      2.5604      0.0223      5.4286     22.8313     66.2780
  1279.0000      7.9418      2.5657      0.0701      5.1106     23.3163     64.9544
  1279.1000      7.9404      2.5483      0.0620      6.1634     24.5217     66.3477
  1279.2000      7.9394      2.5227     -0.0050      7.7148     25.9672     66.0171
  1279.3000      7.9392      2.5069      0.0279      8.6754     27.0801     61.0943
  1279.4000      7.9399      2.4927      0.0458      9.5311     27.7762     56.0182
  1279.5000      7.9410      2.4687      0.0362     10.9888     28.1913     57.4338
  1279.6000      7.9424      2.4337      0.0518     13.1109     28.4337     66.9687
  1279.7000      7.9436      2.3810      0.0473     16.3037     28.7095     79.4027
  1279.8000      7.9445      2.3039      0.0148     20.9742     29.4003     85.4419
  1279.9000      7.9453      2.2167     -0.0525     26.2603     30.4739     81.5622
  1280.0000      7.9466      2.1481     -0.0895     30.4193     31.2059     75.0901
  1280.1000      7.9489      2.1178     -0.0914     32.2558     31.1885     73.6446
  1280.2000      7.9524      2.1208     -0.0330     32.0752     30.9915     78.3956
  1280.3000      7.9571      2.1367     -0.0053     31.1080     31.0692     85.8931
  1280.4000      7.9624      2.1490      0.0326     30.3637     31.1417     93.6812
  1280.5000      7.9676      2.1499      0.0772     30.3115     31.0932    102.5049
  1280.6000      7.9721      2.1441      0.0993     30.6614     31.3087    111.3406
  1280.7000      7.9754      2.1434      0.1211     30.7016     31.7815    117.0390
  1280.8000      7.9774      2.1506      0.1018     30.2684     32.1338    119.7894
  1280.9000      7.9786      2.1525      0.0589     30.1537     32.3858    122.1587
  1281.0000      7.9798      2.1280      0.0429     31.6357     32.7444    119.8241
  1281.1000      7.9817      2.0688     -0.0345     35.2270     33.0416    108.3677
  1281.2000      7.9851      1.9881     -0.0033     40.1149     32.9747     99.5147
  1281.3000      7.9902      1.9038     -0.0493     45.2217     32.7308    104.6486
  1281.4000      7.9966      1.8331     -0.0787     49.5120     32.8064    111.8045
  1281.5000      8.0039      1.7901     -0.0489     52.1138     33.0374    107.6981
  1281.6000      8.0116      1.7716      0.0107     53.2362     32.9352     97.4740
  1281.7000      8.0193      1.7584     -0.0024     54.0375     32.6440     89.4812
  1281.8000      8.0269      1.7452     -0.0124     54.8341     32.3893     86.1503
  1281.9000      8.0347      1.7503     -0.0070     54.5297     32.1270     84.5978
  1282.0000      8.0433      1.7864      0.0783     52.3375     31.8770     83.3991
  1282.1000      8.0535      1.8492      0.0969     48.5327     31.5981     86.4144
  1282.2000      8.0661      1.9274      0.1897     43.7940     31.1823     92.2810
  1282.3000      8.0806      2.0067      0.2228     38.9898     30.6740     94.4604
  1282.4000      8.0941      2.0791      0.2065     34.5980     30.2616     93.2413
  1282.5000      8.1012      2.1433      0.2108     30.7097     29.9937     94.1200
  1282.6000      8.0954      2.1994      0.1879     27.3067     29.6805    100.6876
  1282.7000      8.0716      2.2528      0.2158     24.0753     29.2025    112.0956
  1282.8000      8.0290      2.3065      0.1531     20.8153     28.7467    122.5660
  1282.9000      7.9720      2.3570      0.1430     17.7589     28.5889    126.3596
  1283.0000      7.9090      2.3967      0.1770     15.3526     28.4765    122.7428
