~Version Information
VERS.                      2.0: CWLS Log ASCII Standard - VERSION 2.0
WRAP.                       NO: One line per depth step
~Well Information Block
STRT.FT               620.0000: 
STOP.FT              3067.2000: 
STEP.FT                 0.1000: 
NULL.                -999.2500: 
COMP.          Pioneer Natural Resources: COMPANY
WELL.          Interceptor 43-13 Kv: WELL
FLD.           Purgatoire River: FIELD
LOC.           2073' FSL & 519' FEL--: LOCATION
PROV.                 Colorado: PROVINCE
CNTY.               Las Animas: COUNTRY
SRVC.                Patterson: SERVICE COMPANY
DATE.          Sat Jan 14 20:27:27 2006: LOG DATE
UWI.           05 071 08655 00: UNIQUE WELL ID
~Curve Information Block
DEPT.FT            0 000 00 00: Depth
DCAL.in                       : CDL Caliper
RHOB.g/cc                     : CDL Bulk Density
RHOC.g/cc                     : CDL Density Correction
DPOR.pu                       : CDL Density Porosity
NPOR.pu                       : Neutron Porosity
GR.GAPI                       : Gamma Ray
~Parameter Information Block
~A  Depth       DCAL        RHOB        RHOC        DPOR        NPOR         GR     
# ...
  1906.4000      8.0162      2.7009      0.0580     -3.0852     25.0964    127.7608
  1906.5000      8.0200      2.6874      0.0920     -2.2654     25.3130    127.5621
  1906.6000      8.0200      2.6730      0.0829     -1.3926     25.3595    123.0449
  1906.7000      8.0200      2.6637      0.0615     -0.8313     24.9587    119.8260
  1906.8000      8.0200      2.6597      0.0375     -0.5872     24.8022    119.9390
  1906.9000      8.0200      2.6512      0.0701     -0.0757     25.1971    119.0763
  1907.0000      8.0160      2.6297      0.0558      1.2328     25.5443    115.5784
  1907.1000      8.0160      2.6037      0.0277      2.8034     25.7656    111.7129
  1907.2000      8.0160      2.5885      0.0302      3.7271     26.0705    112.4494
  1907.3000      8.0094      2.5832      0.0254      4.0503     26.2088    117.4362
  1907.4000      8.0094      2.5823      0.0290      4.1018     26.2121    122.3514
  1907.5000      8.0045      2.5873      0.0184      3.7990     26.1833    128.8338
  1907.6000      8.0045      2.6007      0.0213      2.9898     25.8906    135.3448
  1907.7000      8.0045      2.6142      0.0405      2.1679     25.4630    137.5806
  1907.8000      8.0030      2.6120      0.0506      2.3051     25.5219    137.4196
  1907.9000      8.0030      2.5926      0.0217      3.4779     26.1462    139.3056
  1908.0000      8.0039      2.5716      0.0064      4.7543     26.4968    143.5768
  1908.1000      8.0039      2.5593      0.0198      5.4969     26.1512    145.2001
  1908.2000      8.0039      2.5541      0.0198      5.8126     25.7265    139.4036
  1908.3000      8.0063      2.5540      0.0212      5.8188     25.8966    126.8199
  1908.4000      8.0063      2.5634      0.0235      5.2468     26.6293    115.7136
  1908.5000      8.0092      2.5782      0.0664      4.3527     27.5596    113.2605
  1908.6000      8.0092      2.5794      0.0406      4.2806     28.5025    117.0973
  1908.7000      8.0092      2.5689     -0.0181      4.9168     29.0035    122.2774
  1908.8000      8.0087      2.5671      0.0366      5.0244     28.6245    129.0918
  1908.9000      8.0087      2.5677      0.0396      4.9884     27.7330    136.8486
  1909.0000      8.0046      2.5534      0.0430      5.8524     27.2049    140.1718
  1909.1000      8.0046      2.5306     -0.0128      7.2383     27.4021    139.8306
  1909.2000      8.0046      2.5156      0.0118      8.1435     27.7689    140.3876
  1909.3000      8.0013      2.5085      0.0111      8.5729     27.8448    142.3232
  1909.4000      8.0013      2.5032     -0.0084      8.8996     27.8758    145.1997
  1909.5000      8.0003      2.5018     -0.0090      8.9810     28.1410    147.0852
  1909.6000      8.0003      2.4966      0.0254      9.2968     28.5382    143.7388
  1909.7000      8.0003      2.4658      0.0269     11.1610     28.8870    136.5411
  1909.8000      8.0007      2.4040      0.0195     14.9062     29.1163    131.0881
  1909.9000      8.0007      2.3326     -0.0719     19.2375     29.3927    127.6433
  1910.0000      8.0026      2.2727     -0.0432     22.8680     29.8473    124.2163
  1910.1000      8.0026      2.2293     -0.0287     25.4963     30.2153    120.6371
  1910.2000      8.0026      2.2119     -0.0198     26.5531     30.2124    116.9624
  1910.3000      8.0058      2.2301      0.0158     25.4505     29.9019    112.9378
  1910.4000      8.0058      2.2715      0.0465     22.9417     29.6496    109.2015
  1910.5000      8.0087      2.3108      0.1378     20.5548     29.3819    103.8761
  1910.6000      8.0087      2.3441      0.0769     18.5366     28.8548     91.5991
  1910.7000      8.0087      2.3877      0.1721     15.8982     28.4062     72.7143
  1910.8000      8.0133      2.4407      0.1695     12.6843     28.3950     56.5186
  1910.9000      8.0133      2.4853      0.2214      9.9823     28.8030     49.2016
  1911.0000      8.0239      2.4951      0.1923      9.3878     29.2538     48.0034
  1911.1000      8.0239      2.4470      0.1326     12.3030     29.3811     47.7083
  1911.2000      8.0239      2.3478     -0.0431     18.3164     29.2685     43.3972
  1911.3000      8.0437      2.2244     -0.0887     25.7927     29.2534     35.2122
  1911.4000      8.0437      2.1028     -0.1523     33.1618     29.5970     29.8219
  1911.5000      8.0633      2.0084     -0.1854     38.8820     30.0573     32.1565
  1911.6000      8.0633      1.9399     -0.1464     43.0342     30.1650     38.6016
  1911.7000      8.0633      1.8592     -0.0739     47.9290     30.0051     41.3007
  1911.8000      8.0693      1.7550     -0.1162     54.2453     29.9131     39.9178
  1911.9000      8.0693      1.6802     -0.1091     58.7771     29.8138     39.9854
  1912.0000      8.0648      1.6842     -0.0240     58.5312     29.4708     42.8018
  1912.1000      8.0648      1.7558      0.0576     54.1944     28.8589     42.8718
  1912.2000      8.0648      1.8499      0.0918     48.4904     28.2356     38.3995
  1912.3000      8.0628      1.9314      0.1098     43.5486     28.0737     36.0097
  1912.4000      8.0628      1.9877      0.1571     40.1416     28.3152     37.9914
  1912.5000      8.0713      2.0277      0.1452     37.7174     28.4285     41.4328
  1912.6000      8.0713      2.0748      0.1552     34.8577     28.3094     45.3584
  1912.7000      8.0713      2.1391      0.1675     30.9642     28.1920     50.1602
  1912.8000      8.0863      2.1950      0.1737     27.5761     28.2660     56.6698
  1912.9000      8.0863      2.2072      0.1023     26.8343     28.5981     63.4048
  1913.0000      8.0884      2.1710     -0.0011     29.0315     28.7182     69.7840
  1913.1000      8.0884      2.1059     -0.0234     32.9762     28.2073     79.5522
  1913.2000      8.0884      2.0435     -0.0983     36.7553     28.0975     91.7477
  1913.3000      8.0722      2.0199     -0.0342     38.1895     28.8929     98.3369
  1913.4000      8.0722      2.0416      0.0518     36.8718     29.5071     95.9020
  1913.5000      8.0517      2.0908      0.0787     33.8937     29.4439     90.0508
  1913.6000      8.0517      2.1487      0.1165     30.3798     28.9904     86.9121
  1913.7000      8.0517      2.1980      0.1155     27.3931     28.2539     86.2619
  1913.8000      8.0409      2.2374      0.1025     25.0090     27.4845     83.2747
  1913.9000      8.0409      2.2857      0.0942     22.0764     26.7393     78.1538
  1914.0000      8.0387      2.3531      0.1532     17.9920     25.7177     75.6071
  1914.1000      8.0387      2.4236      0.2056     13.7217     24.7384     74.0800
  1914.2000      8.0387      2.4869      0.2152      9.8829     24.2410     70.4879
  1914.3000      8.0378      2.5552      0.2120      5.7437     24.1931     66.3582
  1914.4000      8.0378      2.6279      0.2342      1.3374     24.3913     62.2123
  1914.5000      8.0369      2.6831      0.1968     -2.0075     24.5358     58.2965
  1914.6000      8.0369      2.7074      0.1176     -3.4803     24.4068     57.6818
  1914.7000      8.0369      2.7034      0.1066     -3.2366     24.1163     60.1977
  1914.8000      8.0341      2.6858      0.0300     -2.1691     23.9361     59.2644
  1914.9000      8.0341      2.6755      0.0136     -1.5468     24.1056     52.6973
  1915.0000      8.0281      2.6738      0.0641     -1.4448     24.3994     46.0151
  1915.1000      8.0281      2.6749     -0.0088     -1.5067     24.5174     44.8336
  1915.2000      8.0281      2.6795      0.0573     -1.7852     24.7418     49.0206
  1915.3000      8.0217      2.6672      0.1000     -1.0431     25.2168     54.1055
  1915.4000      8.0217      2.6264      0.0090      1.4304     25.6894     57.3077
  1915.5000      8.0214      2.5822     -0.0268      4.1106     25.8770     58.3284
  1915.6000      8.0214      2.5410      0.0578      6.6038     25.7069     60.3597
  1915.7000      8.0214      2.4918     -0.0551      9.5894     25.6639     66.7092
  1915.8000      8.0278      2.4511     -0.0374     12.0530     26.2360     75.0485
  1915.9000      8.0278      2.4289     -0.0616     13.4030     27.0284     80.9106
