~Version Information
VERS.                      2.0: CWLS Log ASCII Standard - VERSION 2.0
WRAP.                       NO: One line per depth step
~Well Information Block
STRT.FT               880.0000: 
STOP.FT              1996.5000: 
STEP.FT                 0.1000: 
NULL.                -999.2500: 
COMP.          Petrogulf Corporation: COMPANY
WELL.          Collister 17-31R: WELL
FLD.           Purgatorie River: FIELD
LOC.           962' FNL & 1520' FEL: LOCATION
PROV.                 Colorado: PROVINCE
CNTY.               Las Animas: COUNTRY
SRVC.                Patterson: SERVICE COMPANY
DATE.          Mon Sep 26 09:28:52 2005: LOG DATE
UWI.                          : UNIQUE WELL ID
~Curve Information Block
DEPT.FT            0 000 00 00: Depth
DCAL.in                       : CDL Caliper
RHOB.g/cc                     : CDL Bulk Density
RHOC.g/cc                     : CDL Density Correction
DPOR.pu                       : CDL Density Porosity
GR.GAPI                       : Gamma Ray
NPOR.pu                       : Neutron Porosity
~Parameter Information Block
~A  Depth       DCAL        RHOB        RHOC        DPOR         GR         NPOR    
# ...
  1984.0000      7.8023      2.5884      0.0677      3.7337   -999.2500   -999.2500
  1984.1000      7.8023      2.5917      0.0488      3.5342   -999.2500   -999.2500
  1984.2000      7.8023      2.5840      0.0210      4.0010   -999.2500   -999.2500
  1984.3000      7.8072      2.5730      0.0130      4.6655   -999.2500   -999.2500
  1984.4000      7.8072      2.5656      0.0205      5.1152   -999.2500   -999.2500
  1984.5000      7.8181      2.5662      0.0371      5.0780   -999.2500   -999.2500
  1984.6000      7.8181      2.5776      0.0253      4.3891   -999.2500   -999.2500
  1984.7000      7.8181      2.5938      0.0626      3.4040   -999.2500   -999.2500
  1984.8000      7.8185      2.5973      0.0797      3.1936   -999.2500   -999.2500
  1984.9000      7.8185      2.5787      0.0193      4.3214   -999.2500   -999.2500
  1985.0000      7.8122      2.5548      0.0181      5.7715   -999.2500   -999.2500
  1985.1000      7.8122      2.5508     -0.0079      6.0127   -999.2500   -999.2500
  1985.2000      7.8122      2.5699      0.0257      4.8550   -999.2500   -999.2500
  1985.3000      7.8178      2.5897      0.0505      3.6568   -999.2500   -999.2500
  1985.4000      7.8178      2.5928      0.0579      3.4652   -999.2500   -999.2500
  1985.5000      7.8109      2.5850      0.0305      3.9385   -999.2500   -999.2500
  1985.6000      7.8109      2.5783      0.0612      4.3426   -999.2500   -999.2500
  1985.7000      7.8109      2.5792      0.0590      4.2887   -999.2500   -999.2500
  1985.8000      7.7907      2.5894      0.0553      3.6707   -999.2500   -999.2500
  1985.9000      7.7907      2.6024      0.0883      2.8831   -999.2500   -999.2500
  1986.0000      7.7911      2.6084      0.0785      2.5201   -999.2500   -999.2500
  1986.1000      7.7911      2.6102      0.0471      2.4119   -999.2500   -999.2500
  1986.2000      7.7911      2.6126      0.0704      2.2659   -999.2500   -999.2500
  1986.3000      7.8055      2.6112      0.0643      2.3541   -999.2500   -999.2500
  1986.4000      7.8055      2.6088      0.0925      2.4945   -999.2500   -999.2500
  1986.5000      7.8074      2.6132      0.0603      2.2328   -999.2500   -999.2500
  1986.6000      7.8074      2.6141      0.1106      2.1738   -999.2500   -999.2500
  1986.7000      7.8074      2.5931      0.0723      3.4501   -999.2500   -999.2500
  1986.8000      7.8141      2.5598      0.0115      5.4696   -999.2500   -999.2500
  1986.9000      7.8141      2.5421      0.0045      6.5417   -999.2500   -999.2500
  1987.0000      7.8130      2.5451      0.0514      6.3585   -999.2500   -999.2500
  1987.1000      7.8130      2.5544      0.0204      5.7918   -999.2500   -999.2500
  1987.2000      7.8130      2.5642      0.0556      5.2018   -999.2500   -999.2500
  1987.3000      7.8163      2.5759      0.0830      4.4917   -999.2500   -999.2500
  1987.4000      7.8163      2.5905      0.0396      3.6066   -999.2500   -999.2500
  1987.5000      7.7925      2.6017      0.1079      2.9263   -999.2500   -999.2500
  1987.6000      7.7925      2.5976      0.1040      3.1764   -999.2500   -999.2500
  1987.7000      7.7925      2.5825      0.0660      4.0910   -999.2500   -999.2500
  1987.8000      7.8003      2.5727      0.0491      4.6836   -999.2500   -999.2500
  1987.9000      7.8003      2.5731      0.0648      4.6617   -999.2500   -999.2500
  1988.0000      7.8255      2.5793      0.0508      4.2875   -999.2500   -999.2500
  1988.1000      7.8255      2.5870      0.0454      3.8210   -999.2500   -999.2500
  1988.2000      7.8255      2.5912      0.0275      3.5637   -999.2500   -999.2500
  1988.3000      7.8450      2.5917      0.0320      3.5361   -999.2500   -999.2500
  1988.4000      7.8450      2.5907      0.0787      3.5935   -999.2500   -999.2500
  1988.5000      7.8397      2.5844      0.0536      3.9772   -999.2500   -999.2500
  1988.6000      7.8397      2.5694      0.0294      4.8856   -999.2500   -999.2500
  1988.7000      7.8397      2.5524      0.0398      5.9178   -999.2500   -999.2500
  1988.8000      7.8341      2.5466      0.0343      6.2681   -999.2500   -999.2500
  1988.9000      7.8341      2.5571      0.0397      5.6319   -999.2500   -999.2500
  1989.0000      7.8223      2.5723      0.0672      4.7095   -999.2500   -999.2500
  1989.1000      7.8223      2.5800      0.0445      4.2422   -999.2500   -999.2500
  1989.2000      7.8223      2.5773      0.0761      4.4050   -999.2500   -999.2500
  1989.3000      7.8209      2.5559      0.0838      5.7045   -999.2500   -999.2500
  1989.4000      7.8209      2.5066      0.0774      8.6908   -999.2500   -999.2500
  1989.5000      7.8210      2.4434      0.0069     12.5204   -999.2500   -999.2500
  1989.6000      7.8210      2.3878      0.0413     15.8928   -999.2500   -999.2500
  1989.7000      7.8210      2.3376      0.0359     18.9333   -999.2500   -999.2500
  1989.8000      7.8154      2.2846      0.0067     22.1428   -999.2500   -999.2500
  1989.9000      7.8154      2.2438     -0.0238     24.6200   -999.2500   -999.2500
  1990.0000      7.8184      2.2315      0.0553     25.3633   -999.2500   -999.2500
  1990.1000      7.8184      2.2411      0.1009     24.7795   -999.2500   -999.2500
  1990.2000      7.8184      2.2626      0.1675     23.4759   -999.2500   -999.2500
  1990.3000      7.7669      2.2932      0.1934     21.6270   -999.2500   -999.2500
  1990.4000      7.7669      2.3269      0.1746     19.5797   -999.2500   -999.2500
  1990.5000      7.7651      2.3520      0.1733     18.0616   -999.2500   -999.2500
  1990.6000      7.7651      2.3613      0.1592     17.4973   -999.2500   -999.2500
  1990.7000      7.7651      2.3653      0.1444     17.2516   -999.2500   -999.2500
  1990.8000      7.6960      2.3785      0.1214     16.4516   -999.2500   -999.2500
  1990.9000      7.6960      2.4005      0.1166     15.1238   -999.2500   -999.2500
  1991.0000      7.5875      2.4212      0.1181     13.8646   -999.2500   -999.2500
  1991.1000      7.5875      2.4416      0.0772     12.6324   -999.2500   -999.2500
  1991.2000      7.5875      2.4770      0.1278     10.4863   -999.2500   -999.2500
  1991.3000      7.5129      2.5600      0.2072      5.4551   -999.2500   -999.2500
  1991.4000      7.5129      2.8229      0.2808    -10.4782   -999.2500   -999.2500
  1991.5000      7.3145      3.5063      0.2794    -51.8951   -999.2500   -999.2500
  1991.6000      7.3145      4.3596      0.6691   -103.6102   -999.2500   -999.2500
  1991.7000      7.3145      4.1755      1.9134    -92.4531   -999.2500   -999.2500
  1991.8000      6.5842      2.5369      0.0000      6.8549   -999.2500   -999.2500
  1991.9000      6.5842      0.8878   -999.2500    106.7984   -999.2500   -999.2500
  1992.0000      3.1991      0.1711   -999.2500    150.2340   -999.2500   -999.2500
  1992.1000      3.1991      0.0178   -999.2500    159.5286   -999.2500   -999.2500
  1992.2000      3.1991      0.0010   -999.2500    160.5471   -999.2500   -999.2500
  1992.3000      2.7455      0.0000   -999.2500    160.6061   -999.2500   -999.2500
  1992.4000      2.7455   -999.2500   -999.2500   -999.2500   -999.2500   -999.2500
  1992.5000   -999.2500   -999.2500   -999.2500   -999.2500   -999.2500   -999.2500
  1992.6000   -999.2500   -999.2500   -999.2500   -999.2500   -999.2500   -999.2500
  1992.7000   -999.2500   -999.2500   -999.2500   -999.2500   -999.2500   -999.2500
  1992.8000   -999.2500   -999.2500   -999.2500   -999.2500   -999.2500   -999.2500
  1992.9000   -999.2500   -999.2500   -999.2500   -999.2500   -999.2500   -999.2500
  1993.0000   -999.2500   -999.2500   -999.2500   -999.2500   -999.2500   -999.2500
  1993.1000   -999.2500   -999.2500   -999.2500   -999.2500   -999.2500   -999.2500
  1993.2000   -999.2500   -999.2500   -999.2500   -999.2500   -999.2500   -999.2500
  1993.3000   -999.2500   -999.2500   -999.2500   -999.2500   -999.2500   -999.2500
  1993.4000   -999.2500   -999.2500   -999.2500   -999.2500   -999.2500   -999.2500
  1993.5000   -999.2500   -999.2500   -999.2500   -999.2500   -999.2500   -999.2500
