~Version Information
VERS.                      2.0: CWLS Log ASCII Standard - VERSION 2.0
WRAP.                       NO: One line per depth step
~Well Information Block
STRT.FT               245.0000: 
STOP.FT              1217.7000: 
STEP.FT                 0.1000: 
NULL.                -999.2500: 
COMP.          Pioneer Natural Resources: COMPANY
WELL.          Lucky Lady 42-29: WELL
FLD.           Purgatoire River: FIELD
LOC.           2482' FNL & 662' FEL--: LOCATION
CNTY.               Las Animas: COUNTY
SRVC.                Patterson: SERVICE COMPANY
DATE.          Thu Mar 09 18:39:54 2006: LOG DATE
UWI.           05 071 08659 00: UNIQUE WELL ID
STAT.                 Colorado: STATE
~Curve Information Block
DEPT.FT            0 000 00 00: Depth
DCAL.in                       : CDL Caliper
RHOB.g/cc                     : CDL Bulk Density
RHOC.g/cc                     : CDL Density Correction
DPOR.pu                       : CDL Density Porosity
NPOR.pu                       : Neutron Porosity
GR.GAPI                       : Gamma Ray
~Parameter Information Block
~A  Depth       DCAL        RHOB        RHOC        DPOR        NPOR         GR     
# ...
   869.0000      7.9103      2.5790      0.0711      4.3057     17.8506     84.1960
   869.1000      7.9103      2.5509      0.0369      6.0056     18.1523     77.6534
   869.2000      7.9103      2.5196      0.0516      7.9047     18.2108     78.0053
   869.3000      7.9094      2.4958      0.0373      9.3466     18.1633     81.1371
   869.4000      7.9094      2.4881      0.0087      9.8102     18.4144     87.5605
   869.5000      7.9227      2.4994      0.0467      9.1302     18.9147     96.3385
   869.6000      7.9227      2.5241      0.0250      7.6311     19.2074    102.0630
   869.7000      7.9227      2.5467      0.0480      6.2628     19.3041    100.7723
   869.8000      7.9370      2.5478      0.0875      6.1917     19.5317     94.3747
   869.9000      7.9370      2.5263      0.0740      7.4948     19.9984     91.2832
   870.0000      7.9395      2.5007      0.0422      9.0480     20.4883     97.4112
   870.1000      7.9395      2.4846      0.0637     10.0222     20.6242    107.6799
   870.2000      7.9395      2.4741      0.0627     10.6576     20.3225    112.9561
   870.3000      7.9259      2.4639      0.0489     11.2793     20.0138    113.0568
   870.4000      7.9259      2.4490      0.1047     12.1836     19.8682    113.0900
   870.5000      7.9090      2.4195      0.0899     13.9691     19.5560    117.3438
   870.6000      7.9090      2.3822      0.0498     16.2324     19.2241    126.0079
   870.7000      7.9090      2.3538      0.0676     17.9497     19.2191    130.9321
   870.8000      7.9078      2.3396      0.0581     18.8110     19.2262    128.5630
   870.9000      7.9078      2.3374      0.0983     18.9471     18.9085    127.0000
   871.0000      7.9288      2.3347      0.1081     19.1064     18.3552    129.5268
   871.1000      7.9288      2.3184      0.0853     20.0996     17.6455    132.0440
   871.2000      7.9288      2.2986      0.0758     21.2982     16.9667    135.5865
   871.3000      7.9494      2.2990      0.1198     21.2740     16.4978    141.2931
   871.4000      7.9494      2.3248      0.1624     19.7076     16.0800    147.8141
   871.5000      7.9371      2.3630      0.1528     17.3913     15.6251    156.1691
   871.6000      7.9371      2.4018      0.1411     15.0395     15.1939    162.4541
   871.7000      7.9371      2.4352      0.1344     13.0177     14.6784    160.6066
   871.8000      7.9168      2.4650      0.1193     11.2108     14.1823    155.3429
   871.9000      7.9168      2.4944      0.1183      9.4324     14.1141    154.3799
   872.0000      7.9116      2.5106      0.1501      8.4507     14.4929    156.3253
   872.1000      7.9116      2.5034      0.1437      8.8830     14.8605    155.5881
   872.2000      7.9116      2.4903      0.0508      9.6775     14.8665    150.6056
   872.3000      7.9163      2.4914      0.1062      9.6146     14.5052    144.0784
   872.4000      7.9163      2.5007      0.0872      9.0479     14.0517    139.5235
   872.5000      7.9248      2.5096      0.0725      8.5082     13.7873    136.3088
   872.6000      7.9248      2.5150      0.0901      8.1825     13.7289    130.8066
   872.7000      7.9248      2.5121      0.0385      8.3555     13.9060    125.2607
   872.8000      7.9288      2.5058      0.0547      8.7380     14.4136    125.6192
   872.9000      7.9288      2.5034      0.0386      8.8854     15.2344    129.0956
   873.0000      7.9268      2.5081      0.0419      8.5981     16.1337    132.9034
   873.1000      7.9268      2.5193      0.0309      7.9214     16.6474    137.7481
   873.2000      7.9268      2.5260      0.0620      7.5134     16.7127    139.4155
   873.3000      7.9247      2.5129      0.0565      8.3094     16.8318    136.1711
   873.4000      7.9247      2.4899     -0.0170      9.7052     17.1768    131.6231
   873.5000      7.9272      2.4886      0.0052      9.7831     17.5106    127.3706
   873.6000      7.9272      2.5134      0.0445      8.2812     17.7254    123.3320
   873.7000      7.9272      2.5397      0.0723      6.6870     17.8749    121.0064
   873.8000      7.9352      2.5587      0.0434      5.5323     18.0140    122.9568
   873.9000      7.9352      2.5738      0.1169      4.6208     18.1163    127.7530
   874.0000      7.9425      2.5790      0.0948      4.3049     18.1292    130.9235
   874.1000      7.9425      2.5736      0.0923      4.6326     18.0184    130.9754
   874.2000      7.9425      2.5639      0.0958      5.2175     17.9011    130.7114
   874.3000      7.9415      2.5620      0.0508      5.3303     18.0193    132.3352
   874.4000      7.9415      2.5697      0.0950      4.8679     18.2675    133.3465
   874.5000      7.9402      2.5680      0.0773      4.9682     18.3140    130.8443
   874.6000      7.9402      2.5554      0.0510      5.7340     18.2878    127.9225
   874.7000      7.9402      2.5412      0.0334      6.5948     18.4303    128.9239
   874.8000      7.9467      2.5159      0.0607      8.1248     18.6821    132.3136
   874.9000      7.9467      2.4875     -0.0462      9.8460     19.0401    132.7336
   875.0000      7.9523      2.4900      0.0201      9.7000     19.3487    127.8544
   875.1000      7.9523      2.5216      0.0536      7.7789     19.3437    122.9718
   875.2000      7.9523      2.5451      0.0852      6.3583     19.3733    122.9386
   875.3000      7.9526      2.5370      0.0617      6.8471     19.7382    125.0360
   875.4000      7.9526      2.5088      0.0105      8.5573     19.9346    126.7941
   875.5000      7.9515      2.4859      0.0197      9.9457     19.6706    129.2462
   875.6000      7.9515      2.4757      0.0326     10.5648     19.4305    132.7691
   875.7000      7.9515      2.4710     -0.0030     10.8509     19.4559    134.6368
   875.8000      7.9506      2.4693      0.0398     10.9489     19.5674    132.8364
   875.9000      7.9506      2.4790      0.0175     10.3627     19.5081    130.3947
   876.0000      7.9517      2.5066      0.0436      8.6889     19.1985    132.4895
   876.1000      7.9517      2.5347      0.0673      6.9849     19.0813    139.0174
   876.2000      7.9517      2.5392      0.0894      6.7166     19.4032    142.6282
   876.3000      7.9501      2.5234      0.0277      7.6720     19.7453    140.9591
   876.4000      7.9501      2.5097      0.0189      8.5016     19.8958    136.5182
   876.5000      7.9410      2.5112      0.0096      8.4110     20.0182    131.0759
   876.6000      7.9410      2.5274      0.0219      7.4279     20.1619    126.9874
   876.7000      7.9410      2.5534      0.0390      5.8542     20.1702    123.0218
   876.8000      7.9256      2.5822      0.1008      4.1073     20.0209    117.5612
   876.9000      7.9256      2.6015      0.1162      2.9396     19.8660    114.5434
   877.0000      7.9084      2.5997      0.0828      3.0491     19.7089    113.7585
   877.1000      7.9084      2.5827      0.0582      4.0800     19.4343    110.3484
   877.2000      7.9084      2.5723      0.0245      4.7080     19.1127    107.6736
   877.3000      7.8984      2.5730      0.0716      4.6649     19.0270    110.0404
   877.4000      7.8984      2.5668      0.0645      5.0422     19.3213    113.1626
   877.5000      7.9056      2.5599      0.0186      5.4608     19.7616    110.7959
   877.6000      7.9056      2.5796      0.0302      4.2671     20.0089    102.9599
   877.7000      7.9056      2.6229      0.0555      1.6403     19.9894     97.4412
   877.8000      7.9247      2.6544      0.1279     -0.2672     19.8961     99.3399
   877.9000      7.9247      2.6551      0.0436     -0.3073     19.8982    102.0627
   878.0000      7.9318      2.6478      0.0277      0.1315     19.9750     97.1084
   878.1000      7.9318      2.6512      0.1171     -0.0710     19.9665     85.8440
   878.2000      7.9318      2.6581      0.0494     -0.4937     20.0300     76.2099
   878.3000      7.9280      2.6582      0.0960     -0.4966     20.3340     73.9324
   878.4000      7.9280      2.6422      0.0343      0.4728     20.4852     79.1264
   878.5000      7.9250      2.6162      0.0338      2.0498     20.2120     86.2371
