~Version Information
VERS.                      2.0: CWLS Log ASCII Standard - VERSION 2.0
WRAP.                       NO: One line per depth step
~Well Information Block
STRT.FT               460.0000: 
STOP.FT              2811.5000: 
STEP.FT                 0.1000: 
NULL.                -999.2500: 
COMP.          Pioneer Natural Resources: COMPANY
WELL.           Dolzanie 34-12: WELL
FLD.           Purgatoire River: FIELD
LOC.           1001' FSL & 1750' FEL--: LOCATION
PROV.                 Colorado: PROVINCE
CNTY.               Las Animas: COUNTRY
SRVC.                Patterson: SERVICE COMPANY
DATE.          Wed Jul 20 07:56:24 2005: LOG DATE
UWI.           05 071 08439 00: UNIQUE WELL ID
~Curve Information Block
DEPT.FT            0 000 00 00: Depth
DCAL.in                       : CDL Caliper
DPOR.pu                       : CDL Density Porosity
NPOR.pu                       : Neutron Porosity
RHOB.g/cc                     : CDL Bulk Density
RHOC.g/cc                     : CDL Density Correction
GR.GAPI                       : Gamma Ray
~Parameter Information Block
~A  Depth       DCAL        DPOR        NPOR        RHOB        RHOC         GR     
# ...
   613.6000      7.6577      3.9885     29.9604      2.5842      0.1152    137.3242
   613.7000      7.6577      3.7671     30.3348      2.5878      0.1363    130.4466
   613.8000      7.6558      4.6371     30.1406      2.5735      0.1011    127.4172
   613.9000      7.6558      6.2398     29.9649      2.5470      0.0575    126.8863
   614.0000      7.6509      7.8124     30.3690      2.5211      0.0706    125.5112
   614.1000      7.6509      9.0551     30.9260      2.5006      0.0553    124.3046
   614.2000      7.6509      9.7802     30.9546      2.4886      0.0516    126.6185
   614.3000      7.6433     10.2072     30.8500      2.4816      0.0486    130.7532
   614.4000      7.6433     10.2942     31.2771      2.4801      0.0230    134.1717
   614.5000      7.6387      9.5031     31.8502      2.4932      0.0850    137.3205
   614.6000      7.6387      8.2994     31.9300      2.5131      0.1168    139.2199
   614.7000      7.6387      7.6275     31.6033      2.5241      0.1105    134.8504
   614.8000      7.6386      7.3798     31.1067      2.5282      0.0573    125.7494
   614.9000      7.6386      6.9442     30.6052      2.5354      0.0982    119.3886
   615.0000      7.6392      6.3245     30.3863      2.5456      0.0905    117.5235
   615.1000      7.6392      5.7313     30.1804      2.5554      0.0871    117.3489
   615.2000      7.6392      5.2838     29.4905      2.5628      0.1014    117.4341
   615.3000      7.6380      5.2821     28.2904      2.5628      0.0987    121.6200
   615.4000      7.6380      5.9028     27.0847      2.5526      0.0813    129.2447
   615.5000      7.6349      7.0052     26.6092      2.5344      0.0885    132.5255
   615.6000      7.6349      8.5521     26.9803      2.5089      0.0876    129.2949
   615.7000      7.6349     10.4561     27.5266      2.4775      0.0603    122.2339
   615.8000      7.6255     12.0671     27.7285      2.4509      0.0158    115.8054
   615.9000      7.6255     12.4727     27.4888      2.4442      0.0181    113.3473
   616.0000      7.6046     11.5276     26.9993      2.4598      0.0420    112.9063
   616.1000      7.6046     10.7166     26.7909      2.4732      0.0729    113.7446
   616.2000      7.6046     11.8128     27.0381      2.4551      0.0551    118.1484
   616.3000      7.5802     14.3380     27.3122      2.4134     -0.0107    125.8727
   616.4000      7.5802     16.0096     27.5071      2.3858     -0.0116    130.9715
   616.5000      7.5542     16.0201     27.9677      2.3857      0.0130    131.8682
   616.6000      7.5542     16.3751     28.7207      2.3798      0.0870    132.3691
   616.7000      7.5542     18.9792     29.3615      2.3368      0.0314    129.6208
   616.8000      7.5175     23.0634     29.1153      2.2695      0.0228    124.0154
   616.9000      7.5175     27.6344     27.7349      2.1940      0.0343    124.3558
   617.0000      7.4826     33.5939     26.1401      2.0957      0.0469    131.1241
   617.1000      7.4826     41.5696     24.9502      1.9641     -0.0458    138.5419
   617.2000      7.4826     50.2102     23.7211      1.8215     -0.1002    144.5340
   617.3000      7.4997     58.0520     22.3227      1.6921     -0.1065    149.1094
   617.4000      7.4997     64.9683     21.0972      1.5780     -0.1397    151.8038
   617.5000      7.6168     71.7071     20.2840      1.4668     -0.1073    151.6541
   617.6000      7.6168     78.0001     20.0697      1.3630     -0.1443    148.3824
   617.7000      7.6168     78.8766     20.1654      1.3485     -0.2230    145.6963
   617.8000      7.7864     66.0221     19.9600      1.5606     -0.1567    147.4571
   617.9000      7.7864     36.6235     19.4159      2.0457      0.0712    151.7577
   618.0000      7.9614      0.7153     18.7939      2.6382      0.5736    152.7609
   618.1000      7.9614    -20.7884     18.3169      2.9930      0.9572    149.5691
   618.2000      7.9614    -11.3767     18.2740      2.8377      0.9693    147.0567
   618.3000      8.1589     21.2343     18.7969      2.2996      0.5506    147.9571
   618.4000      8.1589     50.3747     19.8319      1.8188      0.3475    151.4280
   618.5000      8.2884     59.8934     21.1615      1.6618      0.3986    152.5797
   618.6000      8.2884     54.0505     22.5503      1.7582      0.4324    148.3072
   618.7000      8.2884     42.2402     23.8111      1.9530      0.5219    145.3347
   618.8000      8.3356     29.5238     25.0923      2.1629      0.6349    148.8134
   618.9000      8.3356     17.5768     26.8005      2.3600      0.6480    153.8908
   619.0000      8.3888      6.7065     28.7030      2.5393      0.6993    156.2151
   619.1000      8.3888     -2.4227     30.0464      2.6900      0.7258    155.5684
   619.2000      8.3888     -8.4396     30.7093      2.7893      0.7459    149.7334
   619.3000      8.4527    -10.5348     31.0820      2.8238      0.6028    138.2500
   619.4000      8.4527     -9.2413     31.0599      2.8025      0.4657    130.3165
   619.5000      8.3807     -6.1446     30.4550      2.7514      0.3213    129.8685
   619.6000      8.3807     -3.2968     29.4984      2.7044      0.2753    127.8298
   619.7000      8.3807     -1.2915     28.4897      2.6713      0.2862    121.6408
   619.8000      8.1920      0.6718     27.6098      2.6389      0.1846    117.0979
   619.9000      8.1920      2.6935     26.6681      2.6056      0.1203    116.2801
   620.0000      8.0292      4.4596     25.5130      2.5764      0.0793    116.8929
   620.1000      8.0292      5.6826     24.7745      2.5562      0.0590    116.2189
   620.2000      8.0292      6.2109     24.7203      2.5475      0.0521    114.0493
   620.3000      7.9491      6.7041     24.5732      2.5394      0.0545    111.4322
   620.4000      7.9491      7.5712     23.9446      2.5251     -0.0111    107.6627
   620.5000      7.9264      7.9947     23.1710      2.5181      0.0051    101.5843
   620.6000      7.9264      7.3294     22.5779      2.5291      0.0123     95.7142
   620.7000      7.9264      5.9437     22.3252      2.5519      0.0193     91.6401
   620.8000      7.9218      4.8781     22.2336      2.5695      0.0629     87.3246
   620.9000      7.9218      5.0150     22.2144      2.5673      0.0550     82.8813
   621.0000      7.9189      6.0740     22.3396      2.5498      0.0509     81.3106
   621.1000      7.9189      7.2219     22.2848      2.5308      0.0548     83.6431
   621.2000      7.9189      8.1753     22.0987      2.5151      0.0333     86.9672
   621.3000      7.9191      8.7967     22.2482      2.5049     -0.0020     87.3893
   621.4000      7.9191      8.8379     22.6253      2.5042      0.0435     83.8691
   621.5000      7.9215      8.3094     22.7080      2.5129      0.0013     78.3837
   621.6000      7.9215      7.4213     22.5644      2.5275      0.0450     76.0573
   621.7000      7.9215      6.6092     22.7647      2.5409      0.0595     79.5081
   621.8000      7.9269      5.9266     23.3346      2.5522      0.0490     84.3160
   621.9000      7.9269      5.3918     23.5995      2.5610      0.0824     86.6172
   622.0000      7.9364      5.6343     23.2997      2.5570      0.0627     88.4029
   622.1000      7.9364      6.6144     23.0562      2.5409      0.0269     92.0473
   622.2000      7.9364      7.3379     23.2657      2.5289      0.0246     93.4760
   622.3000      7.9440      7.4552     23.6419      2.5270      0.0441     89.3493
   622.4000      7.9440      7.6856     23.8912      2.5232      0.0604     85.9078
   622.5000      7.9464      8.3271     24.0283      2.5126      0.0421     86.8653
   622.6000      7.9464      8.6411     24.1034      2.5074      0.0332     88.9815
   622.7000      7.9464      8.0999     24.0435      2.5164      0.0387     92.4217
   622.8000      7.9475      7.2634     23.8978      2.5302      0.0873     96.4042
   622.9000      7.9475      6.7663     24.0047      2.5384      0.0681     97.5543
   623.0000      7.9477      6.2485     24.4804      2.5469      0.0466     95.4858
   623.1000      7.9477      5.9146     24.9341      2.5524      0.0891     93.2350
