~Version Information
VERS.                      2.0: CWLS Log ASCII Standard - VERSION 2.0
WRAP.                       NO: One line per depth step
~Well Information Block
STRT.FT               795.0000: 
STOP.FT              2279.7500: 
STEP.FT                 0.2500: 
NULL.                -999.2500: 
COMP.          Pioneer Natural Resources: COMPANY
WELL.            Wildcard 31-5: WELL
FLD.           Purgatoire River: FIELD
LOC.           624' FNL & 1852' FEL--: LOCATION
CNTY.               Las Animas: COUNTY
SRVC.                Patterson: SERVICE COMPANY
DATE.          Tue Mar 07 07:02:36 2006: LOG DATE
UWI.           05 071 08707 00: UNIQUE WELL ID
STAT.                 Colorado: STATE
~Curve Information Block
DEPT.FT            0 000 00 00: Depth
DIR.Ohm-m                     : IEL Induction Resistivity
SN.Ohm-m                      : IEL Short Normal
SP.mV                         : IEL Spontaneous Potential
GR.GAPI                       : Gamma Ray
~Parameter Information Block
~A  Depth       DIR          SN          SP          GR     
# ...
  1264.0000 100000.0000   2000.0000   1968.0000     58.2221
  1264.2500 100000.0000   2000.0000   1968.0000     57.9833
  1264.5000 100000.0000   2000.0000   1968.0000     57.1523
  1264.7500 100000.0000   2000.0000   1968.0000     56.4064
  1265.0000 100000.0000   2000.0000   1968.0000     55.6014
  1265.2500 100000.0000   2000.0000   1968.0000     55.5320
  1265.5000 100000.0000   2000.0000   1968.0000     56.0715
  1265.7500 100000.0000   2000.0000   1968.0000     56.7093
  1266.0000 100000.0000   2000.0000   1968.0000     58.1435
  1266.2500 100000.0000   2000.0000   1968.0000     59.5955
  1266.5000 100000.0000   2000.0000   1968.0000     62.3538
  1266.7500 100000.0000   2000.0000   1968.0000     64.0508
  1267.0000 100000.0000   2000.0000   1968.0000     65.5410
  1267.2500 100000.0000   2000.0000   1968.0000     65.9307
  1267.5000 100000.0000   2000.0000   1968.0000     66.6012
  1267.7500     10.2241   2000.0000   1968.0000     67.5188
  1268.0000      5.5406   2000.0000   1968.0000     69.4158
  1268.2500      4.6485   2000.0000   1968.0000     70.6333
  1268.5000      5.1792   2000.0000   1968.0000     71.7483
  1268.7500      7.6863   2000.0000   1968.0000     71.7294
  1269.0000     16.3653   2000.0000   1968.0000     70.3940
  1269.2500     34.0768   2000.0000   1968.0000     68.8855
  1269.5000     11.5003   2000.0000   1968.0000     66.5951
  1269.7500      3.0535   2000.0000   1968.0000     65.5740
  1270.0000      1.0784   2000.0000   1968.0000     65.3247
  1270.2500      0.4372   2000.0000   1968.0000     66.0100
  1270.5000      0.1687   2000.0000   1968.0000     67.7065
  1270.7500      0.0583   2000.0000   1968.0000     68.6937
  1271.0000      0.0215   2000.0000   1968.0000     69.0731
  1271.2500      0.0099   2000.0000   1968.0000     68.3667
  1271.5000      0.0058   2000.0000   1968.0000     65.9113
  1271.7500      0.0043   2000.0000   1968.0000     63.5023
  1272.0000      0.0037   2000.0000   1968.0000     59.3116
  1272.2500      0.0036   2000.0000   1968.0000     56.7008
  1272.5000      0.0037   2000.0000   1968.0000     53.9914
  1272.7500      0.0041   2000.0000   1968.0000     53.1677
  1273.0000      0.0050   2000.0000   1968.0000     52.9652
  1273.2500      0.0070   2000.0000   1968.0000     53.0609
  1273.5000      0.0121   2000.0000   1968.0000     52.9524
  1273.7500      0.0269   2000.0000   1968.0000     52.6567
  1274.0000      0.0728   2000.0000   1968.0000     52.1769
  1274.2500      0.2038   2000.0000   1968.0000     51.9533
  1274.5000      0.5115   2000.0000   1968.0000     51.5980
  1274.7500      1.2681   2000.0000   1968.0000     51.2031
  1275.0000      3.7509   2000.0000   1968.0000     50.3728
  1275.2500     16.2237   2000.0000   1968.0000     49.7521
  1275.5000     59.5086   2000.0000   1968.0000     48.8804
  1275.7500     20.5330   2000.0000   1968.0000     48.5065
  1276.0000      9.0581   2000.0000   1968.0000     48.7365
  1276.2500      6.1694   2000.0000   1968.0000     49.6321
  1276.5000      5.8008   2000.0000   1968.0000     51.8368
  1276.7500      7.7576   2000.0000   1968.0000     53.2835
  1277.0000     23.3849   2000.0000   1968.0000     54.1399
  1277.2500 100000.0000   2000.0000   1968.0000     53.4610
  1277.5000 100000.0000   2000.0000   1968.0000     51.0383
  1277.7500 100000.0000   2000.0000   1968.0000     49.1340
  1278.0000 100000.0000   2000.0000   1968.0000     46.7372
  1278.2500 100000.0000   2000.0000   1968.0000     45.6756
  1278.5000 100000.0000   2000.0000   1968.0000     44.9593
  1278.7500 100000.0000   2000.0000   1968.0000     44.9838
  1279.0000 100000.0000   2000.0000   1968.0000     45.3546
  1279.2500 100000.0000   2000.0000   1968.0000     45.4817
  1279.5000 100000.0000   2000.0000   1968.0000     45.1905
  1279.7500 100000.0000   2000.0000   1968.0000     44.8688
  1280.0000 100000.0000   2000.0000   1968.0000     44.8895
  1280.2500 100000.0000   2000.0000   1968.0000     45.4798
  1280.5000 100000.0000   2000.0000   1968.0000     47.1241
  1280.7500 100000.0000   2000.0000   1968.0000     48.5853
  1281.0000 100000.0000   2000.0000   1968.0000     51.2796
  1281.2500    130.3132   2000.0000   1968.0000     53.3544
  1281.5000     36.5165   2000.0000   1968.0000     56.3563
  1281.7500     27.2750   2000.0000   1968.0000     57.7745
  1282.0000     25.7535   2000.0000   1968.0000     58.4055
  1282.2500     27.0700   2000.0000   1968.0000     57.9339
  1282.5000     30.1724   2000.0000   1968.0000     57.0010
  1282.7500     34.7887   2000.0000   1968.0000     57.0960
  1283.0000     40.8657   2000.0000   1968.0000     59.1654
  1283.2500     48.4298   2000.0000   1968.0000     61.6696
  1283.5000     57.6137   2000.0000   1968.0000     66.2422
  1283.7500     68.7570   2000.0000   1968.0000     69.4539
  1284.0000     82.4927   2000.0000   1968.0000     74.2397
  1284.2500     99.7864   2000.0000   1968.0000     77.1522
  1284.5000    121.8950   2000.0000   1968.0000     80.0654
  1284.7500    150.1103   2000.0000   1968.0000     80.3054
  1285.0000    184.9657   2000.0000   1968.0000     77.6243
  1285.2500    224.8660   2000.0000   1968.0000     74.2318
  1285.5000    265.1515   2000.0000   1968.0000     68.1177
  1285.7500    299.7589   2000.0000   1968.0000     64.0923
  1286.0000    325.5108   2000.0000   1968.0000     58.9019
  1286.2500    345.4994   2000.0000   1968.0000     56.2122
  1286.5000    369.5012   2000.0000   1968.0000     53.3940
  1286.7500    414.6597   2000.0000   1968.0000     52.2543
  1287.0000    514.6579   2000.0000   1968.0000     51.3956
  1287.2500    771.7495   2000.0000   1968.0000     51.1976
  1287.5000   1875.8613   2000.0000   1968.0000     51.2250
  1287.7500 100000.0000   2000.0000   1968.0000     51.4218
  1288.0000 100000.0000   2000.0000   1968.0000     51.8853
  1288.2500 100000.0000   2000.0000   1968.0000     52.0897
  1288.5000 100000.0000   2000.0000   1968.0000     51.7403
  1288.7500 100000.0000   2000.0000   1968.0000     50.9614
  1289.0000 100000.0000   2000.0000   1968.0000     49.3584
  1289.2500 100000.0000   2000.0000   1968.0000     48.4239
  1289.5000 100000.0000   2000.0000   1968.0000     47.7336
  1289.7500 100000.0000   2000.0000   1968.0000     47.7114
  1290.0000 100000.0000   2000.0000   1968.0000     47.8660
  1290.2500 100000.0000   2000.0000   1968.0000     47.8971
  1290.5000 100000.0000   2000.0000   1968.0000     47.9876
  1290.7500 100000.0000   2000.0000   1968.0000     48.3082
  1291.0000 100000.0000   2000.0000   1968.0000     49.2327
  1291.2500 100000.0000   2000.0000   1968.0000     49.8629
  1291.5000 100000.0000   2000.0000   1968.0000     50.2861
  1291.7500 100000.0000   2000.0000   1968.0000     50.2021
  1292.0000 100000.0000   2000.0000   1968.0000     49.9199
  1292.2500 100000.0000   2000.0000   1968.0000     49.7406
  1292.5000 100000.0000   2000.0000   1968.0000     49.2571
  1292.7500 100000.0000   2000.0000   1968.0000     48.7133
  1293.0000 100000.0000   2000.0000   1968.0000     47.9194
  1293.2500 100000.0000   2000.0000   1968.0000     47.6594
  1293.5000   1622.1689   2000.0000   1968.0000     47.6120
  1293.7500    456.3690   2000.0000   1968.0000     47.5788
  1294.0000    295.2996   2000.0000   1968.0000     47.4874
  1294.2500    227.5677   2000.0000   1968.0000     47.6849
  1294.5000    186.3820   2000.0000   1968.0000     48.7439
  1294.7500    157.6913   2000.0000   1968.0000     49.7272
  1295.0000    137.6207   2000.0000   1968.0000     50.6331
  1295.2500    124.3730   2000.0000   1968.0000     50.4516
  1295.5000    116.5219   2000.0000   1968.0000     49.2918
  1295.7500    112.8083   2000.0000   1968.0000     48.5196
  1296.0000    112.1088   2000.0000   1968.0000     48.2067
  1296.2500    113.3604   2000.0000   1968.0000     48.6199
  1296.5000    115.4535   2000.0000   1968.0000     49.7129
  1296.7500    117.2549   2000.0000   1968.0000     50.4891
  1297.0000    117.9394   2000.0000   1968.0000     51.5340
  1297.2500    117.4910   2000.0000   1968.0000     52.0694
