~Version Information
VERS.                      2.0: CWLS Log ASCII Standard - VERSION 2.0
WRAP.                       NO: One line per depth step
~Well Information Block
STRT.FT               245.0000: 
STOP.FT              1006.0000: 
STEP.FT                 0.1000: 
NULL.                -999.2500: 
COMP.          Pioneer Natural Resources: COMPANY
WELL.              Atlas 32-18: WELL
FLD.           Purgatoire River: FIELD
LOC.           1892' FNL & 1456' FEL: LOCATION
PROV.                 Colorado: PROVINCE
CNTY.               Las Animas: COUNTRY
SRVC.                Patterson: SERVICE COMPANY
DATE.          Mon Nov 21 08:58:56 2005: LOG DATE
UWI.           05 071 08556 00: UNIQUE WELL ID
~Curve Information Block
DEPT.FT            0 000 00 00: Depth
DCAL.in                       : CDL Caliper
RHOB.g/cc                     : CDL Bulk Density
RHOC.g/cc                     : CDL Density Correction
DPOR.pu                       : CDL Density Porosity
GR.GAPI                       : Gamma Ray
NPOR.pu                       : Neutron Porosity
~Parameter Information Block
~A  Depth       DCAL        RHOB        RHOC        DPOR         GR         NPOR    
# ...
   840.2000      7.9801      2.5543      0.1266      5.8013    100.3346     25.1242
   840.3000      7.9630      2.5402      0.0827      6.6533     97.9335     25.6042
   840.4000      7.9630      2.5203      0.0670      7.8617     98.4891     26.5845
   840.5000      7.9501      2.5058      0.0656      8.7391    100.9775     27.2599
   840.6000      7.9501      2.5000      0.0343      9.0928    101.5749     26.8799
   840.7000      7.9501      2.5060      0.0286      8.7292    101.3050     25.9675
   840.8000      7.9683      2.5211      0.0498      7.8106    101.7544     25.0842
   840.9000      7.9683      2.5353      0.0437      6.9545    103.2041     24.5035
   841.0000      7.9500      2.5406      0.0646      6.6278    103.9237     24.6593
   841.1000      7.9500      2.5412      0.0240      6.5911    102.4861     24.8470
   841.2000      7.9500      2.5436      0.0496      6.4506    101.7742     24.3905
   841.3000      7.9436      2.5458      0.0253      6.3173    103.9323     23.7758
   841.4000      7.9436      2.5481      0.0514      6.1769    106.9471     23.4747
   841.5000      7.9692      2.5550     -0.0069      5.7605    109.0947     23.5597
   841.6000      7.9692      2.5647      0.0348      5.1703    109.0499     23.5366
   841.7000      7.9692      2.5676      0.0013      4.9918    107.0099     23.0222
   841.8000      7.9760      2.5634      0.0274      5.2486    104.7699     22.5035
   841.9000      7.9760      2.5589      0.0612      5.5226    102.6686     22.4928
   842.0000      7.9834      2.5529      0.1140      5.8857    102.0567     22.7840
   842.1000      7.9834      2.5415      0.0195      6.5742    104.0882     23.1571
   842.2000      7.9834      2.5312      0.0127      7.2018    106.2357     23.9116
   842.3000      7.9881      2.5275      0.0217      7.4221    104.3874     24.5858
   842.4000      7.9881      2.5278      0.0697      7.4082     98.6864     24.2078
   842.5000      7.9894      2.5286      0.0278      7.3559     93.3629     22.9450
   842.6000      7.9894      2.5338      0.0576      7.0407     90.8181     21.8896
   842.7000      7.9894      2.5555      0.0110      5.7254     88.0110     22.0335
   842.8000      7.9478      2.5929      0.0258      3.4616     85.2713     23.3135
   842.9000      7.9478      2.6151      0.0826      2.1154     85.8282     24.5439
   843.0000      7.9387      2.6014      0.0410      2.9482     85.9638     24.8570
   843.1000      7.9387      2.5666      0.0313      5.0528     82.5163     23.9721
   843.2000      7.9387      2.5302     -0.0034      7.2576     80.6590     22.3081
   843.3000      7.9475      2.5020     -0.0296      8.9692     83.1334     21.0193
   843.4000      7.9475      2.4914     -0.0147      9.6150     81.9284     20.8551
   843.5000      7.9409      2.5084     -0.0621      8.5821     74.1289     21.4530
   843.6000      7.9409      2.5462      0.0103      6.2894     68.2285     21.9414
   843.7000      7.9409      2.5727      0.0442      4.6830     67.8165     22.2312
   843.8000      7.9377      2.5685      0.0323      4.9380     68.4594     22.8042
   843.9000      7.9377      2.5443      0.0792      6.4087     67.6408     23.3295
   844.0000      7.9526      2.5207      0.0100      7.8392     65.7208     23.2429
   844.1000      7.9526      2.5128      0.0111      8.3164     62.4629     23.2300
   844.2000      7.9526      2.5185      0.0520      7.9684     59.1937     23.7827
   844.3000      7.9886      2.5353     -0.0143      6.9524     59.3157     23.8872
   844.4000      7.9886      2.5630      0.0813      5.2720     63.4799     23.1813
   844.5000      7.8835      2.5858      0.0574      3.8927     67.6777     22.6311
   844.6000      7.8835      2.5920      0.1319      3.5151     67.4179     22.8553
   844.7000      7.8835      2.5877      0.1039      3.7774     64.2501     23.7467
   844.8000      7.8724      2.5867      0.0780      3.8384     61.3233     24.7657
   844.9000      7.8724      2.5973      0.0442      3.1913     58.5591     24.6930
   845.0000      7.8993      2.6132      0.0357      2.2296     56.8913     22.8942
   845.1000      7.8993      2.6099      0.1173      2.4297     58.5030     20.9772
   845.2000      7.8993      2.5795      0.0448      4.2734     63.2976     20.5410
   845.3000      7.9271      2.5546      0.0058      5.7835     67.5536     21.3129
   845.4000      7.9271      2.5586      0.0410      5.5401     67.4097     22.2988
   845.5000      7.9035      2.5707      0.0960      4.8073     65.3953     22.9524
   845.6000      7.9035      2.5670      0.0790      5.0332     65.1578     23.3770
   845.7000      7.9035      2.5615      0.0063      5.3613     64.8294     23.8111
   845.8000      7.9046      2.5735      0.0443      4.6358     63.4344     23.7562
   845.9000      7.9046      2.5866      0.0893      3.8401     62.6324     22.8037
   846.0000      7.9147      2.5782      0.0918      4.3500     61.9381     21.9100
   846.1000      7.9147      2.5550      0.0511      5.7595     61.9619     22.1924
   846.2000      7.9147      2.5403      0.0221      6.6504     66.3573     23.2481
   846.3000      7.9504      2.5432      0.0478      6.4738     72.7597     23.7852
   846.4000      7.9504      2.5523      0.0333      5.9198     72.0632     23.3731
   846.5000      7.9584      2.5569      0.0274      5.6398     64.4816     22.3454
   846.6000      7.9584      2.5519      0.1046      5.9475     58.8131     21.3844
   846.7000      7.9584      2.5406      0.0466      6.6289     57.8476     21.1672
   846.8000      7.9628      2.5379      0.0462      6.7952     60.0702     21.8536
   846.9000      7.9628      2.5467      0.0810      6.2597     64.8895     23.1357
   847.0000      7.9451      2.5581      0.0953      5.5701     70.4171     24.3649
   847.1000      7.9451      2.5665      0.0897      5.0603     73.9788     24.8311
   847.2000      7.9451      2.5641      0.0578      5.2045     77.2773     24.6197
   847.3000      7.9181      2.5528      0.0155      5.8925     80.9720     24.2632
   847.4000      7.9181      2.5547      0.0348      5.7759     83.2911     24.1408
   847.5000      7.9115      2.5806      0.1219      4.2030     86.5055     24.3884
   847.6000      7.9115      2.6119      0.1425      2.3061     90.5278     24.6298
   847.7000      7.9115      2.6340      0.0920      0.9723     91.3730     24.6056
   847.8000      7.9189      2.6434      0.1615      0.3989     88.9758     24.4035
   847.9000      7.9189      2.6333      0.0860      1.0141     84.2328     24.0518
   848.0000      7.8992      2.6148      0.0541      2.1363     75.1563     23.6771
   848.1000      7.8992      2.6088      0.0350      2.4957     65.5050     23.4669
   848.2000      7.8992      2.6129      0.0529      2.2471     61.3302     23.3437
   848.3000      7.9059      2.6104      0.0101      2.3974     62.1932     23.0246
   848.4000      7.9059      2.5948      0.0300      3.3457     65.0763     22.7159
   848.5000      7.9376      2.5685      0.0363      4.9421     69.3009     22.9656
   848.6000      7.9376      2.5400      0.0124      6.6672     74.4062     23.6532
   848.7000      7.9376      2.5227      0.0064      7.7164     76.5878     24.1609
   848.8000      7.9562      2.5212     -0.0108      7.8035     75.0048     24.2317
   848.9000      7.9562      2.5298      0.0147      7.2866     72.4446     24.0361
   849.0000      7.9646      2.5434      0.0436      6.4634     69.2023     23.5252
   849.1000      7.9646      2.5640      0.0283      5.2129     65.8514     22.7316
   849.2000      7.9646      2.5871      0.0783      3.8120     65.4066     22.2393
   849.3000      7.9682      2.5977      0.0470      3.1721     67.6714     22.2708
   849.4000      7.9682      2.5943      0.0453      3.3786     69.1452     22.7331
   849.5000      7.9758      2.5860      0.0323      3.8771     69.3997     23.6957
   849.6000      7.9758      2.5716      0.0274      4.7504     70.1666     24.4484
   849.7000      7.9758      2.5516      0.0105      5.9634     69.9659     24.1042
