~Version Information
VERS.                      2.0: CWLS Log ASCII Standard - VERSION 2.0
WRAP.                       NO: One line per depth step
~Well Information Block
STRT.FT                -0.5000: 
STOP.FT              1417.0000: 
STEP.FT                 0.2500: 
NULL.                -999.2500: 
COMP.          Pioneer Natural Resources: COMPANY
WELL.              Darren 11-7: WELL
FLD.           Purgatoire River: FIELD
LOC.           230' FNL & 596' FWL: LOCATION
CNTY.               Las Animas: COUNTY
SRVC.                Patterson: SERVICE COMPANY
DATE.          Thu Mar 30 10:43:52 2006: LOG DATE
UWI.           05 071 08720 00: UNIQUE WELL ID
STAT.                 Colorado: STATE
~Curve Information Block
DEPT.FT            0 000 00 00: Depth
GR.GAPI                       : Gamma Ray
CCL.                          : Casing Collar Locator
TT3.usec                      : CBL 3' Travel Time
AMP3.mV                       : CBL 3' Amplitude
~Parameter Information Block
~A  Depth        GR         CCL         TT3         AMP3    
# ...
   535.5000    119.3597      0.0000    757.6307      8.8984
   535.7500    119.8659      0.0000    757.2622      8.8555
   536.0000    119.8380      0.0000    756.8087      8.8455
   536.2500    119.2057      0.0000    756.5805      8.8584
   536.5000    117.7085      0.0000    756.6898      8.8832
   536.7500    115.5885      0.0000    757.1564      8.9084
   537.0000    113.8705      0.0000    758.0070      8.9182
   537.2500    113.7607      0.0000    759.3462      8.8979
   537.5000    115.6527      0.0000    761.4542      8.8498
   537.7500    118.6228      0.0000    764.8491      8.8002
   538.0000    121.0656      0.0000    770.0291      8.7806
   538.2500    122.1220      0.0000    776.7806      8.8020
   538.5000    122.4883      0.0000    783.6443      8.8428
   538.7500    123.5439      0.0000    788.5041      8.8598
   539.0000    125.7526      0.0000    790.2285      8.8105
   539.2500    128.2928      0.0000    789.8214      8.6728
   539.5000    130.2005      0.0000    789.6409      8.4535
   539.7500    131.3892      0.0000    791.2821      8.1831
   540.0000    132.3754      0.0000    794.3784      7.8980
   540.2500    133.3404      0.0000    797.4644      7.6198
   540.5000    133.7226      0.0000    799.5249      7.3496
   540.7500    132.6885      0.0000    800.5035      7.0824
   541.0000    129.8506      0.0000    800.7823      6.8274
   541.2500    125.4593      0.0000    800.5755      6.6087
   541.5000    120.0333      0.0000    799.6925      6.4482
   541.7500    114.1531      0.0000    797.6576      6.3503
   542.0000    108.8456      0.0000    794.2407      6.3064
   542.2500    105.9325      0.0000    790.2032      6.3089
   542.5000    107.3216      0.0000    787.3604      6.3542
   542.7500    113.4644      0.0000    787.3463      6.4278
   543.0000    122.4558      0.0000    790.0544      6.4956
   543.2500    130.5805      0.0000    793.5221      6.5204
   543.5000    133.9117      0.0000    795.2536      6.4902
   543.7500    130.3321      0.0000    793.4622      6.4272
   544.0000    120.9204      0.0000    787.5017      6.3719
   544.2500    109.3184      0.0000    777.8715      6.3596
   544.5000     99.3075      0.0000    765.8862      6.4094
   544.7500     92.7165      0.0000    753.0739      6.5251
   545.0000     89.1937      0.0000    740.9086      6.6991
   545.2500     87.3879      0.0000    730.8444      6.9105
   545.5000     86.0755      0.0000    723.8569      7.1194
   545.7500     84.3604      0.0000    719.7159      7.2719
   546.0000     81.4276      0.0000    716.9483      7.3211
   546.2500     76.7090      0.0000    713.5761      7.2530
   546.5000     70.3510      0.0000    708.0874      7.0990
   546.7500     63.2737      0.0000    700.3163      6.9256
   547.0000     56.7476      0.0000    691.7927      6.8072
   547.2500     51.8794      0.0000    685.0930      6.7896
   547.5000     49.1108      0.0000    682.4860      6.8609
   547.7500     47.9475      0.0000    684.8375      6.9539
   548.0000     47.3636      0.0000    691.2350      6.9946
   548.2500     46.6364      0.0000    699.3885      6.9648
   548.5000     45.7490      0.0000    706.7621      6.9168
   548.7500     45.1129      0.0000    711.8401      6.9181
   549.0000     45.1599      0.0000    714.5313      6.9809
   549.2500     46.1189      0.0000    715.5616      7.0517
   549.5000     47.8482      0.0000    715.6620      7.0696
   549.7500     49.7673      0.0000    715.1782      7.0235
   550.0000     51.0803      0.0000    714.0403      6.9433
   550.2500     51.2407      0.0000    711.9880      6.8522
   550.5000     50.2976      0.0000    709.1005      6.7511
   550.7500     48.8050      0.0000    706.3043      6.6510
   551.0000     47.3457      0.0000    705.0806      6.5966
   551.2500     46.1768      0.0000    706.3433      6.6403
   551.5000     45.3578      0.0000    709.7808      6.7968
   551.7500     45.0513      0.0000    714.4102      7.0307
   552.0000     45.5868      0.0000    719.2613      7.2878
   552.2500     47.4126      0.0000    723.2564      7.5334
   552.5000     51.0932      0.0000    725.1910      7.7645
   552.7500     57.1163      0.0000    724.6120      7.9931
   553.0000     65.3141      0.0000    722.4549      8.2287
   553.2500     74.2403      0.0000    720.2869      8.4735
   553.5000     81.2635      0.0000    719.0389      8.7201
   553.7500     83.7834      0.0000    718.6720      8.9476
   554.0000     80.8382      0.0000    718.7337      9.1300
   554.2500     73.7248      0.0000    718.8998      9.2654
   554.5000     65.0935      0.0000    719.0726      9.4096
   554.7500     57.3810      0.0000    719.2357      9.6682
   555.0000     51.7866      0.0000    719.3488     10.1183
   555.2500     48.3049      0.0000    719.3628     10.7135
   555.5000     46.4344      0.0000    719.2881     11.2780
   555.7500     45.7497      0.0000    719.1996     11.6136
   556.0000     45.9116      0.0000    719.2021     11.6126
   556.2500     46.4766      0.0000    719.4291     11.2767
   556.5000     46.9954      0.0000    720.1054     10.6658
   556.7500     47.3070      0.0000    721.4962      9.8601
   557.0000     47.5786      0.0000    723.5348      8.9621
   557.2500     47.9065      0.0000    725.3029      8.0939
   557.5000     47.9125      0.0000    725.0350      7.3576
   557.7500     47.0063      0.0000    720.7472      6.7902
   558.0000     45.1792      0.0000    710.7028      6.3533
   558.2500     43.2638      0.0000    693.5867      5.9638
   558.5000     42.1445      0.0000    669.3554      5.5387
   558.7500     41.8041      0.0000    640.4720      5.0399
   559.0000     41.3958      0.0000    611.5757      4.5133
   559.2500     40.2859      0.0000    587.4117      4.0949
   559.5000     38.7798      0.0000    571.4208      3.9566
   559.7500     37.7788      0.0000    566.2527      4.2006
   560.0000     38.0867      0.0000    574.2634      4.7666
   560.2500     40.2015      0.0000    595.8640      5.4309
   560.5000     44.3911      0.0000    627.0933      5.9348
   560.7500     50.6748      0.0000    660.0344      6.1533
   561.0000     58.9807      0.0000    686.9241      6.1525
   561.2500     69.5328      0.0000    704.2499      6.0889
   561.5000     82.7400      0.0000    713.1627      6.0743
   561.7500     98.2066      0.0000    716.8331      6.1313
   562.0000    113.8956      0.0000    717.9756      6.2320
   562.2500    126.7292      0.0000    718.1286      6.3462
   562.5000    134.3150      0.0000    717.9930      6.4568
   562.7500    136.1892      0.0000    717.8324      6.5528
   563.0000    133.7336      0.0000    717.6968      6.6257
   563.2500    129.3435      0.0000    717.5917      6.6747
   563.5000    125.6615      0.0000    717.5743      6.7103
   563.7500    124.9144      0.0000    717.7722      6.7510
   564.0000    127.9425      0.0000    718.4030      6.8141
   564.2500    133.3526      0.0000    719.8724      6.9020
   564.5000    138.0607      0.0000    722.8046      6.9982
   564.7500    139.2465      0.0000    727.6528      7.0769
   565.0000    135.8854      0.0000    733.9667      7.1205
   565.2500    128.4461      0.0000    740.2406      7.1263
   565.5000    117.8100      0.0000    744.8893      7.1020
   565.7500    105.2092      0.0000    747.2756      7.0578
   566.0000     92.7308      0.0000    747.5568      7.0028
   566.2500     82.5996      0.0000    746.0025      6.9425
   566.5000     75.5390      0.0000    742.9910      6.8737
   566.7500     70.3813      0.0000    739.2825      6.7848
   567.0000     65.5520      0.0000    735.6849      6.6688
   567.2500     60.6211      0.0000    732.3356      6.5515
   567.5000     56.3471      0.0000    728.6782      6.5051
   567.7500     53.5784      0.0000    724.5304      6.5978
   568.0000     52.1904      0.0000    720.8596      6.7985
   568.2500     50.8836      0.0000    718.8375      6.9642
   568.5000     48.1209      0.0000    718.3170      6.9634
   568.7500     43.5664      0.0000    718.0797      6.7884
