~Version Information
VERS.                      2.0: CWLS Log ASCII Standard - VERSION 2.0
WRAP.                       NO: One line per depth step
~Well Information Block
STRT.FT               335.0000: 
STOP.FT              1154.7000: 
STEP.FT                 0.1000: 
NULL.                -999.2500: 
COMP.          Pioneer Natural Resources: COMPANY
WELL.             Croc 42-9 Tr: WELL
FLD.           Purgatoire River: FIELD
LOC.           2429' FNL & 315' FEL--: LOCATION
STAT.                 Colorado: State
CNTY.               Las Animas: COUNTY
CTRY. USA : Country
SECT. 9 : Section
TOWN. 32S : Township
RANG. 66W : Range
SRVC.                Patterson: SERVICE COMPANY
DATE.          Fri Oct 14 07:56:23 2005: LOG DATE
API.           05 071 08550 00: UNIQUE WELL ID
~Curve Information Block
DEPT.FT            0 000 00 00: Depth
DCAL.in                       : CDL Caliper
RHOB.g/cc                     : CDL Bulk Density
RHOC.g/cc                     : CDL Density Correction
DPOR.pu                       : CDL Density Porosity
NPOR.pu                       : Neutron Porosity
GR.GAPI                       : Gamma Ray
~Parameter Information Block
~A  Depth       DCAL        RHOB        RHOC        DPOR        NPOR         GR     
# ...
   594.2000      8.0109      2.4990      0.0431      9.1498     16.6552     73.0234
   594.3000      8.0248      2.4889      0.0191      9.7629     15.7254     74.5434
   594.4000      8.0248      2.4972      0.0702      9.2610     16.4873     75.3837
   594.5000      8.0351      2.4991      0.1144      9.1435     17.1961     75.1613
   594.6000      8.0351      2.4792      0.0258     10.3526     16.2472     75.0077
   594.7000      8.0351      2.4520      0.0323     12.0000     17.1847     77.8228
   594.8000      8.0424      2.4266      0.0523     13.5392     19.8073     78.9558
   594.9000      8.0424      2.4026      0.0208     14.9919     19.4807     73.2270
   595.0000      8.0460      2.3894      0.0412     15.7964     17.6534     66.9597
   595.1000      8.0460      2.3932      0.0408     15.5623     19.1077     67.3310
   595.2000      8.0460      2.4035      0.0591     14.9416     21.7555     70.0990
   595.3000      8.0475      2.4025      0.0852     15.0020     20.5843     69.9975
   595.4000      8.0475      2.3948      0.0257     15.4673     18.1252     70.9628
   595.5000      8.0475      2.4010      0.0315     15.0935     18.4410     75.8279
   595.6000      8.0475      2.4209      0.0681     13.8825     20.0399     79.8609
   595.7000      8.0475      2.4391      0.0764     12.7821     20.0474     77.5002
   595.8000      8.0469      2.4478      0.0790     12.2530     19.9329     71.3691
   595.9000      8.0469      2.4505      0.0538     12.0926     21.0518     69.2018
   596.0000      8.0472      2.4510      0.0806     12.0603     20.8128     71.1065
   596.1000      8.0472      2.4481      0.0423     12.2381     18.2512     71.3677
   596.2000      8.0472      2.4433      0.0629     12.5289     16.5888     68.4381
   596.3000      8.0488      2.4412      0.0563     12.6560     16.9438     64.5270
   596.4000      8.0488      2.4406      0.0705     12.6904     16.5380     61.3765
   596.5000      8.0506      2.4334      0.0714     13.1275     14.8071     60.4017
   596.6000      8.0506      2.4175      0.0346     14.0894     15.4238     61.8823
   596.7000      8.0506      2.4054      0.0111     14.8221     19.0867     63.8874
   596.8000      8.0515      2.4045      0.0468     14.8787     21.0200     63.6387
   596.9000      8.0515      2.4077      0.0448     14.6868     19.4357     60.4003
   597.0000      8.0512      2.4129      0.0383     14.3686     19.0501     58.0482
   597.1000      8.0512      2.4270      0.0208     13.5127     20.0548     61.1264
   597.2000      8.0512      2.4444      0.0661     12.4604     18.7396     68.1003
   597.3000      8.0514      2.4521      0.0547     11.9935     16.9784     73.3229
   597.4000      8.0514      2.4495      0.0744     12.1500     17.9443     73.6901
   597.5000      8.0519      2.4414      0.0566     12.6413     19.7675     72.1635
   597.6000      8.0519      2.4336      0.0350     13.1122     19.1691     73.4359
   597.7000      8.0519      2.4349      0.0299     13.0346     18.1990     75.7086
   597.8000      8.0489      2.4508      0.0451     12.0700     20.1015     75.6192
   597.9000      8.0489      2.4750      0.0715     10.6087     22.6806     73.1881
   598.0000      8.0416      2.4913      0.1055      9.6165     21.6660     69.6348
   598.1000      8.0416      2.4946      0.0724      9.4159     19.5315     69.0180
   598.2000      8.0416      2.4988      0.0490      9.1662     20.7844     74.2106
   598.3000      8.0336      2.5070      0.1034      8.6671     22.7099     82.1936
   598.4000      8.0336      2.5018      0.0806      8.9829     21.4610     87.8852
   598.5000      8.0302      2.4895      0.0376      9.7299     20.2839     87.6826
   598.6000      8.0302      2.4994      0.0349      9.1268     20.9663     83.5259
   598.7000      8.0302      2.5332      0.0889      7.0779     21.7382     82.1624
   598.8000      8.0331      2.5643      0.1048      5.1919     21.8824     86.2039
   598.9000      8.0331      2.5775      0.0866      4.3941     20.5492     91.6455
   599.0000      8.0395      2.5748      0.1025      4.5579     19.2449     94.2481
   599.1000      8.0395      2.5667      0.0614      5.0498     21.0820     93.5893
   599.2000      8.0395      2.5703      0.0479      4.8277     23.7190     91.2388
   599.3000      8.0418      2.5829      0.0879      4.0663     23.0647     90.0444
   599.4000      8.0418      2.5794      0.0524      4.2800     21.9987     91.6888
   599.5000      8.0415      2.5536      0.0243      5.8394     23.8894     95.3528
   599.6000      8.0415      2.5267     -0.0085      7.4746     26.0394     99.1598
   599.7000      8.0415      2.5221     -0.0511      7.7524     24.1276    100.7173
   599.8000      8.0441      2.5401      0.0178      6.6591     20.4727     97.9015
   599.9000      8.0441      2.5585      0.0195      5.5444     20.2919     91.8068
   600.0000      8.0456      2.5604      0.0624      5.4285     21.9621     85.8518
   600.1000      8.0456      2.5474      0.0034      6.2205     20.7672     82.9016
   600.2000      8.0456      2.5344      0.0277      7.0042     19.0100     81.4441
   600.3000      8.0458      2.5302      0.0781      7.2632     20.9340     80.5191
   600.4000      8.0458      2.5328      0.0389      7.1040     23.7947     82.3945
   600.5000      8.0491      2.5345      0.0660      7.0020     22.5709     86.6640
   600.6000      8.0491      2.5245      0.0383      7.6080     20.2732     88.5637
   600.7000      8.0491      2.5085      0.0342      8.5729     21.0497     86.9869
   600.8000      8.0508      2.5016     -0.0024      8.9952     22.6826     85.0076
   600.9000      8.0508      2.5016      0.0601      8.9946     22.2074     84.6564
   601.0000      8.0475      2.4975      0.0106      9.2439     21.7425     86.6050
   601.1000      8.0475      2.4967      0.0013      9.2899     23.8546     90.5627
   601.2000      8.0475      2.5023      0.0636      8.9533     25.8627     93.8401
   601.3000      8.0395      2.5021      0.0322      8.9607     24.3779     92.1620
   601.4000      8.0395      2.4982      0.0709      9.2023     23.2808     88.4758
   601.5000      8.0310      2.4954      0.0696      9.3713     25.8063     90.7170
   601.6000      8.0310      2.4927      0.0350      9.5309     27.1836     96.1484
   601.7000      8.0310      2.4942      0.0299      9.4408     23.6498     97.5538
   601.8000      8.0260      2.5005      0.0908      9.0586     20.2600     96.8045
   601.9000      8.0260      2.5091      0.0231      8.5421     20.3118     97.1817
   602.0000      8.0240      2.5232      0.0477      7.6828     21.1979     97.4870
   602.1000      8.0240      2.5370      0.0643      6.8505     21.6809     96.0652
   602.2000      8.0240      2.5363      0.0521      6.8929     22.5633     94.0151
   602.3000      8.0234      2.5142      0.0408      8.2281     23.8230     92.0808
   602.4000      8.0234      2.4796     -0.0094     10.3263     25.6626     91.3639
   602.5000      8.0236      2.4552      0.0061     11.8069     25.6033     94.8160
   602.6000      8.0236      2.4522      0.0030     11.9902     22.4898    100.2082
   602.7000      8.0236      2.4615      0.0419     11.4256     20.6555    101.8116
   602.8000      8.0238      2.4717      0.0165     10.8060     20.7169    100.0823
   602.9000      8.0238      2.4765      0.0530     10.5122     19.7092     98.1375
   603.0000      8.0244      2.4752      0.0088     10.5956     19.1071     97.3394
   603.1000      8.0244      2.4714      0.0454     10.8248     21.2660     96.6655
   603.2000      8.0244      2.4637      0.0636     11.2921     23.2433     94.9838
   603.3000      8.0247      2.4518      0.0428     12.0100     21.3041     92.9947
   603.4000      8.0247      2.4449      0.0484     12.4304     18.1054     90.3595
   603.5000      8.0245      2.4485      0.0343     12.2144     18.2003     88.4883
   603.6000      8.0245      2.4562      0.0592     11.7472     20.8774     91.7580
   603.7000      8.0245      2.4563      0.0944     11.7418     22.0323     97.9718
