~Version Information
VERS.                      2.0: CWLS Log ASCII Standard - VERSION 2.0
WRAP.                       NO: One line per depth step
~Well Information Block
STRT.FT               240.0000: 
STOP.FT              1159.2500: 
STEP.FT                 0.2500: 
NULL.                -999.2500: 
COMP.          Pioneer Natural Resources: COMPANY
WELL.               Ryan 41-17: WELL
FLD.           Purgatoire River: FIELD
LOC.           822' FNL & 532' FEL--: LOCATION
CNTY.               Las Animas: COUNTY
SRVC.                Patterson: SERVICE COMPANY
DATE.          Thu Mar 16 16:50:09 2006: LOG DATE
UWI.           05 071 08719 00: UNIQUE WELL ID
STAT.                 Colorado: STATE
~Curve Information Block
DEPT.FT            0 000 00 00: Depth
SN.Ohm-m                      : IEL Short Normal
SP.mV                         : IEL Spontaneous Potential
DIR.Ohm-m                     : IEL Induction Resistivity
GR.GAPI                       : Gamma Ray
~Parameter Information Block
~A  Depth        SN          SP         DIR          GR     
# ...
   474.5000   2000.0000   2000.0000     14.4209    145.5532
   474.7500   2000.0000   2000.0000     13.9500    144.2509
   475.0000   2000.0000   2000.0000     13.4999    142.8416
   475.2500   2000.0000   2000.0000     13.0863    142.9713
   475.5000   2000.0000   2000.0000     12.7087    145.3979
   475.7500   2000.0000   2000.0000     12.3527    148.1149
   476.0000   2000.0000   2000.0000     11.9965    152.2920
   476.2500   2000.0000   2000.0000     11.6198    154.4590
   476.5000   2000.0000   2000.0000     11.2127    156.8444
   476.7500   2000.0000   2000.0000     10.7783    158.3476
   477.0000   2000.0000   2000.0000     10.3300    160.9428
   477.2500   2000.0000   2000.0000      9.8864    162.6573
   477.5000   2000.0000   2000.0000      9.4679    164.2629
   477.7500   2000.0000   2000.0000      9.0937    164.2104
   478.0000   2000.0000   2000.0000      8.7780    162.2806
   478.2500   2000.0000   2000.0000      8.5272    160.1463
   478.5000   2000.0000   2000.0000      8.3387    156.7958
   478.7500   2000.0000   2000.0000      8.2047    154.9579
   479.0000   2000.0000   2000.0000      8.1182    152.9176
   479.2500   2000.0000   2000.0000      8.0770    151.8524
   479.5000   2000.0000   2000.0000      8.0853    150.5566
   479.7500   2000.0000   2000.0000      8.1514    149.9434
   480.0000   2000.0000   2000.0000      8.2862    149.2390
   480.2500   2000.0000   2000.0000      8.5022    148.4941
   480.5000   2000.0000   2000.0000      8.8137    146.1183
   480.7500   2000.0000   2000.0000      9.2358    143.5860
   481.0000   2000.0000   2000.0000      9.7822    139.0326
   481.2500   2000.0000   2000.0000     10.4593    135.8784
   481.5000   2000.0000   2000.0000     11.2609    130.7071
   481.7500   2000.0000   2000.0000     12.1637    126.5245
   482.0000   2000.0000   2000.0000     13.1324    119.2694
   482.2500   2000.0000   2000.0000     14.1323    114.6109
   482.5000   2000.0000   2000.0000     15.1458    109.5529
   482.7500   2000.0000   2000.0000     16.1768    107.9479
   483.0000   2000.0000   2000.0000     17.2363    108.1671
   483.2500   2000.0000   2000.0000     18.3205    109.8524
   483.5000   2000.0000   2000.0000     19.3936    114.0341
   483.7500   2000.0000   2000.0000     20.3852    117.2119
   484.0000   2000.0000   2000.0000     21.2051    120.9839
   484.2500   2000.0000   2000.0000     21.7709    122.1760
   484.5000   2000.0000   2000.0000     22.0414    122.0952
   484.7500   2000.0000   2000.0000     22.0358    121.5475
   485.0000   2000.0000   2000.0000     21.8245    121.3469
   485.2500   2000.0000   2000.0000     21.4956    121.8035
   485.5000   2000.0000   2000.0000     21.1172    122.5596
   485.7500   2000.0000   2000.0000     20.7186    122.6336
   486.0000   2000.0000   2000.0000     20.2950    122.3946
   486.2500   2000.0000   2000.0000     19.8315    122.7766
   486.5000   2000.0000   2000.0000     19.3264    125.6115
   486.7500   2000.0000   2000.0000     18.7993    129.4602
   487.0000   2000.0000   2000.0000     18.2818    137.6764
   487.2500   2000.0000   2000.0000     17.8030    143.6453
   487.5000   2000.0000   2000.0000     17.3846    150.7991
   487.7500   2000.0000   2000.0000     17.0440    153.4716
   488.0000   2000.0000   2000.0000     16.7974    154.5802
   488.2500   2000.0000   2000.0000     16.6604    154.0281
   488.5000   2000.0000   2000.0000     16.6447    151.8448
   488.7500   2000.0000   2000.0000     16.7558    149.3600
   489.0000   2000.0000   2000.0000     16.9928    143.7143
   489.2500   2000.0000   2000.0000     17.3484    138.6870
   489.5000   2000.0000   2000.0000     17.8107    129.7266
   489.7500   2000.0000   2000.0000     18.3656    123.2375
   490.0000   2000.0000   2000.0000     19.0005    113.6388
   490.2500   2000.0000   2000.0000     19.7060    107.9251
   490.5000   2000.0000   2000.0000     20.4689    101.2559
   490.7500   2000.0000   2000.0000     21.2617     98.3254
   491.0000   2000.0000   2000.0000     22.0372     96.0234
   491.2500   2000.0000   2000.0000     22.7387     95.4723
   491.5000   2000.0000   2000.0000     23.3218     95.2260
   491.7500   2000.0000   2000.0000     23.7718     94.9932
   492.0000   2000.0000   2000.0000     24.1016     93.9658
   492.2500   2000.0000   2000.0000     24.3335     92.6671
   492.5000   2000.0000   2000.0000     24.4840     90.1122
   492.7500   2000.0000   2000.0000     24.5612     88.5489
   493.0000   2000.0000   2000.0000     24.5731     87.3789
   493.2500   2000.0000   2000.0000     24.5336     87.5758
   493.5000   2000.0000   2000.0000     24.4610     88.9479
   493.7500   2000.0000   2000.0000     24.3732     90.1669
   494.0000   2000.0000   2000.0000     24.2872     91.7451
   494.2500   2000.0000   2000.0000     24.2217     92.2330
   494.5000   2000.0000   2000.0000     24.2003     91.5618
   494.7500   2000.0000   2000.0000     24.2458     90.0893
   495.0000   2000.0000   2000.0000     24.3697     86.7222
   495.2500   2000.0000   2000.0000     24.5648     84.1544
   495.5000   2000.0000   2000.0000     24.8061     80.7617
   495.7500   2000.0000   2000.0000     25.0629     79.2814
   496.0000   2000.0000   2000.0000     25.3104     78.4108
   496.2500   2000.0000   2000.0000     25.5340     78.3610
   496.5000   2000.0000   2000.0000     25.7229     78.2830
   496.7500   2000.0000   2000.0000     25.8637     78.1906
   497.0000   2000.0000   2000.0000     25.9419     78.8038
   497.2500   2000.0000   2000.0000     25.9546     80.2491
   497.5000   2000.0000   2000.0000     25.9237     84.2148
   497.7500   2000.0000   2000.0000     25.8948     87.8593
   498.0000   2000.0000   2000.0000     25.9207     94.3238
   498.2500   2000.0000   2000.0000     26.0414     98.9167
   498.5000   2000.0000   2000.0000     26.2767    105.1697
   498.7500   2000.0000   2000.0000     26.6295    108.0450
   499.0000   2000.0000   2000.0000     27.0899    108.8376
   499.2500   2000.0000   2000.0000     27.6338    106.4339
   499.5000   2000.0000   2000.0000     28.2213     98.9403
   499.7500   2000.0000   2000.0000     28.8032     92.7279
   500.0000   2000.0000   2000.0000     29.3347     84.8773
   500.2500   2000.0000   2000.0000     29.7864     82.1677
   500.5000   2000.0000   2000.0000     30.1425     82.8176
   500.7500   2000.0000   2000.0000     30.3917     85.9804
   501.0000   2000.0000   2000.0000     30.5224     93.1122
   501.2500   2000.0000   2000.0000     30.5264     98.2425
   501.5000   2000.0000   2000.0000     30.4034    104.7813
   501.7500   2000.0000   2000.0000     30.1608    107.8735
   502.0000   2000.0000   2000.0000     29.8126    110.5676
   502.2500   2000.0000   2000.0000     29.3830    111.2564
   502.5000   2000.0000   2000.0000     28.9107    111.1644
   502.7500   2000.0000   2000.0000     28.4467    110.8625
   503.0000   2000.0000   2000.0000     28.0414    110.9804
   503.2500   2000.0000   2000.0000     27.7294    111.5880
   503.5000   2000.0000   2000.0000     27.5231    112.4771
   503.7500   2000.0000   2000.0000     27.4171    112.2709
   504.0000   2000.0000   2000.0000     27.3953    109.9649
   504.2500   2000.0000   2000.0000     27.4365    107.3641
   504.5000   2000.0000   2000.0000     27.5164    103.4366
   504.7500   2000.0000   2000.0000     27.6105    101.7515
   505.0000   2000.0000   2000.0000     27.6983    101.0926
   505.2500   2000.0000   2000.0000     27.7680    101.3913
   505.5000   2000.0000   2000.0000     27.8212    101.5967
   505.7500   2000.0000   2000.0000     27.8736    101.0915
   506.0000   2000.0000   2000.0000     27.9491     99.5147
   506.2500   2000.0000   2000.0000     28.0696     98.2660
   506.5000   2000.0000   2000.0000     28.2450     96.2207
   506.7500   2000.0000   2000.0000     28.4718     94.3963
   507.0000   2000.0000   2000.0000     28.7407     90.3280
   507.2500   2000.0000   2000.0000     29.0424     86.7526
   507.5000   2000.0000   2000.0000     29.3631     80.9050
   507.7500   2000.0000   2000.0000     29.6736     77.3324
