~Version Information
VERS.                      2.0: CWLS Log ASCII Standard - VERSION 2.0
WRAP.                       NO: One line per depth step
~Well Information Block
STRT.FT               580.0000: 
STOP.FT              1179.0000: 
STEP.FT                 0.1000: 
NULL.                -999.2500: 
COMP.          Pioneer Natural Resources: COMPANY
WELL.          Tin Barn 14-20 TR: WELL
FLD.           Purgatorie River: FIELD
LOC.           925 FSL & 1151 FWL: LOCATION
PROV.                 Colorado: PROVINCE
CNTY.               Las Animas: COUNTRY
SRVC.                Patterson: SERVICE COMPANY
DATE.          Thu Jan 12 12:02:37 2006: LOG DATE
UWI.                          : UNIQUE WELL ID
~Curve Information Block
DEPT.FT            0 000 00 00: Depth
DCAL.in                       : CDL Caliper
RHOB.g/cc                     : CDL Bulk Density
RHOC.g/cc                     : CDL Density Correction
DPOR.pu                       : CDL Density Porosity
GR.GAPI                       : Gamma Ray
~Parameter Information Block
~A  Depth       DCAL        RHOB        RHOC        DPOR         GR     
# ...
   972.0000      7.9284      2.2885      0.1009     21.9110     94.1882
   972.1000      7.9284      2.2176      0.1189     26.2064     95.5329
   972.2000      7.9284      2.1172      0.0813     32.2900     99.0547
   972.3000      7.9432      1.9936      0.0411     39.7815    101.9847
   972.4000      7.9432      1.8654      0.0442     47.5518    103.1107
   972.5000      7.9325      1.7352      0.0130     55.4446     99.3659
   972.6000      7.9325      1.6114     -0.0778     62.9453     92.6488
   972.7000      7.9325      1.5236     -0.0911     68.2665     87.5469
   972.8000      7.9056      1.4860     -0.0571     70.5428     85.5961
   972.9000      7.9056      1.4877     -0.0124     70.4454     86.3326
   973.0000      7.9358      1.5200      0.0073     68.4877     87.4396
   973.1000      7.9358      1.5802      0.0513     64.8334     87.8503
   973.2000      7.9358      1.6559      0.0799     60.2506     89.5986
   973.3000      8.0180      1.7347      0.0891     55.4755     94.5349
   973.4000      8.0180      1.8189      0.1414     50.3721     99.8642
   973.5000      8.0550      1.9115      0.1481     44.7595    101.5024
   973.6000      8.0550      2.0008      0.1843     39.3474    101.6785
   973.7000      8.0550      2.0693      0.1632     35.1928    105.3186
   973.8000      8.1137      2.1158      0.0656     32.3743    114.4425
   973.9000      8.1137      2.1503      0.0454     30.2859    126.1133
   974.0000      8.0374      2.1845      0.0125     28.2143    133.0257
   974.1000      8.0374      2.2418      0.0117     24.7393    133.0830
   974.2000      8.0374      2.3334      0.1086     19.1862    132.6837
   974.3000      7.9893      2.4279      0.1946     13.4605    133.6869
   974.4000      7.9893      2.4906      0.0960      9.6628    131.4533
   974.5000      7.9604      2.5292      0.1195      7.3221    125.4024
   974.6000      7.9604      2.5652      0.1882      5.1411    119.7853
   974.7000      7.9604      2.5989      0.1866      3.0999    117.7292
   974.8000      7.8898      2.6138      0.2212      2.1964    116.8911
   974.9000      7.8898      2.6003      0.1206      3.0109    113.7739
   975.0000      7.8999      2.5768      0.0766      4.4381    108.9215
   975.1000      7.8999      2.5662      0.0645      5.0778    105.1230
   975.2000      7.8999      2.5669      0.0576      5.0356    105.5275
   975.3000      7.8978      2.5674      0.0730      5.0055    111.1779
   975.4000      7.8978      2.5659      0.0652      5.0987    118.1949
   975.5000      7.9140      2.5625      0.0434      5.3012    121.6434
   975.6000      7.9140      2.5520      0.0434      5.9418    121.8377
   975.7000      7.9140      2.5284      0.0269      7.3723    121.8036
   975.8000      7.9131      2.5040     -0.0026      8.8505    122.1093
   975.9000      7.9131      2.5030     -0.0005      8.9098    120.8627
   976.0000      7.9118      2.5228      0.0468      7.7070    117.4148
   976.1000      7.9118      2.5396      0.0832      6.6901    114.7265
   976.2000      7.9118      2.5508      0.0655      6.0140    114.3184
   976.3000      7.9124      2.5694      0.0661      4.8824    113.6147
   976.4000      7.9124      2.5920      0.1041      3.5165    110.3568
   976.5000      7.9106      2.6004      0.1049      3.0031    105.1420
   976.6000      7.9106      2.5902      0.0600      3.6250    101.2764
   976.7000      7.9106      2.5783      0.0323      4.3427    100.3507
   976.8000      7.9111      2.5799      0.0362      4.2457     99.5385
   976.9000      7.9111      2.5886      0.0740      3.7191     97.1409
   977.0000      7.9082      2.5876      0.0684      3.7841     95.1008
   977.1000      7.9082      2.5723      0.0650      4.7089     95.9753
   977.2000      7.9082      2.5545      0.0283      5.7876     98.7991
   977.3000      7.8981      2.5486      0.0475      6.1471     99.9137
   977.4000      7.8981      2.5531      0.0511      5.8708     98.0025
   977.5000      7.8780      2.5562      0.0433      5.6862     94.7259
   977.6000      7.8780      2.5613      0.0059      5.3764     93.3367
   977.7000      7.8780      2.5773      0.0520      4.4051     94.9867
   977.8000      7.8699      2.5868      0.0738      3.8278     97.0857
   977.9000      7.8699      2.5702      0.0345      4.8365     96.8584
   978.0000      7.8603      2.5413      0.0147      6.5884     93.5916
   978.1000      7.8603      2.5234      0.0588      7.6706     89.3231
   978.2000      7.8603      2.5240      0.0335      7.6369     87.1717
   978.3000      7.8692      2.5405      0.0236      6.6392     85.9602
   978.4000      7.8692      2.5608      0.0486      5.4032     83.5177
   978.5000      7.8806      2.5730      0.0359      4.6671     81.9935
   978.6000      7.8806      2.5735      0.0329      4.6364     84.6504
   978.7000      7.8806      2.5602      0.0510      5.4421     91.4362
   978.8000      7.9023      2.5432     -0.0219      6.4707     96.1299
   978.9000      7.9023      2.5432      0.0404      6.4757     95.6167
   979.0000      7.8993      2.5539      0.0445      5.8264     94.1790
   979.1000      7.8993      2.5536      0.0322      5.8424     94.0738
   979.2000      7.8993      2.5393      0.0400      6.7063     94.0732
   979.3000      7.9079      2.5224      0.0131      7.7345     94.0071
   979.4000      7.9079      2.5109      0.0109      8.4275     95.3603
   979.5000      7.9121      2.5106      0.0116      8.4460     96.3865
   979.6000      7.9121      2.5230      0.0127      7.6978     95.2331
   979.7000      7.9121      2.5402      0.0164      6.6554     93.8543
   979.8000      7.9197      2.5510      0.0507      6.0029     92.6195
   979.9000      7.9197      2.5474      0.0398      6.2206     91.0965
   980.0000      7.9284      2.5345      0.0208      6.9982     90.5008
   980.1000      7.9284      2.5270      0.0012      7.4555     91.3155
   980.2000      7.9284      2.5293      0.0209      7.3136     93.9872
   980.3000      7.9261      2.5338      0.0346      7.0419     98.9602
   980.4000      7.9261      2.5390      0.0359      6.7285    104.4743
   980.5000      7.9218      2.5486      0.0483      6.1454    108.3909
   980.6000      7.9218      2.5577      0.0577      5.5909    111.5443
   980.7000      7.9218      2.5611      0.0381      5.3880    114.9423
   980.8000      7.9094      2.5635      0.0258      5.2429    116.7124
   980.9000      7.9094      2.5681      0.0378      4.9614    114.7193
   981.0000      7.9188      2.5717      0.0356      4.7472    110.8866
   981.1000      7.9188      2.5717      0.0237      4.7449    109.5935
   981.2000      7.9188      2.5731      0.0032      4.6592    111.7376
   981.3000      7.9327      2.5840      0.0347      4.0022    115.2438
   981.4000      7.9327      2.5986      0.0408      3.1182    117.6565
   981.5000      7.9226      2.6005      0.0823      2.9970    116.8429
   981.6000      7.9226      2.5850      0.0572      3.9413    112.7705
   981.7000      7.9226      2.5669     -0.0023      5.0390    108.6294
   981.8000      7.9300      2.5638      0.0136      5.2267    107.2304
   981.9000      7.9300      2.5732      0.0057      4.6546    107.3376
   982.0000      7.9211      2.5780      0.0369      4.3639    106.8894
   982.1000      7.9211      2.5697      0.0465      4.8683    105.9131
   982.2000      7.9211      2.5602     -0.0179      5.4431    104.9212
   982.3000      7.9043      2.5617      0.0063      5.3527    104.5569
   982.4000      7.9043      2.5655      0.0426      5.1207    104.6055
   982.5000      7.8985      2.5663     -0.0055      5.0740    103.3168
   982.6000      7.8985      2.5696      0.0665      4.8710    101.1903
   982.7000      7.8985      2.5698      0.0395      4.8605    100.3330
   982.8000      7.8783      2.5693     -0.0066      4.8889     99.6065
   982.9000      7.8783      2.5810      0.0560      4.1815     97.1691
   983.0000      7.8711      2.5970      0.0688      3.2124     95.2030
   983.1000      7.8711      2.6118      0.0306      2.3158     96.3921
