~Version Information
VERS.                                  2.0 : CWLS LAS VERSION
WRAP.                                   NO : WRAPING MODE
SWARE .                  MController 2.5.1 : SOFTWARE VERSION
~Well Information
WELL.                  Horesfeathers 24-34 : WELL
COMP.  Pioneer Natural Resources USA, Inc. : COMPANY
FLD.                      Purgatoire River : FIELD
LOC.                      SE/SW 34-32S-67W : LOCATION
DATE.                02/03/2006-02/05/2006 : DATE(S) LOGGED
SRVC.                  Entrada GeoSciences : SERVICE COMPANY
STAT.                             Colorado : STATE
CNTY.                           Las Animas : COUNTY
CTRY.                        United States : COUNTRY
API.                          05-071-xxxxx : API NUMBER
STRT.FT                             514.00 : START DEPTH
STOP.FT                            2575.00 : STOP DEPTH
STEP.FT                               1.00 : DEPTH INCREMENT
NULL.                                -9999 : NULL VALUE
~Curve information
DEPTH.FT                                   :
ROP.MIN/FT                                 :
GAS.UNITS                                  :
~ASCII Log data
# ...
     1750.00         0.23         14.3
     1751.00         0.17         14.3
     1752.00         0.17         14.0
     1753.00         0.23         14.5
     1754.00         0.23         15.1
     1755.00         0.25         15.1
     1756.00         0.30         17.8
     1757.00         0.27         19.2
     1758.00         0.27         20.0
     1759.00         0.30         19.9
     1760.00         0.23         19.5
     1761.00         0.73         22.7
     1762.00         0.33         22.2
     1763.00         0.33         21.7
     1764.00         0.17         20.2
     1765.00         0.30         17.4
     1766.00         0.17         17.9
     1767.00         0.13          5.8
     1768.00         0.28          9.3
     1769.00         0.23         19.9
     1770.00         0.23         29.6
     1771.00         0.23         43.7
     1772.00         0.27         42.3
     1773.00         0.30         41.8
     1774.00         0.23         36.2
     1775.00         0.20         34.5
     1776.00         0.20         22.1
     1777.00         0.23         22.1
     1778.00         0.27         20.3
     1779.00         0.30         12.1
     1780.00         0.33          9.8
     1781.00         0.38         10.8
     1782.00         0.37         14.2
     1783.00         0.37         16.8
     1784.00         0.33         20.0
     1785.00         0.27         24.2
     1786.00         0.27         25.7
     1787.00         0.23         26.8
     1788.00         0.30         27.8
     1789.00         0.30         28.3
     1790.00         0.30         28.3
     1791.00         0.13         28.2
     1792.00         0.33         26.7
     1793.00         0.40         27.3
     1794.00         0.33         27.3
     1795.00         0.35         26.7
     1796.00         0.30         26.0
     1797.00         0.33         13.6
     1798.00         0.37         35.7
     1799.00         0.33         73.9
     1800.00         0.17         79.6
     1801.00         0.20         81.4
     1802.00         0.20         79.2
     1803.00         0.20         78.2
     1804.00         0.27         64.7
     1805.00         0.17         63.2
     1806.00         0.23         50.6
     1807.00         0.23         35.8
     1808.00         0.23         34.2
     1809.00         0.32         19.6
     1810.00         0.20          9.8
     1811.00         0.27          9.5
     1812.00         0.23          8.1
     1813.00         0.37          9.2
     1814.00         0.30         10.7
     1815.00         0.20         10.7
     1816.00         0.23         13.2
     1817.00         0.27         16.0
     1818.00         0.30         25.5
     1819.00         0.33         30.1
     1820.00         0.30         31.4
     1821.00         0.50         33.1
     1822.00         0.17         33.1
     1823.00         0.40         33.3
     1824.00         0.23         30.7
     1825.00         0.27         30.2
     1826.00         0.33         29.6
     1827.00         0.43         28.7
     1828.00         0.40         27.8
     1829.00         0.30          8.3
     1830.00         0.30         10.3
     1831.00         0.30         16.0
     1832.00         0.22         17.0
     1833.00         0.23         17.3
     1834.00         0.27         16.5
     1835.00         0.40         16.4
     1836.00         0.40         14.8
     1837.00         0.23         11.6
     1838.00         0.30         12.4
     1839.00         0.33          8.2
     1840.00         0.40          7.5
     1841.00         0.30          8.9
     1842.00         0.20          8.2
     1843.00         0.38          9.2
     1844.00         0.27         10.0
     1845.00         0.23         11.5
     1846.00         0.27         13.4
     1847.00         0.27         19.2
     1848.00         0.27         23.8
     1849.00         0.27         26.3
     1850.00         0.30         27.3
     1851.00         0.27         27.8
     1852.00         0.23         28.5
     1853.00         0.47         28.8
     1854.00         0.17         27.8
     1855.00         0.43         27.8
     1856.00         0.27         23.6
     1857.00         0.32         20.1
     1858.00         0.17         17.5
     1859.00         0.17         17.4
     1860.00         0.13         16.9
     1861.00         0.50         20.6
     1862.00         0.40         21.7
     1863.00         0.47         25.3
     1864.00         0.53         26.0
     1865.00         0.57         24.7
     1866.00         0.48         18.3
     1867.00         0.33         15.5
     1868.00         0.37         12.1
     1869.00         0.37          9.0
     1870.00         0.37          7.7
     1871.00         0.43          7.3
     1872.00         0.40          7.3
     1873.00         0.30          9.2
     1874.00         0.27         12.5
     1875.00         0.20         17.9
     1876.00         0.35         23.2
     1877.00         0.30         25.7
     1878.00         0.20         28.5
     1879.00         0.10         28.5
     1880.00         0.13         29.1
     1881.00         0.23         30.4
     1882.00         0.50         31.0
     1883.00         0.43         31.8
     1884.00         0.33         38.9
     1885.00         0.35         87.8
     1886.00         0.40        141.8
     1887.00         0.30        205.4
     1888.00         0.37        319.0
     1889.00         0.27        346.9
     1890.00         0.33        352.0
     1891.00         0.50        373.6
     1892.00         0.47         15.1
     1893.00         0.40         13.3
     1894.00         0.52         10.8
     1895.00         0.30         12.0
     1896.00         0.33         39.9
     1897.00         0.37        136.7
     1898.00         0.30        244.6
     1899.00         0.27        313.7
     1900.00         0.27        367.2
     1901.00         0.27        405.4
     1902.00         0.23        448.8
     1903.00         0.33        480.0
     1904.00         0.25        757.8
     1905.00         0.23        777.7
     1906.00         0.37        758.1
     1907.00         0.33        672.5
     1908.00         0.40        400.0
     1909.00         0.30        108.5
     1910.00         0.33         52.3
     1911.00         0.87         19.9
     1912.00         0.20         16.4
     1913.00         0.37         17.5
     1914.00         0.23         18.8
     1915.00         0.47         20.9
     1916.00         0.43         20.7
     1917.00         0.23         20.6
     1918.00         0.20         20.7
     1919.00         0.20         21.8
     1920.00         0.20         20.5
     1921.00         0.18         20.9
     1922.00         0.30         24.7
     1923.00         0.33         46.5
     1924.00         0.33        155.2
     1925.00         0.33         42.9
     1926.00         0.27         84.6
     1927.00         0.33        201.1
     1928.00         0.73        431.6
     1929.00         0.53        451.7
     1930.00         0.58        451.4
     1931.00         0.37        382.6
     1932.00         0.53        214.8
     1933.00         0.40         81.0
     1934.00         0.67         40.0
     1935.00         0.30          8.9
     1936.00         0.27          6.3
     1937.00         0.20          8.2
     1938.00         0.18         13.8
     1939.00         0.53         27.0
     1940.00         0.23         29.9
     1941.00         0.40         34.1
     1942.00         0.37         46.8
     1943.00         0.30         70.4
     1944.00         0.37        117.1
     1945.00         0.57        171.7
     1946.00         0.42        256.5
     1947.00         0.30        256.5
     1948.00         0.23        398.5
     1949.00         0.27        459.5
     1950.00         0.27        472.5
     1951.00         0.33        467.8
     1952.00         0.30        453.0
     1953.00         0.17        446.7
     1954.00         0.17        440.3
     1955.00         0.20        396.7
