~Version Information
VERS.                      2.0: CWLS Log ASCII Standard - VERSION 2.0
WRAP.                       NO: One line per depth step
~Well Information Block
STRT.FT                -7.7500: 
STOP.FT              2446.5000: 
STEP.FT                 0.2500: 
NULL.                -999.2500: 
COMP.          XTO Energy Inc.: COMPANY
WELL.          Hill Ranch 15-09: WELL
FLD.           Purgatoire River: FIELD
LOC.           1816' FSL & 521' FEL: LOCATION
STAT.                 Colorado: State
CNTY.               Las Animas: COUNTY
CTRY. USA : Country
SECT. 15 : Section
TOWN. 35S : Township
RANG. 67W : Range
SRVC.          Patterson Wireline: SERVICE COMPANY
DATE.          Fri Dec 09 17:49:58 2005: LOG DATE
API. 05-071-08474                          : UNIQUE WELL ID
~Curve Information Block
DEPT.FT            0 000 00 00: Depth
CCL.                          : Casing Collar Locator
TT3.usec                      : CBL 3' Travel Time
AMP3.mV                       : CBL 3' Amplitude
AMP5.mV                       : CBL 5' Amplitude
GR.GAPI                       : Gamma Ray
~Parameter Information Block
~A  Depth       CCL         TT3         AMP3        AMP5         GR     
# ...
   804.2500      0.0000    696.1454      6.7352      1.3076    115.8232
   804.5000      0.0000    721.4108      6.9857      1.2568    130.6484
   804.7500      0.0000    736.8972      7.2149      1.2593    143.7894
   805.0000      0.0000    746.8439      7.3411      1.3388    152.4246
   805.2500      0.0000    753.1121      7.3254      1.4711    155.5825
   805.5000      0.0000    755.3431      7.2123      1.5919    154.2876
   805.7500      0.0000    753.4506      7.0776      1.6446    150.1592
   806.0000      0.0000    749.2872      6.9441      1.6190    144.3909
   806.2500      0.0000    746.2273      6.7782      1.5446    137.6940
   806.5000      0.0000    747.2086      6.5539      1.4550    130.3949
   806.7500      0.0000    752.2391      6.2821      1.3671    122.7034
   807.0000     -2.0000    757.3181      5.9850      1.2970    115.3709
   807.2500      2.0000    757.1815      5.6760      1.2714    109.7710
   807.5000      0.0000    750.2958      5.3654      1.3044    106.8876
   807.7500      0.0000    740.5920      5.0713      1.3731    106.3647
   808.0000      0.0000    733.3193      4.8220      1.4355    106.6694
   808.2500      0.0000    729.5765      4.6436      1.4643    106.1477
   808.5000      0.0000    725.7152      4.5367      1.4559    104.0794
   808.7500      0.0000    717.2832      4.4701      1.4223    100.9558
   809.0000      0.0000    701.4117      4.4079      1.3933     97.6977
   809.2500      0.0000    675.1558      4.3407      1.4085     94.5806
   809.5000      0.0000    634.9943      4.2840      1.4803     91.1334
   809.7500      0.0000    582.1196      4.2589      1.5700     87.2044
   810.0000      0.0000    528.4427      4.2778      1.6173     83.8106
   810.2500      0.0000    493.7650      4.3373      1.5938     82.4482
   810.5000      0.0000    493.6432      4.4156      1.5229     83.5478
   810.7500      0.0000    528.1685      4.4790      1.4520     86.0597
   811.0000      0.0000    581.1810      4.5003      1.4155     88.5916
   811.2500      0.0000    630.0463      4.4738      1.4224     90.3501
   811.5000      0.0000    657.1782      4.4160      1.4651     90.9380
   811.7500      0.0000    654.8126      4.3543      1.5245     90.1803
   812.0000      0.0000    623.9531      4.3113      1.5655     88.6221
   812.2500      0.0000    573.5461      4.2953      1.5454     87.5093
   812.5000      0.0000    519.9251      4.3005      1.4470     87.6726
   812.7500      0.0000    481.5597      4.3136      1.3068     88.6508
   813.0000      0.0000    470.2178      4.3262      1.1982     89.2486
   813.2500      0.0000    486.4081      4.3440      1.1761     88.8372
   813.5000      0.0000    522.8635      4.3890      1.2395     87.9938
   813.7500      0.0000    570.7377      4.4889      1.3412     88.1656
   814.0000      0.0000    622.0131      4.6603      1.4282     90.9114
   814.2500      0.0000    668.9407      4.8980      1.4726     97.0582
   814.5000      0.0000    705.2221      5.1820      1.4781    106.1692
   814.7500      0.0000    728.6469      5.4915      1.4648    116.9828
   815.0000      0.0000    741.3560      5.8074      1.4483    128.3671
   815.2500      0.0000    747.3474      6.1061      1.4268    139.3940
   815.5000      0.0000    749.9601      6.3604      1.3892    148.6525
   815.7500      0.0000    750.9766      6.5504      1.3402    154.4574
   816.0000      0.0000    750.8886      6.6751      1.3137    156.2665
   816.2500      0.0000    749.4678      6.7579      1.3463    155.4724
   816.5000      0.0000    746.4392      6.8379      1.4336    154.3131
   816.7500      0.0000    742.0341      6.9508      1.5241    154.2645
   817.0000      0.0000    737.2166      7.1061      1.5633    155.6254
   817.2500      0.0000    733.4081      7.2788      1.5364    157.8018
   817.5000      0.0000    731.8792      7.4236      1.4709    159.2627
   817.7500      0.0000    732.8545      7.4983      1.4115    157.8946
   818.0000      0.0000    734.8329      7.4743      1.3958    152.5631
   818.2500      0.0000    735.3397      7.3377      1.4384    144.4792
   818.5000      0.0000    733.1580      7.0936      1.5266    136.4330
   818.7500      0.0000    729.8138      6.7761      1.6290    130.5632
   819.0000      0.0000    728.3316      6.4523      1.7123    127.0130
   819.2500      0.0000    730.3244      6.2058      1.7549    124.5272
   819.5000      0.0000    734.3859      6.0994      1.7493    121.8807
   819.7500      0.0000    737.3715      6.1417      1.6937    118.5988
   820.0000      0.0000    737.2427      6.2842      1.5875    114.8419
   820.2500      0.0000    734.7075      6.4528      1.4390    111.2682
   820.5000      0.0000    732.1313      6.5802      1.2738    109.0118
   820.7500      0.0000    731.0327      6.6178      1.1256    109.1987
   821.0000      0.0000    731.0906      6.5399      1.0193    111.9018
   821.2500      0.0000    731.5264      6.3534      0.9684    115.6197
   821.5000      0.0000    732.5742      6.1045      0.9860    118.3236
   821.7500      0.0000    735.1194      5.8651      1.0828    119.1740
   822.0000      0.0000    739.4741      5.7021      1.2470    118.9683
   822.2500      0.0000    745.1573      5.6457      1.4346    118.9380
   822.5000      0.0000    751.7339      5.6784      1.5911    119.3172
   822.7500      0.0000    759.0991      5.7510      1.6840    119.0331
   823.0000      0.0000    766.2206      5.8162      1.7109    116.8049
   823.2500      0.0000    769.9645      5.8534      1.6870    112.7254
   823.5000      0.0000    766.5102      5.8686      1.6342    108.5952
   823.7500      0.0000    754.7483      5.8756      1.5785    106.4238
   824.0000      0.0000    737.7944      5.8755      1.5431    106.6295
   824.2500      0.0000    720.6880      5.8554      1.5367    107.6429
   824.5000      0.0000    706.6494      5.8013      1.5451    107.2322
   824.7500      0.0000    694.8984      5.7085      1.5400    104.4195
   825.0000      0.0000    681.0382      5.5827      1.4979    100.2120
   825.2500      0.0000    660.3495      5.4376      1.4124     96.4772
   825.5000      0.0000    632.2970      5.2939      1.2903     94.3213
   825.7500      0.0000    602.8235      5.1755      1.1456     93.6153
   826.0000      0.0000    582.2905      5.1013      1.0035     93.6238
   826.2500      0.0000    580.0068      5.0754      0.9058     93.6059
   826.5000      0.0000    598.6617      5.0839      0.8975     93.2067
   826.7500      0.0000    632.5332      5.1038      0.9973     92.8754
   827.0000      0.0000    670.9075      5.1176      1.1780     93.8190
   827.2500      0.0000    704.0596      5.1244      1.3794     97.0659
   827.5000      0.0000    727.1824      5.1366      1.5435    102.4918
   827.7500      0.0000    740.3834      5.1690      1.6423    108.8938
   828.0000      0.0000    746.4514      5.2300      1.6785    114.9784
   828.2500      0.0000    748.5898      5.3199      1.6692    120.1026
   828.5000      0.0000    749.1256      5.4336      1.6308    124.0738
   828.7500      0.0000    749.2925      5.5615      1.5735    126.5075
   829.0000      0.0000    749.5630      5.6910      1.5042    126.8504
   829.2500      0.0000    750.0794      5.8092      1.4324    125.1392
   829.5000      0.0000    750.8190      5.9077      1.3702    122.3697
   829.7500      0.0000    751.6895      5.9832      1.3262    119.9071
   830.0000      0.0000    752.6093      6.0305      1.3043    118.6602
   830.2500      0.0000    753.7417      6.0360      1.3070    118.7533
   830.5000      0.0000    755.9289      5.9825      1.3340    119.6857
   830.7500      0.0000    761.2045      5.8646      1.3760    120.6093
   831.0000      0.0000    772.5105      5.6987      1.4147    120.5366
   831.2500      0.0000    791.3567      5.5126      1.4346    118.5740
   831.5000      0.0000    814.6353      5.3302      1.4327    114.2469
   831.7500      0.0000    835.1467      5.1684      1.4158    107.5539
   832.0000      0.0000    847.4099      5.0410      1.3921     98.8839
