~Version Information
VERS.                      2.0: CWLS Log ASCII Standard - VERSION 2.0
WRAP.                       NO: One line per depth step
~Well Information Block
STRT.FT               845.0000: 
STOP.FT              2103.2000: 
STEP.FT                 0.1000: 
NULL.                -999.2500: 
COMP.          Petrogulf Corporation: COMPANY
WELL.               YWAM 7-32R: WELL
FLD.           Purgatorie River: FIELD
LOC.           2355' FNL & 2376' FEL: LOCATION
PROV.                 Colorado: PROVINCE
CNTY.               Las Animas: COUNTRY
SRVC.                Patterson: SERVICE COMPANY
DATE.          Thu Sep 29 23:12:08 2005: LOG DATE
UWI.                          : UNIQUE WELL ID
~Curve Information Block
DEPT.FT            0 000 00 00: Depth
SP.mV                         : DIL Spontaneous Potential
RILD.Ohm-m                    : DIL Deep Resistivity
RILM.Ohm-m                    : DIL Medium Resistivity
RLL3.Ohm-m                    : DIL Shallow Resistivity
GR.GAPI                       : Gamma Ray
~Parameter Information Block
~A  Depth        SP         RILD        RILM        RLL3         GR     
# ...
  1013.0000    128.0534     11.9951     11.0533     12.5687    131.5356
  1013.1000    128.0534     11.9951     11.0533     12.5687    130.5534
  1013.2000    128.0534     11.9951     11.0533     12.5687    129.6698
  1013.3000    128.0346     12.2853     11.2616     12.5890    129.0482
  1013.4000    128.0346     12.2853     11.2616     12.5890    128.8202
  1013.5000    128.0528     12.6191     11.5632     12.8555    129.0605
  1013.6000    128.0528     12.6191     11.5632     12.8555    129.7852
  1013.7000    128.0528     12.6191     11.5632     12.8555    130.9419
  1013.8000    128.0275     12.9867     11.9642     13.3849    132.4181
  1013.9000    128.0275     12.9867     11.9642     13.3849    134.0644
  1014.0000    127.9281     13.3794     12.4673     14.2155    135.7081
  1014.1000    127.9281     13.3794     12.4673     14.2155    137.1859
  1014.2000    127.9281     13.3794     12.4673     14.2155    138.3564
  1014.3000    127.7609     13.7903     13.0697     15.4471    139.1225
  1014.4000    127.7609     13.7903     13.0697     15.4471    139.4317
  1014.5000    127.5475     14.2166     13.7613     17.1514    139.2745
  1014.6000    127.5475     14.2166     13.7613     17.1514    138.6765
  1014.7000    127.5475     14.2166     13.7613     17.1514    137.6860
  1014.8000    127.3203     14.6588     14.5230     19.2100    136.3634
  1014.9000    127.3203     14.6588     14.5230     19.2100    134.7713
  1015.0000    127.1113     15.1183     15.3257     21.2628    132.9714
  1015.1000    127.1113     15.1183     15.3257     21.2628    131.0220
  1015.2000    127.1113     15.1183     15.3257     21.2628    128.9821
  1015.3000    126.9113     15.5944     16.1318     22.8665    126.9120
  1015.4000    126.9113     15.5944     16.1318     22.8665    124.8765
  1015.5000    126.6395     16.0823     16.8990     23.7559    122.9403
  1015.6000    126.6395     16.0823     16.8990     23.7559    121.1703
  1015.7000    126.6395     16.0823     16.8990     23.7559    119.6261
  1015.8000    126.1922     16.5724     17.5864     23.9707    118.3596
  1015.9000    126.1922     16.5724     17.5864     23.9707    117.4031
  1016.0000    125.5444     17.0505     18.1607     23.7395    116.7713
  1016.1000    125.5444     17.0505     18.1607     23.7395    116.4564
  1016.2000    125.5444     17.0505     18.1607     23.7395    116.4278
  1016.3000    124.7851     17.4968     18.6015     23.2588    116.6429
  1016.4000    124.7851     17.4968     18.6015     23.2588    117.0462
  1016.5000    124.0359     17.8868     18.9021     22.6049    117.5814
  1016.6000    124.0359     17.8868     18.9021     22.6049    118.1961
  1016.7000    124.0359     17.8868     18.9021     22.6049    118.8494
  1016.8000    123.3536     18.1948     19.0684     21.8425    119.5048
  1016.9000    123.3536     18.1948     19.0684     21.8425    120.1323
  1017.0000    122.7289     18.4022     19.1143     21.1442    120.7020
  1017.1000    122.7289     18.4022     19.1143     21.1442    121.1773
  1017.2000    122.7289     18.4022     19.1143     21.1442    121.5179
  1017.3000    122.1479     18.5054     19.0590     20.7180    121.6741
  1017.4000    122.1479     18.5054     19.0590     20.7180    121.5964
  1017.5000    121.6141     18.5195     18.9241     20.6068    121.2400
  1017.6000    121.6141     18.5195     18.9241     20.6068    120.5762
  1017.7000    121.6141     18.5195     18.9241     20.6068    119.5930
  1017.8000    121.1150     18.4726     18.7326     20.6108    118.3060
  1017.9000    121.1150     18.4726     18.7326     20.6108    116.7559
  1018.0000    120.6000     18.3955     18.5096     20.4449    115.0043
  1018.1000    120.6000     18.3955     18.5096     20.4449    113.1386
  1018.2000    120.6000     18.3955     18.5096     20.4449    111.2569
  1018.3000    120.0141     18.3121     18.2807     19.9630    109.4706
  1018.4000    120.0141     18.3121     18.2807     19.9630    107.8892
  1018.5000    119.3451     18.2354     18.0709     19.2424    106.6124
  1018.6000    119.3451     18.2354     18.0709     19.2424    105.7191
  1018.7000    119.3451     18.2354     18.0709     19.2424    105.2573
  1018.8000    118.6288     18.1705     17.9020     18.5170    105.2293
  1018.9000    118.6288     18.1705     17.9020     18.5170    105.5989
  1019.0000    117.9178     18.1197     17.7900     18.0701    106.2893
  1019.1000    117.9178     18.1197     17.7900     18.0701    107.1922
  1019.2000    117.9178     18.1197     17.7900     18.0701    108.1889
  1019.3000    117.2575     18.0871     17.7436     18.1311    109.1646
  1019.4000    117.2575     18.0871     17.7436     18.1311    110.0257
  1019.5000    116.6848     18.0788     17.7637     18.7692    110.7125
  1019.6000    116.6848     18.0788     17.7637     18.7692    111.1965
  1019.7000    116.6848     18.0788     17.7637     18.7692    111.4795
  1019.8000    116.2302     18.1019     17.8449     19.8372    111.5814
  1019.9000    116.2302     18.1019     17.8449     19.8372    111.5307
  1020.0000    115.9106     18.1632     17.9781     21.0391    111.3540
  1020.1000    115.9106     18.1632     17.9781     21.0391    111.0692
  1020.2000    115.9106     18.1632     17.9781     21.0391    110.6926
  1020.3000    115.7150     18.2705     18.1539     22.0963    110.2404
  1020.4000    115.7150     18.2705     18.1539     22.0963    109.7344
  1020.5000    115.5988     18.4322     18.3655     22.8739    109.2087
  1020.6000    115.5988     18.4322     18.3655     22.8739    108.7072
  1020.7000    115.5988     18.4322     18.3655     22.8739    108.2756
  1020.8000    115.4934     18.6553     18.6111     23.3609    107.9547
  1020.9000    115.4934     18.6553     18.6111     23.3609    107.7662
  1021.0000    115.3285     18.9420     18.8948     23.5570    107.7093
  1021.1000    115.3285     18.9420     18.8948     23.5570    107.7580
  1021.2000    115.3285     18.9420     18.8948     23.5570    107.8664
  1021.3000    115.0553     19.2885     19.2255     23.4375    107.9828
  1021.4000    115.0553     19.2885     19.2255     23.4375    108.0663
  1021.5000    114.6600     19.6883     19.6145     23.0781    108.0934
  1021.6000    114.6600     19.6883     19.6145     23.0781    108.0737
  1021.7000    114.6600     19.6883     19.6145     23.0781    108.0416
  1021.8000    114.1641     20.1395     20.0727     22.7951    108.0509
  1021.9000    114.1641     20.1395     20.0727     22.7951    108.1557
  1022.0000    113.6123     20.6475     20.6083     23.0663    108.3953
  1022.1000    113.6123     20.6475     20.6083     23.0663    108.7713
  1022.2000    113.6123     20.6475     20.6083     23.0663    109.2410
  1022.3000    113.0553     21.2230     21.2258     24.2243    109.7218
  1022.4000    113.0553     21.2230     21.2258     24.2243    110.0956
  1022.5000    112.5333     21.8748     21.9269     26.1899    110.2361
  1022.6000    112.5333     21.8748     21.9269     26.1899    110.0343
  1022.7000    112.5333     21.8748     21.9269     26.1899    109.4150
  1022.8000    112.0690     22.6046     22.7130     28.5046    108.3579
  1022.9000    112.0690     22.6046     22.7130     28.5046    106.9012
  1023.0000    111.6699     23.4082     23.5880     30.6468    105.1330
  1023.1000    111.6699     23.4082     23.5880     30.6468    103.1783
  1023.2000    111.6699     23.4082     23.5880     30.6468    101.1790
  1023.3000    111.3391     24.2809     24.5600     32.4077     99.2715
  1023.4000    111.3391     24.2809     24.5600     32.4077     97.5676
  1023.5000    111.0879     25.2245     25.6412     34.0674     96.1462
  1023.6000    111.0879     25.2245     25.6412     34.0674     95.0509
  1023.7000    111.0879     25.2245     25.6412     34.0674     94.2921
  1023.8000    110.9437     26.2471     26.8442     36.1726     93.8458
  1023.9000    110.9437     26.2471     26.8442     36.1726     93.6724
  1024.0000    110.9451     27.3569     28.1771     38.9948     93.7144
  1024.1000    110.9451     27.3569     28.1771     38.9948     93.9097
