~Version Information
VERS.                      2.0: CWLS Log ASCII Standard - VERSION 2.0
WRAP.                       NO: One line per depth step
~Well Information Block
STRT.FT               645.0000: 
STOP.FT              2133.5000: 
STEP.FT                 0.2500: 
NULL.                -999.2500: 
COMP.          Pioneer Natural Resources: COMPANY
WELL.          Gunslinger 13-24: WELL
FLD.           Purgatoire River: FIELD
LOC.           1968' FSL & 633' FWL: LOCATION
PROV.                 Colorado: PROVINCE
CNTY.               Las Animas: COUNTRY
SRVC.                Patterson: SERVICE COMPANY
DATE.          Fri Jul 29 15:04:35 2005: LOG DATE
UWI.           05 071 08442 00: UNIQUE WELL ID
~Curve Information Block
DEPT.FT            0 000 00 00: Depth
SN.Ohm-m                      : IEL Short Normal
SP.mV                         : IEL Spontaneous Potential
DIR.Ohm-m                     : IEL Induction Resistivity
GR.GAPI                       : Gamma Ray
~Parameter Information Block
~A  Depth        SN          SP         DIR          GR     
# ...
  1884.5000     14.9820     61.3376     12.5420     96.5098
  1884.7500     15.0972     60.2829     12.7130     94.7213
  1885.0000     15.5294     59.5970     12.9995     92.2533
  1885.2500     16.1128     59.1759     13.3647     91.2601
  1885.5000     16.6804     58.8957     13.7564     91.5444
  1885.7500     17.1347     58.6581     14.1157     92.7213
  1886.0000     17.5084     58.3971     14.3934     94.5555
  1886.2500     17.8683     58.0696     14.5685     95.0935
  1886.5000     18.2105     57.6518     14.6537     94.7015
  1886.7500     18.4868     57.1428     14.6832     94.0338
  1887.0000     18.6600     56.5644     14.6917     93.3036
  1887.2500     18.7535     55.9501     14.7007     93.3782
  1887.5000     18.8619     55.3305     14.7187     94.3339
  1887.7500     19.0499     54.7260     14.7467     95.0545
  1888.0000     19.2606     54.1461     14.7818     95.1816
  1888.2500     19.3597     53.5932     14.8183     94.4144
  1888.5000     19.2544     53.0631     14.8486     92.7528
  1888.7500     18.9749     52.5439     14.8677     92.0863
  1889.0000     18.6284     52.0155     14.8759     92.7622
  1889.2500     18.2577     51.4525     14.8789     94.5381
  1889.5000     17.8160     50.8323     14.8858     98.9848
  1889.7500     17.3106     50.1466     14.9057    102.6337
  1890.0000     16.8877     49.4046     14.9455    107.5078
  1890.2500     16.7454     48.6270     15.0085    109.3187
  1890.5000     16.9847     47.8374     15.0949    109.2998
  1890.7500     17.5180     47.0613     15.2016    108.2135
  1891.0000     18.1322     46.3249     15.3220    107.0980
  1891.2500     18.6747     45.6473     15.4481    107.4054
  1891.5000     19.1445     45.0338     15.5750    109.0883
  1891.7500     19.6116     44.4812     15.7077    110.5240
  1892.0000     20.1377     43.9892     15.8601    112.8030
  1892.2500     20.7568     43.5656     16.0485    114.1806
  1892.5000     21.4495     43.2165     16.2820    114.7558
  1892.7500     22.1481     42.9334     16.5581    113.3249
  1893.0000     22.8095     42.6949     16.8665    108.6001
  1893.2500     23.4569     42.4867     17.1966    104.7530
  1893.5000     24.0874     42.3162     17.5387     99.5250
  1893.7500     24.5863     42.1982     17.8754     96.5955
  1894.0000     24.8311     42.1278     18.1756     92.8375
  1894.2500     24.8437     42.0704     18.4025     90.9523
  1894.5000     24.7631     41.9777     18.5330     89.8843
  1894.7500     24.6552     41.8089     18.5671     90.6751
  1895.0000     24.4433     41.5389     18.5249     93.9454
  1895.2500     24.0997     41.1534     18.4362     97.0043
  1895.5000     23.7137     40.6476     18.3348    101.5489
  1895.7500     23.2998     40.0312     18.2533    103.7371
  1896.0000     22.7821     39.3298     18.2170    105.0718
  1896.2500     22.1394     38.5751     18.2391    104.8034
  1896.5000     21.3998     37.7965     18.3181    103.1673
  1896.7500     20.6413     37.0236     18.4401    101.3445
  1897.0000     20.0390     36.2936     18.5799     97.7079
  1897.2500     19.7521     35.6456     18.7030     95.1554
  1897.5000     19.8265     35.0969     18.7713     91.8730
  1897.7500     20.2655     34.6183     18.7547     89.8016
  1898.0000     21.0554     34.1420     18.6466     85.8468
  1898.2500     22.0900     33.6025     18.4691     82.7487
  1898.5000     23.1730     32.9766     18.2599     79.3336
  1898.7500     24.1421     32.2913     18.0497     79.1359
  1899.0000     24.9220     31.5986     17.8470     82.5085
  1899.2500     25.4003     30.9431     17.6426     86.3804
  1899.5000     25.3513     30.3454     17.4227     92.3872
  1899.7500     24.6025     29.8085     17.1779     95.5915
  1900.0000     23.2693     29.3358     16.9014     98.9686
  1900.2500     21.7522     28.9401     16.5856    100.6725
  1900.5000     20.4914     28.6402     16.2256    103.2675
  1900.7500     19.7387     28.4534     15.8275    105.4662
  1901.0000     19.4714     28.3822     15.4139    109.8285
  1901.2500     19.4602     28.4042     15.0197    113.1496
  1901.5000     19.4842     28.4798     14.6815    117.4458
  1901.7500     19.4881     28.5826     14.4244    119.1891
  1902.0000     19.5024     28.7193     14.2561    120.0350
  1902.2500     19.5047     28.9150     14.1674    119.8035
  1902.5000     19.4441     29.1788     14.1386    118.7250
  1902.7500     19.3530     29.4859     14.1481    117.5190
  1903.0000     19.3454     29.7888     14.1814    114.9862
  1903.2500     19.4878     30.0454     14.2367    113.0517
  1903.5000     19.7374     30.2380     14.3243    110.4257
  1903.7500     20.0305     30.3749     14.4604    109.1153
  1904.0000     20.3506     30.4817     14.6606    107.7268
  1904.2500     20.6915     30.5916     14.9361    106.9390
  1904.5000     21.0342     30.7384     15.2905    105.6126
  1904.7500     21.3631     30.9508     15.7148    104.5302
  1905.0000     21.6768     31.2488     16.1849    102.4447
  1905.2500     21.9828     31.6458     16.6682    100.7335
  1905.5000     22.2914     32.1517     17.1397     98.2626
  1905.7500     22.6071     32.7785     17.5926     97.4037
  1906.0000     22.9006     33.5388     18.0295     98.3581
  1906.2500     23.1617     34.4382     18.4389    100.3949
  1906.5000     23.4488     35.4660     18.7792    104.1560
  1906.7500     23.7423     36.5894     18.9907    106.3512
  1907.0000     23.8575     37.7540     19.0302    109.0722
  1907.2500     23.6443     38.8902     18.9043    110.9543
  1907.5000     23.1592     39.9310     18.6730    114.2147
  1907.7500     22.5825     40.8358     18.4209    116.2999
  1908.0000     22.1108     41.6025     18.2233    118.2874
  1908.2500     21.9881     42.2536     18.1237    118.5508
  1908.5000     22.4447     42.8132     18.1300    117.6009
  1908.7500     23.4574     43.2973     18.2228    116.4495
  1909.0000     24.7288     43.7218     18.3670    114.5285
  1909.2500     25.9779     44.1071     18.5233    113.2600
  1909.5000     27.0939     44.4718     18.6566    111.1661
  1909.7500     28.0524     44.8286     18.7461    109.3171
  1910.0000     28.8474     45.1894     18.7987    105.3272
  1910.2500     29.4581     45.5687     18.8576    101.8138
  1910.5000     29.8437     45.9799     18.9903     95.9089
  1910.7500     30.0051     46.4272     19.2601     92.1440
  1911.0000     30.0272     46.9035     19.6973     87.2428
  1911.2500     30.0675     47.3948     20.2892     84.1215
  1911.5000     30.2975     47.8863     20.9924     78.5167
  1911.7500     30.7949     48.3650     21.7529     73.8914
  1912.0000     31.4991     48.8181     22.5120     66.4984
  1912.2500     32.3069     49.2353     23.1915     62.2552
  1912.5000     33.1836     49.6207     23.6802     58.3148
  1912.7500     34.1944     50.0050     23.8623     57.5584
  1913.0000     35.4534     50.4399     23.6870     58.7799
  1913.2500     36.8761     50.9658     23.2156     60.6870
  1913.5000     37.9376     51.5760     22.5829     64.5082
  1913.7500     37.8752     52.2061     21.9035     67.5186
  1914.0000     36.1898     52.7624     21.2096     72.8296
  1914.2500     33.0300     53.1656     20.4644     77.0618
  1914.5000     29.2188     53.3801     19.6268     84.3797
  1914.7500     25.7700     53.4208     18.7044     89.4283
  1915.0000     23.2504     53.3390     17.7522     95.8011
  1915.2500     21.6353     53.1984     16.8309     98.4786
  1915.5000     20.6256     53.0515     15.9741     99.9394
  1915.7500     19.9092     52.9259     15.1857     99.7676
  1916.0000     19.2397     52.8243     14.4571     98.9290
  1916.2500     18.4728     52.7373     13.7837     98.4209
  1916.5000     17.6030     52.6585     13.1704     98.3660
  1916.7500     16.7826     52.5918     12.6278     99.1056
  1917.0000     16.2034     52.5486     12.1647    101.1939
  1917.2500     15.9000     52.5399     11.7848    102.6422
  1917.5000     15.7638     52.5700     11.4857    103.7152
  1917.7500     15.6942     52.6308     11.2612    103.2778
