~Version Information
VERS.                      2.0: CWLS Log ASCII Standard - VERSION 2.0
WRAP.                       NO: One line per depth step
~Well Information Block
STRT.FT               650.0000: 
STOP.FT              2127.7000: 
STEP.FT                 0.1000: 
NULL.                -999.2500: 
COMP.          Pioneer Natural Resources: COMPANY
WELL.          Kennington 41-26: WELL
FLD.           Purgatoire River: FIELD
LOC.           940' FNL & 1008' FEL--: LOCATION
CNTY.               Las Animas: COUNTY
SRVC.                Patterson: SERVICE COMPANY
DATE.          Wed Mar 29 11:30:50 2006: LOG DATE
UWI.           05 071 08679 00: UNIQUE WELL ID
STAT.                 Colorado: STATE
~Curve Information Block
DEPT.FT            0 000 00 00: Depth
DCAL.in                       : CDL Caliper
RHOB.g/cc                     : CDL Bulk Density
RHOC.g/cc                     : CDL Density Correction
DPOR.pu                       : CDL Density Porosity
NPOR.pu                       : Neutron Porosity
GR.GAPI                       : Gamma Ray
~Parameter Information Block
~A  Depth       DCAL        RHOB        RHOC        DPOR        NPOR         GR     
# ...
  1226.0000      8.1613      1.4447     -0.0981     73.0462     24.9436     57.0099
  1226.1000      8.1613      1.3469     -0.1123     78.9787     24.4685     54.7689
  1226.2000      8.1613      1.2599     -0.1386     84.2468     26.2733     50.5750
  1226.3000      8.1913      1.2020     -0.1566     87.7568     31.4284     47.4523
  1226.4000      8.1913      1.2017     -0.1076     87.7741     35.8043     48.7114
  1226.5000      8.3124      1.2739     -0.0270     83.3993     35.3038     50.5828
  1226.6000      8.3124      1.4067      0.0857     75.3496     31.3459     49.5596
  1226.7000      8.3124      1.5720      0.2172     65.3330     28.8808     47.7549
  1226.8000      8.6094      1.7352      0.3547     55.4438     30.5865     48.5853
  1226.9000      8.6094      1.8691      0.3816     47.3270     33.8888     52.3022
  1227.0000      8.9963      1.9720      0.3849     41.0926     34.9644     56.9615
  1227.1000      8.9963      2.0548      0.3434     36.0712     32.8941     61.4315
  1227.2000      8.9963      2.1216      0.3275     32.0254     30.4195     65.6074
  1227.3000      9.1000      2.1763      0.2743     28.7075     30.8968     68.4237
  1227.4000      9.1000      2.2318      0.1940     25.3434     33.3962     69.3552
  1227.5000      8.7365      2.2922      0.1561     21.6875     33.4833     72.0211
  1227.6000      8.7365      2.3404      0.1645     18.7665     29.3983     80.1214
  1227.7000      8.7365      2.3644      0.1194     17.3093     24.6480     89.1516
  1227.8000      8.3220      2.3779      0.1070     16.4896     23.4152     93.1223
  1227.9000      8.3220      2.3952      0.1002     15.4437     24.8359     93.8410
  1228.0000      8.1535      2.4130      0.0740     14.3634     25.0975     94.5720
  1228.1000      8.1535      2.4224      0.1031     13.7910     24.8087     95.8130
  1228.2000      8.1535      2.4180      0.1035     14.0615     27.9131     96.4581
  1228.3000      8.1481      2.4073      0.0559     14.7082     33.4089     95.5737
  1228.4000      8.1481      2.4017      0.0426     15.0505     36.9525     96.0496
  1228.5000      8.1870      2.3877      0.0765     15.8944     37.3990     99.7232
  1228.6000      8.1870      2.3435      0.0318     18.5758     35.1392    102.3557
  1228.7000      8.1870      2.2784     -0.0328     22.5238     32.0397    101.3539
  1228.8000      8.2206      2.2179     -0.0390     26.1861     30.7764    101.0601
  1228.9000      8.2206      2.1696     -0.0787     29.1174     30.8458    104.4097
  1229.0000      8.2289      2.1285     -0.0630     31.6074     31.0970    105.2617
  1229.1000      8.2289      2.0900     -0.0538     33.9387     30.6836    100.3552
  1229.2000      8.2289      2.0511     -0.0666     36.2940     29.7815     95.0980
  1229.3000      8.2224      2.0128     -0.0396     38.6163     31.3351     89.8496
  1229.4000      8.2224      1.9737     -0.0290     40.9886     35.5270     85.0325
  1229.5000      8.2164      1.9335     -0.0760     43.4260     38.6307     86.4957
  1229.6000      8.2164      1.9060     -0.0546     45.0913     38.0375     92.5243
  1229.7000      8.2164      1.8987     -0.0073     45.5305     33.5622     96.3540
  1229.8000      8.2002      1.8968      0.0018     45.6506     29.3574     96.6860
  1229.9000      8.2002      1.8871      0.0076     46.2372     30.6676     93.9354
  1230.0000      8.1671      1.8807      0.0052     46.6252     35.7562     87.6020
  1230.1000      8.1671      1.8943      0.0587     45.7971     38.9010     82.7017
  1230.2000      8.1671      1.9266      0.1190     43.8442     37.2732     86.1748
  1230.3000      8.1370      1.9700      0.1184     41.2094     31.1656     94.4783
  1230.4000      8.1370      2.0289      0.0784     37.6434     25.5345     99.6239
  1230.5000      8.1279      2.1099      0.1244     32.7362     26.1554    101.6798
  1230.6000      8.1279      2.2054      0.1848     26.9461     31.2426    103.6232
  1230.7000      8.1279      2.3007      0.2195     21.1670     34.4156    104.9594
  1230.8000      8.1360      2.3906      0.2394     15.7234     34.9134    103.3980
  1230.9000      8.1360      2.4654      0.2833     11.1905     35.6576    100.0078
  1231.0000      8.1481      2.5007      0.2417      9.0485     35.8855     96.6182
  1231.1000      8.1481      2.4879      0.1972      9.8264     34.6790     93.9266
  1231.2000      8.1481      2.4585      0.0948     11.6071     34.2414     92.9325
  1231.3000      8.1562      2.4551      0.0493     11.8107     35.0816     93.4572
  1231.4000      8.1562      2.4797      0.1031     10.3198     34.9879     97.7124
  1231.5000      8.1543      2.5055      0.1041      8.7560     33.6797    109.0492
  1231.6000      8.1543      2.5242      0.0702      7.6250     33.5272    119.1664
  1231.7000      8.1543      2.5479      0.0671      6.1899     35.1245    117.5993
  1231.8000      8.1477      2.5782      0.0845      4.3507     36.2084    111.2321
  1231.9000      8.1477      2.5923      0.1656      3.4960     35.7850    110.8464
  1232.0000      8.1413      2.5820      0.0993      4.1218     35.1446    113.2155
  1232.1000      8.1413      2.5769      0.0866      4.4298     34.7354    110.0784
  1232.2000      8.1413      2.5927      0.1447      3.4738     33.4735    103.1448
  1232.3000      8.1309      2.6112      0.1452      2.3504     32.0453     98.1317
  1232.4000      8.1309      2.6209      0.0987      1.7666     32.7310     99.0395
  1232.5000      8.1189      2.6225      0.0963      1.6657     35.1580    105.7487
  1232.6000      8.1189      2.6066      0.1142      2.6295     36.8482    110.7352
  1232.7000      8.1189      2.5694      0.0486      4.8831     36.7390    108.4359
  1232.8000      8.1145      2.5349      0.0115      6.9761     34.5516    104.3968
  1232.9000      8.1145      2.5153      0.0700      8.1622     30.6991    104.0237
  1233.0000      8.1142      2.4973      0.0366      9.2516     28.4298    103.3057
  1233.1000      8.1142      2.4852      0.0204      9.9897     29.8692    100.0569
  1233.2000      8.1142      2.4945      0.0286      9.4216     32.6170     98.1802
  1233.3000      8.1142      2.5199      0.0587      7.8838     33.5266    100.3900
  1233.4000      8.1142      2.5473      0.0510      6.2229     31.2638    105.1569
  1233.5000      8.1123      2.5756      0.0768      4.5066     27.4211    106.7463
  1233.6000      8.1123      2.6025      0.0992      2.8781     26.5511    101.4324
  1233.7000      8.1123      2.6131      0.1220      2.2338     29.5749     94.9141
  1233.8000      8.1171      2.6028      0.0757      2.8636     32.2480     95.4761
  1233.9000      8.1171      2.5871      0.0860      3.8140     33.0362    101.1454
  1234.0000      8.1226      2.5748      0.1095      4.5605     33.9086    103.5971
  1234.1000      8.1226      2.5661      0.0853      5.0872     33.6807    101.6882
  1234.2000      8.1226      2.5664      0.1025      5.0638     30.0087    101.7229
  1234.3000      8.1224      2.5685      0.0822      4.9388     25.3857    104.1629
  1234.4000      8.1224      2.5565      0.0414      5.6653     24.7761    103.7887
  1234.5000      8.1260      2.5350      0.0122      6.9707     28.6231    102.1578
  1234.6000      8.1260      2.5230     -0.0035      7.6963     32.4244    102.8518
  1234.7000      8.1260      2.5242     -0.0293      7.6226     32.4450    104.4291
  1234.8000      8.1296      2.5214      0.0200      7.7960     29.5236    105.2480
  1234.9000      8.1296      2.5111     -0.0189      8.4188     28.2095    106.6481
  1235.0000      8.1323      2.5183      0.0270      7.9806     31.4223    107.5503
  1235.1000      8.1323      2.5497      0.0371      6.0775     35.3737    106.6135
  1235.2000      8.1323      2.5751      0.1133      4.5369     36.1516    107.0703
  1235.3000      8.1370      2.5758      0.0734      4.4954     35.1607    111.9568
  1235.4000      8.1370      2.5680      0.0798      4.9715     33.5833    117.8933
  1235.5000      8.1427      2.5624      0.0942      5.3094     30.7896    118.3876
