~Version Information
VERS.                      2.0: CWLS Log ASCII Standard - VERSION 2.0
WRAP.                       NO: One line per depth step
~Well Information Block
STRT.FT               -14.7500: 
STOP.FT              1106.0000: 
STEP.FT                 0.2500: 
NULL.                -999.2500: 
COMP.          Pioneer Natural Resources: COMPANY
WELL.          Black Cat 13-32 Tr: WELL
FLD.           Purgatorie River: FIELD
LOC.           1679' FSL & 1150' FWL--: LOCATION
CNTY.               Las Animas: COUNTY
SRVC.          Patterson Wireline: SERVICE COMPANY
DATE.          Wed Mar 15 15:59:24 2006: LOG DATE
UWI.           05 071 08721 00: UNIQUE WELL ID
STAT.                       CO: STATE
~Curve Information Block
DEPT.FT            0 000 00 00: Depth
CCL.                          : Casing Collar Locator
TT3.usec                      : CBL 3' Travel Time
AMP3.mV                       : CBL 3' Amplitude
GR.GAPI                       : Gamma Ray
~Parameter Information Block
~A  Depth       CCL         TT3         AMP3         GR     
# ...
   353.7500      0.0000    729.9468      5.7233    161.0933
   354.0000      0.0000    721.7523      5.7151    159.7388
   354.2500      0.0000    720.6552      5.7551    156.8477
   354.5000      0.0000    725.2060      5.8302    152.6925
   354.7500      0.0000    729.5608      5.8961    148.6649
   355.0000      0.0000    728.0203      5.9053    146.6155
   355.2500      0.0000    719.2700      5.8468    147.3354
   355.5000      0.0000    706.5551      5.7615    150.0369
   355.7500      0.0000    694.8868      5.7037    153.0687
   356.0000      0.0000    689.1568      5.6775    154.8854
   356.2500      0.0000    693.3408      5.6297    154.4750
   356.5000      0.0000    708.2190      5.5195    151.2370
   356.7500      0.0000    729.1378      5.3711    144.9587
   357.0000      0.0000    748.5322      5.2416    136.2383
   357.2500      0.0000    762.1916      5.1620    126.8793
   357.5000      2.0000    771.4488      5.1243    119.5314
   357.7500     -2.0000    778.3261      5.1085    116.5592
   358.0000      0.0000    781.3190      5.1114    118.7509
   358.2500      0.0000    778.2689      5.1564    124.6437
   358.5000      0.0000    771.0790      5.2673    130.9970
   358.7500      0.0000    764.5505      5.4252    134.3409
   359.0000      0.0000    761.5849      5.5682    132.8361
   359.2500      0.0000    761.7070      5.6536    127.3981
   359.5000      0.0000    763.4053      5.7009    121.2497
   359.7500      0.0000    765.8110      5.7511    117.9022
   360.0000      0.0000    768.3715      5.8118    118.8659
   360.2500      0.0000    770.4822      5.8609    122.8622
   360.5000      0.0000    771.9122      5.8800    127.1192
   360.7500      0.0000    773.1648      5.8652    129.4937
   361.0000      0.0000    775.1879      5.8219    129.8448
   361.2500      0.0000    778.5410      5.7621    129.8867
   361.5000      0.0000    782.5052      5.7045    131.5998
   361.7500      0.0000    785.0931      5.6666    135.4286
   362.0000      0.0000    784.4953      5.6551    140.0051
   362.2500      0.0000    780.7554      5.6629    143.6663
   362.5000      0.0000    775.7538      5.6781    146.2140
   362.7500      0.0000    771.5441      5.6954    149.0540
   363.0000      0.0000    768.9813      5.7177    153.2615
   363.2500      0.0000    767.7742      5.7486    157.5686
   363.5000      0.0000    767.2746      5.7840    158.9482
   363.7500      0.0000    767.0145      5.8141    155.5327
   364.0000      0.0000    766.7885      5.8331    148.4741
   364.2500      0.0000    766.4836      5.8463    140.8330
   364.5000      0.0000    765.7868      5.8646    135.3061
   364.7500      0.0000    763.8564      5.8933    132.9309
   365.0000      0.0000    759.2634      5.9281    133.0476
   365.2500      0.0000    750.6727      5.9622    134.0551
   365.5000      0.0000    738.1754      5.9914    134.4862
   365.7500      0.0000    724.0164      6.0098    133.7766
   366.0000      0.0000    711.4887      6.0070    132.3260
   366.2500      0.0000    702.7819      5.9755    130.9931
   366.5000      0.0000    697.9410      5.9195    130.4668
   366.7500      0.0000    695.6518      5.8516    130.8676
   367.0000      0.0000    694.5670      5.7815    131.7326
   367.2500      0.0000    693.9383      5.7115    132.2437
   367.5000      0.0000    693.5195      5.6414    131.4303
   367.7500      0.0000    693.2624      5.5730    128.6765
   368.0000      0.0000    693.1345      5.5112    124.7322
   368.2500      0.0000    693.0824      5.4592    121.8781
   368.5000      0.0000    693.0489      5.4136    122.1946
   368.7500      0.0000    692.9731      5.3668    125.6253
   369.0000      0.0000    692.8090      5.3162    130.3551
   369.2500      0.0000    692.5764      5.2714    134.9077
   369.5000      0.0000    692.3837      5.2493    139.1779
   369.7500      0.0000    692.3592      5.2591    143.5693
   370.0000      0.0000    692.5424      5.2909    147.8557
   370.2500      0.0000    692.8432      5.3183    150.9583
   370.5000      0.0000    693.1143      5.3160    151.4635
   370.7500      0.0000    693.2629      5.2776    148.4308
   371.0000      0.0000    693.2909      5.2140    142.2832
   371.2500      0.0000    693.2435      5.1393    135.1735
   371.5000      0.0000    693.1587      5.0617    130.1025
   371.7500      0.0000    693.0804      4.9879    129.1306
   372.0000      0.0000    693.1055      4.9279    132.0190
   372.2500      0.0000    693.4272      4.8919    136.3598
   372.5000      0.0000    694.3694      4.8841    139.2067
   372.7500      0.0000    696.3256      4.9003    138.9842
   373.0000      0.0000    699.4091      4.9290    136.2055
   373.2500      0.0000    702.9246      4.9568    132.4647
   373.5000      0.0000    705.3557      4.9756    128.7216
   373.7500      0.0000    705.3624      4.9862    124.5858
   374.0000      0.0000    702.9701      4.9932    119.2587
   374.2500      0.0000    699.5538      5.0009    112.8999
   374.5000      0.0000    696.6323      5.0154    106.8055
   374.7500      0.0000    694.8843      5.0447    102.4707
   375.0000      0.0000    694.2067      5.0900    100.6997
   375.2500      0.0000    694.3343      5.1411    101.3105
   375.5000      0.0000    695.2630      5.1861    103.4608
   375.7500      0.0000    697.2899      5.2230    106.3666
   376.0000      0.0000    700.7045      5.2603    109.6604
   376.2500      0.0000    705.1406      5.3078    112.9742
   376.5000      0.0000    709.0715      5.3699    115.6390
   376.7500      0.0000    710.4596      5.4438    117.1393
   377.0000      0.0000    708.4828      5.5222    117.6365
   377.2500      0.0000    704.4114      5.5955    117.7760
   377.5000      0.0000    700.4073      5.6548    117.9882
   377.7500      0.0000    697.7548      5.6953    117.8611
   378.0000      0.0000    696.4434      5.7194    116.3105
   378.2500      0.0000    695.9099      5.7337    112.6576
   378.5000      0.0000    695.6942      5.7446    107.5138
   378.7500      0.0000    695.5670      5.7531    102.5312
   379.0000      0.0000    695.4222      5.7535     99.3301
   379.2500      0.0000    695.2011      5.7362     98.5069
   379.5000      0.0000    694.8731      5.6948     99.3130
   379.7500      0.0000    694.4570      5.6338    100.2478
   380.0000      0.0000    694.0201      5.5690    100.2957
   380.2500      0.0000    693.6428      5.5186     99.7258
   380.5000      0.0000    693.3702      5.4924     99.4740
   380.7500      0.0000    693.2029      5.4856     99.7150
   381.0000      0.0000    693.1266      5.4836     99.4724
   381.2500      0.0000    693.1299      5.4732     97.7988
   381.5000      0.0000    693.1871      5.4510     94.9793
   381.7500      0.0000    693.2427      5.4225     92.1523
   382.0000      0.0000    693.2368      5.3970     89.8263
   382.2500      0.0000    693.1534      5.3829     87.2830
   382.5000      0.0000    693.0279      5.3840     83.7236
   382.7500      0.0000    692.9066      5.3976     79.5107
   383.0000      0.0000    692.8157      5.4166     75.7701
   383.2500      0.0000    692.7673      5.4352     73.0936
   383.5000      0.0000    692.7656      5.4512     71.2179
   383.7500      0.0000    692.7916      5.4615     69.8621
   384.0000      0.0000    692.7972      5.4592     69.2954
   384.2500      0.0000    692.7351      5.4378     69.9093
   384.5000      0.0000    692.5988      5.3963     71.5396
   384.7500      0.0000    692.4250      5.3412     73.3819
   385.0000      0.0000    692.2640      5.2841     74.4817
   385.2500      0.0000    692.1479      5.2351     74.2648
   385.5000      0.0000    692.0779      5.1979     72.8325
   385.7500      0.0000    692.0237      5.1686     70.8840
   386.0000      0.0000    691.9393      5.1391     69.2072
   386.2500      0.0000    691.7984      5.1015     68.1542
   386.5000      0.0000    691.6313      5.0521     67.6200
   386.7500      0.0000    691.5572      4.9921     67.3933
   387.0000      0.0000    691.8243      4.9269     67.4494
