~Version Information
 VERS.                                  2.0 : CWLS LAS VERSION
 WRAP.                                   NO : WRAPING MODE
 SWARE .                  MController 2.6.3 : SOFTWARE VERSION
~Well Information
 WELL.                          Lucky 21-36 : WELL
 COMP.    Pioneer Natural Resources USA Inc : COMPANY
 FLD.                      Purgatoire River : FIELD
 LOC.                NE/NW Sec 36 T32S R65W : LOCATION
 DATE.                           07/07/2008 : DATE(S) LOGGED
 SRVC.        Ismay Geological Services Ltd : SERVICE COMPANY
 STAT.                                   CO : STATE
 CNTY.                           Las Animas : COUNTY
 CTRY.                                  USA : COUNTRY
 API.                       05-071-08456-00 : API NUMBER
 STRT.FT                             441.00 : START DEPTH
 STOP.FT                            1450.00 : STOP DEPTH
 STEP.FT                               1.00 : DEPTH INCREMENT
 NULL.                                -9999 : NULL VALUE
~Curve information
 DEPTH.FT                                   :
 ROP.MIN/FT                                 :
 GAS.UNITS                                  :
~ASCII Log data
# ...
      641.00         0.27          5.6 
      642.00         0.47          5.9 
      643.00         0.30          6.1 
      644.00         0.13          4.7 
      645.00         0.10          5.4 
      646.00         0.32          5.8 
      647.00         0.17          5.7 
      648.00         0.17          5.7 
      649.00         0.13          5.3 
      650.00         0.17          6.0 
      651.00         1.63          6.1 
      652.00         0.27          5.5 
      653.00         0.23          5.5 
      654.00         0.20          4.8 
      655.00         0.17          5.1 
      656.00         0.22          5.5 
      657.00         0.13          4.7 
      658.00         0.17          5.3 
      659.00         0.17          5.6 
      660.00         0.20          5.2 
      661.00         0.17          5.4 
      662.00         0.13          5.1 
      663.00         0.17          5.3 
      664.00         0.13          5.3 
      665.00         0.17          5.0 
      666.00         0.17          5.5 
      667.00         0.17          5.9 
      668.00         0.20          5.0 
      669.00         0.17          5.3 
      670.00         0.17          5.4 
      671.00         0.13          5.0 
      672.00         0.17          5.4 
      673.00         0.13          5.4 
      674.00         0.13          5.4 
      675.00         0.20          4.8 
      676.00         0.20          4.6 
      677.00         0.25          5.0 
      678.00         0.13          5.3 
      679.00         0.17          5.3 
      680.00         0.13          5.5 
      681.00         1.83          5.7 
      682.00         0.27          5.3 
      683.00         0.23          5.1 
      684.00         0.23          4.7 
      685.00         0.22          5.8 
      686.00         0.20          5.2 
      687.00         0.20          5.5 
      688.00         0.20          5.3 
      689.00         0.20          4.9 
      690.00         0.17          5.6 
      691.00         0.13          4.8 
      692.00         0.17          4.4 
      693.00         0.17          5.5 
      694.00         0.17          5.2 
      695.00         0.13          5.2 
      696.00         0.20          5.0 
      697.00         0.20          4.6 
      698.00         0.20          5.2 
      699.00         0.17          4.5 
      700.00         0.17          4.8 
      701.00         0.13          5.2 
      702.00         0.17          4.8 
      703.00         0.17          4.8 
      704.00         0.15          4.8 
      705.00         0.13          4.8 
      706.00         0.17          4.9 
      707.00         0.13          5.0 
      708.00         0.13          5.1 
      709.00         0.20          3.7 
      710.00         0.13          4.2 
      711.00         1.80          5.2 
      712.00         0.43          4.5 
      713.00         0.25          4.2 
      714.00         0.20          4.0 
      715.00         0.20          3.6 
      716.00         0.17          3.8 
      717.00         0.17          3.9 
      718.00         0.20          4.1 
      719.00         0.23          4.8 
      720.00         0.13          3.7 
      721.00         0.13          4.7 
      722.00         0.17          4.9 
      723.00         0.13          4.6 
      724.00         0.13          5.0 
      725.00         0.17          4.6 
      726.00         0.13          3.7 
      727.00         0.17          4.2 
      728.00         0.13          3.4 
      729.00         0.10          3.5 
      730.00         0.17          4.4 
      731.00         0.20          4.6 
      732.00         0.17          3.0 
      733.00         0.13          3.8 
      734.00         0.22          3.6 
      735.00         0.17          3.6 
      736.00         0.17          4.3 
      737.00         0.13          4.5 
      738.00         0.20          4.8 
      739.00         0.23          3.1 
      740.00         0.53          4.5 
      741.00         1.37          4.8 
      742.00         0.30          4.0 
      743.00         0.25          3.9 
      744.00         0.23          3.8 
      745.00         0.20          3.9 
      746.00         0.20          4.6 
      747.00         0.13          4.6 
      748.00         0.17          3.6 
      749.00         0.17          4.6 
      750.00         0.17          3.8 
      751.00         0.17          4.3 
      752.00         0.17          4.7 
      753.00         0.17          3.3 
      754.00         0.17          3.8 
      755.00         0.17          3.8 
      756.00         0.17          2.8 
      757.00         0.20          3.9 
      758.00         0.20          4.0 
      759.00         0.20          3.1 
      760.00         0.17          4.1 
      761.00         0.18          4.6 
      762.00         0.17          4.2 
      763.00         0.20          4.4 
      764.00         0.20          4.4 
      765.00         0.20          4.3 
      766.00         0.27          3.7 
      767.00         0.23          4.3 
      768.00         0.20          4.2 
      769.00         0.23          3.7 
      770.00         0.47          4.0 
      771.00         1.07          5.0 
      772.00         0.52          4.4 
      773.00         0.23          4.8 
      774.00         0.20          4.1 
      775.00         0.20          3.5 
      776.00         0.20          4.4 
      777.00         0.23          4.9 
      778.00         0.17          4.7 
      779.00         0.17          4.8 
      780.00         0.17          3.9 
      781.00         0.17          3.9 
      782.00         0.17          4.9 
      783.00         0.13          4.6 
      784.00         0.13          3.7 
      785.00         0.23          4.6 
      786.00         0.20          4.9 
      787.00         0.20          4.6 
      788.00         0.22          3.3 
      789.00         0.13          3.3 
      790.00         0.13          4.0 
      791.00         0.17          4.3 
      792.00         0.20          3.6 
      793.00         0.20          4.0 
      794.00         0.17          4.0 
      795.00         0.20          4.7 
      796.00         0.20          3.6 
      797.00         0.13          4.9 
      798.00         0.13          3.7 
      799.00         0.20          4.3 
      800.00         0.20          5.1 
      801.00         1.13        204.9 
      802.00         0.25         23.3 
      803.00         0.23          1.0 
      804.00         0.20          1.0 
      805.00         0.27          2.3 
      806.00         0.23          2.8 
      807.00         0.17          2.8 
      808.00         0.17          2.5 
      809.00         0.17          3.1 
      810.00         0.17          3.0 
      811.00         0.17          3.3 
      812.00         0.13          2.8 
      813.00         0.23          3.1 
      814.00         0.23          3.6 
      815.00         0.17          3.0 
      816.00         0.20          3.3 
      817.00         0.18          3.2 
      818.00         0.20          3.7 
      819.00         0.23          2.5 
      820.00         0.23          4.0 
      821.00         0.27          3.7 
      822.00         0.27          3.9 
      823.00         0.20          4.3 
      824.00         0.23          4.1 
      825.00         0.27          3.3 
      826.00         0.17          4.7 
      827.00         0.17          4.8 
      828.00         0.17          3.9 
      829.00         0.17          3.9 
      830.00         0.20          3.5 
      831.00         2.55          5.5 
      832.00         0.30          4.7 
      833.00         0.30          4.3 
      834.00         0.13          3.9 
      835.00         2.75          4.7 
      836.00         0.27          3.9 
      837.00         0.20          4.3 
      838.00         0.30          4.3 
      839.00         0.28          4.1 
      840.00         0.27          4.3 
