~Version Information
VERS.                      2.0: CWLS Log ASCII Standard - VERSION 2.0
WRAP.                       NO: One line per depth step
~Well Information Block
STRT.FT                -7.0000: 
STOP.FT              2328.5000: 
STEP.FT                 0.2500: 
NULL.                -999.2500: 
COMP.          Pioneer Natural Resources: COMPANY
WELL.              Rolls 14-14: WELL
FLD.           Purgatorie River: FIELD
LOC.           572' FSL & 856' FWL--: LOCATION
PROV.                       CO: PROVINCE
CNTY.               Las Animas: COUNTRY
SRVC.          Patterson Wireline: SERVICE COMPANY
DATE.          Mon Aug 08 10:10:54 2005: LOG DATE
UWI.           05 071 08455 00: UNIQUE WELL ID
~Curve Information Block
DEPT.FT            0 000 00 00: Depth
CCL.                          : Casing Collar Locator
TT3.usec                      : CBL 3' Travel Time
AMP3.mV                       : CBL 3' Amplitude
GR.GAPI                       : Gamma Ray
~Parameter Information Block
~A  Depth       CCL         TT3         AMP3         GR     
# ...
   763.5000      0.0000    828.3953      5.4178     43.0362
   763.7500      0.0000    828.6409      5.4087     49.0029
   764.0000      0.0000    829.0089      5.3765     56.5418
   764.2500      0.0000    829.3315      5.3211     64.0690
   764.5000      0.0000    829.5143      5.2544     70.4615
   764.7500      0.0000    829.5455      5.1863     75.4469
   765.0000      0.0000    829.4514      5.1191     79.3789
   765.2500      0.0000    829.2714      5.0529     82.9297
   765.5000      0.0000    829.0610      4.9926     86.8628
   765.7500      0.0000    828.8835      4.9480     91.5973
   766.0000      0.0000    828.7800      4.9277     96.8564
   766.2500      0.0000    828.7513      4.9330    101.8923
   766.5000      0.0000    828.7798      4.9570    105.8804
   766.7500      0.0000    828.8287      4.9896    107.9025
   767.0000      0.0000    828.7740      5.0228    107.0532
   767.2500      0.0000    828.3069      5.0537    103.3374
   767.5000      0.0000    827.0238      5.0819     98.2055
   767.7500      0.0000    824.8775      5.1059     93.4174
   768.0000      0.0000    822.6485      5.1210     89.5769
   768.2500      0.0000    821.6511      5.1235     86.4303
   768.5000      0.0000    822.6083      5.1163     84.1307
   768.7500      0.0000    824.9343      5.1061     83.2579
   769.0000      0.0000    827.3384      5.0967     83.6695
   769.2500      0.0000    828.9429      5.0865     84.0105
   769.5000      0.0000    829.6779      5.0735     82.4649
   769.7500      0.0000    829.9100      5.0569     78.0063
   770.0000      0.0000    829.9956      5.0355     71.3305
   770.2500      0.0000    830.1050      5.0060     64.7277
   770.5000      0.0000    830.2562      4.9662     60.7811
   770.7500      0.0000    830.4128      4.9175     60.9196
   771.0000      0.0000    830.5738      4.8623     64.9037
   771.2500      0.0000    830.8354      4.8031     71.2915
   771.5000      0.0000    831.4651      4.7438     78.3662
   771.7500      0.0000    832.8777      4.6898     85.0538
   772.0000      0.0000    835.3420      4.6456     91.2210
   772.2500      0.0000    838.6679      4.6100     97.0314
   772.5000      0.0000    842.4761      4.5735    102.0853
   772.7500      0.0000    846.8606      4.5252    105.4415
   773.0000      0.0000    852.2946      4.4627    106.5463
   773.2500      0.0000    858.6319      4.3946    106.0238
   773.5000      0.0000    864.7173      4.3357    105.2637
   773.7500      0.0000    869.3073      4.3006    105.1203
   774.0000      0.0000    872.0219      4.2981    105.2642
   774.2500      0.0000    873.2589      4.3281    104.9341
   774.5000      0.0000    873.5787      4.3818    104.1355
   774.7500      0.0000    873.3762      4.4450    103.8885
   775.0000      0.0000    872.9208      4.5016    105.2010
   775.2500      0.0000    872.4504      4.5376    107.8818
   775.5000      0.0000    872.1688      4.5424    110.5689
   775.7500      0.0000    872.1704      4.5052    111.9798
   776.0000      0.0000    872.3936      4.4246    112.0806
   776.2500      0.0000    872.6695      4.3276    111.9449
   776.5000      0.0000    872.8280      4.2661    112.4621
   776.7500      0.0000    872.7645      4.2740    113.3401
   777.0000      0.0000    872.4234      4.3359    113.4414
   777.2500      0.0000    871.7383      4.4090    111.8491
   777.5000      0.0000    870.6177      4.4659    108.4820
   777.7500      0.0000    869.0226      4.5080    103.9816
   778.0000      0.0000    867.0742      4.5489     99.3572
   778.2500      0.0000    865.0717      4.5979     95.7025
   778.5000      0.0000    863.4056      4.6532     93.8808
   778.7500      0.0000    862.4697      4.7015     94.1709
   779.0000      0.0000    862.5676      4.7240     96.1701
   779.2500      0.0000    863.7253      4.7086     99.0550
   779.5000      0.0000    865.5230      4.6599    101.9649
   779.7500      0.0000    867.2280      4.5997    104.2019
   780.0000      0.0000    868.2137      4.5537    105.2471
   780.2500      0.0000    868.2553      4.5348    104.8279
   780.5000      0.0000    867.4351      4.5365    103.1775
   780.7500      0.0000    865.8659      4.5419    101.1263
   781.0000      0.0000    863.6466      4.5387     99.6837
   781.2500      0.0000    861.1513      4.5275     99.4082
   781.5000      0.0000    859.2516      4.5173    100.1184
   781.7500      0.0000    858.9168      4.5139    101.0413
   782.0000      0.0000    860.3233      4.5156    101.2691
   782.2500      0.0000    862.5075      4.5168    100.2279
   782.5000      0.0000    864.1697      4.5127     97.7162
   782.7500      0.0000    864.7452      4.5026     93.7388
   783.0000      0.0000    864.5531      4.4902     88.7644
   783.2500      0.0000    864.1124      4.4810     84.0534
   783.5000      0.0000    863.4941      4.4770     81.2204
   783.7500      0.0000    862.2325      4.4725     81.2752
   784.0000      0.0000    859.8646      4.4577     84.1884
   784.2500      0.0000    856.7835      4.4251     89.0866
   784.5000      0.0000    854.4868      4.3761     94.6404
   784.7500      0.0000    854.4550      4.3220     99.7527
   785.0000      0.0000    856.5830      4.2784    104.3653
   785.2500      0.0000    858.9823      4.2580    109.1204
   785.5000      0.0000    859.3713      4.2670    113.8506
   785.7500      0.0000    856.5034      4.3067    117.0453
   786.0000      0.0000    850.5867      4.3723    117.2444
   786.2500      0.0000    842.8277      4.4493    114.3181
   786.5000      0.0000    834.5948      4.5160    108.9292
   786.7500      0.0000    826.9295      4.5564    101.4970
   787.0000      0.0000    820.9575      4.5713     92.4164
   787.2500      0.0000    818.3091      4.5751     82.8656
   787.5000      0.0000    820.1238      4.5820     74.7155
   787.7500      0.0000    825.4352      4.5970     69.5245
   788.0000      0.0000    831.4879      4.6178     67.6790
   788.2500      0.0000    836.1834      4.6409     68.4128
   788.5000      0.0000    839.7090      4.6645     70.5999
   788.7500      0.0000    843.5524      4.6861     73.4038
   789.0000      0.0000    848.4424      4.6985     76.1981
   789.2500      0.0000    853.2389      4.6897     78.3932
   789.5000      0.0000    855.3419      4.6520     79.8385
   789.7500      0.0000    852.5991      4.5928     80.9755
   790.0000      0.0000    845.6312      4.5333     81.9889
   790.2500      0.0000    837.9099      4.4937     82.0630
   790.5000      0.0000    832.8619      4.4805     80.0688
   790.7500      0.0000    831.2615      4.4868     75.9331
   791.0000      0.0000    831.6714      4.5035     70.8473
   791.2500      0.0000    832.5565      4.5265     66.1510
   791.5000      0.0000    833.5064      4.5547     62.4532
   791.7500      0.0000    835.1703      4.5847     59.8467
   792.0000      0.0000    838.7957      4.6060     58.4062
   792.2500      0.0000    845.5345      4.6006     58.0613
   792.5000      0.0000    855.3026      4.5509     58.1753
   792.7500      0.0000    865.9952      4.4527     57.7246
   793.0000      0.0000    874.3338      4.3219     56.1278
   793.2500      0.0000    877.9744      4.1865     53.7963
   793.5000      0.0000    876.6135      4.0707     51.6995
   793.7500      0.0000    871.2545      3.9822     50.3877
   794.0000      0.0000    863.3940      3.9134     49.6448
   794.2500      0.0000    855.0021      3.8539     49.0527
   794.5000      0.0000    847.5372      3.7978     48.5770
   794.7500      0.0000    839.8300      3.7337     48.5284
   795.0000      0.0000    828.9537      3.6309     49.1506
   795.2500      0.0000    815.6884      3.4475     50.3049
   795.5000      0.0000    807.6010      3.1600     51.5132
   795.7500      0.0000    812.8831      2.7943     52.2719
   796.0000      0.0000    830.8840      2.4264     52.2565
   796.2500      0.0000    851.9150      2.1391     51.3075
   796.5000      0.0000    866.7505      1.9674     49.4617
   796.7500      0.0000    873.9077      1.8844     47.0867
