~Version Information
VERS.                      2.0: CWLS Log ASCII Standard - VERSION 2.0
WRAP.                       NO: One line per depth step
~Well Information Block
STRT.FT               575.0000: 
STOP.FT              1558.5000: 
STEP.FT                 0.2500: 
NULL.                -999.2500: 
COMP.          Pioneer Natural Resources: COMPANY
WELL.          McClaren 13-34 Tr: WELL
FLD.           Purgatoire River: FIELD
LOC.           1934' FSL & 826' FWL: LOCATION
PROV.                 Colorado: PROVINCE
CNTY.               Las Animas: COUNTRY
SRVC.                Patterson: SERVICE COMPANY
DATE.          Mon Jul 11 20:01:13 2005: LOG DATE
UWI.           05 071 08437 00: UNIQUE WELL ID
~Curve Information Block
DEPT.FT            0 000 00 00: Depth
SN.Ohm-m                      : IEL Short Normal
SP.mV                         : IEL Spontaneous Potential
DIR.Ohm-m                     : IEL Induction Resistivity
GR.GAPI                       : Gamma Ray
~Parameter Information Block
~A  Depth        SN          SP         DIR          GR     
# ...
   809.5000   2000.0000   2000.0000     16.9102    133.0411
   809.7500   2000.0000   2000.0000     16.5627    133.1092
   810.0000   2000.0000   2000.0000     16.2724    132.9535
   810.2500   2000.0000   2000.0000     16.0644    133.2702
   810.5000   2000.0000   2000.0000     15.9652    134.8083
   810.7500   2000.0000   2000.0000     15.9780    136.2921
   811.0000   2000.0000   2000.0000     16.0670    138.2441
   811.2500   2000.0000   2000.0000     16.1656    138.7673
   811.5000   2000.0000   2000.0000     16.2097    137.4394
   811.7500   2000.0000   2000.0000     16.1723    134.6043
   812.0000   2000.0000   2000.0000     16.0725    127.0703
   812.2500   2000.0000   2000.0000     15.9538    120.6476
   812.5000   2000.0000   2000.0000     15.8552    112.3722
   812.7500   2000.0000   2000.0000     15.7965    110.1407
   813.0000   2000.0000   2000.0000     15.7784    113.7623
   813.2500   2000.0000   2000.0000     15.7893    120.0617
   813.5000   2000.0000   2000.0000     15.8099    131.5474
   813.7500   2000.0000   2000.0000     15.8152    138.0933
   814.0000   2000.0000   2000.0000     15.7762    143.5578
   814.2500   2000.0000   2000.0000     15.6676    144.0912
   814.5000   2000.0000   2000.0000     15.4792    141.7395
   814.7500   2000.0000   2000.0000     15.2276    139.3480
   815.0000   2000.0000   2000.0000     14.9560    136.1928
   815.2500   2000.0000   2000.0000     14.7207    134.8134
   815.5000   2000.0000   2000.0000     14.5704    133.9135
   815.7500   2000.0000   2000.0000     14.5294    133.9513
   816.0000   2000.0000   2000.0000     14.5951    134.5412
   816.2500   2000.0000   2000.0000     14.7463    134.9983
   816.5000   2000.0000   2000.0000     14.9543    135.4061
   816.7500   2000.0000   2000.0000     15.1903    135.4013
   817.0000   2000.0000   2000.0000     15.4259    134.9031
   817.2500   2000.0000   2000.0000     15.6342    134.1200
   817.5000   2000.0000   2000.0000     15.7943    131.9231
   817.7500   2000.0000   2000.0000     15.9005    129.6621
   818.0000   2000.0000   2000.0000     15.9670    125.3841
   818.2500   2000.0000   2000.0000     16.0249    122.4259
   818.5000   2000.0000   2000.0000     16.1125    118.7534
   818.7500   2000.0000   2000.0000     16.2656    117.1086
   819.0000   2000.0000   2000.0000     16.5126    115.8001
   819.2500   2000.0000   2000.0000     16.8706    115.5751
   819.5000   2000.0000   2000.0000     17.3386    116.2041
   819.7500   2000.0000   2000.0000     17.8891    117.3121
   820.0000   2000.0000   2000.0000     18.4657    119.6428
   820.2500   2000.0000   2000.0000     18.9965    121.0067
   820.5000   2000.0000   2000.0000     19.4171    121.2926
   820.7500   2000.0000   2000.0000     19.6884    119.7296
   821.0000   2000.0000   2000.0000     19.7979    115.0873
   821.2500   2000.0000   2000.0000     19.7508    111.4017
   821.5000   2000.0000   2000.0000     19.5661    106.9285
   821.7500   2000.0000   2000.0000     19.2758    105.4569
   822.0000   2000.0000   2000.0000     18.9240    105.9979
   822.2500   2000.0000   2000.0000     18.5594    107.9469
   822.5000   2000.0000   2000.0000     18.2239    112.1445
   822.7500   2000.0000   2000.0000     17.9428    115.0464
   823.0000   2000.0000   2000.0000     17.7215    118.6476
   823.2500   2000.0000   2000.0000     17.5508    120.3593
   823.5000   2000.0000   2000.0000     17.4194    122.3254
   823.7500   2000.0000   2000.0000     17.3250    123.9154
   824.0000   2000.0000   2000.0000     17.2775    127.8534
   824.2500   2000.0000   2000.0000     17.2924    131.5715
   824.5000   2000.0000   2000.0000     17.3794    137.5723
   824.7500   2000.0000   2000.0000     17.5377    140.6292
   825.0000   2000.0000   2000.0000     17.7585    141.4667
   825.2500   2000.0000   2000.0000     18.0301    138.5640
   825.5000   2000.0000   2000.0000     18.3370    129.2555
   825.7500   2000.0000   2000.0000     18.6587    121.0959
   826.0000   2000.0000   2000.0000     18.9739    109.0731
   826.2500   2000.0000   2000.0000     19.2724    102.7759
   826.5000   2000.0000   2000.0000     19.5634     97.6649
   826.7500   2000.0000   2000.0000     19.8717     97.6198
   827.0000   2000.0000   2000.0000     20.2263    102.2880
   827.2500   2000.0000   2000.0000     20.6509    107.6670
   827.5000   2000.0000   2000.0000     21.1556    116.9089
   827.7500   2000.0000   2000.0000     21.7263    122.6921
   828.0000   2000.0000   2000.0000     22.3136    129.7447
   828.2500   2000.0000   2000.0000     22.8380    133.1995
   828.5000   2000.0000   2000.0000     23.2193    136.4592
   828.7500   2000.0000   2000.0000     23.4135    137.4096
   829.0000   2000.0000   2000.0000     23.4237    137.5364
   829.2500   2000.0000   2000.0000     23.2731    137.2823
   829.5000   2000.0000   2000.0000     22.9780    136.9507
   829.7500   2000.0000   2000.0000     22.5524    136.5019
   830.0000   2000.0000   2000.0000     22.0362    134.2542
   830.2500   2000.0000   2000.0000     21.5031    131.2266
   830.5000   2000.0000   2000.0000     21.0312    125.2334
   830.7500   2000.0000   2000.0000     20.6640    121.6936
   831.0000   2000.0000   2000.0000     20.3952    119.7161
   831.2500   2000.0000   2000.0000     20.1860    121.4163
   831.5000   2000.0000   2000.0000     19.9969    127.7924
   831.7500   2000.0000   2000.0000     19.8114    133.2177
   832.0000   2000.0000   2000.0000     19.6406    140.4843
   832.2500   2000.0000   2000.0000     19.5087    143.7367
   832.5000   2000.0000   2000.0000     19.4305    145.5616
   832.7500   2000.0000   2000.0000     19.3931    144.7671
   833.0000   2000.0000   2000.0000     19.3560    141.2811
   833.2500   2000.0000   2000.0000     19.2727    138.2918
   833.5000   2000.0000   2000.0000     19.1220    134.7176
   833.7500   2000.0000   2000.0000     18.9244    133.8879
   834.0000   2000.0000   2000.0000     18.7289    135.4716
   834.2500   2000.0000   2000.0000     18.5845    137.8336
   834.5000   2000.0000   2000.0000     18.5158    141.4816
   834.7500   2000.0000   2000.0000     18.5139    143.1295
   835.0000   2000.0000   2000.0000     18.5422    144.2978
   835.2500   2000.0000   2000.0000     18.5494    144.7674
   835.5000   2000.0000   2000.0000     18.4884    145.8413
   835.7500   2000.0000   2000.0000     18.3338    146.6549
   836.0000   2000.0000   2000.0000     18.0906    146.7617
   836.2500   2000.0000   2000.0000     17.7874    145.3080
   836.5000   2000.0000   2000.0000     17.4582    140.6322
   836.7500   2000.0000   2000.0000     17.1262    136.7956
   837.0000   2000.0000   2000.0000     16.7993    132.8159
   837.2500   2000.0000   2000.0000     16.4764    132.6261
   837.5000   2000.0000   2000.0000     16.1580    135.8146
   837.7500   2000.0000   2000.0000     15.8536    138.9429
   838.0000   2000.0000   2000.0000     15.5792    142.8223
   838.2500   2000.0000   2000.0000     15.3493    144.1526
   838.5000   2000.0000   2000.0000     15.1680    143.9327
   838.7500   2000.0000   2000.0000     15.0266    142.3456
   839.0000   2000.0000   2000.0000     14.9080    138.2756
   839.2500   2000.0000   2000.0000     14.7964    135.0700
   839.5000   2000.0000   2000.0000     14.6856    130.8552
   839.7500   2000.0000   2000.0000     14.5828    128.8435
   840.0000   2000.0000   2000.0000     14.5050    126.6601
   840.2500   2000.0000   2000.0000     14.4710    125.4675
   840.5000   2000.0000   2000.0000     14.4937    124.6523
   840.7500   2000.0000   2000.0000     14.5798    125.5557
   841.0000   2000.0000   2000.0000     14.7338    129.6123
   841.2500   2000.0000   2000.0000     14.9624    133.4341
   841.5000   2000.0000   2000.0000     15.2718    138.7512
   841.7500   2000.0000   2000.0000     15.6582    141.0769
   842.0000   2000.0000   2000.0000     16.1022    142.3001
   842.2500   2000.0000   2000.0000     16.5779    141.9222
   842.5000   2000.0000   2000.0000     17.0724    140.4966
   842.7500   2000.0000   2000.0000     17.6005    139.3406
