~Version Information
VERS.                      2.0: CWLS Log ASCII Standard - VERSION 2.0
WRAP.                       NO: One line per depth step
~Well Information Block
STRT.FT                 0.0000: 
STOP.FT               816.5000: 
STEP.FT                 0.1000: 
NULL.                -999.2500: 
COMP.          Pioneer Natural Resources: COMPANY
WELL.           Weissach 32-32: WELL
FLD.           Purgatorie River: FIELD
LOC.           2193' FNL & 2256' FEL: LOCATION
STAT.                 Colorado: State
CNTY.               Las Animas: COUNTY
CTRY. USA : Country
SECT. 32 : Section
TOWN. 33S : Township
RANG. 66W : Range
SRVC.                Patterson: SERVICE COMPANY
DATE.          Mon Sep 26 09:15:29 2005: LOG DATE
API. 05-071-08523                         : UNIQUE WELL ID
~Curve Information Block
DEPT.FT            0 000 00 00: Depth
DCAL.in                       : CDL Caliper
RHOB.g/cc                     : CDL Bulk Density
RHOC.g/cc                     : CDL Density Correction
DPOR.pu                       : CDL Density Porosity
GR.GAPI                       : Gamma Ray
NPOR.pu                       : Neutron Porosity
~Parameter Information Block
~A  Depth       DCAL        RHOB        RHOC        DPOR         GR         NPOR    
# ...
   796.8000      7.7930      2.5854      0.0531      3.9131    262.5646     21.8581
   796.9000      7.7930      2.5936      0.0693      3.4181    243.8407     21.2255
   797.0000      7.7818      2.5879      0.0513      3.7666    222.5707     20.6718
   797.1000      7.7818      2.5770      0.0485      4.4221    203.3071     20.3927
   797.2000      7.7818      2.5699      0.0413      4.8532    189.1891     20.6417
   797.3000      7.7545      2.5722      0.0142      4.7171    179.3803     22.7660
   797.4000      7.7545      2.5839      0.1119      4.0072    170.7552     28.8433
   797.5000      7.7392      2.5953      0.0709      3.3161    160.7882     37.7248
   797.6000      7.7392      2.6016      0.1038      2.9349    150.6190     44.1605
   797.7000      7.7392      2.6014      0.1386      2.9454    140.9944     46.5516
   797.8000      7.7147      2.5944      0.1133      3.3708    130.3524     47.0276
   797.9000      7.7147      2.5931      0.1059      3.4505    120.5060     47.0781
   798.0000      7.6920      2.6099      0.0987      2.4275    113.8779     47.0810
   798.1000      7.6920      2.6307      0.0977      1.1726    110.4462   -999.2500
   798.2000      7.6920      2.6310      0.1301      1.1506    110.3192   -999.2500
   798.3000      7.7293      2.6157      0.0895      2.0786    111.5505   -999.2500
   798.4000      7.7293      2.6019      0.1370      2.9179    111.6775   -999.2500
   798.5000      7.7231      2.5889      0.1489      3.7023    110.2946   -999.2500
   798.6000      7.7231      2.5743      0.1072      4.5892    107.8155   -999.2500
   798.7000      7.7231      2.5654      0.1022      5.1266    104.1999   -999.2500
   798.8000      7.7246      2.5635      0.0747      5.2425     97.2367   -999.2500
   798.9000      7.7246      2.5564      0.0871      5.6732     87.9817   -999.2500
   799.0000      7.7793      2.5478      0.0282      6.1958     83.1363   -999.2500
   799.1000      7.7793      2.5551      0.0836      5.7496     84.4989   -999.2500
   799.2000      7.7793      2.5661      0.1564      5.0827     84.7226   -999.2500
   799.3000      7.8026      2.5581      0.1257      5.5703     78.9433   -999.2500
   799.4000      7.8026      2.5365      0.0310      6.8783     71.5494   -999.2500
   799.5000      7.7861      2.5155      0.0621      8.1529     67.6232   -999.2500
   799.6000      7.7861      2.5036      0.0272      8.8755     67.9281   -999.2500
   799.7000      7.7861      2.5116      0.0398      8.3897     71.9587   -999.2500
   799.8000      7.7793      2.5394      0.0524      6.7024     77.9904   -999.2500
   799.9000      7.7793      2.5667      0.1227      5.0463     81.8110   -999.2500
   800.0000      7.7685      2.5750      0.1151      4.5455     80.8329   -999.2500
   800.1000      7.7685      2.5784      0.0515      4.3406     76.9240   -999.2500
   800.2000      7.7685      2.5965      0.1002      3.2394     73.6847   -999.2500
   800.3000      7.7509      2.6153      0.1122      2.1004     73.6079   -999.2500
   800.4000      7.7509      2.6184      0.1467      1.9170     77.9880   -999.2500
   800.5000      7.7445      2.6121      0.1055      2.2947     85.7762   -999.2500
   800.6000      7.7445      2.6041      0.0904      2.7822     93.0523   -999.2500
   800.7000      7.7445      2.5895      0.0889      3.6661     97.1432   -999.2500
   800.8000      7.7657      2.5670      0.0693      5.0323     97.7130   -999.2500
   800.9000      7.7657      2.5496      0.0509      6.0844     94.7932   -999.2500
   801.0000      7.7708      2.5502      0.1070      6.0482     91.8689   -999.2500
   801.1000      7.7708      2.5627      0.1086      5.2939     93.4491   -999.2500
   801.2000      7.7708      2.5685      0.1237      4.9366     97.2112   -999.2500
   801.3000      7.7624      2.5573      0.1151      5.6166     98.9193   -999.2500
   801.4000      7.7624      2.5414      0.0888      6.5793     99.2230   -999.2500
   801.5000      7.7430      2.5422      0.0757      6.5359     98.7946   -999.2500
   801.6000      7.7430      2.5634      0.0925      5.2458     96.7139   -999.2500
   801.7000      7.7430      2.5906      0.1202      3.5994     93.9329   -999.2500
   801.8000      7.7493      2.6088      0.0843      2.4962     93.5866   -999.2500
   801.9000      7.7493      2.6122      0.1287      2.2937     97.6715   -999.2500
   802.0000      7.7521      2.5991      0.1235      3.0832    101.7338   -999.2500
   802.1000      7.7521      2.5767      0.0940      4.4421    100.2377   -999.2500
   802.2000      7.7521      2.5575      0.0819      5.6049     96.6647   -999.2500
   802.3000      7.7294      2.5497      0.0622      6.0778     95.2515   -999.2500
   802.4000      7.7294      2.5517      0.0490      5.9581     94.2461   -999.2500
   802.5000      7.7447      2.5549      0.0388      5.7629     92.3189   -999.2500
   802.6000      7.7447      2.5552      0.0220      5.7431     90.2186   -999.2500
   802.7000      7.7447      2.5521      0.0335      5.9329     87.6713   -999.2500
   802.8000      7.7558      2.5425      0.0768      6.5174     84.5735   -999.2500
   802.9000      7.7558      2.5312     -0.0064      7.1982     81.5373   -999.2500
   803.0000      7.7476      2.5298      0.0585      7.2867     74.7028   -999.2500
   803.1000      7.7476      2.5366      0.0678      6.8712     56.3985   -999.2500
   803.2000      7.7476      2.5405      0.0879      6.6353     29.6644   -999.2500
   803.3000      7.7085      2.5417      0.0305      6.5606      9.5948   -999.2500
   803.4000      7.7085      2.5559      0.0525      5.7012      1.7739   -999.2500
   803.5000      7.7107      2.5872      0.0635      3.8072      0.1801   -999.2500
   803.6000      7.7107      2.6139      0.0977      2.1886      0.0096   -999.2500
   803.7000      7.7107      2.6127      0.1005      2.2602      0.0000   -999.2500
   803.8000      7.7238      2.5849      0.1466      3.9466   -999.2500   -999.2500
   803.9000      7.7238      2.5542      0.0620      5.8034   -999.2500   -999.2500
   804.0000      7.6922      2.5449      0.0675      6.3670   -999.2500   -999.2500
   804.1000      7.6922      2.5516      0.0937      5.9629   -999.2500   -999.2500
   804.2000      7.6922      2.5480      0.1128      6.1843   -999.2500   -999.2500
   804.3000      7.7243      2.5273      0.0824      7.4338   -999.2500   -999.2500
   804.4000      7.7243      2.5038      0.0579      8.8622   -999.2500   -999.2500
   804.5000      7.7665      2.4872      0.0489      9.8683   -999.2500   -999.2500
   804.6000      7.7665      2.4835      0.0539     10.0935   -999.2500   -999.2500
   804.7000      7.7665      2.4879      0.0799      9.8222   -999.2500   -999.2500
   804.8000      7.7686      2.4822      0.0912     10.1699   -999.2500   -999.2500
   804.9000      7.7686      2.4672      0.0091     11.0760   -999.2500   -999.2500
   805.0000      7.7687      2.4717      0.0200     10.8045   -999.2500   -999.2500
   805.1000      7.7687      2.5059      0.0529      8.7324   -999.2500   -999.2500
   805.2000      7.7687      2.5424      0.1069      6.5191   -999.2500   -999.2500
   805.3000      7.7716      2.5528      0.1231      5.8929   -999.2500   -999.2500
   805.4000      7.7716      2.5378      0.0946      6.8024   -999.2500   -999.2500
   805.5000      7.7633      2.5149      0.0768      8.1857   -999.2500   -999.2500
   805.6000      7.7633      2.4983      0.0237      9.1961   -999.2500   -999.2500
   805.7000      7.7633      2.4974      0.0349      9.2455   -999.2500   -999.2500
   805.8000      7.7650      2.5139      0.0429      8.2496   -999.2500   -999.2500
   805.9000      7.7650      2.5387      0.0449      6.7469   -999.2500   -999.2500
   806.0000      7.7642      2.5639      0.0830      5.2154   -999.2500   -999.2500
   806.1000      7.7642      2.5857      0.1316      3.8963   -999.2500   -999.2500
   806.2000      7.7642      2.6027      0.1146      2.8660   -999.2500   -999.2500
   806.3000      7.7589      2.6099      0.1743      2.4310   -999.2500   -999.2500
