~Version Information
VERS.                      2.0: CWLS Log ASCII Standard - VERSION 2.0
WRAP.                       NO: One line per depth step
~Well Information Block
STRT.FT                 0.0000: 
STOP.FT               878.0000: 
STEP.FT                 0.2500: 
NULL.                -999.2500: 
COMP.          Pioneer Natural Resources: COMPANY
WELL.           Hartford 31-18: WELL
FLD.           Purgatorie River: FIELD
LOC.           375' FNL & 1660' FEL: LOCATION
PROV.                 Colorado: PROVINCE
CNTY.               Las Animas: COUNTRY
SRVC.                Patterson: SERVICE COMPANY
DATE.          Mon Nov 28 12:10:49 2005: LOG DATE
UWI.             05-071-08555             : UNIQUE WELL ID
~Curve Information Block
DEPT.FT            0 000 00 00: Depth
CCL.                          : Casing Collar Locator
TT3.usec                      : CBL 3' Travel Time
AMP3.mV                       : CBL 3' Amplitude
GR.GAPI                       : Gamma Ray
~Parameter Information Block
~A  Depth       CCL         TT3         AMP3         GR     
# ...
   402.0000      0.0000    677.7418     10.5070     75.3681
   402.2500      0.0000    679.1965     10.4493     72.7896
   402.5000      0.0000    682.7745     10.3692     69.0742
   402.7500      0.0000    688.9727     10.3379     65.1341
   403.0000      0.0000    695.9255     10.3800     62.4263
   403.2500      0.0000    701.5497     10.4601     62.1101
   403.5000      0.0000    704.4040     10.5367     64.3070
   403.7500      0.0000    703.0554     10.6009     68.0538
   404.0000      0.0000    699.7491     10.6631     72.0380
   404.2500      0.0000    699.6352     10.7436     75.4359
   404.5000      0.0000    702.0679     10.8487     78.0116
   404.7500      0.0000    700.7500     10.9384     79.5645
   405.0000      0.0000    693.9672     10.9655     79.7950
   405.2500      0.0000    686.4968     10.9356     78.8879
   405.5000      0.0000    682.0693     10.8909     77.7130
   405.7500      0.0000    680.3458     10.8630     77.0776
   406.0000      0.0000    679.7458     10.8526     77.0996
   406.2500      0.0000    679.4059     10.8283     77.4930
   406.5000      0.0000    679.3379     10.7673     78.1111
   406.7500      0.0000    680.5409     10.7039     78.9430
   407.0000      0.0000    685.0731     10.6895     79.7250
   407.2500      0.0000    694.3390     10.7217     79.8700
   407.5000      0.0000    706.0611     10.7642     78.8760
   407.7500      0.0000    715.2063     10.7938     76.7909
   408.0000      0.0000    718.5288     10.8038     74.4384
   408.2500      0.0000    715.4266     10.7973     73.1432
   408.5000      0.0000    706.4980     10.7784     73.7526
   408.7500      0.0000    694.7328     10.7465     75.7019
   409.0000      0.0000    684.9581     10.7080     77.3850
   409.2500      0.0000    679.6632     10.6777     77.6841
   409.5000      0.0000    677.8126     10.6530     76.9525
   409.7500      0.0000    677.5005     10.6094     76.4099
   410.0000      0.0000    677.6683     10.5408     76.8057
   410.2500      0.0000    678.1639     10.4835     77.7270
   410.5000      0.0000    679.8525     10.4962     78.0301
   410.7500      0.0000    684.7147     10.6165     76.8898
   411.0000      0.0000    694.1120     10.8236     74.4843
   411.2500      0.0000    705.8474     11.0738     71.7773
   411.5000      0.0000    715.2557     11.3656     69.8393
   411.7500      0.0000    720.0911     11.7205     69.3756
   412.0000      0.0000    721.6877     12.1215     70.5747
   412.2500      0.0000    722.0249     12.5013     73.1457
   412.5000      0.0000    722.0398     12.7714     76.4828
   412.7500      0.0000    721.9638     12.8676     79.8071
   413.0000      0.0000    721.8788     12.8016     82.3022
   413.2500      0.0000    721.8519     12.6580     83.3219
   413.5000      0.0000    721.8342     12.5196     82.6899
   413.7500      0.0000    721.5048     12.3960     80.8530
   414.0000      0.0000    719.8828     12.2266     78.5210
   414.2500      0.0000    715.0413     11.9517     76.0523
   414.5000      0.0000    705.6723     11.5884     73.4834
   414.7500      0.0000    693.9642     11.2108     71.1370
   415.0000      0.0000    684.5571     10.8729     69.6115
   415.2500      0.0000    679.7045     10.5890     68.9095
   415.5000      0.0000    678.0823     10.3500     68.1542
   415.7500      0.0000    677.6942     10.1500     66.5319
   416.0000      0.0000    677.5851     10.0116     64.1261
   416.2500      0.0000    677.5204      9.9587     61.6340
   416.5000      0.0000    677.4559      9.9638     59.6648
   416.7500      0.0000    677.3754      9.9728     58.4065
   417.0000      0.0000    677.2667      9.9701     57.6247
   417.2500      0.0000    677.1450      9.9725     56.9405
   417.5000      0.0000    677.0824      9.9883     56.3540
   417.7500      0.0000    677.1360     10.0316     56.3973
   418.0000      0.0000    677.4601     10.1414     57.4984
   418.2500      0.0000    678.9886     10.3411     59.2782
   418.5000      0.0000    683.8467     10.6149     60.8044
   418.7500      0.0000    693.4883     10.9453     61.6028
   419.0000      0.0000    705.6423     11.3221     62.1733
   419.2500      0.0000    715.5571     11.7059     63.2986
   419.5000      0.0000    720.9626     12.0229     65.0551
   419.7500      0.0000    723.1146     12.2092     66.8715
   420.0000      0.0000    723.7704     12.2427     68.5001
   420.2500      0.0000    723.1663     12.0721     70.4941
   420.5000      0.0000    719.3131     11.5317     73.4744
   420.7500      0.0000    708.5584     10.5582     77.0868
   421.0000      0.0000    691.2633      9.5683     80.0168
   421.2500      0.0000    677.9021      9.0761     81.1067
   421.5000      0.0000    680.7374      8.8328     80.1958
   421.7500      0.0000    698.7113      8.2715     77.9092
   422.0000      0.0000    719.2424      7.5169     75.2039
   422.2500      0.0000    733.1646      6.9978     73.3415
   422.5000     -2.0000    740.9528      6.7619     73.6444
   422.7500      2.0000    744.8100      6.6300     76.6080
   423.0000      0.0000    745.0698      6.4916     81.2825
   423.2500      0.0000    744.1501      6.3738     86.0486
   423.5000      0.0000    740.9922      6.4622     90.4023
   423.7500      0.0000    726.0919      7.0859     95.7637
   424.0000      0.0000    688.8867      8.3245    103.9690
   424.2500      0.0000    628.5023      9.5415    114.7216
   424.5000      0.0000    565.6971     10.0029    124.7515
   424.7500      0.0000    533.0430      9.8142    129.8269
   425.0000      0.0000    537.5474      9.5212    127.8439
   425.2500      0.0000    553.7377      9.3648    120.2907
   425.5000      0.0000    567.1619      9.2968    111.1955
   425.7500      0.0000    593.0852      9.2379    104.8781
   426.0000      0.0000    633.9108      9.1780    104.0741
   426.2500      0.0000    661.3105      9.1579    109.0989
   426.5000      0.0000    660.8809      9.2245    118.0228
   426.7500      0.0000    655.9561      9.3927    127.4582
   427.0000      0.0000    668.7336      9.6281    133.5179
   427.2500      0.0000    685.4869      9.8632    133.1323
   427.5000      0.0000    676.1693     10.0262    125.8190
   427.7500      0.0000    627.3342     10.0924    114.5303
   428.0000      0.0000    551.6835     10.1177    104.1348
   428.2500      0.0000    476.1700     10.1726     98.4584
   428.5000      0.0000    420.9839     10.2751     98.3891
   428.7500      0.0000    389.3554     10.4211    102.0946
   429.0000      0.0000    373.0384     10.5968    106.5385
   429.2500      0.0000    366.2547     10.7467    109.1391
   429.5000      0.0000    373.1381     10.8216    108.8477
   429.7500      0.0000    398.0800     10.8394    106.4564
   430.0000      0.0000    433.0743     10.8337    104.1621
   430.2500      0.0000    463.4695     10.7976    104.3604
   430.5000      0.0000    486.8617     10.7201    108.1148
   430.7500      0.0000    517.9611     10.6176    114.4432
   431.0000      0.0000    570.2034     10.5234    121.1310
   431.2500      0.0000    634.4554     10.4862    126.3374
   431.5000      0.0000    685.9459     10.5426    129.5223
   431.7500      0.0000    712.5309     10.6671    131.2204
   432.0000      0.0000    721.4871     10.7751    132.3067
   432.2500      0.0000    723.6500     10.7871    133.2460
   432.5000      0.0000    724.2460     10.7025    133.4771
   432.7500      0.0000    724.4871     10.5864    131.4125
   433.0000      0.0000    724.4349     10.5042    125.5201
   433.2500      0.0000    724.1566     10.4961    115.9387
   433.5000      0.0000    723.7954     10.5597    105.1105
   433.7500      0.0000    723.4020     10.6487     96.4798
   434.0000      0.0000    722.9874     10.7192     92.1525
   434.2500      0.0000    722.6145     10.7574     91.5973
   434.5000      0.0000    722.1973     10.7693     92.3924
   434.7500      0.0000    721.0628     10.7689     92.1515
   435.0000      0.0000    718.1342     10.7673     90.0739
   435.2500      0.0000    713.9326     10.7720     86.9132
