~Version Information
VERS.                      2.0: CWLS Log ASCII Standard - VERSION 2.0
WRAP.                       NO: One line per depth step
~Well Information Block
STRT.FT               845.0000: 
STOP.FT              2103.2000: 
STEP.FT                 0.1000: 
NULL.                -999.2500: 
COMP.          Petrogulf Corporation: COMPANY
WELL.               YWAM 7-32R: WELL
FLD.           Purgatorie River: FIELD
LOC.           2355' FNL & 2376' FEL: LOCATION
PROV.                 Colorado: PROVINCE
CNTY.               Las Animas: COUNTRY
SRVC.                Patterson: SERVICE COMPANY
DATE.          Thu Sep 29 23:12:08 2005: LOG DATE
UWI.                          : UNIQUE WELL ID
~Curve Information Block
DEPT.FT            0 000 00 00: Depth
SP.mV                         : DIL Spontaneous Potential
RILD.Ohm-m                    : DIL Deep Resistivity
RILM.Ohm-m                    : DIL Medium Resistivity
RLL3.Ohm-m                    : DIL Shallow Resistivity
GR.GAPI                       : Gamma Ray
~Parameter Information Block
~A  Depth        SP         RILD        RILM        RLL3         GR     
# ...
  1181.0000    145.8569     18.6784     20.7222     28.2570    107.3824
  1181.1000    145.8569     18.6784     20.7222     28.2570    108.6902
  1181.2000    145.8569     18.6784     20.7222     28.2570    109.8396
  1181.3000    145.1241     18.6191     20.8483     28.6588    110.8080
  1181.4000    145.1241     18.6191     20.8483     28.6588    111.5910
  1181.5000    144.5592     18.3406     20.7129     28.9775    112.2029
  1181.6000    144.5592     18.3406     20.7129     28.9775    112.6725
  1181.7000    144.5592     18.3406     20.7129     28.9775    113.0377
  1181.8000    144.1258     17.8819     20.3129     28.9606    113.3397
  1181.9000    144.1258     17.8819     20.3129     28.9606    113.6212
  1182.0000    143.7779     17.3033     19.6768     28.3902    113.9168
  1182.1000    143.7779     17.3033     19.6768     28.3902    114.2571
  1182.2000    143.7779     17.3033     19.6768     28.3902    114.6629
  1182.3000    143.4749     16.6634     18.8613     27.1626    115.1526
  1182.4000    143.4749     16.6634     18.8613     27.1626    115.7326
  1182.5000    143.2071     16.0039     17.9370     25.3212    116.4054
  1182.6000    143.2071     16.0039     17.9370     25.3212    117.1692
  1182.7000    143.2071     16.0039     17.9370     25.3212    118.0130
  1182.8000    143.0039     15.3474     16.9729     23.0371    118.9215
  1182.9000    143.0039     15.3474     16.9729     23.0371    119.8716
  1183.0000    142.9209     14.7032     16.0229     20.6026    120.8388
  1183.1000    142.9209     14.7032     16.0229     20.6026    121.7918
  1183.2000    142.9209     14.7032     16.0229     20.6026    122.6961
  1183.3000    143.0209     14.0758     15.1214     18.4202    123.5137
  1183.4000    143.0209     14.0758     15.1214     18.4202    124.2024
  1183.5000    143.3608     13.4703     14.2848     16.8994    124.7183
  1183.6000    143.3608     13.4703     14.2848     16.8994    125.0188
  1183.7000    143.3608     13.4703     14.2848     16.8994    125.0658
  1183.8000    143.9742     12.8941     13.5161     16.2509    124.8351
  1183.9000    143.9742     12.8941     13.5161     16.2509    124.3256
  1184.0000    144.8468     12.3551     12.8115     16.2969    123.5602
  1184.1000    144.8468     12.3551     12.8115     16.2969    122.5951
  1184.2000    144.8468     12.3551     12.8115     16.2969    121.5074
  1184.3000    145.9033     11.8594     12.1663     16.4925    120.3949
  1184.4000    145.9033     11.8594     12.1663     16.4925    119.3604
  1184.5000    147.0205     11.4100     11.5775     16.2525    118.4976
  1184.6000    147.0205     11.4100     11.5775     16.2525    117.8825
  1184.7000    147.0205     11.4100     11.5775     16.2525    117.5679
  1184.8000    148.0624     11.0073     11.0458     15.3625    117.5756
  1184.9000    148.0624     11.0073     11.0458     15.3625    117.9039
  1185.0000    148.9191     10.6510     10.5734     14.0908    118.5315
  1185.1000    148.9191     10.6510     10.5734     14.0908    119.4162
  1185.2000    148.9191     10.6510     10.5734     14.0908    120.5019
  1185.3000    149.5355     10.3403     10.1631     12.9027    121.7196
  1185.4000    149.5355     10.3403     10.1631     12.9027    122.9887
  1185.5000    149.9217     10.0739      9.8154     12.1043    124.2258
  1185.6000    149.9217     10.0739      9.8154     12.1043    125.3450
  1185.7000    149.9217     10.0739      9.8154     12.1043    126.2714
  1185.8000    150.1381      9.8478      9.5284     11.7205    126.9450
  1185.9000    150.1381      9.8478      9.5284     11.7205    127.3296
  1186.0000    150.2618      9.6558      9.2973     11.6043    127.4088
  1186.1000    150.2618      9.6558      9.2973     11.6043    127.1937
  1186.2000    150.2618      9.6558      9.2973     11.6043    126.7104
  1186.3000    150.3487      9.4907      9.1154     11.5935    125.9914
  1186.4000    150.3487      9.4907      9.1154     11.5935    125.0682
  1186.5000    150.4170      9.3486      8.9753     11.6014    123.9662
  1186.6000    150.4170      9.3486      8.9753     11.6014    122.6981
  1186.7000    150.4170      9.3486      8.9753     11.6014    121.2704
  1186.8000    150.4579      9.2300      8.8702     11.6236    119.6920
  1186.9000    150.4579      9.2300      8.8702     11.6236    117.9821
  1187.0000    150.4568      9.1397      8.7954     11.6908    116.1855
  1187.1000    150.4568      9.1397      8.7954     11.6908    114.3776
  1187.2000    150.4568      9.1397      8.7954     11.6908    112.6696
  1187.3000    150.4051      9.0832      8.7482     11.8102    111.1942
  1187.4000    150.4051      9.0832      8.7482     11.8102    110.0983
  1187.5000    150.2991      9.0635      8.7286     11.9319    109.5152
  1187.6000    150.2991      9.0635      8.7286     11.9319    109.5442
  1187.7000    150.2991      9.0635      8.7286     11.9319    110.2292
  1187.8000    150.1396      9.0790      8.7387     11.9651    111.5472
  1187.9000    150.1396      9.0790      8.7387     11.9651    113.4147
  1188.0000    149.9353      9.1229      8.7812     11.8441    115.6955
  1188.1000    149.9353      9.1229      8.7812     11.8441    118.2251
  1188.2000    149.9353      9.1229      8.7812     11.8441    120.8390
  1188.3000    149.7011      9.1844      8.8584     11.6010    123.3925
  1188.4000    149.7011      9.1844      8.8584     11.6010    125.7832
  1188.5000    149.4510      9.2497      8.9693     11.3805    127.9566
  1188.6000    149.4510      9.2497      8.9693     11.3805    129.9103
  1188.7000    149.4510      9.2497      8.9693     11.3805    131.6759
  1188.8000    149.1920      9.3047      9.1084     11.3764    133.3126
  1188.9000    149.1920      9.3047      9.1084     11.3764    134.8847
  1189.0000    148.9271      9.3367      9.2633     11.7326    136.4502
  1189.1000    148.9271      9.3367      9.2633     11.7326    138.0482
  1189.2000    148.9271      9.3367      9.2633     11.7326    139.6971
  1189.3000    148.6562      9.3372      9.4153     12.4612    141.3909
  1189.4000    148.6562      9.3372      9.4153     12.4612    143.0995
  1189.5000    148.3684      9.3036      9.5408     13.4085    144.7743
  1189.6000    148.3684      9.3036      9.5408     13.4085    146.3483
  1189.7000    148.3684      9.3036      9.5408     13.4085    147.7489
  1189.8000    148.0385      9.2398      9.6162     14.2860    148.8939
  1189.9000    148.0385      9.2398      9.6162     14.2860    149.7099
  1190.0000    147.6430      9.1545      9.6240     14.7796    150.1375
  1190.1000    147.6430      9.1545      9.6240     14.7796    150.1492
  1190.2000    147.6430      9.1545      9.6240     14.7796    149.7550
  1190.3000    147.1889      9.0585      9.5574     14.6983    149.0145
  1190.4000    147.1889      9.0585      9.5574     14.6983    148.0368
  1190.5000    146.7217      8.9601      9.4221     14.0711    146.9686
  1190.6000    146.7217      8.9601      9.4221     14.0711    145.9824
  1190.7000    146.7217      8.9601      9.4221     14.0711    145.2476
  1190.8000    146.3031      8.8630      9.2334     13.1244    144.9053
  1190.9000    146.3031      8.8630      9.2334     13.1244    145.0453
  1191.0000    145.9799      8.7655      9.0105     12.1524    145.6865
  1191.1000    145.9799      8.7655      9.0105     12.1524    146.7768
  1191.2000    145.9799      8.7655      9.0105     12.1524    148.1954
  1191.3000    145.7706      8.6625      8.7719     11.3757    149.7758
  1191.4000    145.7706      8.6625      8.7719     11.3757    151.3316
  1191.5000    145.6655      8.5484      8.5320     10.8708    152.6745
  1191.6000    145.6655      8.5484      8.5320     10.8708    153.6441
  1191.7000    145.6655      8.5484      8.5320     10.8708    154.1247
  1191.8000    145.6293      8.4201      8.3009     10.5937    154.0506
  1191.9000    145.6293      8.4201      8.3009     10.5937    153.4089
  1192.0000    145.6079      8.2793      8.0851     10.4532    152.2290
  1192.1000    145.6079      8.2793      8.0851     10.4532    150.5780
