~Version Information
VERS.                      2.0: CWLS Log ASCII Standard - VERSION 2.0
WRAP.                       NO: One line per depth step
~Well Information Block
STRT.FT                -1.5000: 
STOP.FT              2143.7500: 
STEP.FT                 0.2500: 
NULL.                -999.2500: 
COMP.          Pioneer Natural Resources: COMPANY
WELL.              Kermit 32-7: WELL
FLD.           Purgatoire River: FIELD
LOC.           2002' FNL & 2103' FEL: LOCATION
PROV.                 Colorado: PROVINCE
CNTY.               Las Animas: COUNTRY
SRVC.                Patterson: SERVICE COMPANY
DATE.          Wed Jan 18 14:17:49 2006: LOG DATE
UWI.           05 071 08647 00: UNIQUE WELL ID
~Curve Information Block
DEPT.FT            0 000 00 00: Depth
GR.GAPI                       : Gamma Ray
CCL.                          : Casing Collar Locator
TT3.usec                      : CBL 3' Travel Time
AMP3.mV                       : CBL 3' Amplitude
~Parameter Information Block
~A  Depth        GR         CCL         TT3         AMP3    
# ...
   702.0000     80.6518      0.0000    719.9287     12.4393
   702.2500     83.8659      0.0000    713.3148     12.4190
   702.5000     86.0522      0.0000    703.3328     12.3935
   702.7500     86.7323      0.0000    696.7022     12.3684
   703.0000     87.0287      0.0000    697.1620     12.3531
   703.2500     88.4745      0.0000    703.5403     12.3566
   703.5000     91.2664      0.0000    711.5832     12.3792
   703.7500     94.0173      0.0000    717.6678     12.4131
   704.0000     95.1979      0.0000    720.6883     12.4508
   704.2500     94.6069      0.0000    721.2211     12.4901
   704.5000     93.4184      0.0000    720.1147     12.5297
   704.7500     92.9729      0.0000    718.2090     12.5668
   705.0000     93.6160      0.0000    716.8217     12.5986
   705.2500     94.5401      0.0000    717.5529     12.6224
   705.5000     94.6358      0.0000    720.8785     12.6338
   705.7500     93.5296      0.0000    724.9766     12.6296
   706.0000     91.7851      0.0000    726.5235     12.6150
   706.2500     90.2384      0.0000    723.1539     12.6013
   706.5000     89.4414      0.0000    715.5504     12.5957
   706.7500     89.6716      0.0000    707.4728     12.5955
   707.0000     90.9499      0.0000    703.4170     12.5930
   707.2500     92.7684      0.0000    705.3571     12.5841
   707.5000     94.1109      0.0000    711.5172     12.5696
   707.7500     94.1277      0.0000    718.3442     12.5523
   708.0000     92.9203      0.0000    723.1658     12.5347
   708.2500     91.5886      0.0000    725.0014     12.5159
   708.5000     91.3503      0.0000    724.2060     12.4921
   708.7500     92.4123      0.0000    722.1572     12.4602
   709.0000     93.7374      0.0000    720.5450     12.4224
   709.2500     94.1059      0.0000    720.2010     12.3848
   709.5000     93.3496      0.0000    720.7456     12.3514
   709.7500     92.2719      0.0000    721.3967     12.3222
   710.0000     91.4680      0.0000    721.7510     12.2941
   710.2500     90.6668      0.0000    721.8471     12.2612
   710.5000     89.2560      0.0000    721.8647     12.2158
   710.7500     86.9465      0.0000    721.9307     12.1569
   711.0000     83.8520      0.0000    722.0967     12.0943
   711.2500     80.5691      0.0000    722.3599     12.0386
   711.5000     78.3435      0.0000    722.6740     11.9879
   711.7500     78.3662      0.0000    722.9511     11.9306
   712.0000     80.4518      0.0000    723.1125     11.8608
   712.2500     82.9284      0.0000    723.1528     11.7852
   712.5000     84.1543      0.0000    723.1381     11.7164
   712.7500     83.8399      0.0000    723.1218     11.6618
   713.0000     82.8861      0.0000    723.0643     11.6195
   713.2500     82.2523      0.0000    722.7906     11.5788
   713.5000     82.0180      0.0000    721.8937     11.5273
   713.7500     81.4919      0.0000    719.5727     11.4593
   714.0000     80.3365      0.0000    714.6945     11.3809
   714.2500     79.3166      0.0000    706.6786     11.3057
   714.5000     79.4352      0.0000    696.7819     11.2437
   714.7500     80.5196      0.0000    687.9582     11.1962
   715.0000     81.2609      0.0000    682.4656     11.1604
   715.2500     80.6568      0.0000    679.9503     11.1362
   715.5000     78.9624      0.0000    678.6418     11.1272
   715.7500     77.1098      0.0000    677.5724     11.1396
   716.0000     75.6380      0.0000    676.8682     11.1783
   716.2500     74.6545      0.0000    677.3784     11.2429
   716.5000     74.5035      0.0000    680.7861     11.3288
   716.7500     75.6879      0.0000    687.9272     11.4349
   717.0000     77.9081      0.0000    695.6269     11.5681
   717.2500     79.6594      0.0000    697.1813     11.7404
   717.5000     79.1443      0.0000    687.0659     11.9644
   717.7500     75.5188      0.0000    664.0617     12.2402
   718.0000     69.2755      0.0000    631.2444     12.5165
   718.2500     61.7754      0.0000    596.9573     12.6444
   718.5000     54.6453      0.0000    574.5400     12.4046
   718.7500     49.4136      0.0000    574.3680     11.6587
   719.0000     47.1745      0.0000    594.1426     10.5162
   719.2500     48.1401      0.0000    621.5009      9.3135
   719.5000     51.3974      0.0000    646.4126      8.3788
   719.7500     55.3797      0.0000    666.5590      7.8226
   720.0000     58.9116      0.0000    682.2167      7.5523
   720.2500     61.8454      0.0000    692.0106      7.4391
   720.5000     64.6009      0.0000    694.2935      7.4469
   720.7500     67.3594      0.0000    689.2189      7.6542
   721.0000     70.0042      0.0000    678.7709      8.1837
   721.2500     72.6661      0.0000    666.5696      9.0640
   721.5000     75.8422      0.0000    657.6155     10.1168
   721.7500     79.8582      0.0000    655.9270     11.0255
   722.0000     84.4284      0.0000    660.9186     11.5698
   722.2500     88.7697      0.0000    667.4048     11.7710
   722.5000     91.9455      0.0000    670.6667     11.8010
   722.7500     93.2185      0.0000    670.5134     11.8088
   723.0000     92.3342      0.0000    669.0637     11.8597
   723.2500     89.5530      0.0000    665.8245     11.9695
   723.5000     85.5084      0.0000    656.8680     12.1377
   723.7500     81.0642      0.0000    639.3566     12.3526
   724.0000     77.0279      0.0000    616.9828     12.5918
   724.2500     73.7765      0.0000    600.0153     12.8255
   724.5000     71.1422      0.0000    597.5558     13.0248
   724.7500     68.5939      0.0000    609.0374     13.1729
   725.0000     65.5445      0.0000    625.1180     13.2683
   725.2500     61.7650      0.0000    636.8637     13.3153
   725.5000     57.6632      0.0000    641.8329     13.3165
   725.7500     54.0618      0.0000    641.5632     13.2795
   726.0000     51.6552      0.0000    636.4572     13.2237
   726.2500     50.5879      0.0000    625.3223     13.1733
   726.5000     50.4103      0.0000    609.5022     13.1416
   726.7500     50.5534      0.0000    595.5379     13.1250
   727.0000     51.0636      0.0000    591.2508     13.1084
   727.2500     52.7855      0.0000    597.6953     13.0758
   727.5000     56.5073      0.0000    606.0302     13.0166
   727.7500     61.9064      0.0000    604.7768     12.9321
   728.0000     67.5387      0.0000    590.8002     12.8376
   728.2500     71.7971      0.0000    571.9339     12.7540
   728.5000     73.8260      0.0000    559.0733     12.6923
   728.7500     74.0046      0.0000    557.1175     12.6472
   729.0000     74.0108      0.0000    562.8225     12.6037
   729.2500     76.0048      0.0000    569.8150     12.5499
   729.5000     81.0012      0.0000    576.2154     12.4818
   729.7500     87.9817      0.0000    587.7313     12.3988
   730.0000     94.7989      0.0000    611.3929     12.2979
   730.2500     99.6617      0.0000    645.7673     12.1801
   730.5000    101.7401      0.0000    679.6539     12.0562
   730.7500    101.0784      0.0000    701.4861     11.9415
   731.0000     98.5638      0.0000    708.7634     11.8454
   731.2500     95.8135      0.0000    708.0861     11.7702
   731.5000     94.4059      0.0000    707.6572     11.7153
   731.7500     94.7575      0.0000    710.9653     11.6789
   732.0000     95.9631      0.0000    716.9877     11.6581
   732.2500     96.9722      0.0000    723.7552     11.6490
   732.5000     97.5302      0.0000    729.3710     11.6480
   732.7500     97.7079      0.0000    730.7618     11.6512
   733.0000     97.1304      0.0000    724.5572     11.6566
   733.2500     95.3862      0.0000    710.0568     11.6668
   733.5000     92.9099      0.0000    690.4192     11.6885
   733.7500     90.7899      0.0000    670.8011     11.7269
   734.0000     89.6624      0.0000    655.4548     11.7831
   734.2500     89.0618      0.0000    646.0742     11.8515
   734.5000     87.7862      0.0000    642.1848     11.9201
   734.7500     84.9196      0.0000    642.8893     11.9762
   735.0000     80.8532      0.0000    648.1462     12.0160
   735.2500     77.2528      0.0000    658.3206     12.0468
