~Version Information
 VERS.                                  2.0 : CWLS LAS VERSION
 WRAP.                                   NO : WRAPING MODE
 SWARE .                  MController 2.5.1 : SOFTWARE VERSION
~Well Information
 WELL.                        Loews41-32 Tr : WELL
 COMP.  Pioneer Natural Resources USA, Inc. : COMPANY
 FLD.                      Purgatoire River : FIELD
 LOC.             NW/NE Sec. 32, T32S, R67W : LOCATION
 DATE.                           02/20/2006 : DATE(S) LOGGED
 SRVC.                  Entrada GeoSciences : SERVICE COMPANY
 STAT.                             Colorado : STATE
 CNTY.                           Las Animas : COUNTY
 CTRY.                        United States : COUNTRY
 API.                          05-071-08690 : API NUMBER
 STRT.FT                             638.00 : START DEPTH
 STOP.FT                            1825.00 : STOP DEPTH
 STEP.FT                               1.00 : DEPTH INCREMENT
 NULL.                                -9999 : NULL VALUE
~Curve information
 DEPTH.FT                                   :
 ROP.MIN/FT                                 :
 GAS.UNITS                                  :
~ASCII Log data
# ...
     1238.00         0.17          1.3 
     1239.00         0.20          0.6 
     1240.00         0.43          1.3 
     1241.00         0.33         -0.1 
     1242.00         0.38          0.4 
     1243.00         0.30         -0.8 
     1244.00         0.23         -0.5 
     1245.00         0.37          0.4 
     1246.00         0.20          0.9 
     1247.00         0.10          0.9 
     1248.00         0.50          1.9 
     1249.00         0.37          0.8 
     1250.00         0.27          1.4 
     1251.00         0.30          1.6 
     1252.00         0.30         -0.7 
     1253.00         0.23          0.1 
     1254.00         0.57          1.0 
     1255.00         0.27          1.0 
     1256.00         0.30          2.4 
     1257.00         0.17          2.7 
     1258.00         0.17          2.7 
     1259.00         0.27          3.5 
     1260.00         0.30          3.6 
     1261.00         0.33          4.4 
     1262.00         0.40          4.0 
     1263.00         0.53          2.9 
     1264.00         0.48          2.2 
     1265.00         0.40          2.0 
     1266.00         0.30          3.1 
     1267.00         0.37          3.4 
     1268.00         0.40          3.2 
     1269.00         0.50          2.8 
     1270.00         0.53          2.9 
     1271.00         0.27          1.8 
     1272.00         0.30          3.0 
     1273.00         0.62          2.1 
     1274.00         0.30          1.8 
     1275.00         0.37          1.4 
     1276.00         0.27          0.4 
     1277.00         0.40          1.5 
     1278.00         0.40          3.1 
     1279.00         0.40          2.2 
     1280.00         0.30          1.1 
     1281.00         0.27          3.1 
     1282.00         0.35          5.1 
     1283.00         0.27          7.2 
     1284.00         0.60         11.4 
     1285.00         0.35         12.8 
     1286.00         0.33         13.1 
     1287.00         0.27         13.1 
     1288.00         0.23         13.4 
     1289.00         0.27         12.9 
     1290.00         0.23         12.2 
     1291.00         0.33         11.4 
     1292.00         0.37         10.0 
     1293.00         0.40          7.7 
     1294.00         0.40          5.4 
     1295.00         0.35          4.2 
     1296.00         0.37          2.2 
     1297.00         0.37          2.6 
     1298.00         0.40          1.9 
     1299.00         0.37          1.1 
     1300.00         0.43          1.5 
     1301.00         0.40          1.4 
     1302.00         0.40          0.1 
     1303.00         0.45          0.8 
     1304.00         0.57          0.6 
     1305.00         0.60          0.5 
     1306.00         0.37          0.5 
     1307.00         0.37          0.4 
     1308.00         0.37          1.1 
     1309.00         0.33          3.7 
     1310.00         0.37          4.4 
     1311.00         0.38          6.1 
     1312.00         0.40          8.1 
     1313.00         0.33         10.9 
     1314.00         0.50         20.0 
     1315.00         0.37         25.4 
     1316.00         0.30         26.2 
     1317.00         0.30         26.7 
     1318.00         0.30         27.6 
     1319.00         0.48         25.2 
     1320.00         0.43         20.5 
     1321.00         0.63         14.6 
     1322.00         0.30          5.3 
     1323.00         0.17          5.0 
     1324.00         0.20          3.1 
     1325.00         0.17          2.4 
     1326.00         0.20          3.0 
     1327.00         0.17          3.0 
     1328.00         0.17          3.9 
     1329.00         0.17          7.3 
     1330.00         0.18          9.4 
     1331.00         0.20         11.3 
     1332.00         0.43         18.8 
     1333.00         0.37         24.1 
     1334.00         0.40         29.0 
     1335.00         0.33         31.9 
     1336.00         0.47         34.6 
     1337.00         0.37         34.7 
     1338.00         0.40         35.1 
     1339.00         0.42        107.3 
     1340.00         0.40        151.9 
     1341.00         0.40        259.5 
     1342.00         0.33        299.1 
     1343.00         0.33        325.6 
     1344.00         0.50        329.7 
     1345.00         0.30        322.9 
     1346.00         0.27        306.6 
     1347.00         0.42        302.6 
     1348.00         0.30        256.3 
     1349.00         0.30        247.9 
     1350.00         0.40        184.8 
     1351.00         0.47        108.3 
     1352.00         0.33         51.9 
     1353.00         0.33         41.8 
     1354.00         0.33         40.6 
     1355.00         0.37         36.2 
     1356.00         0.38         34.8 
     1357.00         0.30         32.9 
     1358.00         0.20         32.3 
     1359.00         0.37         31.8 
     1360.00         0.40         31.2 
     1361.00         0.37         30.9 
     1362.00         0.37         30.3 
     1363.00         0.40         30.4 
     1364.00         0.50         30.3 
     1365.00         0.55         31.3 
     1366.00         0.60         32.0 
     1367.00         0.40         30.4 
     1368.00         0.37         32.4 
     1369.00         0.33         37.4 
     1370.00         0.37         46.6 
     1371.00         0.27         57.7 
     1372.00         0.27         73.3 
     1373.00         0.27         86.5 
     1374.00         0.45         99.5 
     1375.00         0.27        102.1 
     1376.00         0.40        103.4 
     1377.00         0.30        102.4 
     1378.00         0.35         95.1 
     1379.00         0.47         75.2 
     1380.00         0.40         51.9 
     1381.00         0.33         42.1 
     1382.00         0.37         35.4 
     1383.00         0.33         31.1 
     1384.00         0.33         27.5 
     1385.00         0.30         25.9 
     1386.00         0.33         25.4 
     1387.00         0.33         25.4 
     1388.00         0.32         24.9 
     1389.00         0.40         23.5 
     1390.00         0.40         24.0 
     1391.00         0.43         23.2 
     1392.00         0.27         22.9 
     1393.00         0.30         22.8 
     1394.00         0.27         22.8 
     1395.00         0.30         22.2 
     1396.00         0.27         22.1 
     1397.00         0.20         23.8 
     1398.00         0.28         23.5 
     1399.00         0.30         27.3 
     1400.00         0.27         35.8 
     1401.00         0.27         49.7 
     1402.00         0.30         60.5 
     1403.00         0.33         68.5 
     1404.00         0.47         76.1 
     1405.00         0.37         72.2 
     1406.00         0.33         67.8 
     1407.00         0.27         57.2 
     1408.00         0.33         49.9 
     1409.00         0.30         43.5 
     1410.00         0.23         37.6 
     1411.00         0.20         37.1 
     1412.00         0.23         31.9 
     1413.00         0.22         29.8 
     1414.00         0.30         29.9 
     1415.00         0.27         27.8 
     1416.00         0.30         27.6 
     1417.00         0.33         26.8 
     1418.00         0.37         26.8 
     1419.00         0.37         26.2 
     1420.00         0.33         26.0 
     1421.00         0.37         26.3 
     1422.00         0.33         26.0 
     1423.00         0.38         25.7 
     1424.00         0.40         25.3 
     1425.00         0.37         26.1 
     1426.00         0.37         26.5 
     1427.00         0.40         51.8 
     1428.00         0.33         51.8 
     1429.00         0.37         86.8 
     1430.00         0.20         86.8 
     1431.00         0.30        106.4 
     1432.00         0.38        109.5 
     1433.00         0.30        107.2 
     1434.00         0.40        100.8 
     1435.00         0.40         85.1 
     1436.00         0.37         71.9 
     1437.00         0.47         53.8 
