~Version Information
VERS.                      2.0: CWLS Log ASCII Standard - VERSION 2.0
WRAP.                       NO: One line per depth step
~Well Information Block
STRT.FT                -9.0000: 
STOP.FT              1754.0000: 
STEP.FT                 0.2500: 
NULL.                -999.2500: 
COMP.          Pioneer Natural Resources: COMPANY
WELL.          Touchstone 11-32 Tr: WELL
FLD.           Purgatorie River: FIELD
LOC.           782' FNL & 840' FWL--: LOCATION
CNTY.               Las Animas: COUNTY
SRVC.          Patterson Wireline: SERVICE COMPANY
DATE.          Mon Mar 06 09:18:09 2006: LOG DATE
UWI.           05 071 08626 00: UNIQUE WELL ID
STAT.                       CO: STATE
~Curve Information Block
DEPT.FT            0 000 00 00: Depth
CCL.                          : Casing Collar Locator
TT3.usec                      : CBL 3' Travel Time
AMP3.mV                       : CBL 3' Amplitude
GR.GAPI                       : Gamma Ray
~Parameter Information Block
~A  Depth       CCL         TT3         AMP3         GR     
# ...
  1498.5000      0.0000    685.7305      6.7958    121.2244
  1498.7500      0.0000    693.6225      6.7375    120.9990
  1499.0000      0.0000    695.9053      6.6938    120.2390
  1499.2500      0.0000    692.9554      6.6696    119.2515
  1499.5000      0.0000    684.1411      6.6592    117.7022
  1499.7500      0.0000    668.7476      6.6532    115.6134
  1500.0000      0.0000    647.8903      6.6423    114.2364
  1500.2500      0.0000    626.1426      6.6215    115.2403
  1500.5000      0.0000    611.3063      6.5921    118.9487
  1500.7500      0.0000    610.8046      6.5607    123.6145
  1501.0000      0.0000    626.4365      6.5337    126.5522
  1501.2500      0.0000    652.2683      6.5131    126.2033
  1501.5000      0.0000    677.5222      6.4956    123.4193
  1501.7500      0.0000    691.7817      6.4744    120.7581
  1502.0000      0.0000    689.6467      6.4445    120.2660
  1502.2500      0.0000    673.4471      6.4079    121.9602
  1502.5000      0.0000    652.0673      6.3724    124.3934
  1502.7500      0.0000    634.9028      6.3448    126.0968
  1503.0000      0.0000    624.9169      6.3243    126.2445
  1503.2500      0.0000    617.7056      6.3041    124.7411
  1503.5000      0.0000    607.4800      6.2767    122.4243
  1503.7500      0.0000    592.7921      6.2420    120.8845
  1504.0000      0.0000    576.4239      6.2097    121.2421
  1504.2500      0.0000    561.8418      6.1930    122.9820
  1504.5000      0.0000    550.9357      6.1969    124.3800
  1504.7500      0.0000    543.8896      6.2107    123.8982
  1505.0000      0.0000    539.8439      6.2151    120.7867
  1505.2500      0.0000    537.6154      6.1972    115.0728
  1505.5000      0.0000    536.2186      6.1598    107.9965
  1505.7500      0.0000    535.0789      6.1176    102.0183
  1506.0000      0.0000    534.0933      6.0841     99.1888
  1506.2500      0.0000    533.9642      6.0628     99.4890
  1506.5000      0.0000    536.9133      6.0502    101.4060
  1506.7500      0.0000    547.2515      6.0473    103.7214
  1507.0000      0.0000    570.3185      6.0647    105.9236
  1507.2500      0.0000    609.1268      6.1126    107.3027
  1507.5000      0.0000    660.7998      6.1853    106.9599
  1507.7500      0.0000    716.4753      6.2617    105.0545
  1508.0000      0.0000    765.3137      6.3215    103.1745
  1508.2500      0.0000    799.2828      6.3572    102.8113
  1508.5000      0.0000    815.7598      6.3716    103.6591
  1508.7500      0.0000    817.6730      6.3657    103.8179
  1509.0000      0.0000    811.6269      6.3358    101.7164
  1509.2500      0.0000    804.3375      6.2814     97.5723
  1509.5000      0.0000    799.3196      6.2140     92.8324
  1509.7500      0.0000    796.5618      6.1533     88.5344
  1510.0000      0.0000    794.8477      6.1146     84.6743
  1510.2500      0.0000    793.5300      6.1015     81.1508
  1510.5000      0.0000    792.3428      6.1073     78.7248
  1510.7500      0.0000    790.7421      6.1213     78.3983
  1511.0000      0.0000    788.1613      6.1338     79.8533
  1511.2500      0.0000    785.0139      6.1383     81.2052
  1511.5000      0.0000    783.1022      6.1326     80.8366
  1511.7500      0.0000    784.3109      6.1206     79.1461
  1512.0000      0.0000    788.1973      6.1133     77.9618
  1512.2500      0.0000    791.2474      6.1225     78.2943
  1512.5000      0.0000    789.4874      6.1486     79.1477
  1512.7500      0.0000    782.0255      6.1758     78.7092
  1513.0000      0.0000    771.7252      6.1800     76.4896
  1513.2500      0.0000    762.7457      6.1432     73.9648
  1513.5000      0.0000    758.0570      6.0647     72.9581
  1513.7500      0.0000    758.8303      5.9635     73.6436
  1514.0000      0.0000    765.0373      5.8700     74.5903
  1514.2500      0.0000    775.7975      5.8105     74.5827
  1514.5000      0.0000    788.9766      5.7940     73.6370
  1514.7500      0.0000    801.3589      5.8118     72.2147
  1515.0000      0.0000    810.2915      5.8464     70.3390
  1515.2500      0.0000    815.0273      5.8803     67.9021
  1515.5000      0.0000    815.6650      5.9021     65.2478
  1515.7500      0.0000    811.8268      5.9095     63.0102
  1516.0000      0.0000    804.0099      5.9066     61.7050
  1516.2500      0.0000    794.6353      5.8987     61.6041
  1516.5000      0.0000    784.8884      5.8890     62.5174
  1516.7500      0.0000    771.7522      5.8797     63.5550
  1517.0000      0.0000    751.7302      5.8754     63.6093
  1517.2500      0.0000    727.6572      5.8832     62.3393
  1517.5000      0.0000    709.3300      5.9111     60.4292
  1517.7500      0.0000    706.3679      5.9645     58.7729
  1518.0000      0.0000    720.8857      6.0423     57.6942
  1518.2500      0.0000    746.4885      6.1355     57.0899
  1518.5000      0.0000    773.0076      6.2301     56.9528
  1518.7500      0.0000    792.2090      6.3139     57.5448
  1519.0000      0.0000    800.6320      6.3809     59.1990
  1519.2500      0.0000    799.4180      6.4339     61.9120
  1519.5000      0.0000    793.3303      6.4826     64.9103
  1519.7500      0.0000    789.4926      6.5376     66.8979
  1520.0000      0.0000    793.9729      6.6066     67.2513
  1520.2500      0.0000    806.8930      6.6867     66.9300
  1520.5000      0.0000    820.2350      6.7589     67.8289
  1520.7500      0.0000    821.4277      6.7930     71.1692
  1521.0000      0.0000    801.9479      6.7685     76.7207
  1521.2500      0.0000    765.5132      6.6921     83.5062
  1521.5000      0.0000    727.0276      6.5955     90.7920
  1521.7500      0.0000    700.5298      6.5151     98.0344
  1522.0000      0.0000    687.8073      6.4733    104.0109
  1522.2500      0.0000    679.1108      6.4709    106.7763
  1522.5000      0.0000    663.3705      6.4899    105.2210
  1522.7500      0.0000    638.1535      6.5042    100.6693
  1523.0000      0.0000    612.5391      6.4948     96.4358
  1523.2500      0.0000    600.4755      6.4599     95.6385
  1523.5000      0.0000    609.1138      6.4113     99.4301
  1523.7500      0.0000    632.9158      6.3642    106.8662
  1524.0000      0.0000    659.2438      6.3276    115.7904
  1524.2500      0.0000    678.7179      6.3023    123.7897
  1524.5000      0.0000    690.0103      6.2835    128.9582
  1524.7500      0.0000    696.7399      6.2649    130.4551
  1525.0000      0.0000    701.9430      6.2358    128.9572
  1525.2500      0.0000    705.7988      6.1758    126.6179
  1525.5000      0.0000    707.2838      6.0547    125.6493
  1525.7500      0.0000    706.7285      5.8599    126.2869
  1526.0000      0.0000    707.2354      5.6412    126.7722
  1526.2500      0.0000    715.5806      5.5065    125.7903
  1526.5000      0.0000    741.3288      5.5294    123.8800
  1526.7500      0.0000    790.2903      5.6675    121.7202
  1527.0000      0.0000    854.4281      5.8148    118.2190
  1527.2500      0.0000    910.9508      5.9174    111.7863
  1527.5000      0.0000    937.5889      5.9913    103.3257
  1527.7500      0.0000    929.1500      6.0539     96.7564
  1528.0000      0.0000    895.8495      6.0947     95.9352
  1528.2500     -2.0000    848.5108      6.1054    101.3583
  1528.5000      0.0000    791.5558      6.1149    110.2671
  1528.7500      0.0000    728.8708      6.1874    119.4930
  1529.0000      0.0000    669.8347      6.3690    127.3649
  1529.2500      0.0000    626.4329      6.6087    133.1119
  1529.5000      0.0000    604.3275      6.7638    135.9294
  1529.7500      0.0000    597.4274      6.7316    135.5449
  1530.0000      0.0000    593.3365      6.5507    133.0699
  1530.2500      0.0000    584.8441      6.3397    130.3034
  1530.5000      0.0000    574.2269      6.1734    128.0249
  1530.7500      0.0000    566.6340      6.0512    125.6165
  1531.0000      0.0000    562.9497      5.9465    122.6797
  1531.2500      0.0000    560.9908      5.8474    120.3977
  1531.5000      0.0000    561.0601      5.7605    120.6666
  1531.7500      0.0000    566.5203      5.6990    124.3002
