~Version Information
VERS.                      2.0: CWLS Log ASCII Standard - VERSION 2.0
WRAP.                       NO: One line per depth step
~Well Information Block
STRT.FT                10.0000: 
STOP.FT              1187.0000: 
STEP.FT                 0.1000: 
NULL.                -999.2500: 
COMP.          Pioneer Natural Resources: COMPANY
WELL.          Whitecoat 14-36: WELL
FLD.           Purgatorie River: FIELD
LOC.           606' FSL & 260' FWL: LOCATION
PROV.                 Colorado: PROVINCE
CNTY.               Las Animas: COUNTRY
SRVC.                Patterson: SERVICE COMPANY
DATE.          Tue Dec 06 07:14:37 2005: LOG DATE
UWI.                          : UNIQUE WELL ID
~Curve Information Block
DEPT.FT            0 000 00 00: Depth
DCAL.in                       : CDL Caliper
RHOB.g/cc                     : CDL Bulk Density
RHOC.g/cc                     : CDL Density Correction
DPOR.pu                       : CDL Density Porosity
GR.GAPI                       : Gamma Ray
NPOR.pu                       : Neutron Porosity
~Parameter Information Block
~A  Depth       DCAL        RHOB        RHOC        DPOR         GR         NPOR    
# ...
   787.6000      7.9095      3.2362      0.3110    -35.5262    122.0977     28.2163
   787.7000      7.9095      3.2756      0.3534    -37.9145    117.5468     28.5599
   787.8000      7.8880      3.2367      0.2926    -35.5605    112.9011     28.5167
   787.9000      7.8880      3.1125      0.1495    -28.0316    109.4889     28.1284
   788.0000      7.8747      2.9518     -0.0777    -18.2920    105.9570     27.5994
   788.1000      7.8747      2.8131     -0.1459     -9.8837    103.6398     27.0977
   788.2000      7.8747      2.7024     -0.1600     -3.1770    104.9365     26.5027
   788.3000      7.8833      2.6126     -0.2144      2.2673    108.2005     25.6699
   788.4000      7.8833      2.5583     -0.1760      5.5598    110.4775     24.7831
   788.5000      8.0185      2.5331     -0.0642      7.0818    112.7470     24.2325
   788.6000      8.0185      2.5148      0.0358      8.1958    116.5101     24.2639
   788.7000      8.0185      2.4976      0.0539      9.2343    121.3899     24.6523
   788.8000      8.1277      2.4919      0.0167      9.5830    125.9211     24.8506
   788.9000      8.1277      2.5014      0.0615      9.0045    126.8247     24.6864
   789.0000      8.1323      2.5087      0.0498      8.5650    125.2950     24.5301
   789.1000      8.1323      2.5070     -0.0071      8.6690    126.7143     24.8246
   789.2000      8.1323      2.5124      0.0100      8.3393    131.4937     25.5431
   789.3000      8.0859      2.5254      0.0350      7.5495    135.8245     26.1794
   789.4000      8.0859      2.5253      0.0872      7.5595    137.3145     26.6349
   789.5000      8.0371      2.5055      0.0377      8.7562    137.0564     27.0381
   789.6000      8.0371      2.4870      0.0209      9.8765    136.0995     27.1735
   789.7000      8.0371      2.4869      0.0393      9.8851    134.0697     26.8572
   789.8000      8.0539      2.4965      0.0859      9.3018    133.3182     26.2657
   789.9000      8.0539      2.4985      0.0793      9.1813    135.8750     25.8619
   790.0000      8.0616      2.4899      0.0717      9.7023    138.3600     25.9537
   790.1000      8.0616      2.4803      0.0427     10.2843    139.6232     26.2631
   790.2000      8.0616      2.4781      0.0493     10.4156    142.1132     26.2043
   790.3000      8.0716      2.4806      0.0644     10.2670    145.8078     25.6231
   790.4000      8.0716      2.4785      0.0771     10.3969    148.7615     24.9459
   790.5000      8.1009      2.4695      0.0788     10.9395    148.1341     24.5324
   790.6000      8.1009      2.4536      0.0961     11.9001    143.7261     24.3872
   790.7000      8.1009      2.4293      0.0750     13.3764    139.1962     24.2553
   790.8000      8.0976      2.4028      0.0428     14.9834    139.3571     24.0022
   790.9000      8.0976      2.3822      0.0484     16.2283    144.1346     23.6117
   791.0000      8.1419      2.3646      0.0794     17.2962    147.7791     23.1288
   791.1000      8.1419      2.3472      0.0486     18.3531    147.1482     22.8273
   791.2000      8.1419      2.3369      0.0374     18.9786    145.3703     22.8264
   791.3000      8.0983      2.3342      0.0787     19.1406    146.1395     22.8608
   791.4000      8.0983      2.3350      0.0617     19.0933    147.6479     22.6863
   791.5000      8.0888      2.3428      0.0681     18.6210    148.3714     22.5370
   791.6000      8.0888      2.3564      0.1138     17.7915    149.3703     22.6310
   791.7000      8.0888      2.3696      0.1144     16.9967    150.3230     22.7408
   791.8000      8.0922      2.3829      0.1014     16.1865    149.8285     22.5385
   791.9000      8.0922      2.3910      0.1618     15.6996    145.3728     22.0752
   792.0000      8.1183      2.3800      0.1423     16.3663    137.9263     21.7094
   792.1000      8.1183      2.3550      0.1102     17.8801    134.6624     21.5438
   792.2000      8.1183      2.3341      0.1457     19.1466    138.4987     21.5187
   792.3000      8.1153      2.3253      0.1293     19.6759    144.9618     21.6304
   792.4000      8.1153      2.3245      0.1750     19.7266    151.1328     21.8520
   792.5000      8.1571      2.3244      0.1676     19.7340    156.5586     22.2419
   792.6000      8.1571      2.3302      0.1098     19.3790    159.8250     22.9357
   792.7000      8.1571      2.3527      0.1022     18.0188    159.8586     23.9100
   792.8000      8.1270      2.3867      0.1023     15.9605    158.1285     24.9002
   792.9000      8.1270      2.4226      0.1219     13.7837    155.5014     25.7165
   793.0000      8.0764      2.4646      0.0948     11.2365    151.6708     26.4515
   793.1000      8.0764      2.5128      0.1556      8.3128    149.1621     27.2101
   793.2000      8.0764      2.5464      0.1489      6.2804    150.3724     27.7865
   793.3000      8.0617      2.5504      0.1222      6.0369    152.6723     27.8599
   793.4000      8.0617      2.5408      0.0714      6.6206    151.7499     27.5309
   793.5000      8.0638      2.5370      0.1110      6.8500    148.4277     27.1618
   793.6000      8.0638      2.5343      0.0867      7.0142    145.4661     26.9835
   793.7000      8.0638      2.5222      0.0752      7.7428    143.3529     27.0541
   793.8000      8.0490      2.5029      0.0782      8.9156    142.7097     27.2486
   793.9000      8.0490      2.4888      0.0348      9.7707    143.6543     27.3619
   794.0000      8.0390      2.4875      0.0552      9.8472    143.9009     27.2699
   794.1000      8.0390      2.4799      0.1129     10.3085    141.7614     26.9135
   794.2000      8.0390      2.4470      0.0402     12.3029    137.6653     26.3900
   794.3000      8.0292      2.4074      0.0135     14.7036    134.7106     25.8429
   794.4000      8.0292      2.3882      0.0493     15.8646    134.9398     25.2762
   794.5000      8.0459      2.3885      0.0607     15.8502    136.1674     24.6432
   794.6000      8.0459      2.3887      0.1153     15.8374    137.9805     23.9481
   794.7000      8.0459      2.3776      0.0973     16.5095    139.5695     23.3673
   794.8000      8.0827      2.3676      0.0450     17.1128    137.6590     23.0293
   794.9000      8.0827      2.3748      0.0737     16.6801    132.6759     22.8200
   795.0000      8.0899      2.3931      0.1205     15.5702    127.3137     22.8609
   795.1000      8.0899      2.4081      0.1106     14.6615    122.2788     23.3472
   795.2000      8.0899      2.4170      0.0537     14.1237    117.4875     23.7459
   795.3000      8.1494      2.4260      0.0536     13.5734    113.9270     23.7127
   795.4000      8.1494      2.4402      0.0203     12.7171    112.1362     23.6903
   795.5000      8.1121      2.4600     -0.0004     11.5135    111.4304     23.8370
   795.6000      8.1121      2.4756      0.0609     10.5720    111.0424     24.0502
   795.7000      8.1121      2.4782      0.0172     10.4118    111.3986     24.2175
   795.8000      8.0817      2.4720      0.0429     10.7853    112.9912     24.1986
   795.9000      8.0817      2.4645     -0.0119     11.2446    113.5518     24.1213
   796.0000      8.0333      2.4689     -0.0099     10.9754    110.6315     24.0442
   796.1000      8.0333      2.4921      0.0362      9.5713    107.6244     23.8141
   796.2000      8.0333      2.5122      0.0866      8.3490    109.6036     23.3732
   796.3000      8.0148      2.5040      0.0557      8.8455    115.1817     22.9551
   796.4000      8.0148      2.4754      0.0258     10.5820    119.5163     22.8787
   796.5000      8.0267      2.4514     -0.0193     12.0339    121.0142     23.1147
   796.6000      8.0267      2.4479     -0.0123     12.2494    120.8830     23.5347
   796.7000      8.0267      2.4691      0.0184     10.9657    120.9441     24.0125
   796.8000      8.0210      2.5078      0.0515      8.6210    123.7278     24.1423
   796.9000      8.0210      2.5447      0.0989      6.3814    128.1715     23.9775
   797.0000      8.0070      2.5651      0.0883      5.1431    129.9366     24.1539
   797.1000      8.0070      2.5689      0.0989      4.9181    130.0802     24.7611
