~Version Information
VERS.                      2.0: CWLS Log ASCII Standard - VERSION 2.0
WRAP.                       NO: One line per depth step
~Well Information Block
STRT.FT                15.0000: 
STOP.FT              1532.0000: 
STEP.FT                 0.2500: 
NULL.                -999.2500: 
COMP.          Pioneer Natural Resources: COMPANY
WELL.           Bobsy 34-11 Tr: WELL
FLD.           Purgatoire River: FIELD
LOC.           514' FSL & 1784' FEL: LOCATION
PROV.                 Colorado: PROVINCE
CNTY.               Las Animas: COUNTRY
SRVC.                Patterson: SERVICE COMPANY
DATE.          Fri Jul 22 12:22:14 2005: LOG DATE
UWI.           05 071 08438 00: UNIQUE WELL ID
~Curve Information Block
DEPT.FT            0 000 00 00: Depth
GR.GAPI                       : Gamma Ray
CCL.                          : Casing Collar Locator
TT3.usec                      : CBL 3' Travel Time
AMP3.mV                       : CBL 3' Amplitude
~Parameter Information Block
~A  Depth        GR         CCL         TT3         AMP3    
# ...
   216.0000     65.1956      0.0000    785.0917     17.0879
   216.2500     63.3635      0.0000    784.8972     17.1151
   216.5000     62.2313      0.0000    784.7596     17.0631
   216.7500     62.3832      0.0000    784.7909     16.9527
   217.0000     63.8140      0.0000    785.0573     16.8053
   217.2500     66.0564      0.0000    785.7801     16.6359
   217.5000     68.4007      0.0000    787.7980     16.4518
   217.7500     69.9592      0.0000    793.0566     16.2487
   218.0000     70.0734      0.0000    804.0748     16.0135
   218.2500     69.0233      0.0000    821.3954     15.7421
   218.5000     68.0003      0.0000    840.6703     15.4542
   218.7500     67.9778      0.0000    853.8055     15.1846
   219.0000     68.7889      0.0000    855.1140     14.9616
   219.2500     69.5957      0.0000    845.9921     14.7934
   219.5000     69.9965      0.0000    832.7054     14.6709
   219.7500     70.2767      0.0000    820.8281     14.5825
   220.0000     70.7083      0.0000    812.4144     14.5263
   220.2500     71.0168      0.0000    806.7341     14.5047
   220.5000     70.6610      0.0000    802.6957     14.5058
   220.7500     69.5490      0.0000    801.1839     14.5018
   221.0000     68.3379      0.0000    804.7254     14.4760
   221.2500     67.8640      0.0000    814.1953     14.4435
   221.5000     68.2278      0.0000    826.8118     14.4330
   221.7500     68.5437      0.0000    838.3984     14.4514
   222.0000     67.6885      0.0000    846.6489     14.4742
   222.2500     65.3898      0.0000    851.1623     14.4667
   222.5000     62.6779      0.0000    851.1611     14.4117
   222.7500     61.1979      0.0000    844.9796     14.3206
   223.0000     61.8848      0.0000    832.3989     14.2237
   223.2500     64.2697      0.0000    816.5659     14.1523
   223.5000     67.1043      0.0000    802.6602     14.1220
   223.7500     69.4519      0.0000    794.2737     14.1249
   224.0000     70.9831      0.0000    791.1469     14.1375
   224.2500     71.5465      0.0000    790.5452     14.1375
   224.5000     71.0074      0.0000    790.5855     14.1145
   224.7500     69.5592      0.0000    791.7598     14.0700
   225.0000     67.7518      0.0000    795.2715     14.0150
   225.2500     66.0165      0.0000    800.8415     13.9633
   225.5000     64.3560      0.0000    807.0940     13.9219
   225.7500     62.6512      0.0000    813.4467     13.8883
   226.0000     61.0887      0.0000    820.1700     13.8567
   226.2500     60.1365      0.0000    826.9336     13.8264
   226.5000     60.0929      0.0000    832.7309     13.8012
   226.7500     60.7357      0.0000    837.2864     13.7869
   227.0000     61.5369      0.0000    841.7073     13.7898
   227.2500     62.1543      0.0000    847.6064     13.8178
   227.5000     62.4849      0.0000    855.8708     13.8792
   227.7500     62.4129      0.0000    866.3344     13.9787
   228.0000     61.8970      0.0000    878.5741     14.1105
   228.2500     61.2211      0.0000    892.6075     14.2550
   228.5000     60.8550      0.0000    908.2273     14.3888
   228.7500     61.0980      0.0000    923.8429     14.5000
   229.0000     62.0019      0.0000    936.8909     14.5918
   229.2500     63.5906      0.0000    945.6465     14.6688
   229.5000     66.1382      0.0000    950.1772     14.7260
   229.7500     70.2524      0.0000    951.4872     14.7549
   230.0000     76.3324      0.0000    950.2372     14.7593
   230.2500     83.6020      0.0000    946.5483     14.7584
   230.5000     90.1237      0.0000    940.8848     14.7690
   230.7500     94.4357      0.0000    934.8779     14.7853
   231.0000     96.8968      0.0000    930.9977     14.7830
   231.2500     98.9070      0.0000    931.1497     14.7419
   231.5000    101.1761      0.0000    935.3865     14.6613
   231.7500    103.2130      0.0000    941.8821     14.5517
   232.0000    104.1075      0.0000    948.1985     14.4233
   232.2500    103.3474      0.0000    952.7753     14.2856
   232.5000    101.1177      0.0000    955.4719     14.1523
   232.7500     98.2598      0.0000    957.1791     14.0405
   233.0000     96.0031      0.0000    959.4865     13.9646
   233.2500     95.3960      0.0000    964.8113     13.9330
   233.5000     96.7881      0.0000    975.8586     13.9483
   233.7500     99.7692      0.0000    992.5848     14.0035
   234.0000    103.3594      0.0000   1007.9548     14.0764
   234.2500    106.2164      0.0000   1008.7655     14.1318
   234.5000    107.1643      0.0000    985.3787     14.1398
   234.7500    105.9277      0.0000    942.0260     14.0955
   235.0000    103.3398      0.0000    894.7540     14.0249
   235.2500    100.9509      0.0000    858.4301     13.9713
   235.5000    100.4275      0.0000    837.5781     13.9746
   235.7500    102.7137      0.0000    828.7120     14.0593
   236.0000    107.1732      0.0000    827.5251     14.2261
   236.2500    111.7424      0.0000    832.2625     14.4414
   236.5000    114.3271      0.0000    842.1610     14.6400
   236.7500    114.0534      0.0000    855.2702     14.7561
   237.0000    111.2552      0.0000    868.6167     14.7645
   237.2500    106.7799      0.0000    879.4667     14.6922
   237.5000    101.6429      0.0000    885.6442     14.5939
   237.7500     96.9476      0.0000    885.7141     14.5173
   238.0000     93.5521      0.0000    880.2292     14.4825
   238.2500     91.6671      0.0000    872.2050     14.4817
   238.5000     91.0065      0.0000    865.2687     14.4940
   238.7500     91.3970      0.0000    861.5841     14.5008
   239.0000     92.9467      0.0000    861.7003     14.4901
   239.2500     95.4778      0.0000    865.1788     14.4525
   239.5000     98.0973      0.0000    870.5972     14.3822
   239.7500     99.6362      0.0000    875.7796     14.2840
   240.0000     99.4132      0.0000    879.2067     14.1692
   240.2500     97.3851      0.0000    881.6323     14.0328
   240.5000     93.7491      0.0000    885.2740     13.8322
   240.7500     88.7896      0.0000    889.1686     13.5022
   241.0000     83.1696      0.0000    885.9190     13.0121
   241.2500     78.0443      0.0000    868.5500     12.4061
   241.5000     74.4708      0.0000    843.7488     11.7604
   241.7500     72.5311      0.0000    832.8738     11.1156
   242.0000     71.2255      0.0000    854.0488     10.4987
   242.2500     69.4732      0.0000    905.9292      9.9890
   242.5000     67.2303      0.0000    971.3112      9.6860
   242.7500     65.5023      0.0000   1030.6638      9.6108
   243.0000     65.3368      1.8333   1068.4828      9.6880
   243.2500     66.9827      3.0000   1073.3295      9.8248
   243.5000     69.9445      0.0000   1041.5583     10.0033
   243.7500     73.5289      0.0000    983.2839     10.3157
   244.0000     77.1728      0.0000    919.8413     10.8796
   244.2500     80.3720      0.0000    871.3926     11.6645
   244.5000     82.6726      0.0000    846.0582     12.4532
   244.7500     83.8473      0.0000    839.6172     13.0632
   245.0000     83.9218      0.0000    843.1385     13.5400
   245.2500     83.0508      0.0000    849.5134     14.0322
   245.5000     81.5765      0.0000    854.2903     14.5668
   245.7500     80.0387      0.0000    854.3611     15.0497
   246.0000     78.7282      0.0000    848.9100     15.4039
   246.2500     77.2639      0.0000    841.3515     15.6188
   246.5000     75.0004      0.0000    837.7205     15.7112
   246.7500     72.0136      0.0000    841.4486     15.7014
   247.0000     69.4760      0.0000    850.4059     15.6141
   247.2500     68.7745      0.0000    859.6813     15.4735
   247.5000     70.1485      0.0000    866.2347     15.3008
   247.7500     72.3125      0.0000    870.2563     15.1205
   248.0000     73.5018      0.0000    873.3740     14.9682
   248.2500     72.7163      0.0000    876.7141     14.8825
   248.5000     70.0771      0.0000    880.3138     14.8861
   248.7500     66.5236      0.0000    883.6947     14.9708
   249.0000     63.2713      0.0000    886.6956     15.0992
   249.2500     61.1355      0.0000    889.5596     15.2254
