~Version Information
VERS.                      2.0: CWLS Log ASCII Standard - VERSION 2.0
WRAP.                       NO: One line per depth step
~Well Information Block
STRT.FT                -5.0000: 
STOP.FT               912.2500: 
STEP.FT                 0.2500: 
NULL.                -999.2500: 
COMP.          Pioneer Natural Resources: COMPANY
WELL.               Ernie 31-6: WELL
FLD.           Purgatoire River: FIELD
LOC.           681' FNL & 2138' FEL: LOCATION
CNTY.               Las Animas: COUNTY
SRVC.                         : SERVICE COMPANY
DATE.          Tue Jun 27 10:36:58 2006: LOG DATE
UWI.           05 071 08716 00: UNIQUE WELL ID
STAT.                       CO: STATE
~Curve Information Block
DEPT.FT            0 000 00 00: Depth
GR.GAPI                       : Gamma Ray
CCL.                          : Casing Collar Locator
TT3.usec                      : CBL 3' Travel Time
AMP3.mV                       : CBL 3' Amplitude
~Parameter Information Block
~A  Depth        GR         CCL         TT3         AMP3    
# ...
   799.0000    100.1104      0.0000    718.7709     11.3430
   799.2500     94.0407      0.0000    724.9568     12.0287
   799.5000     83.0733      0.0000    730.6458     12.5780
   799.7500     71.2858      0.0000    733.4141     12.9439
   800.0000     61.9435      0.0000    732.1668     13.1246
   800.2500     56.4564      0.0000    728.3039     13.1288
   800.5000     54.8538      0.0000    724.6530     12.9614
   800.7500     56.2453      0.0000    723.1828     12.6408
   801.0000     59.2051      0.0000    723.7567     12.2105
   801.2500     62.6122      0.0000    724.9224     11.7177
   801.5000     66.1409      0.0000    725.5662     11.1891
   801.7500     69.6606      0.0000    725.6431     10.6356
   802.0000     72.6483      0.0000    725.7084     10.0683
   802.2500     74.8428      0.0000    726.2065      9.5044
   802.5000     77.1755      0.0000    726.9420      8.9684
   802.7500     81.1226      0.0000    726.8405      8.4958
   803.0000     86.8822      0.0000    724.6524      8.1271
   803.2500     92.7213      0.0000    720.3070      7.8906
   803.5000     96.5008      0.0000    715.2281      7.7913
   803.7500     97.7257      0.0000    711.1012      7.8096
   804.0000     97.7980      0.0000    708.6342      7.9043
   804.2500     98.3214      0.0000    707.5245      8.0213
   804.5000     99.5990      0.0000    707.1498      8.1095
   804.7500    100.7944      0.0000    707.0604      8.1407
   805.0000    100.9767      0.0000    707.0481      8.1157
   805.2500     99.7533      0.0000    707.0376      8.0538
   805.5000     97.3426      0.0000    707.0088      7.9713
   805.7500     94.6285      0.0000    706.9691      7.8696
   806.0000     93.0480      0.0000    706.9351      7.7431
   806.2500     93.9045      0.0000    706.9159      7.6024
   806.5000     97.5120      0.0000    706.9128      7.4888
   806.7500    102.8968      0.0000    706.9332      7.4625
   807.0000    108.0855      0.0000    707.0042      7.5689
   807.2500    110.6852      0.0000    707.1655      7.8034
   807.5000    108.8612      0.0000    707.4509      8.1015
   807.7500    102.5669      0.0000    707.8843      8.3694
   808.0000     93.8529      0.0000    708.5339      8.5371
   808.2500     85.5055      0.0000    709.6220      8.5938
   808.5000     79.3410      0.0000    711.6467      8.5756
   808.7500     75.9259      0.0000    715.1986      8.5235
   809.0000     75.3886      0.0000    720.1937      8.4498
   809.2500     77.7416      0.0000    725.1118      8.3411
   809.5000     82.4993      0.0000    727.6567      8.1881
   809.7500     88.5766      0.0000    726.6486      8.0085
   810.0000     94.7083      0.0000    722.6896      7.8414
   810.2500     99.9002      0.0000    716.3995      7.7172
   810.5000    103.6424      0.0000    707.2285      7.6356
   810.7500    105.9085      0.0000    695.7043      7.5651
   811.0000    106.9673      0.0000    686.2963      7.4657
   811.2500    107.0480      0.0000    685.4049      7.3196
   811.5000    106.1225      0.0000    695.1067      7.1483
   811.7500    104.1702      0.0000    710.3496      6.9941
   812.0000    101.7287      0.0000    723.5588      6.8809
   812.2500     99.9443      0.0000    730.7686      6.8009
   812.5000     99.6744      0.0000    732.5432      6.7402
   812.7500    100.4769      0.0000    730.8212      6.7051
   813.0000    100.8445      0.0000    726.8683      6.7207
   813.2500     99.5242      0.0000    721.8619      6.8194
   813.5000     96.3767      0.0000    717.7672      7.0350
   813.7500     91.9885      0.0000    716.8331      7.4040
   814.0000     86.7833      0.0000    720.5402      7.9573
   814.2500     80.7076      0.0000    729.0020      8.6955
   814.5000     73.8055      0.0000    740.8696      9.5624
   814.7500     66.9825      0.0000    753.6324     10.4455
   815.0000     62.1030      0.0000    764.6465     11.2134
   815.2500     61.1991      0.0000    772.5376     11.7646
   815.5000     65.1537      0.0000    777.5774     12.0604
   815.7500     72.7749      0.0000    780.3456     12.1309
   816.0000     81.3311      0.0000    780.3627     12.0549
   816.2500     88.2189      0.0000    776.7482     11.9199
   816.5000     92.1754      0.0000    770.0387     11.7815
   816.7500     93.3659      0.0000    762.2134     11.6483
   817.0000     92.8650      0.0000    754.4653     11.4943
   817.2500     91.7921      0.0000    745.9744     11.2829
   817.5000     90.5442      0.0000    735.7190     10.9921
   817.7500     89.0007      0.0000    724.1437     10.6319
   818.0000     87.4732      0.0000    711.6888     10.2422
   818.2500     86.8948      0.0000    697.0037      9.8735
   818.5000     87.7921      0.0000    678.5128      9.5659
   818.7500     89.3421      0.0000    657.2476      9.3408
   819.0000     89.7135      0.0000    636.6847      9.2041
   819.2500     87.4196      0.0000    619.5947      9.1506
   819.5000     82.4248      0.0000    605.2170      9.1694
   819.7500     76.1488      0.0000    589.9125      9.2503
   820.0000     70.7174      0.0000    571.5670      9.3828
   820.2500     68.1011      0.0000    553.5448      9.5426
   820.5000     69.2695      0.0000    543.5814      9.6803
   820.7500     73.6328      0.0000    547.9703      9.7425
   821.0000     79.3876      0.0000    564.9692      9.7095
   821.2500     84.5739      0.0000    582.5320      9.6095
   821.5000     87.9208      0.0000    584.7755      9.4898
   821.7500     89.0687      0.0000    564.0847      9.3800
   822.0000     88.3768      0.0000    527.3005      9.2824
   822.2500     86.4573      0.0000    489.0440      9.1852
   822.5000     83.7821      0.0000    459.9542      9.0774
   822.7500     80.8693      0.0000    442.0113      8.9598
   823.0000     78.6642      0.0000    432.3312      8.8545
   823.2500     78.2211      0.0000    428.1298      8.8028
   823.5000     79.8140      0.0000    428.2838      8.8426
   823.7500     82.5887      0.0000    432.4666      8.9772
   824.0000     85.1936      0.0000    439.8715      9.1695
   824.2500     86.5787      0.0000    448.5977      9.3730
   824.5000     86.2118      0.0000    456.1725      9.5731
   824.7500     83.9930      0.0000    460.7655      9.7933
   825.0000     80.3612      0.0000    461.9335     10.0603
   825.2500     76.3185      0.0000    460.5595     10.3668
   825.5000     72.9121      0.0000    458.4563     10.6691
   825.7500     70.5006      0.0000    457.6929     10.9140
   826.0000     68.6156      0.0000    459.6315     11.0651
   826.2500     66.6453      0.0000    464.4395     11.1158
   826.5000     64.6975      0.0000    471.4917     11.0815
   826.7500     63.5983      0.0000    479.8053     10.9804
   827.0000     63.8865      0.0000    487.9221     10.8205
   827.2500     65.0478      0.0000    493.9266     10.6074
   827.5000     65.9894      0.0000    495.8957     10.3599
   827.7500     65.9999      0.0000    492.2502     10.1103
   828.0000     65.0323      0.0000    482.1622      9.8797
   828.2500     63.4973      0.0000    466.6758      9.6623
   828.5000     62.1777      0.0000    449.6516      9.4427
   828.7500     61.8820      0.0000    436.8195      9.2238
   829.0000     62.6506      0.0000    433.2410      9.0296
   829.2500     63.5813      0.0000    441.1705      8.8814
   829.5000     63.7772      0.0000    459.4346      8.7804
   829.7500     63.2319      0.0000    484.4230      8.7102
   830.0000     62.6638      0.0000    512.1589      8.6499
   830.2500     62.7355      0.0000    539.9706      8.5856
   830.5000     63.5067      0.0000    566.9653      8.5133
   830.7500     64.4882      0.0000    593.9774      8.4339
   831.0000     65.1098      0.0000    622.4726      8.3490
   831.2500     64.9849      0.0000    651.5742      8.2603
   831.5000     63.7959      0.0000    676.1154      8.1701
   831.7500     61.3338      0.0000    688.7777      8.0802
   832.0000     57.9313      0.0000    684.8321      7.9878
   832.2500     54.6481      0.0000    666.0809      7.8784
