~Version Information
VERS.                      2.0: CWLS Log ASCII Standard - VERSION 2.0
WRAP.                       NO: One line per depth step
~Well Information Block
STRT.FT               860.0000: 
STOP.FT              2362.5000: 
STEP.FT                 0.2500: 
NULL.                -999.2500: 
COMP.          Pioneer Natural Resources: COMPANY
WELL.            Cayenne 23-23: WELL
FLD.           Purgatoire River: FIELD
LOC.           2555' FSL & 2386' FWL: LOCATION
PROV.                 Colorado: PROVINCE
CNTY.               Las Animas: COUNTRY
SRVC.                Patterson: SERVICE COMPANY
DATE.          Wed Aug 17 06:47:40 2005: LOG DATE
UWI.           05 071 08476 00: UNIQUE WELL ID
~Curve Information Block
DEPT.FT            0 000 00 00: Depth
SN.Ohm-m                      : IEL Short Normal
SP.mV                         : IEL Spontaneous Potential
DIR.Ohm-m                     : IEL Induction Resistivity
GR.GAPI                       : Gamma Ray
~Parameter Information Block
~A  Depth        SN          SP         DIR          GR     
# ...
  1630.5000     25.3476     74.1517     21.2614     97.4129
  1630.7500     26.1850     73.8202     22.9446     96.8933
  1631.0000     26.9724     73.5541     24.5305     96.3072
  1631.2500     27.7786     73.3346     25.7394     95.7984
  1631.5000     28.5179     73.1307     26.3933     94.0684
  1631.7500     29.0721     72.9250     26.5104     91.9957
  1632.0000     29.4119     72.7341     26.2504     87.7707
  1632.2500     29.5826     72.5966     25.7841     84.6827
  1632.5000     29.6724     72.5374     25.2233     80.5847
  1632.7500     29.7114     72.5398     24.6338     78.6806
  1633.0000     29.6124     72.5515     24.0661     77.6727
  1633.2500     29.3112     72.5204     23.5589     78.5486
  1633.5000     28.8363     72.4273     23.1204     82.8599
  1633.7500     28.2287     72.2891     22.7223     88.0148
  1634.0000     27.5388     72.1398     22.3183     98.6225
  1634.2500     26.8447     72.0181     21.8763    106.4633
  1634.5000     26.1646     71.9607     21.4005    116.6625
  1634.7500     25.4077     71.9779     20.9269    121.1723
  1635.0000     24.4758     72.0208     20.4931    124.1819
  1635.2500     23.3630     71.9897     20.1080    124.6194
  1635.5000     22.1599     71.7936     19.7437    125.1161
  1635.7500     21.0274     71.4095     19.3533    126.0245
  1636.0000     20.1436     70.8947     18.8997    128.0195
  1636.2500     19.6144     70.3553     18.3740    129.4587
  1636.5000     19.3896     69.9003     17.7932    131.8287
  1636.7500     19.2689     69.5999     17.1866    133.5417
  1637.0000     19.0640     69.4599     16.5840    135.3357
  1637.2500     18.7257     69.4242     16.0116    135.2850
  1637.5000     18.2869     69.4076     15.4922    133.3947
  1637.7500     17.8186     69.3411     15.0443    131.8299
  1638.0000     17.4111     69.1956     14.6801    130.7316
  1638.2500     17.0678     68.9708     14.4024    131.3133
  1638.5000     16.6627     68.6693     14.2044    133.9254
  1638.7500     16.0555     68.2856     14.0696    136.0818
  1639.0000     15.2275     67.8101     13.9750    137.7754
  1639.2500     14.2958     67.2347     13.8939    136.6831
  1639.5000     13.4419     66.5545     13.8021    131.3487
  1639.7500     12.8518     65.7707     13.6831    126.4310
  1640.0000     12.6257     64.8956     13.5354    120.0870
  1640.2500     12.6996     63.9558     13.3730    117.9988
  1640.5000     12.9801     62.9954     13.2208    118.7724
  1640.7500     13.5193     62.0801     13.1036    121.3796
  1641.0000     14.3239     61.2934     13.0372    126.9764
  1641.2500     15.1410     60.7191     13.0244    131.0228
  1641.5000     15.6756     60.4143     13.0580    136.4042
  1641.7500     15.8355     60.3979     13.1264    139.0394
  1642.0000     15.6849     60.6752     13.2194    141.2129
  1642.2500     15.3704     61.2895     13.3316    141.6296
  1642.5000     15.0665     62.3497     13.4633    141.6261
  1642.7500     14.8765     63.9913     13.6197    141.9541
  1643.0000     14.8161     66.2761     13.8098    143.7233
  1643.2500     14.8849     69.0894     14.0451    145.4794
  1643.5000     15.0993     72.1141     14.3347    147.4537
  1643.7500     15.4768     74.9281     14.6792    147.3893
  1644.0000     15.9991     77.1825     15.0663    144.3772
  1644.2500     16.5983     78.7401     15.4765    140.5118
  1644.5000     17.2402     79.6757     15.8953    132.9497
  1644.7500     18.0128     80.1610     16.3228    127.5927
  1645.0000     19.0296     80.3484     16.7708    120.3372
  1645.2500     20.2599     80.3322     17.2487    116.4024
  1645.5000     21.5680     80.1840     17.7473    111.8957
  1645.7500     22.8302     80.0004     18.2315    109.5100
  1646.0000     23.9332     79.9123     18.6467    105.9954
  1646.2500     24.7906     80.0380     18.9388    103.4138
  1646.5000     25.3743     80.4183     19.0803     99.6958
  1646.7500     25.6691     80.9906     19.0824     98.1406
  1647.0000     25.6349     81.6259     18.9842     98.9205
  1647.2500     25.2012     82.1919     18.8237    102.2165
  1647.5000     24.3279     82.5988     18.6127    110.9286
  1647.7500     23.1115     82.8124     18.3328    117.9821
  1648.0000     21.7519     82.8419     17.9536    127.8049
  1648.2500     20.4161     82.7189     17.4573    132.8958
  1648.5000     19.1609     82.4887     16.8517    138.0533
  1648.7500     17.9415     82.2341     16.1673    140.1721
  1649.0000     16.7426     82.1010     15.4496    142.3815
  1649.2500     15.6814     82.2710     14.7518    143.8910
  1649.5000     14.8870     82.8588     14.1216    147.0328
  1649.7500     14.3677     83.8040     13.5848    149.7090
  1650.0000     14.0383     84.8657     13.1366    153.6535
  1650.2500     13.8136     85.7565     12.7508    155.4072
  1650.5000     13.6606     86.3056     12.3987    155.7128
  1650.7500     13.5601     86.5175     12.0655    154.3630
  1651.0000     13.4291     86.5068     11.7509    150.9957
  1651.2500     13.1411     86.3979     11.4603    148.7180
  1651.5000     12.7056     86.2652     11.1948    146.4144
  1651.7500     12.2965     86.1270     10.9496    145.7252
  1652.0000     11.9759     85.9707     10.7187    145.2302
  1652.2500     11.6026     85.7786     10.4998    144.8686
  1652.5000     11.0660     85.5377     10.2959    144.7180
  1652.7500     10.4319     85.2434     10.1147    145.7245
  1653.0000      9.9054     84.8984      9.9654    150.0313
  1653.2500      9.6897     84.5058      9.8573    154.5216
  1653.5000      9.7775     84.0623      9.7991    161.7074
  1653.7500      9.9783     83.5592      9.7977    165.5602
  1654.0000     10.1986     82.9945      9.8571    169.2872
  1654.2500     10.4717     82.3830      9.9773    170.9617
  1654.5000     10.7536     81.7567     10.1528    173.3545
  1654.7500     10.9786     81.1561     10.3742    174.7601
  1655.0000     11.2214     80.6217     10.6305    174.9302
  1655.2500     11.5562     80.1911     10.9124    172.5686
  1655.5000     11.8868     79.8992     11.2142    164.3186
  1655.7500     12.1276     79.7727     11.5335    156.0981
  1656.0000     12.4009     79.8175     11.8692    141.9545
  1656.2500     12.8903     80.0080     12.2205    133.1577
  1656.5000     13.6619     80.2899     12.5880    123.9001
  1656.7500     14.6471     80.5960     12.9763    121.3686
  1657.0000     15.6563     80.8674     13.3934    122.7586
  1657.2500     16.4548     81.0711     13.8471    125.8505
  1657.5000     16.8766     81.2091     14.3369    130.5266
  1657.7500     16.8896     81.3085     14.8462    131.9962
  1658.0000     16.5935     81.3965     15.3375    130.5096
  1658.2500     16.1506     81.4759     15.7601    127.5180
  1658.5000     15.7211     81.5199     16.0715    122.0063
  1658.7500     15.4426     81.4993     16.2636    118.7421
  1659.0000     15.3938     81.4245     16.3689    115.4723
  1659.2500     15.5183     81.3688     16.4406    114.5230
  1659.5000     15.6643     81.4483     16.5240    114.6405
  1659.7500     15.7619     81.7713     16.6377    115.1933
  1660.0000     15.8245     82.3905     16.7728    115.3509
  1660.2500     15.8255     83.2823     16.9020    114.3389
  1660.5000     15.7139     84.3587     16.9901    110.8707
  1660.7500     15.4879     85.4988     17.0041    107.7033
  1661.0000     15.2136     86.5868     16.9222    103.1990
  1661.2500     15.0236     87.5425     16.7429    101.3130
  1661.5000     15.0718     88.3346     16.4880    101.0220
  1661.7500     15.4249     88.9673     16.1944    102.3344
  1662.0000     15.9882     89.4554     15.8985    105.3415
  1662.2500     16.5101     89.8096     15.6235    107.3449
  1662.5000     16.7172     90.0392     15.3746    110.4527
  1662.7500     16.5346     90.1651     15.1433    113.5593
  1663.0000     16.1092     90.2308     14.9145    121.4668
  1663.2500     15.6075     90.2915     14.6730    128.7517
  1663.5000     15.0914     90.3863     14.4064    140.0616
  1663.7500     14.5960     90.5217     14.1049    146.0385
