~Version Information
 VERS.                                  2.0 : CWLS LAS VERSION
 WRAP.                                   NO : WRAPING MODE
 SWARE .                 MController 2.5.0J : SOFTWARE VERSION
~Well Information
 WELL.                     Surtees 23-34 Tr : WELL
 COMP.    Pioneer Natural Resources USA Inc : COMPANY
 FLD.                      Purgatoire River : FIELD
 LOC.                NE/SW Sec 34 T32S R66W : LOCATION
 DATE.                             07/26/05 : DATE(S) LOGGED
 SRVC.       BLANCO Geological Services LLC : SERVICE COMPANY
 STAT.                                   CO : STATE
 CNTY.                           Las Animas : COUNTY
 CTRY.                                  USA : COUNTRY
 API.                       05-071-08449-00 : API NUMBER
 STRT.FT                             479.00 : START DEPTH
 STOP.FT                            1500.00 : STOP DEPTH
 STEP.FT                               1.00 : DEPTH INCREMENT
 NULL.                                -9999 : NULL VALUE
~Curve information
 DEPTH.FT                                   :
 ROP.MIN/FT                                 :
 GAS.UNITS                                  :
~ASCII Log data
       479.0     -9999.00          1.2 
       480.0        18.93          1.4 
       481.0         0.23          1.0 
       482.0         0.07          0.6 
       483.0         0.10          0.5 
       484.0         0.07          0.7 
       485.0         0.10          0.4 
       486.0         0.07          0.5 
       487.0         0.13          0.7 
       488.0         0.07          0.4 
       489.0         0.10          1.0 
       490.0         0.10          0.8 
       491.0         0.10          0.9 
       492.0         0.10          0.6 
       493.0         0.07          0.8 
       494.0         0.22          0.6 
       495.0         0.07          0.4 
       496.0         0.10          0.7 
       497.0         0.10          0.7 
       498.0         0.07          1.0 
       499.0         0.13          0.4 
       500.0         0.97          1.0 
       501.0         0.13          0.8 
       502.0         0.13          0.4 
       503.0         0.10          0.3 
       504.0         0.10          0.7 
       505.0         0.07          0.6 
       506.0         0.10          0.9 
       507.0         0.17          0.5 
       508.0         0.10          0.6 
       509.0         0.10          0.6 
       510.0         0.10          0.4 
       511.0         0.07          0.5 
       512.0         0.23          0.8 
       513.0         0.10          0.3 
       514.0         0.10          1.0 
       515.0         0.10          0.3 
       516.0         0.07          0.3 
       517.0         0.15          0.4 
       518.0         0.27          0.4 
       519.0         0.10          0.8 
       520.0         0.10          0.5 
       521.0         0.10          0.7 
       522.0         0.10          0.5 
       523.0         0.10          0.7 
       524.0         0.07          0.7 
       525.0         0.10          0.4 
       526.0         0.07          0.8 
       527.0         0.10          0.6 
       528.0         0.17          0.4 
       529.0         0.87          0.8 
       530.0         0.13          0.5 
       531.0         9.90          5.9 
       532.0         0.20          5.5 
       533.0         0.20          5.4 
       534.0         0.20          5.3 
       535.0         0.20          5.0 
       536.0         0.17          5.1 
       537.0         0.30          4.8 
       538.0         0.20          4.6 
       539.0         0.13          4.4 
       540.0         0.10          4.4 
       541.0         0.13          4.6 
       542.0         0.12          4.4 
       543.0         0.30          4.6 
       544.0         0.13          4.3 
       545.0         0.13          4.6 
       546.0         0.13          4.6 
       547.0         0.10          4.4 
       548.0         0.10          3.9 
       549.0         0.10          4.0 
       550.0         0.10          3.8 
       551.0         0.10          4.3 
       552.0         0.10          4.1 
       553.0         0.10          4.0 
       554.0         0.13          4.7 
       555.0         0.37          4.1 
       556.0         0.17          4.4 
       557.0         0.17          4.0 
       558.0         0.13          4.1 
       559.0         0.10          3.9 
       560.0         0.10          4.0 
       561.0         0.10          4.3 
       562.0         0.10          4.0 
       563.0         0.13          4.0 
       564.0         0.12          3.7 
       565.0         0.10          3.8 
       566.0         1.07          4.3 
       567.0         0.13          3.5 
       568.0         0.20          3.7 
       569.0         0.13          4.2 
       570.0         0.13          3.9 
       571.0         0.17          3.7 
       572.0         0.17          3.6 
       573.0         0.18          3.8 
       574.0         0.13          3.8 
       575.0         0.10          3.3 
       576.0         0.13          3.5 
       577.0         0.07          3.4 
       578.0         0.10          3.4 
       579.0         0.07          3.6 
       580.0         0.10          3.8 
       581.0         0.07          3.8 
       582.0         0.10          3.6 
       583.0         0.20          4.2 
       584.0         0.40          4.2 
       585.0         0.20          3.8 
       586.0         0.13          3.5 
       587.0         0.13          3.8 
       588.0         0.10          4.3 
       589.0         0.10          3.8 
       590.0         0.07          3.8 
       591.0         0.10          3.9 
       592.0         0.10          3.7 
       593.0         0.20          4.1 
       594.0         0.40          4.2 
       595.0         0.12          3.7 
       596.0         3.02          4.8 
       597.0         0.17          4.3 
       598.0         0.23          3.9 
       599.0         0.17          4.0 
       600.0         0.10          3.9 
       601.0         0.17          4.3 
       602.0         0.17          4.3 
       603.0         0.20          4.6 
       604.0         0.07          4.1 
       605.0         0.13          4.8 
       606.0         0.20          4.6 
       607.0         0.20          4.4 
       608.0         0.17          4.4 
       609.0         0.23          4.6 
       610.0         0.17          4.1 
       611.0         0.17          3.8 
       612.0         0.20          3.7 
       613.0         0.17          3.8 
       614.0         0.20          4.1 
       615.0         0.22          4.2 
       616.0         0.23          4.2 
       617.0         0.30          4.7 
       618.0         0.30          4.8 
       619.0         0.27          5.6 
       620.0         0.17          6.6 
       621.0         0.17          7.2 
       622.0         0.20          7.3 
       623.0         0.17          7.9 
       624.0         0.20          7.9 
       625.0         0.17          8.0 
       626.0         1.58         11.8 
       627.0         0.17         13.0 
       628.0         0.20         23.5 
       629.0         0.33         27.7 
       630.0         0.27         23.6 
       631.0         0.23         19.0 
       632.0         0.17         14.2 
       633.0         0.10         13.6 
       634.0         0.10         13.1 
       635.0         0.10         16.4 
       636.0         0.07         22.4 
       637.0         0.13         31.9 
       638.0         0.20         52.6 
       639.0         0.23         76.0 
       640.0         0.20         84.0 
       641.0         0.20         85.3 
       642.0         0.20         85.0 
       643.0         0.22         82.6 
       644.0         0.20         79.3 
       645.0         0.20         77.5 
       646.0         0.20         74.8 
       647.0         0.27         73.3 
       648.0         0.23         70.7 
       649.0         0.17         69.4 
       650.0         0.17         68.4 
       651.0         0.13         67.9 
       652.0         0.20         67.6 
       653.0         0.20         67.2 
       654.0         0.22         67.1 
       655.0         0.20         66.9 
       656.0         2.17        214.4 
       657.0         0.27        248.9 
       658.0         0.17        225.0 
       659.0         0.23        218.8 
       660.0         0.25        171.3 
       661.0         0.23        131.1 
       662.0         0.20        103.5 
       663.0         0.23         88.0 
       664.0         0.20         77.7 
       665.0         0.23         72.3 
       666.0         0.20         67.3 
       667.0         0.20         64.0 
       668.0         0.23         61.4 
       669.0         0.20         60.3 
       670.0         0.20         59.3 
       671.0         0.23         58.6 
       672.0         0.20         57.9 
       673.0         0.20         57.7 
       674.0         0.17         57.7 
       675.0         0.20         57.7 
       676.0         0.15         57.5 
       677.0         0.17         57.6 
       678.0         0.13         57.6 
