~Version Information
VERS.                      2.0: CWLS Log ASCII Standard - VERSION 2.0
WRAP.                       NO: One line per depth step
~Well Information Block
STRT.FT               650.0000: 
STOP.FT              2053.7000: 
STEP.FT                 0.1000: 
NULL.                -999.2500: 
COMP.          Pioneer Natural Resources: COMPANY
WELL.           Alabaster 11-8: WELL
FLD.           Purgatoire River: FIELD
LOC.           1249' FNL & 215' FWL--: LOCATION
PROV.                 Colorado: PROVINCE
CNTY.               Las Animas: COUNTRY
SRVC.                Patterson: SERVICE COMPANY
DATE.          Thu Jan 19 09:16:54 2006: LOG DATE
UWI.           05 071 08642 00: UNIQUE WELL ID
~Curve Information Block
DEPT.FT            0 000 00 00: Depth
DCAL.in                       : CDL Caliper
RHOB.g/cc                     : CDL Bulk Density
RHOC.g/cc                     : CDL Density Correction
DPOR.pu                       : CDL Density Porosity
NPOR.pu                       : Neutron Porosity
GR.GAPI                       : Gamma Ray
~Parameter Information Block
~A  Depth       DCAL        RHOB        RHOC        DPOR        NPOR         GR     
# ...
  1840.4000      7.9661      2.5771      0.0491      4.4184     21.5233    128.2470
  1840.5000      7.9656      2.5761      0.0590      4.4782     21.8812    126.1961
  1840.6000      7.9656      2.5822      0.0742      4.1071     21.8308    123.5416
  1840.7000      7.9656      2.5799      0.1029      4.2476     21.2972    120.3605
  1840.8000      7.9637      2.5640      0.0593      5.2135     20.8965    117.8439
  1840.9000      7.9637      2.5505      0.0408      6.0300     21.1557    114.9099
  1841.0000      7.9617      2.5494      0.0681      6.0948     21.5980    112.7517
  1841.1000      7.9617      2.5545      0.0612      5.7888     21.7727    115.3546
  1841.2000      7.9617      2.5584      0.0615      5.5521     21.8220    120.9175
  1841.3000      7.9608      2.5520      0.0691      5.9381     21.9181    122.7171
  1841.4000      7.9608      2.5278      0.0393      7.4056     22.0396    117.5791
  1841.5000      7.9601      2.4979     -0.0261      9.2162     22.0395    108.6428
  1841.6000      7.9601      2.4799      0.0334     10.3104     21.8094    103.0068
  1841.7000      7.9601      2.4745     -0.0002     10.6356     21.2628    106.0786
  1841.8000      7.9598      2.4795      0.0224     10.3318     20.6137    113.2342
  1841.9000      7.9598      2.4954      0.0119      9.3681     20.4168    116.3264
  1842.0000      7.9602      2.5190      0.0420      7.9386     20.7722    115.6460
  1842.1000      7.9602      2.5409      0.0849      6.6100     21.2546    114.0524
  1842.2000      7.9602      2.5531      0.0744      5.8717     21.4762    111.7093
  1842.3000      7.9611      2.5537      0.0714      5.8355     21.3008    107.3600
  1842.4000      7.9611      2.5457      0.0685      6.3183     21.0001    100.4704
  1842.5000      7.9613      2.5390      0.0362      6.7288     20.8853     96.0596
  1842.6000      7.9613      2.5443      0.0261      6.4089     20.9405     93.9105
  1842.7000      7.9613      2.5623      0.0373      5.3143     21.2084     88.4512
  1842.8000      7.9604      2.5829      0.0526      4.0683     21.6178     86.1432
  1842.9000      7.9604      2.6019      0.0365      2.9167     21.8254     91.8886
  1843.0000      7.9599      2.6201      0.0558      1.8114     21.7912     96.6029
  1843.1000      7.9599      2.6292      0.0511      1.2597     21.7640     96.3918
  1843.2000      7.9599      2.6207      0.0516      1.7729     21.6884     96.7580
  1843.3000      7.9615      2.5969      0.0502      3.2170     21.4798    100.5438
  1843.4000      7.9615      2.5705      0.0010      4.8175     21.3971    105.3274
  1843.5000      7.9646      2.5550      0.0052      5.7603     21.4981    103.8063
  1843.6000      7.9646      2.5578     -0.0089      5.5891     21.7322     94.1365
  1843.7000      7.9646      2.5787     -0.0024      4.3207     22.0977     86.0395
  1843.8000      7.9664      2.6027      0.0319      2.8693     22.5676     84.9953
  1843.9000      7.9664      2.6111      0.0205      2.3560     23.0207     85.1007
  1844.0000      7.9667      2.6049     -0.0133      2.7339     23.1740     81.6838
  1844.1000      7.9667      2.5990     -0.0000      3.0897     23.2172     79.2896
  1844.2000      7.9667      2.5972      0.0160      3.1984     23.5344     81.4947
  1844.3000      7.9670      2.5935      0.0167      3.4246     23.7424     86.1220
  1844.4000      7.9670      2.5850      0.0513      3.9416     23.3367     90.8384
  1844.5000      7.9672      2.5777      0.0416      4.3833     22.5877     96.9036
  1844.6000      7.9672      2.5830      0.0276      4.0594     22.1688    103.9017
  1844.7000      7.9672      2.5962      0.0921      3.2612     22.1872    109.9221
  1844.8000      7.9672      2.5979      0.0571      3.1554     22.1230    114.2587
  1844.9000      7.9672      2.5853      0.0481      3.9198     21.7839    116.0368
  1845.0000      7.9678      2.5723      0.0272      4.7099     21.3495    116.9500
  1845.1000      7.9678      2.5668      0.0557      5.0440     20.9150    114.7645
  1845.2000      7.9678      2.5640      0.0267      5.2143     20.6146    106.7104
  1845.3000      7.9656      2.5579      0.0576      5.5825     20.5079     99.7108
  1845.4000      7.9656      2.5543      0.0103      5.8013     20.5094    100.2812
  1845.5000      7.9627      2.5625      0.0631      5.3052     20.4719    106.1060
  1845.6000      7.9627      2.5757      0.0738      4.5012     20.3914    111.6321
  1845.7000      7.9627      2.5785      0.0756      4.3334     20.4231    114.2131
  1845.8000      7.9632      2.5696      0.0559      4.8756     20.5174    113.2016
  1845.9000      7.9632      2.5689      0.0141      4.9150     20.3292    106.7844
  1846.0000      7.9647      2.5883      0.0778      3.7377     19.8304     97.9563
  1846.1000      7.9647      2.6143      0.0867      2.1619     19.6290     95.9547
  1846.2000      7.9647      2.6276      0.1531      1.3575     20.0382    100.9919
  1846.3000      7.9657      2.6163      0.1118      2.0411     20.5871    106.9646
  1846.4000      7.9657      2.5915      0.0575      3.5427     20.9415    113.8562
  1846.5000      7.9657      2.5824      0.0486      4.0998     21.4146    120.0563
  1846.6000      7.9657      2.5994      0.0785      3.0657     21.9492    118.8540
  1846.7000      7.9657      2.6186      0.0983      1.9014     21.9140    109.9956
  1846.8000      7.9650      2.6158      0.0942      2.0752     21.3532    102.2157
  1846.9000      7.9650      2.5959      0.0407      3.2790     20.9123    100.5818
  1847.0000      7.9639      2.5742      0.0461      4.5939     20.9969    102.8668
  1847.1000      7.9639      2.5541      0.0507      5.8116     21.5540    107.2140
  1847.2000      7.9639      2.5404     -0.0098      6.6403     22.0162    112.0871
  1847.3000      7.9631      2.5409      0.0651      6.6096     21.9588    113.7710
  1847.4000      7.9631      2.5476      0.0804      6.2058     21.3197    112.3391
  1847.5000      7.9621      2.5531      0.0381      5.8750     20.3285    109.5237
  1847.6000      7.9621      2.5558      0.1188      5.7106     19.4386    106.0882
  1847.7000      7.9621      2.5469      0.0716      6.2496     18.7945    103.7241
  1847.8000      7.9609      2.5297      0.0563      7.2921     18.3520    101.2944
  1847.9000      7.9609      2.5184      0.0459      7.9728     18.0231     97.3443
  1848.0000      7.9615      2.5196      0.0332      7.9029     17.8527     94.3754
  1848.1000      7.9615      2.5328      0.0474      7.1027     17.8245     94.5156
  1848.2000      7.9615      2.5532      0.0622      5.8666     17.7566     95.5718
  1848.3000      7.9645      2.5662      0.0881      5.0758     17.7681     93.8159
  1848.4000      7.9645      2.5613      0.0548      5.3751     17.8443     89.4291
  1848.5000      7.9661      2.5540     -0.0179      5.8203     17.9377     86.3364
  1848.6000      7.9661      2.5638      0.0181      5.2241     18.4838     86.4712
  1848.7000      7.9661      2.5864      0.0446      3.8557     19.3197     87.6130
  1848.8000      7.9644      2.6063      0.0747      2.6498     19.6843     88.4195
  1848.9000      7.9644      2.6053      0.0727      2.7095     19.5910     87.7046
  1849.0000      7.9626      2.5800     -0.0027      4.2438     19.5402     83.6345
  1849.1000      7.9626      2.5549     -0.0071      5.7659     19.5690     79.7786
  1849.2000      7.9626      2.5490      0.0272      6.1203     19.5938     78.9399
  1849.3000      7.9628      2.5601      0.0358      5.4467     19.8725     77.7530
  1849.4000      7.9628      2.5835      0.0165      4.0289     20.3817     75.1911
  1849.5000      7.9650      2.6070      0.0509      2.6040     20.4708     75.4043
  1849.6000      7.9650      2.6122      0.0064      2.2911     19.9108     81.6586
  1849.7000      7.9650      2.5975      0.0347      3.1805     19.2777     90.5341
  1849.8000      7.9672      2.5742      0.0331      4.5969     19.0419     94.8848
  1849.9000      7.9672      2.5513      0.0421      5.9791     18.9892     94.8628
