~Version Information
VERS.                      2.0: CWLS Log ASCII Standard - VERSION 2.0
WRAP.                       NO: One line per depth step
~Well Information Block
STRT.FT                10.0000: 
STOP.FT               743.5000: 
STEP.FT                 0.1000: 
NULL.                -999.2500: 
COMP.          Pioneer Natural Resources: COMPANY
WELL.                Mia 21-18: WELL
FLD.           Purgatorie River: FIELD
LOC.           1067' FNL & 1824' FWL: LOCATION
PROV.                 Colorado: PROVINCE
CNTY.               Las Animas: COUNTRY
SRVC.                Patterson: SERVICE COMPANY
DATE.          Tue Nov 22 15:40:03 2005: LOG DATE
UWI.           05-071-08559               : UNIQUE WELL ID
~Curve Information Block
DEPT.FT            0 000 00 00: Depth
DCAL.in                       : CDL Caliper
RHOB.g/cc                     : CDL Bulk Density
RHOC.g/cc                     : CDL Density Correction
DPOR.pu                       : CDL Density Porosity
GR.GAPI                       : Gamma Ray
NPOR.pu                       : Neutron Porosity
~Parameter Information Block
~A  Depth       DCAL        RHOB        RHOC        DPOR         GR         NPOR    
# ...
   154.0000     -3.1029      2.1831      2.4208     -0.0093    148.0490     26.0241
   154.1000     -3.1029      2.1793      2.4521     -0.0094    147.2883     25.6968
   154.2000     -3.1029      2.1830      2.4732     -0.0093    150.9087     25.7810
   154.3000     -3.1029      2.1988      2.4761     -0.0090    154.2600     26.0554
   154.4000     -3.1029      2.2179      2.5040     -0.0086    153.0084     25.8843
   154.5000     -3.1029      2.2293      2.4858     -0.0084    149.7120     25.2158
   154.6000     -3.1029      2.2379      2.4698     -0.0082    146.6085     24.6561
   154.7000     -3.1029      2.2561      2.5166     -0.0079    143.6650     24.2749
   154.8000     -3.1029      2.2790      2.5319     -0.0074    142.6936     23.6577
   154.9000     -3.1029      2.2884      2.5455     -0.0072    144.6446     23.0262
   155.0000     -3.1029      2.2809      2.4842     -0.0074    147.0275     22.8120
   155.1000     -3.1029      2.2747      2.5039     -0.0075    147.4937     22.9977
   155.2000     -3.1029      2.2808      2.5075     -0.0074    146.1960     23.1132
   155.3000     -3.1029      2.2912      2.5121     -0.0072    144.8408     22.7299
   155.4000     -3.1029      2.2962      2.5247     -0.0071    143.5508     22.4351
   155.5000     -3.1029      2.2949      2.4960     -0.0071    140.5741     22.8796
   155.6000     -3.1029      2.2873      2.4997     -0.0073    136.4258     23.5456
   155.7000     -3.1029      2.2722      2.5050     -0.0076    133.4500     23.6303
   155.8000     -3.1029      2.2605      2.4404     -0.0078    132.6385     23.1665
   155.9000     -3.1029      2.2637      2.4861     -0.0077    132.9162     22.6768
   156.0000     -3.1029      2.2685      2.4984     -0.0076    132.1485     22.2502
   156.1000     -3.1029      2.2617      2.4632     -0.0078    130.6122     21.7242
   156.2000     -3.1029      2.2489      2.4782     -0.0080    130.4708     21.5154
   156.3000     -3.1029      2.2373      2.4727     -0.0083    132.0345     21.9418
   156.4000     -3.1029      2.2318      2.4538     -0.0084    133.8313     22.4449
   156.5000     -3.1029      2.2364      2.4714     -0.0083    135.4538     22.5308
   156.6000     -3.1029      2.2498      2.4643     -0.0080    136.0462     22.3092
   156.7000     -3.1029      2.2654      2.4773     -0.0077    133.2775     21.8982
   156.8000     -3.1029      2.2696      2.4921     -0.0076    126.8955     21.4637
   156.9000     -3.1029      2.2583      2.4446     -0.0078    121.1937     21.3727
   157.0000     -3.1029      2.2493      2.4374     -0.0080    120.6957     21.7678
   157.1000     -3.1029      2.2563      2.4492     -0.0079    124.5126     22.3093
   157.2000     -3.1029      2.2696      2.5165     -0.0076    128.0370     22.5979
   157.3000     -3.1029      2.2728      2.4852     -0.0075    128.3698     22.8880
   157.4000     -3.1029      2.2570      2.5149     -0.0079    127.6611     23.5459
   157.5000     -3.1029      2.2310      2.4042     -0.0084    130.0471     24.0558
   157.6000     -3.1029      2.2212      2.4162     -0.0086    135.8366     23.8563
   157.7000     -3.1029      2.2305      2.4698     -0.0084    140.5965     23.3774
   157.8000     -3.1029      2.2319      2.4626     -0.0084    139.9448     23.1259
   157.9000     -3.1029      2.2179      2.4345     -0.0086    135.7984     23.0434
   158.0000     -3.1029      2.2043      2.4416     -0.0089    134.7983     23.0918
   158.1000     -3.1029      2.1971      2.4503     -0.0091    139.5488     23.3477
   158.2000     -3.1029      2.2006      2.3960     -0.0090    144.9797     23.5669
   158.3000     -3.1029      2.2166      2.4656     -0.0087    143.6722     23.5648
   158.4000     -3.1029      2.2305      2.4506     -0.0084    136.4941     23.6326
   158.5000     -3.1029      2.2333      2.4573     -0.0083    131.7404     23.7482
   158.6000     -3.1029      2.2255      2.4648     -0.0085    131.9643     23.4123
   158.7000     -3.1029      2.2096      2.4382     -0.0088    131.7598     22.6190
   158.8000     -3.1029      2.1929      2.4131     -0.0091    128.0123     22.0881
   158.9000     -3.1029      2.1849      2.4086     -0.0093    122.7317     22.4609
   159.0000     -3.1029      2.1897      2.4201     -0.0092    118.7081     23.5531
   159.1000     -3.1029      2.2005      2.4514     -0.0090    116.2772     24.5099
   159.2000     -3.1029      2.2041      2.4840     -0.0089    113.6054     24.8103
   159.3000     -3.1029      2.2033      2.4059     -0.0089    112.0588     24.5603
   159.4000     -3.1029      2.2135      2.4261     -0.0087    114.2067     24.1756
   159.5000     -3.1029      2.2349      2.4509     -0.0083    118.0067     24.0140
   159.6000     -3.1029      2.2580      2.4957     -0.0078    119.8142     24.1679
   159.7000     -3.1029      2.2880      2.4653     -0.0072    121.1594     24.5855
   159.8000     -3.1029      2.3400      2.4936     -0.0062    125.0503     25.1692
   159.9000     -3.1029      2.4154      2.4984     -0.0047    128.6466     25.7674
   160.0000     -3.1029      2.4943      2.5393     -0.0031    127.6731     26.3530
   160.1000     -3.1029      2.5526      2.5723     -0.0019    124.2524     27.1806
   160.2000     -3.1029      2.5909      2.6001     -0.0012    123.3778     28.7724
   160.3000     -3.1029      2.6238      2.5878     -0.0005    124.8361     31.0623
   160.4000     -3.1029      2.6469      2.5964     -0.0001    124.7638     33.2150
   160.5000     -3.1029      2.6463      2.5723     -0.0001    120.4206     34.5032
   160.6000     -3.1029      2.6281      2.5688     -0.0004    116.9481     34.7624
   160.7000     -3.1029      2.6095      2.5161     -0.0008    120.8694     34.3824
   160.8000     -3.1029      2.5943      2.5672     -0.0011    127.3408     33.5936
   160.9000     -3.1029      2.5704      2.5524     -0.0016    128.9954     32.2985
   161.0000     -3.1029      2.5277      2.5242     -0.0024    126.9939     30.4152
   161.1000     -3.1029      2.4607      2.5347     -0.0038    125.0142     28.1574
   161.2000     -3.1029      2.3765      2.4974     -0.0055    122.7095     26.0072
   161.3000     -3.1029      2.3027      2.4436     -0.0069    120.2844     24.7451
   161.4000     -3.1029      2.2575      2.4447     -0.0079    118.9677     24.4427
   161.5000     -3.1029      2.2322      2.4488     -0.0084    117.6274     24.1161
   161.6000     -3.1029      2.2149      2.4457     -0.0087    116.2809     23.3893
   161.7000     -3.1029      2.1985      2.4894     -0.0090    119.3992     22.7220
   161.8000     -3.1029      2.1780      2.4308     -0.0094    126.8652     22.2999
   161.9000     -3.1029      2.1572      2.4403     -0.0099    133.9143     21.8749
   162.0000     -3.1029      2.1475      2.3907     -0.0101    139.9984     21.3731
   162.1000     -3.1029      2.1526      2.4576     -0.0100    142.8092     20.9620
   162.2000     -3.1029      2.1601      2.4494     -0.0098    140.2017     20.9084
   162.3000     -3.1029      2.1605      2.4476     -0.0098    137.1777     21.2457
   162.4000     -3.1029      2.1566      2.4591     -0.0099    137.2484     21.5080
   162.5000     -3.1029      2.1530      2.4629     -0.0099    139.9017     21.5210
   162.6000     -3.1029      2.1539      2.4326     -0.0099    142.8815     21.6958
   162.7000     -3.1029      2.1568      2.4633     -0.0099    142.6456     22.2183
   162.8000     -3.1029      2.1496      2.5002     -0.0100    139.1208     22.7378
   162.9000     -3.1029      2.1306      2.4332     -0.0104    135.7976     22.8037
   163.0000     -3.1029      2.1158      2.4377     -0.0107    135.9848     22.3911
   163.1000     -3.1029      2.1117      2.4496     -0.0108    138.0452     22.0360
   163.2000     -3.1029      2.1112      2.4105     -0.0108    138.3798     21.8953
   163.3000     -3.1029      2.1140      2.3883     -0.0107    137.9806     21.5503
   163.4000     -3.1029      2.1266      2.4205     -0.0105    138.8278     21.3454
   163.5000     -3.1029      2.1447      2.4691     -0.0101    140.3773     22.0207
