~Version Information
VERS.                      2.0: CWLS Log ASCII Standard - VERSION 2.0
WRAP.                       NO: One line per depth step
~Well Information Block
STRT.FT                -6.7500: 
STOP.FT              1661.0000: 
STEP.FT                 0.2500: 
NULL.                -999.2500: 
COMP.          Pioneer Natural Resources: COMPANY
WELL.           Pedri 42-33 Tr: WELL
FLD.           Purgatorie River: FIELD
LOC.           1933'' FNL & 662' FEL--: LOCATION
PROV.                       CO: PROVINCE
CNTY.               Las Animas: COUNTRY
SRVC.          Patterson Wireline: SERVICE COMPANY
DATE.          Tue Dec 27 08:53:52 2005: LOG DATE
UWI.           05 071 08640 00: UNIQUE WELL ID
~Curve Information Block
DEPT.FT            0 000 00 00: Depth
CCL.                          : Casing Collar Locator
TT3.usec                      : CBL 3' Travel Time
AMP3.mV                       : CBL 3' Amplitude
GR.GAPI                       : Gamma Ray
~Parameter Information Block
~A  Depth       CCL         TT3         AMP3         GR     
# ...
  1299.7500      0.0000    581.4623      6.4674     74.4139
  1300.0000      0.0000    554.4545      6.4904     84.3734
  1300.2500      0.0000    516.0787      6.5114     94.8287
  1300.5000      0.0000    489.2015      6.5168    104.2364
  1300.7500      0.0000    487.2593      6.5026    112.7037
  1301.0000      0.0000    506.0409      6.4769    121.4807
  1301.2500      0.0000    528.5469      6.4542    130.8808
  1301.5000      0.0000    540.3964      6.4452    139.4601
  1301.7500      0.0000    543.0062      6.4479    145.5728
  1302.0000      0.0000    550.9447      6.4478    148.9999
  1302.2500      0.0000    576.1005      6.4280    150.4316
  1302.5000      0.0000    616.5876      6.3862    150.1179
  1302.7500      0.0000    660.9237      6.3454    147.9479
  1303.0000      0.0000    698.9578      6.3457    144.2180
  1303.2500      0.0000    726.8260      6.4147    139.2968
  1303.5000      0.0000    744.7450      6.5429    133.1463
  1303.7500      0.0000    754.0500      6.6883    126.2753
  1304.0000      0.0000    756.5817      6.8072    120.7218
  1304.2500      0.0000    754.6880      6.8776    119.1068
  1304.5000      0.0000    750.3880      6.8956    122.6804
  1304.7500      0.0000    744.5873      6.8602    130.4550
  1305.0000      0.0000    737.3932      6.7717    139.9285
  1305.2500      0.0000    728.4377      6.6455    148.7795
  1305.5000      0.0000    716.4781      6.5187    156.1709
  1305.7500      0.0000    699.7770      6.4323    162.2369
  1306.0000      0.0000    677.7382      6.4009    166.4361
  1306.2500      0.0000    650.7282      6.4018    167.1769
  1306.5000      0.0000    617.6317      6.3960    163.0495
  1306.7500      0.0000    576.6961      6.3591    153.9043
  1307.0000      0.0000    530.6171      6.2934    141.0710
  1307.2500      0.0000    487.6878      6.2128    126.9516
  1307.5000      0.0000    455.6976      6.1252    113.7479
  1307.7500      0.0000    436.4194      6.0327    102.1596
  1308.0000      0.0000    426.6126      5.9474     91.7234
  1308.2500      0.0000    422.1758      5.9000     82.2960
  1308.5000      0.0000    420.4823      5.9241     74.7294
  1308.7500      0.0000    420.3433      6.0274     70.4381
  1309.0000      0.0000    421.3059      6.1830     70.8076
  1309.2500      0.0000    423.1004      6.3493     76.6572
  1309.5000      0.0000    425.4034      6.4977     87.7378
  1309.7500      0.0000    427.8434      6.6212    102.6799
  1310.0000      0.0000    430.0357      6.7220    119.4001
  1310.2500      0.0000    431.4649      6.7996    135.4879
  1310.5000      0.0000    431.2678      6.8484    148.5448
  1310.7500      0.0000    428.2945      6.8630    156.8097
  1311.0000      0.0000    421.7860      6.8454    159.8353
  1311.2500      0.0000    412.4152      6.8071    158.4286
  1311.5000      0.0000    402.5858      6.7634    153.6821
  1311.7500      0.0000    395.0309      6.7232    146.3716
  1312.0000      0.0000    390.6205      6.6839    137.5272
  1312.2500      0.0000    387.7927      6.6343    128.9574
  1312.5000      0.0000    384.5926      6.5641    122.6364
  1312.7500      0.0000    381.1432      6.4719    119.7923
  1313.0000      0.0000    379.6722      6.3686    120.5685
  1313.2500      0.0000    382.1318      6.2725    124.0029
  1313.5000      0.0000    388.2228      6.1988    128.4709
  1313.7500      0.0000    395.7694      6.1497    132.9358
  1314.0000      0.0000    402.7726      6.1146    137.6472
  1314.2500      0.0000    409.3728      6.0795    142.9270
  1314.5000      0.0000    418.7345      6.0354    147.7049
  1314.7500      0.0000    436.0810      5.9793    150.3061
  1315.0000      0.0000    465.0794      5.9159    150.6015
  1315.2500      0.0000    503.2834      5.8605    150.3017
  1315.5000      0.0000    541.1433      5.8361    150.7846
  1315.7500      0.0000    566.7383      5.8617    151.3117
  1316.0000      0.0000    572.4005      5.9414    149.8837
  1316.2500      0.0000    558.2044      6.0622    145.7477
  1316.5000      0.0000    531.2319      6.1988    140.6420
  1316.7500      0.0000    501.9487      6.3230    137.2012
  1317.0000      0.0000    479.6155      6.4122    136.4238
  1317.2500      0.0000    469.5265      6.4540    137.3965
  1317.5000      0.0000    472.5069      6.4478    139.2647
  1317.7500      0.0000    484.4914      6.4090    142.3276
  1318.0000      0.0000    496.6994      6.3670    146.8261
  1318.2500      0.0000    499.7969      6.3505    151.5281
  1318.5000      0.0000    490.8499      6.3658    154.1407
  1318.7500      0.0000    475.6646      6.3946    152.8494
  1319.0000      0.0000    463.4236      6.4157    147.2360
  1319.2500      0.0000    460.5699      6.4238    138.2327
  1319.5000      0.0000    470.1357      6.4274    127.8771
  1319.7500      0.0000    493.5720      6.4365    119.0213
  1320.0000      0.0000    529.8796      6.4566    114.4946
  1320.2500      0.0000    573.5511      6.4925    115.7267
  1320.5000      0.0000    615.8575      6.5486    121.8916
  1320.7500      0.0000    648.6580      6.6250    130.5522
  1321.0000      0.0000    666.8173      6.7119    139.2267
  1321.2500      0.0000    668.8586      6.7907    146.2730
  1321.5000      0.0000    656.9332      6.8412    150.7830
  1321.7500      0.0000    635.3962      6.8520    152.5425
  1322.0000      0.0000    608.0636      6.8277    152.2522
  1322.2500      0.0000    576.8502      6.7844    151.1595
  1322.5000      0.0000    543.1140      6.7365    150.2408
  1322.7500      0.0000    509.5182      6.6875    150.0988
  1323.0000      0.0000    480.0077      6.6341    151.4640
  1323.2500      0.0000    458.0193      6.5756    154.8957
  1323.5000      0.0000    444.6266      6.5145    159.7082
  1323.7500      0.0000    438.3483      6.4536    164.0458
  1324.0000      0.0000    436.5500      6.3972    166.5856
  1324.2500      0.0000    436.8711      6.3543    167.4884
  1324.5000      0.0000    437.6703      6.3379    167.2306
  1324.7500      0.0000    437.8981      6.3569    165.5273
  1325.0000      0.0000    437.2890      6.4076    162.2976
  1325.2500      0.0000    436.8855      6.4744    158.6844
  1325.5000      0.0000    438.8550      6.5409    155.7660
  1325.7500      0.0000    444.7994      6.6027    152.7418
  1326.0000      0.0000    453.8344      6.6676    147.7437
  1326.2500      0.0000    462.9284      6.7460    140.4503
  1326.5000      0.0000    469.7537      6.8408    132.8466
  1326.7500      0.0000    475.3212      6.9450    127.2302
  1327.0000      0.0000    484.4179      7.0408    124.3915
  1327.2500      0.0000    504.1327      7.0986    124.0076
  1327.5000      0.0000    540.4012      7.0766    125.8360
  1327.7500      0.0000    592.6139      6.9292    129.8060
  1328.0000      0.0000    650.3951      6.6264    135.0445
  1328.2500      0.0000    697.9709      6.1798    139.0885
  1328.5000      0.0000    724.3959      5.6654    138.5809
  1328.7500      0.0000    730.7816      5.2166    131.5331
  1329.0000      0.0000    728.7564      4.9594    119.0687
  1329.2500      0.0000    732.1388      4.9167    104.5664
  1329.5000      0.0000    747.7677      4.9836     91.2017
  1329.7500      0.0000    771.5104      5.0234     80.6186
  1330.0000      0.0000    792.6845      4.9857     73.5520
  1330.2500      0.0000    803.4496      4.9100     71.0070
  1330.5000      0.0000    804.1044      4.8361     74.3854
  1330.7500     -2.0000    799.5919      4.7507     84.0858
  1331.0000      0.0000    793.7935      4.6268     97.8094
  1331.2500      0.0000    788.6865      4.5001    111.0197
  1331.5000      0.0000    785.0530      4.4865    120.0828
  1331.7500      0.0000    779.9257      4.6913    124.9770
  1332.0000      0.0000    765.1708      5.0849    128.5486
  1332.2500      0.0000    732.7381      5.4993    133.5979
  1332.5000      0.0000    682.8859      5.7776    141.0594
  1332.7500      0.0000    626.6948      5.9000    150.1293
  1333.0000      0.0000    580.1684      5.9425    158.9959
