~Version Information
VERS.                      2.0: CWLS Log ASCII Standard - VERSION 2.0
WRAP.                       NO: One line per depth step
~Well Information Block
STRT.FT               555.0000: 
STOP.FT              2286.5000: 
STEP.FT                 0.1000: 
NULL.                -999.2500: 
COMP.          Pioneer Natural Resources: COMPANY
WELL.          Roadster 41-33 Kv: WELL
FLD.           Purgatoire River: FIELD
LOC.           903' FNL & 248' FEL: LOCATION
PROV.                 Colorado: PROVINCE
CNTY.               Las Animas: COUNTRY
SRVC.                Patterson: SERVICE COMPANY
DATE.          Thu Dec 15 10:28:25 2005: LOG DATE
UWI.           05 071 08615 00: UNIQUE WELL ID
~Curve Information Block
DEPT.FT            0 000 00 00: Depth
DCAL.in                       : CDL Caliper
RHOB.g/cc                     : CDL Bulk Density
RHOC.g/cc                     : CDL Density Correction
DPOR.pu                       : CDL Density Porosity
GR.GAPI                       : Gamma Ray
NPOR.pu                       : Neutron Porosity
~Parameter Information Block
~A  Depth       DCAL        RHOB        RHOC        DPOR         GR         NPOR    
# ...
  1812.6000      8.1009      2.4344      0.0754     13.0667     49.9305     18.3780
  1812.7000      8.1009      2.4514      0.0914     12.0337     46.4833     19.7780
  1812.8000      8.1023      2.4550      0.0835     11.8191     41.4907     20.6008
  1812.9000      8.1023      2.4487      0.0455     12.2015     40.2562     20.2295
  1813.0000      8.1090      2.4393      0.0587     12.7720     40.6660     19.0818
  1813.1000      8.1090      2.4278      0.0448     13.4663     41.3722     18.0447
  1813.2000      8.1090      2.4178      0.0311     14.0736     42.3367     17.3603
  1813.3000      8.1110      2.4148      0.0444     14.2547     40.4273     17.1747
  1813.4000      8.1110      2.4150      0.0481     14.2394     36.6384     17.7404
  1813.5000      8.1135      2.4103      0.0135     14.5265     35.7318     18.8047
  1813.6000      8.1135      2.3996      0.0242     15.1744     38.4721     19.2029
  1813.7000      8.1135      2.3910     -0.0092     15.7000     41.2209     18.7378
  1813.8000      8.1144      2.3973      0.0284     15.3168     40.7689     18.0340
  1813.9000      8.1144      2.4187      0.0385     14.0200     38.6288     17.2905
  1814.0000      8.1127      2.4389      0.0694     12.7950     38.7643     16.9706
  1814.1000      8.1127      2.4452      0.0644     12.4143     40.0100     17.5745
  1814.2000      8.1127      2.4405      0.0299     12.6953     38.0266     18.5739
  1814.3000      8.1116      2.4321      0.0547     13.2074     33.8333     18.7229
  1814.4000      8.1116      2.4240      0.0124     13.6957     33.0079     17.8943
  1814.5000      8.1152      2.4207      0.0402     13.8978     37.4581     17.1174
  1814.6000      8.1152      2.4208      0.0271     13.8905     43.4769     17.0089
  1814.7000      8.1152      2.4254      0.0228     13.6127     47.0748     17.4296
  1814.8000      8.1265      2.4306      0.0495     13.2964     45.6084     18.0087
  1814.9000      8.1265      2.4296     -0.0112     13.3597     40.1803     18.1249
  1815.0000      8.1304      2.4289      0.0289     13.4007     35.9572     17.2475
  1815.1000      8.1304      2.4282      0.0336     13.4414     36.0973     15.8309
  1815.2000      8.1304      2.4148      0.0506     14.2558     37.1050     14.8351
  1815.3000      8.1330      2.3936      0.0064     15.5420     35.4041     14.7138
  1815.4000      8.1330      2.3859      0.0385     16.0081     32.2817     15.2621
  1815.5000      8.1354      2.3923      0.0438     15.6184     28.2823     16.3833
  1815.6000      8.1354      2.3977      0.0473     15.2891     24.5683     17.9900
  1815.7000      8.1354      2.4038     -0.0098     14.9185     23.9052     19.2892
  1815.8000      8.1321      2.4146      0.0766     14.2639     24.6460     19.5226
  1815.9000      8.1321      2.4168      0.0540     14.1319     24.5342     18.9848
  1816.0000      8.1263      2.4070      0.0240     14.7284     25.2092     18.6487
  1816.1000      8.1263      2.3965      0.0269     15.3640     27.7362     19.0164
  1816.2000      8.1263      2.3950      0.0149     15.4526     29.4365     19.5108
  1816.3000      8.1191      2.4001      0.0599     15.1448     27.5695     19.4309
  1816.4000      8.1191      2.3997      0.0178     15.1683     24.5806     18.9778
  1816.5000      8.1298      2.3957      0.0337     15.4139     25.0289     18.5783
  1816.6000      8.1298      2.3971      0.0233     15.3258     29.7714     18.2855
  1816.7000      8.1298      2.4041      0.0237     14.9021     35.1777     18.4171
  1816.8000      8.1224      2.4129      0.0062     14.3717     37.4247     19.1720
  1816.9000      8.1224      2.4215      0.0311     13.8495     36.3777     19.7169
  1817.0000      8.1122      2.4258      0.0649     13.5901     35.1577     19.5883
  1817.1000      8.1122      2.4236      0.0448     13.7228     36.4836     19.6766
  1817.2000      8.1122      2.4203      0.0345     13.9240     39.7404     20.2150
  1817.3000      8.1098      2.4205      0.0307     13.9101     42.4995     20.2741
  1817.4000      8.1098      2.4197      0.0181     13.9591     43.3697     19.2803
  1817.5000      8.1092      2.4083      0.0316     14.6504     41.3918     17.5393
  1817.6000      8.1092      2.3876      0.0119     15.9026     36.8615     15.6580
  1817.7000      8.1092      2.3796     -0.0186     16.3881     33.2015     14.0283
  1817.8000      8.1118      2.4025      0.0333     15.0029     32.2160     13.2002
  1817.9000      8.1118      2.4407      0.0764     12.6831     32.9415     13.4889
  1818.0000      8.1116      2.4589      0.1018     11.5841     35.0028     14.1006
  1818.1000      8.1116      2.4464      0.0432     12.3376     36.3165     14.2541
  1818.2000      8.1116      2.4294      0.0326     13.3671     34.1315     14.4236
  1818.3000      8.1108      2.4290      0.0040     13.3956     29.3105     15.1119
  1818.4000      8.1108      2.4362      0.0436     12.9586     25.5617     16.0183
  1818.5000      8.1050      2.4365      0.0514     12.9386     24.2035     16.2993
  1818.6000      8.1050      2.4378     -0.0138     12.8632     23.8473     15.6480
  1818.7000      8.1050      2.4550      0.0105     11.8168     26.1956     15.0707
  1818.8000      8.1032      2.4845      0.0274     10.0295     32.7144     15.5670
  1818.9000      8.1032      2.5076      0.0660      8.6304     40.0870     17.0659
  1819.0000      8.1041      2.5064      0.0800      8.7035     44.0688     18.4537
  1819.1000      8.1041      2.4792      0.0009     10.3520     44.7682     19.1592
  1819.2000      8.1041      2.4373      0.0404     12.8881     47.4686     19.7700
  1819.3000      8.1083      2.3898      0.0102     15.7676     54.2519     20.6006
  1819.4000      8.1083      2.3412      0.0076     18.7159     60.2629     21.4944
  1819.5000      8.1276      2.2960     -0.0269     21.4559     60.6370     22.7913
  1819.6000      8.1276      2.2667     -0.0858     23.2300     58.6560     24.5518
  1819.7000      8.1276      2.2665     -0.0758     23.2410     63.5019     25.7596
  1819.8000      8.1100      2.2919     -0.0101     21.7049     74.0729     25.8806
  1819.9000      8.1100      2.3250      0.0294     19.6965     80.9499     25.4198
  1820.0000      8.1083      2.3547      0.0573     17.8988     84.2255     24.5691
  1820.1000      8.1083      2.3867      0.0841     15.9573     90.5981     23.9231
  1820.2000      8.1083      2.4260      0.0856     13.5737     99.5556     24.6400
  1820.3000      8.1150      2.4599      0.1019     11.5187    105.4698     26.1566
  1820.4000      8.1150      2.4771      0.1259     10.4758    104.5044     26.8737
  1820.5000      8.1095      2.4849      0.0611     10.0079     96.5387     26.2126
  1820.6000      8.1095      2.4906      0.0890      9.6595     87.5858     24.9917
  1820.7000      8.1095      2.4863      0.0954      9.9193     85.4235     24.1910
  1820.8000      8.1076      2.4743      0.0403     10.6503     91.2346     23.7470
  1820.9000      8.1076      2.4730      0.0329     10.7282    103.8459     23.1921
  1821.0000      8.1038      2.4910      0.0276      9.6386    117.3307     22.5851
  1821.1000      8.1038      2.5182      0.0548      7.9873    121.5172     22.7199
  1821.2000      8.1038      2.5336      0.0820      7.0564    116.7561     23.8021
  1821.3000      8.1167      2.5293      0.0621      7.3132    110.9888     24.4314
  1821.4000      8.1167      2.5234      0.0071      7.6740    108.4097     23.6757
  1821.5000      8.1158      2.5296      0.0068      7.2996    109.1987     22.4983
  1821.6000      8.1158      2.5276      0.0298      7.4152    113.5772     22.2655
  1821.7000      8.1158      2.4999      0.0013      9.0949    120.6924     23.0522
  1821.8000      8.1154      2.4704     -0.0509     10.8843    126.8644     23.8541
  1821.9000      8.1154      2.4639     -0.0183     11.2810    128.6581     24.0798
  1822.0000      8.1187      2.4722     -0.0240     10.7746    128.3801     23.7548
  1822.1000      8.1187      2.4820     -0.0114     10.1811    133.3544     23.2950
