~Version Information
VERS.                      2.0: CWLS Log ASCII Standard - VERSION 2.0
WRAP.                       NO: One line per depth step
~Well Information Block
STRT.FT               335.0000: 
STOP.FT              1013.5000: 
STEP.FT                 0.1000: 
NULL.                -999.2500: 
COMP.          Pioneer Natural Resources: COMPANY
WELL.             Giggle 21-22: WELL
FLD.           Purgatoire River: FIELD
LOC.           950' FNL & 2094' FWL: LOCATION
CNTY.               Las Animas: COUNTY
SRVC.                Patterson: SERVICE COMPANY
DATE.          Thu Apr 13 09:31:38 2006: LOG DATE
UWI.           05 071 08726 00: UNIQUE WELL ID
STAT.                 Colorado: STATE
~Curve Information Block
DEPT.FT            0 000 00 00: Depth
DCAL.in                       : CDL Caliper
RHOB.g/cc                     : CDL Bulk Density
RHOC.g/cc                     : CDL Density Correction
DPOR.pu                       : CDL Density Porosity
GR.GAPI                       : Gamma Ray
NPOR.pu                       : Neutron Porosity
~Parameter Information Block
~A  Depth       DCAL        RHOB        RHOC        DPOR         GR         NPOR    
# ...
   603.8000      8.0802      2.6125      0.2027      2.2702    160.7873     24.5744
   603.9000      8.0802      2.5910      0.1805      3.5762    161.3732     24.9093
   604.0000      8.0820      2.5645      0.0632      5.1831    162.8204     25.0118
   604.1000      8.0820      2.5546      0.1312      5.7793    165.7234     24.8695
   604.2000      8.0820      2.5511      0.1235      5.9970    167.7694     24.7508
   604.3000      8.0835      2.5458      0.1277      6.3168    166.7592     24.8236
   604.4000      8.0835      2.5512      0.0675      5.9851    162.5562     25.0435
   604.5000      8.0843      2.5677      0.1205      4.9863    155.9266     25.1134
   604.6000      8.0843      2.5841      0.1331      3.9926    150.9587     24.8214
   604.7000      8.0843      2.6110      0.0702      2.3664    150.9936     24.4837
   604.8000      8.0866      2.6481      0.2030      0.1170    153.0402     24.7285
   604.9000      8.0866      2.6583      0.1908     -0.5013    154.5109     25.5696
   605.0000      8.0846      2.6318      0.1109      1.1035    153.8617     26.4153
   605.1000      8.0846      2.5998      0.1077      3.0394    147.4871     27.0187
   605.2000      8.0846      2.5808      0.1297      4.1930    139.0051     27.4427
   605.3000      8.0819      2.5652      0.0830      5.1408    136.5512     27.5912
   605.4000      8.0819      2.5502      0.0459      6.0492    135.8526     27.4793
   605.5000      8.0827      2.5528      0.0322      5.8916    130.2900     27.3641
   605.6000      8.0827      2.5734      0.0751      4.6412    126.2664     27.6529
   605.7000      8.0827      2.5960     -0.0037      3.2744    126.9957     28.5598
   605.8000      8.0823      2.6079      0.0537      2.5530    125.0667     29.0151
   605.9000      8.0823      2.5979      0.0405      3.1573    118.9602     28.2887
   606.0000      8.0783      2.5717      0.0517      4.7435    115.0803     27.5575
   606.1000      8.0783      2.5439      0.0345      6.4312    114.0543     27.1143
   606.2000      8.0783      2.5113      0.0266      8.4045    112.7482     26.2512
   606.3000      8.0729      2.4702      0.0156     10.8959    114.9961     25.4796
   606.4000      8.0729      2.4365     -0.0054     12.9399    122.9206     25.3340
   606.5000      8.0517      2.4211     -0.0016     13.8712    131.2315     25.4210
   606.6000      8.0517      2.4141      0.0387     14.2973    137.8267     25.4228
   606.7000      8.0517      2.4126     -0.0080     14.3901    144.2101     25.3434
   606.8000      8.0464      2.4302      0.1172     13.3196    149.5546     25.2915
   606.9000      8.0464      2.4632      0.1838     11.3240    152.9161     25.1807
   607.0000      8.0528      2.4890      0.2315      9.7586    151.0960     24.8323
   607.1000      8.0528      2.5043      0.2458      8.8283    143.4368     24.5616
   607.2000      8.0528      2.5223      0.2627      7.7364    137.0140     24.6501
   607.3000      8.0698      2.5473      0.2631      6.2272    134.9012     24.9022
   607.4000      8.0698      2.5792      0.2863      4.2884    134.4222     24.9339
   607.5000      8.0969      2.6147      0.2413      2.1369    134.1528     24.6460
   607.6000      8.0969      2.6491      0.1999      0.0564    134.6143     24.1486
   607.7000      8.0969      2.6763      0.2660     -1.5934    136.9652     23.7881
   607.8000      8.1669      2.6723      0.2653     -1.3500    140.6470     23.9860
   607.9000      8.1669      2.6284      0.1478      1.3068    143.5305     24.6171
   608.0000      8.1728      2.5747      0.1709      4.5647    146.4290     25.2672
   608.1000      8.1728      2.5365      0.0964      6.8764    150.9008     25.6889
   608.2000      8.1728      2.5211      0.1029      7.8150    153.7513     26.1302
   608.3000      8.1811      2.5281      0.1044      7.3880    150.6222     26.6163
   608.4000      8.1811      2.5445      0.1286      6.3964    143.5034     26.3669
   608.5000      8.1790      2.5508      0.1184      6.0131    138.3016     25.4240
   608.6000      8.1790      2.5424      0.1527      6.5226    137.2808     24.3761
   608.7000      8.1790      2.5222      0.1437      7.7472    140.7218     23.2528
   608.8000      8.1758      2.4854      0.1881      9.9758    147.6617     21.9760
   608.9000      8.1758      2.4154      0.1465     14.2152    152.3411     20.4662
   609.0000      8.1758      2.3139      0.1102     20.3692    151.0355     18.9994
   609.1000      8.1758      2.2165      0.0767     26.2721    146.8907     17.9855
   609.2000      8.1758      2.1592      0.1047     29.7449    142.0621     17.5501
   609.3000      8.1771      2.1518      0.0672     30.1957    135.6660     17.3046
   609.4000      8.1771      2.1799      0.1088     28.4909    127.8384     16.5787
   609.5000      8.1777      2.1975      0.2224     27.4250    120.2987     15.3575
   609.6000      8.1777      2.1604      0.1841     29.6725    114.4596     14.1110
   609.7000      8.1777      2.0791      0.1720     34.5999    110.2992     13.1936
   609.8000      8.1794      1.9815      0.1885     40.5143    102.6983     12.6318
   609.9000      8.1794      1.8601      0.2130     47.8743     87.4324     12.0836
   610.0000      8.1787      1.6989      0.0219     57.6400     73.0496     11.4234
   610.1000      8.1787      1.5063     -0.0391     69.3156     68.0629     10.9911
   610.2000      8.1787      1.3099     -0.1543     81.2195     67.2330     10.7731
   610.3000      8.1747      1.1573     -0.2221     90.4648     63.2046     10.3717
   610.4000      8.1747      1.0841     -0.1448     94.9027     56.3482     10.0486
   610.5000      8.1725      1.0847     -0.0661     94.8667     52.1816     10.3485
   610.6000      8.1725      1.1392      0.0218     91.5637     53.7637     11.1838
   610.7000      8.1725      1.2375      0.0828     85.6083     57.5952     12.0913
   610.8000      8.2015      1.3758      0.1681     77.2257     59.0461     12.9213
   610.9000      8.2015      1.5330      0.3386     67.6965     59.4566     13.6781
   611.0000      8.2573      1.6714      0.3617     59.3094     62.7104     14.2619
   611.1000      8.2573      1.7796      0.3147     52.7509     68.8635     14.7186
   611.2000      8.2573      1.8689      0.3108     47.3416     76.1409     15.1176
   611.3000      8.2542      1.9247      0.2652     43.9547     82.3713     15.2795
   611.4000      8.2542      1.9105      0.2368     44.8173     83.4411     15.1285
   611.5000      8.1482      1.8232      0.0601     50.1092     78.7579     14.9855
   611.6000      8.1482      1.7135     -0.0801     56.7592     72.6740     15.0383
   611.7000      8.1482      1.6286     -0.1001     61.9041     68.1193     15.1643
   611.8000      8.1360      1.5733     -0.1017     65.2526     66.6696     15.0961
   611.9000      8.1360      1.5276     -0.0520     68.0234     68.0724     14.8127
   612.0000      8.1357      1.4838     -0.0815     70.6773     70.2920     14.7906
   612.1000      8.1357      1.4676     -0.0478     71.6586     73.5261     15.3250
   612.2000      8.1357      1.4997      0.0614     69.7151     78.9256     16.2319
   612.3000      8.1328      1.5782      0.0720     64.9562     86.1047     17.2405
   612.4000      8.1328      1.7025      0.1394     57.4244     93.9428     18.2234
   612.5000      8.1250      1.8549      0.2207     48.1890    101.7973     19.3642
   612.6000      8.1250      1.9975      0.2298     39.5477    106.6632     20.8924
   612.7000      8.1250      2.1146      0.1918     32.4477    107.3896     22.3836
   612.8000      8.1326      2.2170      0.2039     26.2405    106.7345     23.4929
   612.9000      8.1326      2.3069      0.2368     20.7934    107.8063     24.5509
   613.0000      8.1341      2.3748      0.2091     16.6765    111.7969     25.4795
   613.1000      8.1341      2.4188      0.1621     14.0099    114.8960     25.9040
   613.2000      8.1341      2.4446      0.1366     12.4489    115.0426     26.0565
   613.3000      8.1341      2.4569      0.1327     11.7009    116.5812     26.1683
