~Version Information
VERS.                      2.0: CWLS Log ASCII Standard - VERSION 2.0
WRAP.                       NO: One line per depth step
~Well Information Block
STRT.FT               330.0000: 
STOP.FT              2874.7000: 
STEP.FT                 0.1000: 
NULL.                -999.2500: 
COMP.          Pioneer Natural Resources: COMPANY
WELL.                AMX 13-13: WELL
FLD.           Purgatoire River: FIELD
LOC.           2316' FSL & 865' FWL--: LOCATION
PROV.                 Colorado: PROVINCE
CNTY.               Las Animas: COUNTRY
SRVC.                Patterson: SERVICE COMPANY
DATE.          Tue Dec 20 09:57:28 2005: LOG DATE
UWI.           05 071 08630 00: UNIQUE WELL ID
~Curve Information Block
DEPT.FT            0 000 00 00: Depth
DCAL.in                       : CDL Caliper
RHOB.g/cc                     : CDL Bulk Density
RHOC.g/cc                     : CDL Density Correction
DPOR.pu                       : CDL Density Porosity
NPOR.pu                       : Neutron Porosity
GR.GAPI                       : Gamma Ray
~Parameter Information Block
~A  Depth       DCAL        RHOB        RHOC        DPOR        NPOR         GR     
# ...
  2173.2000      8.7196      2.5469      0.3299      6.2488     27.6972    158.1687
  2173.3000      8.7161      2.5363      0.3068      6.8896     28.1553    158.7383
  2173.4000      8.7161      2.5216      0.2627      7.7839     28.4302    159.2175
  2173.5000      8.7109      2.4975      0.2169      9.2404     28.2627    157.2272
  2173.6000      8.7109      2.4609      0.1860     11.4619     28.0936    155.4340
  2173.7000      8.7109      2.4152      0.1560     14.2317     28.1011    155.5299
  2173.8000      8.7632      2.3690      0.1470     17.0287     28.3907    154.6294
  2173.9000      8.7632      2.3198      0.1624     20.0114     29.0079    154.8778
  2174.0000      8.9150      2.2671      0.0947     23.2080     29.6243    157.7843
  2174.1000      8.9150      2.2292      0.0791     25.5032     30.1039    158.9611
  2174.2000      8.9150      2.2062      0.1346     26.8992     30.6204    157.0865
  2174.3000      9.1743      2.1637      0.1714     29.4728     31.0406    157.2479
  2174.4000      9.1743      2.0767      0.1666     34.7472     31.3961    159.7217
  2174.5000      9.5377      1.9641      0.1332     41.5672     31.6944    158.5544
  2174.6000      9.5377      1.8643      0.1454     47.6181     31.7122    154.1262
  2174.7000      9.5377      1.7972      0.1565     51.6877     31.4108    149.3624
  2174.8000      9.9085      1.7718      0.1633     53.2256     30.7029    144.1517
  2174.9000      9.9085      1.7996      0.1998     51.5393     30.0483    142.1835
  2175.0000     10.2771      1.8790      0.2573     46.7246     30.2656    145.4153
  2175.1000     10.2771      1.9823      0.3049     40.4641     31.1191    146.3534
  2175.2000     10.2771      2.0718      0.3664     35.0442     31.6084    143.1199
  2175.3000     10.7327      2.1289      0.3609     31.5824     31.5113    139.2531
  2175.4000     10.7327      2.1639      0.3434     29.4606     31.3636    139.1064
  2175.5000     11.2438      2.1886      0.3572     27.9657     31.2291    144.3906
  2175.6000     11.2438      2.1918      0.3246     27.7692     31.0262    150.0323
  2175.7000     11.2438      2.1579      0.2606     29.8262     30.9756    150.1463
  2175.8000     11.4994      2.0983      0.1703     33.4343     30.9949    144.8105
  2175.9000     11.4994      2.0482      0.1409     36.4726     30.7464    143.1327
  2176.0000     11.2348      2.0288      0.1381     37.6456     30.2401    152.7465
  2176.1000     11.2348      2.0377      0.1063     37.1081     29.6128    164.6106
  2176.2000     11.2348      2.0676      0.1380     35.2996     29.0550    165.9862
  2176.3000     10.5904      2.1140      0.1696     32.4862     28.9659    158.5989
  2176.4000     10.5904      2.1749      0.2388     28.7925     29.1005    150.4181
  2176.5000     10.0285      2.2396      0.3432     24.8712     28.9101    146.2803
  2176.6000     10.0285      2.2871      0.3755     21.9961     28.8090    142.8928
  2176.7000     10.0285      2.3100      0.3451     20.6045     28.9125    135.8038
  2176.8000      9.6868      2.3257      0.2944     19.6546     28.5454    129.3611
  2176.9000      9.6868      2.3495      0.3354     18.2136     27.8610    129.1237
  2177.0000      9.4301      2.3738      0.3339     16.7414     27.4703    135.2371
  2177.1000      9.4301      2.3945      0.2765     15.4867     27.2938    143.5287
  2177.2000      9.4301      2.4267      0.2683     13.5314     27.1046    144.4338
  2177.3000      9.1432      2.4772      0.3181     10.4698     26.9882    132.7073
  2177.4000      9.1432      2.5337      0.3562      7.0460     27.0319    118.8852
  2177.5000      8.8248      2.5780      0.3610      4.3620     27.0797    114.0207
  2177.6000      8.8248      2.5950      0.3625      3.3324     26.9345    119.9595
  2177.7000      8.8248      2.5885      0.2869      3.7272     26.6334    131.4921
  2177.8000      8.6130      2.5780      0.2857      4.3621     26.3009    140.4496
  2177.9000      8.6130      2.5622      0.2851      5.3206     26.0708    145.8936
  2178.0000      8.5049      2.5197      0.2396      7.8990     26.0589    149.0200
  2178.1000      8.5049      2.4445      0.1330     12.4564     26.2255    144.1109
  2178.2000      8.5049      2.3581     -0.0405     17.6936     26.3674    132.3500
  2178.3000      8.4543      2.2887     -0.0549     21.8995     26.4605    125.8574
  2178.4000      8.4543      2.2450     -0.0287     24.5484     26.6762    127.6290
  2178.5000      8.4466      2.2204      0.0272     26.0354     26.7567    129.1234
  2178.6000      8.4466      2.2064      0.0403     26.8871     26.4444    128.2729
  2178.7000      8.4466      2.1899      0.0845     27.8830     26.0593    130.8750
  2178.8000      8.4565      2.1596      0.1067     29.7212     25.9218    134.3598
  2178.9000      8.4565      2.1378      0.0648     31.0445     25.9692    134.1003
  2179.0000      8.4888      2.1615      0.1925     29.6061     25.9825    135.7446
  2179.1000      8.4888      2.2220      0.2498     25.9418     25.5909    141.1517
  2179.2000      8.4888      2.2895      0.3081     21.8468     24.4078    145.2450
  2179.3000      8.5935      2.3597      0.3133     17.5928     22.6031    146.4630
  2179.4000      8.5935      2.4339      0.3862     13.0975     21.0755    142.0284
  2179.5000      8.7642      2.4899      0.4435      9.7014     20.1903    131.8049
  2179.6000      8.7642      2.5081      0.3815      8.5994     19.6600    124.5113
  2179.7000      8.7642      2.5053      0.3286      8.7699     19.6642    123.5769
  2179.8000      8.8488      2.5122      0.2936      8.3529     20.5706    124.7768
  2179.9000      8.8488      2.5300      0.3013      7.2733     22.0366    129.1420
  2180.0000      8.7689      2.5387      0.2328      6.7437     23.3259    140.8234
  2180.1000      8.7689      2.5360      0.2066      6.9109     24.0308    153.7046
  2180.2000      8.7689      2.5330      0.1677      7.0907     24.3080    159.1837
  2180.3000      8.6045      2.5353      0.1712      6.9515     24.5405    157.5292
  2180.4000      8.6045      2.5373      0.1358      6.8326     24.7327    150.8356
  2180.5000      8.3902      2.5280      0.1624      7.3919     24.7743    143.1392
  2180.6000      8.3902      2.5073      0.1057      8.6494     24.7876    140.5602
  2180.7000      8.3902      2.4914      0.1046      9.6111     24.9580    141.9902
  2180.8000      8.1291      2.4922      0.1055      9.5633     25.1620    141.4101
  2180.9000      8.1291      2.5071      0.1460      8.6581     25.2467    139.1046
  2181.0000      7.9521      2.5275      0.1199      7.4259     25.0093    139.1367
  2181.1000      7.9521      2.5460      0.1131      6.3006     24.0432    140.1551
  2181.2000      7.9521      2.5544      0.1180      5.7911     22.9591    140.6403
  2181.3000      7.8591      2.5483      0.0911      6.1647     22.8211    141.5203
  2181.4000      7.8591      2.5425      0.0884      6.5160     23.4005    138.3671
  2181.5000      7.7776      2.5516      0.1661      5.9606     23.7311    130.6459
  2181.6000      7.7776      2.5708      0.1329      4.8024     23.2959    126.0974
  2181.7000      7.7776      2.5879      0.1788      3.7635     22.5144    125.5572
  2181.8000      7.6853      2.5888      0.1541      3.7068     22.0461    122.3906
  2181.9000      7.6853      2.5701      0.0949      4.8404     21.9812    115.6020
  2182.0000      7.6183      2.5439      0.0370      6.4296     22.1224    112.1918
  2182.1000      7.6183      2.5208      0.0184      7.8290     22.3127    111.5660
  2182.2000      7.6183      2.5060      0.0441      8.7288     22.3763    106.5220
  2182.3000      7.5714      2.5079     -0.0061      8.6126     22.1159    102.3928
  2182.4000      7.5714      2.5309      0.0176      7.2199     21.4605    105.2341
  2182.5000      7.5250      2.5613      0.0690      5.3742     20.8394    109.0028
  2182.6000      7.5250      2.5923      0.0399      3.4947     20.7457    110.7072
  2182.7000      7.5250      2.6358      0.0626      0.8621     21.0286    113.9717
