~Version Information
VERS.                      2.0: CWLS Log ASCII Standard - VERSION 2.0
WRAP.                       NO: One line per depth step
~Well Information Block
STRT.FT                10.0000: 
STOP.FT               907.0000: 
STEP.FT                 0.1000: 
NULL.                -999.2500: 
COMP.          Pioneer Natural Resources: COMPANY
WELL.           Hartford 31-18: WELL
FLD.           Purgatorie River: FIELD
LOC.           375' FNL & 1660' FEL: LOCATION
PROV.                 Colorado: PROVINCE
CNTY.               Las Animas: COUNTRY
SRVC.                Patterson: SERVICE COMPANY
DATE.          Mon Nov 21 07:39:41 2005: LOG DATE
UWI.            05-071-08555              : UNIQUE WELL ID
~Curve Information Block
DEPT.FT            0 000 00 00: Depth
DCAL.in                       : CDL Caliper
RHOB.g/cc                     : CDL Bulk Density
RHOC.g/cc                     : CDL Density Correction
DPOR.pu                       : CDL Density Porosity
GR.GAPI                       : Gamma Ray
NPOR.pu                       : Neutron Porosity
~Parameter Information Block
~A  Depth       DCAL        RHOB        RHOC        DPOR         GR         NPOR    
# ...
   835.6000      7.9922      2.3469      0.0020     18.3693     73.5586     24.5129
   835.7000      7.9922      2.3334     -0.0304     19.1892     73.0719     24.8782
   835.8000      8.0007      2.3369     -0.0214     18.9732     73.1882     25.0516
   835.9000      8.0007      2.3542     -0.0287     17.9258     71.5381     24.9915
   836.0000      8.0146      2.3831     -0.0223     16.1729     68.1871     24.8923
   836.1000      8.0146      2.4187      0.0007     14.0154     68.3584     24.7913
   836.2000      8.0146      2.4487      0.0555     12.2003     70.7358     24.6977
   836.3000      8.0528      2.4676      0.0530     11.0535     71.0424     24.8512
   836.4000      8.0528      2.4799      0.1040     10.3091     71.1229     25.2205
   836.5000      8.0604      2.4861      0.1082      9.9350     72.2613     25.5152
   836.6000      8.0604      2.4814      0.0651     10.2168     72.1803     25.6660
   836.7000      8.0604      2.4706      0.0365     10.8723     70.0391     25.6738
   836.8000      8.0125      2.4707      0.0313     10.8690     68.4951     25.6245
   836.9000      8.0125      2.4877      0.0588      9.8356     68.6553     25.6439
   837.0000      7.9959      2.5061      0.0670      8.7236     68.4927     25.6723
   837.1000      7.9959      2.5096      0.0807      8.5073     68.5455     25.7445
   837.2000      7.9959      2.5028      0.0416      8.9234     69.8282     26.0517
   837.3000      7.9997      2.5061      0.0384      8.7191     71.5493     26.2781
   837.4000      7.9997      2.5252      0.0717      7.5658     73.3461     26.1428
   837.5000      8.0079      2.5358      0.1013      6.9194     74.0667     26.0190
   837.6000      8.0079      2.5187      0.0566      7.9561     72.6503     26.1312
   837.7000      8.0079      2.4832      0.0455     10.1077     71.2060     26.3548
   837.8000      7.9992      2.4519     -0.0088     12.0070     72.0694     26.5399
   837.9000      7.9992      2.4427      0.0107     12.5654     74.6815     26.5638
   838.0000      8.0100      2.4589      0.0281     11.5840     76.7728     26.3382
   838.1000      8.0100      2.4825      0.0916     10.1515     76.2489     25.9361
   838.2000      8.0100      2.4880      0.0526      9.8202     73.0240     25.6482
   838.3000      7.9965      2.4737      0.0286     10.6830     69.7279     25.8031
   838.4000      7.9965      2.4533      0.0532     11.9206     66.9270     26.3044
   838.5000      8.0060      2.4340      0.0058     13.0894     64.1954     26.5909
   838.6000      8.0060      2.4218     -0.0080     13.8333     62.9074     26.4383
   838.7000      8.0060      2.4190     -0.0055     14.0020     63.6181     26.2064
   838.8000      8.0801      2.4270      0.0052     13.5126     66.0468     26.2590
   838.9000      8.0801      2.4449      0.0342     12.4307     70.9142     26.5707
   839.0000      8.1691      2.4625      0.0372     11.3612     76.2862     26.7143
   839.1000      8.1691      2.4732      0.0406     10.7180     78.3848     26.5388
   839.2000      8.1691      2.4797      0.0360     10.3194     77.6049     26.4584
   839.3000      8.3912      2.4855      0.0726      9.9677     76.9278     26.6934
   839.4000      8.3912      2.4865      0.0907      9.9117     78.2651     27.0622
   839.5000      8.5873      2.4804      0.0761     10.2773     80.7333     27.3614
   839.6000      8.5873      2.4743      0.0216     10.6514     81.8599     27.3021
   839.7000      8.5873      2.4757      0.0088     10.5666     80.0691     26.7529
   839.8000      8.3971      2.4860      0.0289      9.9381     76.2395     26.1330
   839.9000      8.3971      2.5003      0.0116      9.0713     73.5388     25.8409
   840.0000      8.0453      2.5117      0.0300      8.3815     73.7144     25.8234
   840.1000      8.0453      2.5149      0.0537      8.1864     75.3533     25.8043
   840.2000      8.0453      2.5137      0.0243      8.2626     76.6337     25.5490
   840.3000      8.0342      2.5139      0.0711      8.2512     77.5770     25.0250
   840.4000      8.0342      2.5164      0.0506      8.0944     78.9737     24.5274
   840.5000      7.9654      2.5233      0.0478      7.6798     80.3354     24.3797
   840.6000      7.9654      2.5276      0.0642      7.4195     80.8955     24.6509
   840.7000      7.9654      2.5192      0.0259      7.9303     81.7257     25.1096
   840.8000      7.9262      2.4999      0.0776      9.0969     83.8381     25.3570
   840.9000      7.9262      2.4841     -0.0177     10.0574     84.5384     25.2433
   841.0000      7.9381      2.4847      0.0427     10.0186     80.9151     25.0771
   841.1000      7.9381      2.4932      0.0406      9.5055     76.4610     25.2159
   841.2000      7.9381      2.4995      0.0023      9.1234     75.3331     25.4704
   841.3000      7.9453      2.5043      0.0359      8.8285     75.9678     25.4714
   841.4000      7.9453      2.5009     -0.0051      9.0382     76.1228     25.3402
   841.5000      7.9654      2.4793      0.0569     10.3453     76.3479     25.3198
   841.6000      7.9654      2.4463     -0.0176     12.3429     78.3472     25.4449
   841.7000      7.9654      2.4292     -0.0527     13.3832     80.8825     25.6001
   841.8000      7.9899      2.4396     -0.0062     12.7518     81.1089     25.5164
   841.9000      7.9899      2.4613      0.0208     11.4362     79.2234     25.1107
   842.0000      8.0183      2.4798      0.0264     10.3153     76.3840     24.7521
   842.1000      8.0183      2.4908      0.0366      9.6478     74.4098     24.8494
   842.2000      8.0183      2.4932      0.0224      9.5043     74.6223     25.3106
   842.3000      8.0132      2.4959      0.0274      9.3403     75.1581     25.8292
   842.4000      8.0132      2.5066      0.0614      8.6898     74.4705     26.1800
   842.5000      7.9878      2.5182      0.0513      7.9867     73.9547     26.1378
   842.6000      7.9878      2.5257      0.0373      7.5316     74.6445     25.7433
   842.7000      7.9878      2.5314      0.0704      7.1907     74.6477     25.3878
   842.8000      7.9880      2.5320      0.1287      7.1506     73.2661     25.4135
   842.9000      7.9880      2.5249      0.0897      7.5832     73.5495     25.6491
   843.0000      7.9849      2.5127      0.0609      8.3211     76.1860     25.6314
   843.1000      7.9849      2.4964      0.0433      9.3076     77.6945     25.3565
   843.2000      7.9849      2.4783      0.0663     10.4038     76.4284     25.1710
   843.3000      7.9752      2.4681      0.0232     11.0217     74.6712     25.2836
   843.4000      7.9752      2.4783      0.0401     10.4082     75.7816     25.5375
   843.5000      7.9562      2.5011      0.0599      9.0216     79.0943     25.7527
   843.6000      7.9562      2.5129      0.0720      8.3107     80.5722     26.0464
   843.7000      7.9562      2.5075      0.0561      8.6361     79.5145     26.3532
   843.8000      7.9675      2.4970      0.0692      9.2728     78.5643     26.2123
   843.9000      7.9675      2.4844      0.0827     10.0352     79.4767     25.6005
   844.0000      7.9750      2.4688      0.0282     10.9845     82.1457     25.0978
   844.1000      7.9750      2.4581     -0.0057     11.6325     84.5599     24.9634
   844.2000      7.9750      2.4586      0.0214     11.6019     85.2970     25.1226
   844.3000      7.9791      2.4695     -0.0231     10.9387     84.8100     25.6235
   844.4000      7.9791      2.4860      0.0172      9.9413     83.5908     26.2198
   844.5000      7.9837      2.4963      0.0796      9.3137     82.9549     26.3441
   844.6000      7.9837      2.5002      0.0272      9.0814     84.4990     26.1755
   844.7000      7.9837      2.5065      0.0390      8.6987     86.9127     26.1855
   844.8000      7.9759      2.5076      0.0655      8.6299     89.1300     26.2127
   844.9000      7.9759      2.4926      0.0246      9.5387     93.1904     26.0257
   845.0000      7.9708      2.4669      0.0149     11.0995     97.1811     25.7081
   845.1000      7.9708      2.4476     -0.0400     12.2682     95.8536     25.4877
