~Version Information
VERS.                      2.0: CWLS Log ASCII Standard - VERSION 2.0
WRAP.                       NO: One line per depth step
~Well Information Block
STRT.FT                -6.5000: 
STOP.FT              1467.0000: 
STEP.FT                 0.2500: 
NULL.                -999.2500: 
COMP.          Pioneer Natural Resources: COMPANY
WELL.          Surtees 23-34 Tr: WELL
FLD.           Purgatorie River: FIELD
LOC.           1559' FSL & 1997' FWL--: LOCATION
PROV.                       CO: PROVINCE
CNTY.               Las Animas: COUNTRY
SRVC.          Patterson Wireline: SERVICE COMPANY
DATE.          Tue Aug 02 13:04:45 2005: LOG DATE
UWI.           05 071 08449 00: UNIQUE WELL ID
~Curve Information Block
DEPT.FT            0 000 00 00: Depth
CCL.                          : Casing Collar Locator
TT3.usec                      : CBL 3' Travel Time
AMP3.mV                       : CBL 3' Amplitude
GR.GAPI                       : Gamma Ray
~Parameter Information Block
~A  Depth       CCL         TT3         AMP3         GR     
# ...
   194.5000      0.0000    900.5956     10.0331     42.3409
   194.7500      0.0000    893.9183      9.9952     42.9123
   195.0000      0.0000    888.9515      9.9762     43.4447
   195.2500      0.0000    883.9659      9.9677     43.8742
   195.5000      0.0000    878.4675      9.9587     43.8100
   195.7500      0.0000    873.2900      9.9440     43.2580
   196.0000      0.0000    869.4599      9.9242     42.9056
   196.2500      0.0000    867.1663      9.8989     43.3232
   196.5000      0.0000    865.8909      9.8651     44.2137
   196.7500      0.0000    865.0769      9.8212     44.7223
   197.0000      0.0000    864.4750      9.7731     44.1590
   197.2500      0.0000    864.0472      9.7330     42.2387
   197.5000      0.0000    863.7813      9.7130     39.1667
   197.7500      0.0000    863.6213      9.7168     35.9645
   198.0000      0.0000    863.5044      9.7371     34.3389
   198.2500      0.0000    863.4029      9.7603     35.5226
   198.5000      0.0000    863.3253      9.7749     39.0154
   198.7500      0.0000    863.2932      9.7790     42.7496
   199.0000      0.0000    863.3203      9.7798     44.8666
   199.2500      0.0000    863.3796      9.7857     45.5075
   199.5000      0.0000    863.3687      9.7949     46.8636
   199.7500      0.0000    863.1191      9.7938     51.4345
   200.0000      0.0000    862.7488      9.7674     59.9732
   200.2500      0.0000    863.4035      9.7126     70.6585
   200.5000      0.0000    867.9536      9.6327     79.9922
   200.7500      0.0000    880.0073      9.5067     84.9075
   201.0000      0.0000    900.8244      9.2696     84.7964
   201.2500      0.0000    926.8795      8.8517     81.7453
   201.5000      0.0000    952.0437      8.2565     78.5727
   201.7500      0.0000    973.3677      7.5915     76.6880
   202.0000      0.0000    993.9071      7.0167     75.8439
   202.2500      0.0000   1018.4501      6.6586     75.2133
   202.5000      0.0000   1046.5830      6.5463     74.1145
   202.7500      0.0000   1071.8380      6.6042     72.2296
   203.0000     -2.0000   1088.5892      6.7141     69.7960
   203.2500     -2.0000   1097.8871      6.8005     67.3627
   203.5000      0.0000   1105.1060      6.8787     64.9743
   203.7500      0.0000   1113.5215      7.0603     61.9490
   204.0000      0.0000   1121.3994      7.5130     57.8961
   204.2500      0.0000   1123.1814      8.3471     53.7277
   204.5000      0.0000   1111.7329      9.4825     51.1234
   204.7500      0.0000   1081.5117     10.6524     50.8916
   205.0000      0.0000   1033.4799     11.5888     52.1649
   205.2500      0.0000    977.5550     12.1870     53.3698
   205.5000      0.0000    927.8598     12.4861     53.7605
   205.7500      0.0000    893.8443     12.5646     53.7082
   206.0000      0.0000    876.0172     12.4974     53.6087
   206.2500      0.0000    869.1539     12.3596     53.0320
   206.5000      0.0000    867.7939     12.2148     51.2971
   206.7500      0.0000    869.1723     12.0943     48.5450
   207.0000      0.0000    873.4003     11.9950     45.6458
   207.2500      0.0000    882.3557     11.8962     43.1016
   207.5000      0.0000    897.4311     11.7797     40.6887
   207.7500      0.0000    916.6869     11.6437     38.3704
   208.0000      0.0000    934.2039     11.5008     36.9478
   208.2500      0.0000    943.4435     11.3666     37.3575
   208.5000      0.0000    941.7114     11.2501     39.5180
   208.7500      0.0000    931.6634     11.1538     42.1748
   209.0000      0.0000    920.2822     11.0805     43.9505
   209.2500      0.0000    916.8134     11.0363     44.5256
   209.5000      0.0000    928.5683     11.0253     44.7503
   209.7500      0.0000    955.9156     11.0445     45.6971
   210.0000      0.0000    991.8848     11.0866     47.8195
   210.2500      0.0000   1027.8943     11.1490     51.0511
   210.5000      0.0000   1059.5613     11.2358     55.4208
   210.7500      0.0000   1086.7694     11.3507     61.2831
   211.0000      0.0000   1109.8545     11.4890     68.9339
   211.2500      0.0000   1127.7152     11.6395     78.0671
   211.5000      0.0000   1139.3071     11.7945     87.4322
   211.7500      0.0000   1145.2130     11.9540     94.9645
   212.0000      0.0000   1147.0229     12.1204     98.7271
   212.2500      0.0000   1145.6764     12.2945     98.2638
   212.5000      0.0000   1140.7135     12.4767     95.0292
   212.7500      0.0000   1131.1283     12.6668     91.2071
   213.0000      0.0000   1117.2681     12.8589     88.1018
   213.2500      0.0000   1102.0515     13.0435     85.8454
   213.5000      0.0000   1090.0624     13.2141     84.4769
   213.7500      0.0000   1084.9343     13.3684     84.6687
   214.0000      0.0000   1086.9713     13.5002     86.8379
   214.2500      0.0000   1092.0405     13.5967     89.7862
   214.5000      0.0000   1092.9963     13.6468     91.1242
   214.7500      0.0000   1084.9316     13.6492     89.4311
   215.0000      0.0000   1071.0577     13.6127     85.6113
   215.2500      0.0000   1061.4147     13.5526     81.9432
   215.5000      0.0000   1063.3365     13.4907     80.1641
   215.7500      0.0000   1074.7091     13.4517     80.6405
   216.0000      0.0000   1088.2830     13.4529     82.8103
   216.2500      0.0000   1100.0436     13.4910     85.6730
   216.5000      0.0000   1110.7196     13.5417     87.8419
   216.7500      0.0000   1120.9702     13.5751     87.9350
   217.0000      0.0000   1128.2155     13.5773     85.7054
   217.2500      0.0000   1128.5242     13.5549     82.7625
   217.5000      0.0000   1120.3381     13.5235     81.6297
   217.7500      0.0000   1105.5378     13.4936     83.7962
   218.0000      0.0000   1086.1787     13.4681     88.6470
   218.2500      0.0000   1060.2710     13.4451     93.9916
   218.5000      0.0000   1023.3163     13.4208     97.4866
   218.7500      0.0000    975.4187     13.3906     98.0341
   219.0000      0.0000    924.4235     13.3544     96.3554
   219.2500      0.0000    880.0565     13.3215     94.3287
   219.5000      0.0000    846.7897     13.3069     93.7329
   219.7500      0.0000    823.5253     13.3173     95.3316
   220.0000      0.0000    807.8441     13.3394     98.4607
   220.2500      0.0000    798.5581     13.3439    101.2464
   220.5000      0.0000    795.1368     13.3014    101.8353
   220.7500      0.0000    796.7502     13.1955     99.9343
   221.0000      0.0000    802.6788     13.0269     96.8148
   221.2500      0.0000    812.8599     12.8120     93.4917
   221.5000      0.0000    826.5913     12.5794     89.4848
   221.7500      0.0000    840.5159     12.3601     83.9111
   222.0000      0.0000    849.6190     12.1753     77.2771
   222.2500      0.0000    851.4501     12.0309     71.4975
   222.5000      0.0000    848.3502     11.9213     68.3988
   222.7500      0.0000    844.4243     11.8374     68.6190
   223.0000      0.0000    841.2656     11.7730     71.6290
   223.2500      0.0000    837.7534     11.7268     76.2264
   223.5000      0.0000    832.7737     11.7051     81.0106
   223.7500      0.0000    826.3411     11.7240     84.8807
   224.0000      0.0000    818.6756     11.8053     87.3314
   224.2500      0.0000    809.9155     11.9617     88.2743
   224.5000      0.0000    800.8805     12.1796     87.6917
   224.7500      0.0000    793.1293     12.4145     85.6463
   225.0000      0.0000    787.9911     12.6131     82.5297
   225.2500      0.0000    785.9388     12.7461     79.1029
   225.5000      0.0000    786.8572     12.8231     76.2155
   225.7500      0.0000    790.2289     12.8777     74.3501
   226.0000      0.0000    794.7014     12.9423     73.3405
   226.2500      0.0000    797.9871     13.0307     72.6883
   226.5000      0.0000    798.1172     13.1320     72.3057
   226.7500      0.0000    795.0364     13.2160     72.9029
   227.0000      0.0000    790.5563     13.2476     75.4923
   227.2500      0.0000    786.6813     13.2057     80.3575
   227.5000      0.0000    784.2790     13.0937     86.5374
   227.7500      0.0000    783.1595     12.9370     92.5531
