~Version Information
VERS.                      2.0: CWLS Log ASCII Standard - VERSION 2.0
WRAP.                       NO: One line per depth step
~Well Information Block
STRT.FT               480.0000: 
STOP.FT              1946.0000: 
STEP.FT                 0.2500: 
NULL.                -999.2500: 
COMP.          XTO Energy Inc.: COMPANY
WELL.          Golden Eagle 19-15: WELL
FLD.           Purgatoire River: FIELD
LOC.           1121' FSL & 2332' FEL--: LOCATION
CNTY.               Las Animas: COUNTY
SRVC.                Patterson: SERVICE COMPANY
DATE.          Sun Mar 12 15:00:51 2006: LOG DATE
UWI.           05 071 08717 00: UNIQUE WELL ID
STAT.                 Colorado: STATE
~Curve Information Block
DEPT.FT            0 000 00 00: Depth
SP.mV                         : DIL Spontaneous Potential
RILD.Ohm-m                    : DIL Deep Resistivity
RILM.Ohm-m                    : DIL Medium Resistivity
RLL3.Ohm-m                    : DIL Shallow Resistivity
GR.GAPI                       : Gamma Ray
~Parameter Information Block
~A  Depth        SP         RILD        RILM        RLL3         GR     
# ...
  1347.0000      1.6233     14.1623     13.4651     17.4895    124.9227
  1347.2500      1.5247     14.4917     14.0364     19.5934    119.8582
  1347.5000      1.4766     14.8581     14.6894     22.0914    112.1206
  1347.7500      1.4938     15.2787     15.4143     24.8279    107.3368
  1348.0000      1.5553     15.7700     16.2006     27.5869    101.0772
  1348.2500      1.6302     16.3451     17.0361     30.1470     97.9251
  1348.5000      1.7092     17.0129     17.9092     32.3606     96.0229
  1348.7500      1.8089     17.7760     18.8149     34.2212     97.0531
  1349.0000      1.9452     18.6270     19.7601     35.8745    100.6895
  1349.2500      2.1080     19.5458     20.7621     37.5604    102.6934
  1349.5000      2.2668     20.4998     21.8374     39.5036    102.3436
  1349.7500      2.3947     21.4495     22.9868     41.8113     99.5130
  1350.0000      2.4821     22.3599     24.1874     44.4260     92.7740
  1350.2500      2.5341     23.2133     25.3983     47.1520     87.8033
  1350.5000      2.5650     24.0162     26.5741     49.7333     81.0566
  1350.7500      2.5992     24.7936     27.6749     51.9496     77.4186
  1351.0000      2.6677     25.5729     28.6709     53.6967     73.4980
  1351.2500      2.7924     26.3658     29.5466     55.0328     71.8524
  1351.5000      2.9709     27.1592     30.3078     56.1717     70.2486
  1351.7500      3.1792     27.9189     30.9844     57.4186     69.2015
  1352.0000      3.3899     28.6058     31.6228     59.0656     66.9205
  1352.2500      3.5860     29.1951     32.2678     61.2888     64.8692
  1352.5000      3.7592     29.6890     32.9458     64.0920     61.5192
  1352.7500      3.9098     30.1150     33.6534     67.3155     59.5161
  1353.0000      4.0611     30.5110     34.3586     70.6910     57.3147
  1353.2500      4.2658     30.9022     35.0141     73.9093     56.4759
  1353.5000      4.5796     31.2825     35.5794     76.6706     56.2122
  1353.7500      5.0227     31.6100     36.0386     78.7270     56.6703
  1354.0000      5.5582     31.8230     36.4036     79.9310     57.9771
  1354.2500      6.0929     31.8692     36.7017     80.2785     58.8664
  1354.5000      6.5038     31.7286     36.9580     79.9137     59.4549
  1354.7500      6.6950     31.4154     37.1749     79.0644     59.1852
  1355.0000      6.6634     30.9585     37.3157     77.9284     58.6036
  1355.2500      6.5126     30.3789     37.2991     76.5875     59.0620
  1355.5000      6.3788     29.6797     37.0178     75.0046     62.1172
  1355.7500      6.3103     28.8506     36.3779     73.0887     65.3877
  1356.0000      6.2093     27.8810     35.3353     70.7520     70.3631
  1356.2500      5.9151     26.7691     33.9068     67.9045     73.0624
  1356.5000      5.3676     25.5217     32.1585     64.4189     76.9439
  1356.7500      4.6900     24.1456     30.1858     60.1501     80.4415
  1357.0000      4.0952     22.6487     28.0889     55.0461     87.7152
  1357.2500      3.7161     21.0554     25.9469     49.2823     93.2695
  1357.5000      3.5428     19.4235     23.8029     43.2931    101.0131
  1357.7500      3.5102     17.8389     21.6726     37.6372    105.2450
  1358.0000      3.5977     16.3874     19.5705     32.7635    110.0418
  1358.2500      3.8232     15.1296     17.5326     28.8256    112.2717
  1358.5000      4.1790     14.0921     15.6199     25.6627    114.6038
  1358.7500      4.6161     13.2751     13.9026     22.9486    116.1006
  1359.0000      5.0882     12.6629     12.4391     20.4056    119.5045
  1359.2500      5.5787     12.2296     11.2638     17.9655    122.7446
  1359.5000      6.0848     11.9413     10.3865     15.8072    127.8279
  1359.7500      6.5890     11.7572      9.8002     14.2919    130.1489
  1360.0000      7.0455     11.6321      9.4883     13.8494    130.4987
  1360.2500      7.3944     11.5245      9.4297     14.8516    128.2844
  1360.5000      7.6145     11.4054      9.5967     17.4764    121.0556
  1360.7500      7.7893     11.2650      9.9473     21.5650    113.7362
  1361.0000      8.1076     11.1124     10.4162     26.5258    100.5476
  1361.2500      8.7487     10.9707     10.9129     31.3773     92.1871
  1361.5000      9.7231     10.8680     11.3383     34.9904     84.0688
  1361.7500     10.8146     10.8311     11.6177     36.4735     83.0409
  1362.0000     11.6893     10.8795     11.7318     35.5169     88.2631
  1362.2500     12.0831     11.0219     11.7175     32.5022     95.3537
  1362.5000     11.9267     11.2519     11.6418     28.3107    109.1175
  1362.7500     11.3469     11.5470     11.5688     23.9497    118.8289
  1363.0000     10.5839     11.8693     11.5399     20.2042    131.5344
  1363.2500      9.8831     12.1735     11.5692     17.4698    137.7451
  1363.5000      9.4099     12.4182     11.6502     15.7857    143.5735
  1363.7500      9.2209     12.5797     11.7669     14.9782    145.6631
  1364.0000      9.2958     12.6580     11.9042     14.8088    146.6051
  1364.2500      9.5840     12.6728     12.0542     15.0640    145.5452
  1364.5000     10.0194     12.6529     12.2157     15.5809    140.9660
  1364.7500     10.5182     12.6283     12.3908     16.2350    136.2310
  1365.0000     10.9981     12.6270     12.5807     16.9236    128.3754
  1365.2500     11.3989     12.6750     12.7856     17.5629    123.8839
  1365.5000     11.6747     12.7952     13.0068     18.1010    119.5436
  1365.7500     11.7775     13.0040     13.2506     18.5390    118.3036
  1366.0000     11.6837     13.3087     13.5284     18.9363    118.3036
  1366.2500     11.4479     13.7048     13.8543     19.3897    118.9727
  1366.5000     11.2214     14.1770     14.2403     19.9933    119.6626
  1366.7500     11.1871     14.7017     14.6936     20.7982    119.0153
  1367.0000     11.4362     15.2552     15.2149     21.7914    115.1775
  1367.2500     11.8769     15.8219     15.7996     22.9070    110.6643
  1367.5000     12.2613     16.4002     16.4416     24.0659    102.4868
  1367.7500     12.3180     16.9999     17.1376     25.2301     97.5672
  1368.0000     11.8944     17.6342     17.8888     26.4488     92.9788
  1368.2500     11.0321     18.3107     18.6995     27.8680     92.0100
  1368.5000      9.9458     19.0257     19.5742     29.6864     92.4743
  1368.7500      8.9146     19.7669     20.5146     32.0688     92.8605
  1369.0000      8.1505     20.5191     21.5184     35.0565     91.8618
  1369.2500      7.7348     21.2691     22.5798     38.5250     89.9513
  1369.5000      7.6582     22.0072     23.6895     42.2152     86.1914
  1369.7500      7.9047     22.7245     24.8377     45.8237     83.7076
  1370.0000      8.4808     23.4132     26.0160     49.1047     80.2762
  1370.2500      9.3494     24.0694     27.2161     51.9400     78.1976
  1370.5000     10.3307     24.6919     28.4272     54.3669     75.8542
  1370.7500     11.0815     25.2736     29.6375     56.5750     75.0193
  1371.0000     11.2260     25.7906     30.8388     58.8876     74.4282
  1371.2500     10.5680     26.1967     32.0275     61.7202     74.0222
  1371.5000      9.2093     26.4267     33.1886     65.4969     73.0426
  1371.7500      7.4718     26.4078     34.2682     70.5112     72.1133
  1372.0000      5.7130     26.0783     35.1492     76.7570     70.2008
  1372.2500      4.1947     25.4148     35.6478     83.7925     68.5782
  1372.5000      3.0476     24.4525     35.5412     90.7115     65.8921
  1372.7500      2.2777     23.2818     34.6293     96.2682     64.1699
  1373.0000      1.7931     22.0191     32.8252     99.1431     62.1127
  1373.2500      1.4574     20.7722     30.2370     98.2818     61.3981
  1373.5000      1.1560     19.6196     27.1736     93.2087     62.0590
  1373.7500      0.8581     18.6059     24.0379     84.2160     64.2517
  1374.0000      0.6662     17.7457     21.1747     72.3524     71.1931
  1374.2500      0.8082     17.0296     18.7810     59.1862     78.3443
  1374.5000      1.5020     16.4315     16.9100     46.4073     91.2432
  1374.7500      2.7376     15.9169     15.5245     35.4035     99.5782
