~Version Information
VERS.                      2.0: CWLS Log ASCII Standard - VERSION 2.0
WRAP.                       NO: One line per depth step
~Well Information Block
STRT.FT               880.0000: 
STOP.FT              1995.0000: 
STEP.FT                 0.2500: 
NULL.                -999.2500: 
COMP.          Petrogulf Corporation: COMPANY
WELL.          Collister 17-31R: WELL
FLD.           Purgatorie River: FIELD
LOC.           962' FNL & 1520' FEL: LOCATION
PROV.                 Colorado: PROVINCE
CNTY.               Las Animas: COUNTRY
SRVC.                Patterson: SERVICE COMPANY
DATE.          Mon Sep 26 09:32:26 2005: LOG DATE
UWI.                          : UNIQUE WELL ID
~Curve Information Block
DEPT.FT            0 000 00 00: Depth
SP.mV                         : DIL Spontaneous Potential
RILD.Ohm-m                    : DIL Deep Resistivity
RILM.Ohm-m                    : DIL Medium Resistivity
RLL3.Ohm-m                    : DIL Shallow Resistivity
GR.GAPI                       : Gamma Ray
~Parameter Information Block
~A  Depth        SP         RILD        RILM        RLL3         GR     
# ...
  1160.0000    154.8304     41.6873     50.2393     60.9833     73.1026
  1160.2500    153.2484     42.5156     50.3015     75.4325     77.7063
  1160.5000    151.7204     42.6726     54.3957     80.8943     75.4807
  1160.7500    150.6351     43.5006     55.8354     84.8800     78.5053
  1161.0000    149.9353     45.3845     56.6594     94.2982     83.7183
  1161.2500    149.1164     43.8448     61.6272    104.0332     86.5421
  1161.5000    148.5506     45.8679     69.6514    115.6807     60.9891
  1161.7500    147.9532     48.6179     71.7165    121.0858     64.3305
  1162.0000    148.0247     49.9671     77.3593    125.4215     54.6870
  1162.2500    148.6290     48.8521     81.1293    130.9458     53.2539
  1162.5000    149.5470     52.5454     84.0482    143.1295     48.6307
  1162.7500    150.8272     56.5442     94.9383    160.4714     53.5571
  1163.0000    152.4057     57.9677     95.9935    182.7374     55.0819
  1163.2500    154.2871     58.8063    102.1825    169.7303     58.2201
  1163.5000    156.3647     58.1168    108.6975    132.7438     39.9516
  1163.7500    158.5450     57.1556    104.4937    122.1703     40.6271
  1164.0000    160.7567     53.6194    109.7280    137.7153     40.4569
  1164.2500    162.9896     48.6568    109.9929    183.0464     49.5014
  1164.5000    165.4685     43.0430    101.6548    238.7135     56.9900
  1164.7500    168.4997     38.6593     85.7891    222.0294     49.4545
  1165.0000    172.2648     34.5358     71.2309    163.6500     41.3700
  1165.2500    176.2695     30.1366     61.8948    141.7726     35.0107
  1165.5000    180.0285     27.7797     47.7330    129.0018     48.6439
  1165.7500    184.0508     24.4744     37.4326     73.4971     60.7890
  1166.0000    187.9819     22.2665     29.4912     37.7477     52.0767
  1166.2500    192.1213     20.4687     24.5299     24.4253     51.4166
  1166.5000    195.2332     18.8126     20.5050     19.5806     69.1823
  1166.7500    198.2430     17.0387     17.9497     16.1171     94.2090
  1167.0000    200.7517     15.8281     15.7590     15.7284    110.1289
  1167.2500    203.0821     14.9860     14.1692     15.6683    113.5667
  1167.5000    204.8400     14.1664     12.9572     15.6525    122.9109
  1167.7500    206.2655     13.2789     12.0132     12.9768    102.8285
  1168.0000    207.2289     12.4926     11.3307     13.4784    111.7482
  1168.2500    208.0403     11.9589     10.8470     13.7380    118.1657
  1168.5000    208.6664     11.5689     10.5555     12.6205    128.7252
  1168.7500    209.1903     11.1294     10.3265     12.7260    120.3297
  1169.0000    209.6506     10.7810     10.3113     12.8968    147.4725
  1169.2500    210.1222     10.5930     10.1144     12.4299    165.3999
  1169.5000    210.5138     10.2479     10.0228     15.4144    144.2274
  1169.7500    210.7850     10.1180      9.9454     13.7887    134.6367
  1170.0000    210.8703     10.0645      9.8560     12.8892    119.3588
  1170.2500    210.9918     10.1510      9.6777     14.9946    121.0379
  1170.5000    211.2078     10.2371      9.6053     15.7111    120.1000
  1170.7500    211.1144     10.3057      9.6503     12.4073    110.8518
  1171.0000    210.7640     10.5894      9.6151     11.5590    127.6269
  1171.2500    210.1198     10.8821      9.6383     12.9889    146.1927
  1171.5000    209.3972     11.1547      9.8531     12.4256    153.3891
  1171.7500    208.4687     11.5847     10.2824     12.0889    144.2746
  1172.0000    207.1556     11.8579     10.6602     13.1336    142.2128
  1172.2500    205.8579     12.2622     11.0551     13.7136    156.7010
  1172.5000    204.1166     12.6791     11.8175     15.9341    128.5140
  1172.7500    202.2390     13.0242     12.6426     17.3867    130.6516
  1173.0000    199.8549     13.1851     13.4257     19.6113    145.8826
  1173.2500    197.7051     13.6055     14.1200     22.0974    128.7008
  1173.5000    195.6313     14.1469     15.2629     25.3387    138.2699
  1173.7500    193.5029     14.6946     16.1524     28.4889    122.9980
  1174.0000    191.3073     15.4232     17.1495     28.9482    100.2627
  1174.2500    188.8765     16.2721     17.4843     27.6126    106.0685
  1174.5000    186.7425     16.9757     17.5876     24.8225    113.6780
  1174.7500    184.5156     17.7034     18.6977     20.8781     96.3561
  1175.0000    182.5513     18.5158     19.7045     20.6889     97.0584
  1175.2500    180.2758     19.1449     20.8395     23.4933    111.0051
  1175.5000    178.0932     19.0589     22.6112     26.0695    106.9697
  1175.7500    176.0639     19.4129     22.8651     27.8361     97.8627
  1176.0000    174.3397     19.3961     22.8224     28.1136    110.9955
  1176.2500    172.8639     19.3720     22.5225     26.8547    133.2341
  1176.5000    171.2533     19.2181     22.4309     25.3669    132.7311
  1176.7500    169.8134     18.9522     22.4978     24.9180    133.7527
  1177.0000    169.1661     18.9330     22.0578     24.6675    131.8151
  1177.2500    168.8039     18.3262     21.1445     25.2833    140.8604
  1177.5000    168.1372     18.0224     20.7450     25.1650    117.0158
  1177.7500    167.4929     17.6415     19.9000     23.0635    128.6978
  1178.0000    166.8347     17.1723     18.6104     20.4872    114.1458
  1178.2500    166.1542     16.7821     17.9088     19.2191    121.7450
  1178.5000    165.4145     16.4986     17.1730     17.5196    126.8192
  1178.7500    164.5562     16.5358     16.5630     16.2296    122.3784
  1179.0000    163.9990     16.3946     16.3127     15.3668    155.1994
  1179.2500    163.4306     16.0131     15.9190     15.2276    148.7689
  1179.5000    162.9280     15.8861     15.9005     16.8688    126.2153
  1179.7500    162.4936     15.6245     15.7821     17.3992    121.3371
  1180.0000    162.0036     15.4467     15.7772     18.5150    128.1160
  1180.2500    161.7254     15.4477     15.7754     20.4390    132.6054
  1180.5000    161.5664     15.4291     15.6572     20.4204    143.6342
  1180.7500    161.2898     15.4714     15.6246     18.1622    110.4897
  1181.0000    161.3464     15.6051     15.5024     17.5868    118.1332
  1181.2500    161.6032     15.2147     15.6230     17.5475    119.3220
  1181.5000    162.2917     15.7649     16.0731     17.7387    140.7058
  1181.7500    162.4922     16.1493     16.3247     17.4088    133.0945
  1182.0000    162.7011     16.3943     16.6946     18.5773    132.5157
  1182.2500    162.7712     16.6280     16.7726     18.4487    122.0149
  1182.5000    162.6068     16.6611     17.1270     18.1111     94.8480
  1182.7500    162.8320     16.6159     17.4952     21.9467    114.7610
  1183.0000    163.2932     16.7576     17.5241     24.5972    118.9404
  1183.2500    163.7930     16.7894     17.5464     24.2325    108.7581
  1183.5000    163.9402     16.6569     17.3302     20.8844    124.7316
  1183.7500    164.0741     16.8373     17.0405     19.5030    130.1286
  1184.0000    164.1878     17.1885     17.1065     19.3919    130.9151
  1184.2500    164.4756     17.2172     17.1221     19.1192    119.5497
  1184.5000    164.7677     17.4884     17.1702     19.8392    133.4649
  1184.7500    164.8738     17.5696     17.1345     18.0846    135.9949
  1185.0000    165.0969     17.6382     17.2859     17.8305    134.5831
  1185.2500    165.6340     17.6485     17.6990     16.6764    128.3660
  1185.5000    166.4247     17.5518     17.7978     18.1700    117.5170
  1185.7500    167.0247     17.4783     18.1639     20.0800    128.9548
  1186.0000    167.4473     17.4706     18.3105     22.8260    121.5391
  1186.2500    167.9304     16.9798     18.6034     22.1960    112.5307
  1186.5000    168.1562     16.4723     18.3834     21.6384     97.3983
  1186.7500    168.0438     16.0632     18.1045     22.3073    103.7491
  1187.0000    167.5517     16.3157     17.5341     22.1820     97.7260
  1187.2500    167.0510     16.1598     16.8558     21.5959    103.7844
  1187.5000    166.7240     15.8582     16.2483     19.2316    115.2777
  1187.7500    165.9985     15.9824     15.8943     17.4888    118.4930
