~Version Information
VERS.                      2.0: CWLS Log ASCII Standard - VERSION 2.0
WRAP.                       NO: One line per depth step
~Well Information Block
STRT.FT                10.0000: 
STOP.FT              1044.5000: 
STEP.FT                 0.1000: 
NULL.                -999.2500: 
COMP.          Pioneer Natural Resources: COMPANY
WELL.          Stags Leap 13-30: WELL
FLD.           Purgatorie River: FIELD
LOC.           1813' FSL & 117' FWL: LOCATION
PROV.                 Colorado: PROVINCE
CNTY.               Las Animas: COUNTRY
SRVC.                Patterson: SERVICE COMPANY
DATE.          Fri Dec 09 09:46:17 2005: LOG DATE
UWI.                          : UNIQUE WELL ID
~Curve Information Block
DEPT.FT            0 000 00 00: Depth
DCAL.in                       : CDL Caliper
RHOB.g/cc                     : CDL Bulk Density
RHOC.g/cc                     : CDL Density Correction
DPOR.pu                       : CDL Density Porosity
GR.GAPI                       : Gamma Ray
NPOR.pu                       : Neutron Porosity
~Parameter Information Block
~A  Depth       DCAL        RHOB        RHOC        DPOR         GR         NPOR    
# ...
   413.2000      8.0908      2.4683     -0.0058     11.0131    115.9290     20.8579
   413.3000      8.0738      2.4312      0.0268     13.2613    113.6984     20.6657
   413.4000      8.0738      2.4025     -0.0277     14.9980    110.7061     20.5604
   413.5000      8.0865      2.3948      0.0213     15.4657    108.1264     20.4772
   413.6000      8.0865      2.4057      0.0351     14.8050    104.1387     20.0059
   413.7000      8.0865      2.4264      0.0497     13.5539     99.4729     19.2664
   413.8000      8.0745      2.4519      0.0833     12.0045     95.7876     18.9069
   413.9000      8.0745      2.4726      0.1017     10.7538     92.4012     19.1440
   414.0000      8.0397      2.4836      0.0513     10.0826     90.1907     19.6111
   414.1000      8.0397      2.4948      0.0944      9.4082     91.9520     19.9816
   414.2000      8.0397      2.5156      0.0695      8.1448     97.1542     20.2450
   414.3000      8.0601      2.5490      0.0863      6.1182    100.3659     20.4550
   414.4000      8.0601      2.5836      0.1346      4.0264    100.6355     20.6565
   414.5000      8.0547      2.6007      0.1470      2.9876    104.1075     21.0452
   414.6000      8.0547      2.5974      0.0860      3.1862    110.5408     21.5869
   414.7000      8.0547      2.5812      0.1123      4.1674    112.3416     21.9986
   414.8000      8.0476      2.5615      0.0353      5.3645    107.1869     22.2842
   414.9000      8.0476      2.5515      0.0477      5.9682    100.3528     22.5879
   415.0000      8.0620      2.5547      0.0575      5.7786     97.6834     22.7291
   415.1000      8.0620      2.5657      0.0485      5.1067     99.6564     22.4927
   415.2000      8.0620      2.5809      0.0355      4.1889    102.9362     22.0986
   415.3000      8.0656      2.5934      0.0203      3.4318    105.8016     21.7474
   415.4000      8.0656      2.5946      0.0834      3.3559    108.2388     21.5236
   415.5000      8.0277      2.5851      0.0514      3.9353    110.4227     21.6032
   415.6000      8.0277      2.5760      0.0253      4.4820    112.6059     21.7672
   415.7000      8.0277      2.5688      0.0688      4.9205    115.9414     21.6462
   415.8000      8.0126      2.5564      0.0046      5.6755    119.3638     21.3559
   415.9000      8.0126      2.5432      0.0165      6.4715    120.1211     21.2888
   416.0000      8.0300      2.5356     -0.0060      6.9347    119.7798     21.5361
   416.1000      8.0300      2.5308     -0.0129      7.2251    120.7328     21.8115
   416.2000      8.0300      2.5236      0.0108      7.6635    122.5700     21.8309
   416.3000      8.0755      2.5201     -0.0484      7.8714    124.0775     21.5888
   416.4000      8.0755      2.5302      0.0318      7.2580    123.8293     21.3189
   416.5000      8.0929      2.5440      0.0274      6.4263    122.4433     21.2760
   416.6000      8.0929      2.5471      0.0405      6.2379    121.8142     21.5148
   416.7000      8.0929      2.5395      0.0303      6.6988    122.9131     21.7658
   416.8000      8.1120      2.5335      0.0061      7.0602    125.0701     21.7881
   416.9000      8.1120      2.5409     -0.0105      6.6132    127.4569     21.6679
   417.0000      8.1231      2.5563      0.0279      5.6763    129.9766     21.5422
   417.1000      8.1231      2.5647      0.0385      5.1685    130.4495     21.3689
   417.2000      8.1231      2.5581      0.0412      5.5708    128.6295     21.2876
   417.3000      8.1572      2.5411     -0.0059      6.5970    128.8032     21.6396
   417.4000      8.1572      2.5309     -0.0282      7.2170    131.2359     22.2784
   417.5000      8.1437      2.5323      0.0174      7.1304    131.6191     22.7971
   417.6000      8.1437      2.5244      0.0157      7.6145    128.4295     22.9643
   417.7000      8.1437      2.5003     -0.0382      9.0724    123.3946     22.7699
   417.8000      8.1359      2.4755     -0.0225     10.5755    120.9688     22.4858
   417.9000      8.1359      2.4549     -0.0421     11.8238    123.3871     22.3191
   418.0000      8.1473      2.4409     -0.0443     12.6728    125.4454     22.1054
   418.1000      8.1473      2.4418     -0.0449     12.6202    122.4378     21.6504
   418.2000      8.1473      2.4519     -0.0016     12.0066    116.0627     21.1360
   418.3000      8.1036      2.4550      0.0287     11.8170    110.9677     20.8891
   418.4000      8.1036      2.4486      0.0307     12.2078    110.1589     20.6648
   418.5000      8.0850      2.4419      0.0185     12.6095    111.6707     20.0246
   418.6000      8.0850      2.4447      0.0123     12.4440    110.4145     19.1490
   418.7000      8.0850      2.4563      0.0723     11.7390    104.4432     18.5735
   418.8000      8.0533      2.4642      0.0643     11.2617     96.4606     18.3966
   418.9000      8.0533      2.4587      0.0769     11.5916     90.5263     18.2282
   419.0000      8.0701      2.4397      0.0673     12.7477     88.9008     17.8873
   419.1000      8.0701      2.4165      0.0161     14.1492     90.1132     17.5588
   419.2000      8.0701      2.4053      0.0107     14.8321     91.1899     17.5307
   419.3000      8.0932      2.4130      0.0193     14.3623     90.4036     17.8032
   419.4000      8.0932      2.4300      0.0542     13.3338     87.2163     17.8955
   419.5000      8.1003      2.4431      0.0403     12.5418     82.5110     17.6001
   419.6000      8.1003      2.4518      0.0526     12.0146     79.1491     17.1841
   419.7000      8.1003      2.4600      0.0397     11.5158     78.0164     16.9867
   419.8000      8.0955      2.4659      0.0454     11.1580     78.5143     17.1564
   419.9000      8.0955      2.4639      0.0614     11.2811     80.4501     17.5457
   420.0000      8.0991      2.4545      0.0206     11.8481     80.9537     17.8990
   420.1000      8.0991      2.4466      0.0587     12.3250     78.7150     18.0363
   420.2000      8.0991      2.4435      0.0480     12.5166     77.4851     17.8972
   420.3000      8.0762      2.4424      0.0523     12.5835     77.7520     17.6776
   420.4000      8.0762      2.4425      0.0229     12.5743     75.3791     17.6301
   420.5000      8.0827      2.4431      0.0492     12.5417     70.9457     17.6227
   420.6000      8.0827      2.4464      0.0306     12.3364     69.5187     17.4295
   420.7000      8.0827      2.4626      0.0312     11.3601     72.0276     17.1823
   420.8000      8.0881      2.4898      0.0794      9.7111     74.2039     17.0303
   420.9000      8.0881      2.5132      0.0570      8.2901     73.9715     16.8413
   421.0000      8.0858      2.5239      0.0909      7.6442     73.6941     16.6777
   421.1000      8.0858      2.5257      0.1039      7.5317     74.4758     16.7639
   421.2000      8.0858      2.5331      0.0834      7.0863     75.2473     17.0747
   421.3000      8.0558      2.5514      0.0996      5.9752     75.5508     17.4724
   421.4000      8.0558      2.5686      0.1048      4.9362     76.5247     17.9044
   421.5000      8.0549      2.5731      0.0992      4.6579     79.5547     18.4725
   421.6000      8.0549      2.5720      0.0373      4.7286     83.3447     19.2130
   421.7000      8.0549      2.5805      0.0503      4.2138     85.3970     19.8704
   421.8000      8.0587      2.5983      0.0312      3.1332     85.0243     20.4299
   421.9000      8.0587      2.6117      0.0398      2.3191     84.1401     21.0338
   422.0000      8.0572      2.6117      0.0237      2.3225     83.4374     21.5912
   422.1000      8.0572      2.6049     -0.0521      2.7342     82.1929     21.9865
   422.2000      8.0572      2.6022     -0.0205      2.8945     82.3923     22.2508
   422.3000      8.0727      2.5939      0.0101      3.3985     86.3968     22.5051
   422.4000      8.0727      2.5659     -0.0138      5.0986     93.9787     22.9449
   422.5000      8.0880      2.5262     -0.0051      7.5051    102.7670     23.6297
   422.6000      8.0880      2.4931     -0.0394      9.5101    109.8566     24.3394
   422.7000      8.0880      2.4775     -0.0371     10.4560    114.0336     24.8138
