~Version Information
VERS.                      2.0: CWLS Log ASCII Standard - VERSION 2.0
WRAP.                       NO: One line per depth step
~Well Information Block
STRT.FT                -8.7500: 
STOP.FT              1035.7500: 
STEP.FT                 0.2500: 
NULL.                -999.2500: 
COMP.          Pioneer Natural Resources: COMPANY
WELL.                Mac 22-36: WELL
FLD.           Purgatorie River: FIELD
LOC.           2545' FNL & 1398' FWL--: LOCATION
PROV.                       CO: PROVINCE
CNTY.               Las Animas: COUNTRY
SRVC.          Patterson Wireline: SERVICE COMPANY
DATE.          Thu Dec 08 13:20:05 2005: LOG DATE
UWI.           08 071 08594 00: UNIQUE WELL ID
~Curve Information Block
DEPT.FT            0 000 00 00: Depth
CCL.                          : Casing Collar Locator
TT3.usec                      : CBL 3' Travel Time
AMP3.mV                       : CBL 3' Amplitude
GR.GAPI                       : Gamma Ray
~Parameter Information Block
~A  Depth       CCL         TT3         AMP3         GR     
# ...
   125.2500      0.0000    826.7559      9.5128     61.4406
   125.5000      0.0000    829.3193      9.4217     60.7853
   125.7500      0.0000    831.0656      9.3439     59.8591
   126.0000      0.0000    829.1576      9.3301     57.5587
   126.2500      0.0000    822.3956      9.4239     53.4996
   126.5000      0.0000    812.0903      9.6338     48.7141
   126.7500      0.0000    801.7554      9.9146     45.2909
   127.0000      0.0000    795.9373     10.1821     44.6666
   127.2500      0.0000    798.0206     10.3604     46.2368
   127.5000      0.0000    808.1144     10.4233     48.0466
   127.7500      0.0000    823.5943     10.3902     48.7110
   128.0000      0.0000    842.4299     10.2936     48.2729
   128.2500      0.0000    864.6981     10.1617     47.4871
   128.5000      0.0000    888.9571     10.0283     46.9784
   128.7500      0.0000    907.9959      9.9430     47.1149
   129.0000      0.0000    911.7445      9.9566     48.1150
   129.2500      0.0000    896.3923     10.0821     49.9988
   129.5000      0.0000    868.8399     10.2674     52.5632
   129.7500      0.0000    840.6935     10.4135     55.4132
   130.0000      0.0000    819.4953     10.4381     57.9488
   130.2500      0.0000    806.2045     10.3282     59.5142
   130.5000      0.0000    798.3011     10.1335     59.8270
   130.7500      0.0000    793.2703      9.9163     59.3649
   131.0000      0.0000    790.1166      9.7178     59.1748
   131.2500      0.0000    789.0502      9.5618     59.9438
   131.5000      0.0000    790.1711      9.4681     61.0956
   131.7500      0.0000    792.6043      9.4507     61.0480
   132.0000      0.0000    795.0193      9.5049     58.7275
   132.2500      0.0000    796.6223      9.6000     54.8199
   132.5000      0.0000    797.4221      9.6914     51.2813
   132.7500      0.0000    797.8255      9.7440     49.7204
   133.0000      0.0000    798.2578      9.7473     50.5346
   133.2500      0.0000    799.0723      9.7151     53.2618
   133.5000      0.0000    800.6251      9.6748     57.0273
   133.7500      0.0000    803.2776      9.6558     60.6066
   134.0000      0.0000    807.1408      9.6744     62.7322
   134.2500      0.0000    811.6566      9.7202     62.8092
   134.5000      0.0000    815.6503      9.7524     61.4068
   134.7500      0.0000    818.4349      9.7215     60.0790
   135.0000      0.0000    821.5206      9.6087     60.3190
   135.2500      0.0000    829.6429      9.4392     62.0914
   135.5000      0.0000    849.0231      9.2364     63.5332
   135.7500      0.0000    882.5381      8.9893     62.6033
   136.0000      0.0000    925.7476      8.7057     58.9294
   136.2500      0.0000    969.2019      8.4594     53.7980
   136.5000      0.0000   1005.9172      8.3318     48.7186
   136.7500      0.0000   1035.8959      8.3365     44.5236
   137.0000     -2.0000   1062.9429      8.4419     41.7949
   137.2500      2.0000   1087.6820      8.6336     41.5232
   137.5000      0.0000   1104.4901      8.9291     44.6533
   137.7500      0.0000   1105.6025      9.3515     50.7208
   138.0000      0.0000   1087.8148      9.8885     57.3198
   138.2500      0.0000   1054.6284     10.4520     61.4733
   138.5000      0.0000   1013.2887     10.8968     61.7200
   138.7500      0.0000    971.4191     11.1255     58.8536
   139.0000      0.0000    934.5314     11.1595     54.9297
   139.2500      0.0000    903.4581     11.0831     51.9078
   139.5000      0.0000    874.8189     10.9568     51.0401
   139.7500      0.0000    846.7005     10.8108     52.8913
   140.0000      0.0000    823.0652     10.6711     57.4290
   140.2500      0.0000    810.4606     10.5512     63.9253
   140.5000      0.0000    811.1878     10.4364     70.9230
   140.7500      0.0000    821.5107     10.2980     76.5880
   141.0000      0.0000    836.2947     10.1255     79.3741
   141.2500      0.0000    853.6660      9.9402     78.7712
   141.5000      0.0000    874.8369      9.7800     75.8473
   141.7500      0.0000    900.8234      9.6767     72.9916
   142.0000      0.0000    930.0702      9.6445     72.5912
   142.2500      0.0000    957.7680      9.6790     75.6012
   142.5000      0.0000    975.9888      9.7566     81.2688
   142.7500      0.0000    976.5338      9.8444     87.9278
   143.0000      0.0000    956.8043      9.9160     93.8400
   143.2500      0.0000    923.9219      9.9615     97.5578
   143.5000      0.0000    893.1234      9.9827     98.1685
   143.7500      0.0000    879.3467      9.9836     95.7800
   144.0000      0.0000    884.7430      9.9663     91.7819
   144.2500      0.0000    893.8379      9.9352     88.2124
   144.5000      0.0000    886.4065      9.9048     86.5499
   144.7500      0.0000    857.0523      9.8954     86.9042
   145.0000      0.0000    819.5025      9.9160     88.0478
   145.2500      0.0000    793.2802      9.9544     88.2542
   145.5000      0.0000    790.1368      9.9876     86.6658
   145.7500      0.0000    810.8803     10.0017     84.0536
   146.0000      0.0000    848.1499     10.0033     81.9420
   146.2500      0.0000    891.1900     10.0160     81.1604
   146.5000      0.0000    932.2938     10.0591     81.6517
   146.7500      0.0000    970.7549     10.1238     83.1743
   147.0000      0.0000   1008.9234     10.1727     85.3567
   147.2500      0.0000   1044.3340     10.1697     87.3416
   147.5000      0.0000   1069.0651     10.1065     88.2965
   147.7500      0.0000   1078.9646     10.0024     88.3745
   148.0000      0.0000   1080.3651      9.8860     88.7925
   148.2500      0.0000   1082.9932      9.7801     90.8231
   148.5000      0.0000   1087.0508      9.6967     94.5244
   148.7500      0.0000   1081.3624      9.6364     98.2982
   149.0000      0.0000   1055.1720      9.5882     99.9829
   149.2500      0.0000   1009.6564      9.5296     98.7638
   149.5000      0.0000    957.6754      9.4325     95.8726
   149.7500      0.0000    914.5270      9.2817     93.2076
   150.0000      0.0000    889.8452      9.0917     91.5886
   150.2500      0.0000    886.6146      8.8979     90.6125
   150.5000      0.0000    904.1893      8.7300     89.8164
   150.7500      0.0000    939.3815      8.5995     89.3520
   151.0000      0.0000    984.7051      8.5134     89.4654
   151.2500      0.0000   1028.3875      8.4833     89.7902
   151.5000      0.0000   1058.7006      8.5117     89.5429
   151.7500      0.0000   1069.7611      8.5749     88.3881
   152.0000      0.0000   1063.4496      8.6310     86.8820
   152.2500      0.0000   1045.3137      8.6520     85.8912
   152.5000      0.0000   1018.8821      8.6454     85.8268
   152.7500      0.0000    985.1747      8.6422     86.8625
   153.0000      0.0000    947.6586      8.6673     89.5560
   153.2500      0.0000    914.9428      8.7246     94.3190
   153.5000      0.0000    896.2921      8.8035    100.0916
   153.7500      0.0000    894.2538      8.8878    104.4030
   154.0000      0.0000    902.5406      8.9618    105.3023
   154.2500      0.0000    910.9096      9.0202    102.9105
   154.5000      0.0000    911.8581      9.0686     98.8946
   154.7500      0.0000    903.4479      9.1057     94.8255
   155.0000      0.0000    887.6822      9.1088     91.3243
   155.2500      0.0000    868.0493      9.0562     88.3159
   155.5000      0.0000    848.2465      8.9588     85.4691
   155.7500      0.0000    831.2335      8.8567     82.4156
   156.0000      0.0000    818.2092      8.7871     78.9601
   156.2500      0.0000    808.8247      8.7665     75.3064
   156.5000      0.0000    802.3436      8.7973     72.1713
   156.7500      0.0000    798.2700      8.8740     70.6463
   157.0000      0.0000    796.1376      8.9806     71.5990
   157.2500      0.0000    795.4081      9.0912     74.8424
   157.5000      0.0000    795.8882      9.1781     78.8506
   157.7500      0.0000    798.2219      9.2141     81.5663
   158.0000      0.0000    803.8588      9.1742     81.6961
   158.2500      0.0000    813.8784      9.0476     79.3871
   158.5000      0.0000    827.0551      8.8528     75.9752
