~Version Information
VERS.                      2.0: CWLS Log ASCII Standard - VERSION 2.0
WRAP.                       NO: One line per depth step
~Well Information Block
STRT.FT               800.0000: 
STOP.FT              3500.0000: 
STEP.FT                 0.1000: 
NULL.                -999.2500: 
COMP.          Pioneer Natural Resources: COMPANY
WELL.          Cordillera 34-7: WELL
FLD.           Purgatoire River: FIELD
LOC.           598' FSL & 1770' FEL--: LOCATION
PROV.                 Colorado: PROVINCE
CNTY.               Las Animas: COUNTRY
SRVC.                Patterson: SERVICE COMPANY
DATE.          Fri Oct 28 07:22:44 2005: LOG DATE
UWI.           05 071 08552 00: UNIQUE WELL ID
~Curve Information Block
DEPT.FT            0 000 00 00: Depth
DCAL.in                       : CDL Caliper
RHOB.g/cc                     : CDL Bulk Density
RHOC.g/cc                     : CDL Density Correction
DPOR.pu                       : CDL Density Porosity
NPOR.pu                       : Neutron Porosity
GR.GAPI                       : Gamma Ray
~Parameter Information Block
~A  Depth       DCAL        RHOB        RHOC        DPOR        NPOR         GR     
# ...
  1337.6000      8.1431      2.4120      0.0350     14.4242     13.0090     47.4050
  1337.7000      8.1431      2.4083      0.0062     14.6497     12.9431     48.9280
  1337.8000      8.1473      2.4065      0.0372     14.7591     13.1038     50.5137
  1337.9000      8.1473      2.4049      0.0283     14.8534     13.2567     50.1638
  1338.0000      8.1529      2.4110      0.0342     14.4860     13.2962     50.6293
  1338.1000      8.1529      2.4243      0.0369     13.6793     13.4838     53.0836
  1338.2000      8.1529      2.4377      0.0362     12.8684     13.9636     55.7797
  1338.3000      8.1574      2.4511      0.0643     12.0522     14.6637     57.5362
  1338.4000      8.1574      2.4604      0.0587     11.4933     15.6391     57.9899
  1338.5000      8.1591      2.4665      0.0188     11.1235     16.9856     58.9992
  1338.6000      8.1591      2.4812      0.0470     10.2322     18.5658     62.1570
  1338.7000      8.1591      2.5065      0.0282      8.6969     20.2306     65.8619
  1338.8000      8.1593      2.5292      0.1016      7.3208     22.1515     70.0389
  1338.9000      8.1593      2.5372      0.0648      6.8354     24.5043     75.6207
  1339.0000      8.1598      2.5423      0.0343      6.5266     26.7693     82.7656
  1339.1000      8.1598      2.5615      0.0467      5.3613     28.3351     94.2874
  1339.2000      8.1598      2.5897      0.0460      3.6568     29.3482    109.8951
  1339.3000      8.1625      2.6047      0.0893      2.7434     30.3288    123.1019
  1339.4000      8.1625      2.5944      0.0333      3.3724     31.2221    127.4443
  1339.5000      8.1668      2.5681     -0.0159      4.9630     31.3383    121.7313
  1339.6000      8.1668      2.5316      0.0029      7.1746     30.3336    113.3820
  1339.7000      8.1668      2.4731      0.0014     10.7199     28.5460    113.4548
  1339.8000      8.1692      2.3890     -0.0491     15.8187     26.4073    123.6656
  1339.9000      8.1692      2.2895     -0.0368     21.8495     24.2494    134.6594
  1340.0000      8.1691      2.1861     -0.0801     28.1155     22.2765    140.6882
  1340.1000      8.1691      2.0891     -0.1089     33.9936     20.6492    145.2003
  1340.2000      8.1691      1.9900     -0.0805     40.0026     19.4860    150.2030
  1340.3000      8.1695      1.8658     -0.0908     47.5255     19.0051    152.0293
  1340.4000      8.1695      1.7268     -0.1168     55.9527     19.4394    148.0793
  1340.5000      8.1959      1.6210     -0.1049     62.3661     20.3817    138.4399
  1340.6000      8.1959      1.5911      0.0119     64.1758     21.0923    127.7251
  1340.7000      8.1959      1.6518      0.1989     60.4943     21.7514    122.0841
  1340.8000      8.2970      1.7887      0.4960     52.1977     23.0028    121.3452
  1340.9000      8.2970      1.9717      0.6199     41.1090     24.5171    124.8544
  1341.0000      8.4158      2.1836      0.6374     28.2688     25.4043    132.7427
  1341.1000      8.4158      2.3995      0.7103     15.1814     25.4459    141.8770
  1341.2000      8.4158      2.5530      0.7414      5.8789     25.1486    148.2949
  1341.3000      8.4190      2.5817      0.7030      4.1378     25.1926    148.9382
  1341.4000      8.4190      2.4951      0.5644      9.3884     25.4688    144.8891
  1341.5000      8.3757      2.3638      0.4408     17.3442     25.1642    139.7330
  1341.6000      8.3757      2.2514      0.3174     24.1562     24.1904    134.3761
  1341.7000      8.3757      2.1755      0.2394     28.7581     23.2673    131.1656
  1341.8000      8.4042      2.1141      0.1904     32.4806     22.4875    132.2781
  1341.9000      8.4042      2.0249      0.1275     37.8876     21.6685    137.2021
  1342.0000      8.4627      1.8844      0.0388     46.4005     21.0604    145.4296
  1342.1000      8.4627      1.7405     -0.0112     55.1226     20.7080    150.7076
  1342.2000      8.4627      1.6887      0.1735     58.2621     20.7066    147.2680
  1342.3000      8.4429      1.7758      0.3913     52.9842     21.1103    140.2859
  1342.4000      8.4429      1.9654      0.5127     41.4899     21.7056    134.7777
  1342.5000      8.3413      2.1727      0.6578     28.9256     22.1601    132.6465
  1342.6000      8.3413      2.3097      0.7053     20.6249     22.2628    133.3184
  1342.7000      8.3413      2.3368      0.6855     18.9794     22.3151    133.9171
  1342.8000      8.2980      2.2780      0.6009     22.5457     22.7386    134.6658
  1342.9000      8.2980      2.1936      0.4372     27.6605     23.4254    137.9043
  1343.0000      8.4265      2.1413      0.3428     30.8324     24.1444    141.1708
  1343.1000      8.4265      2.1407      0.3297     30.8656     24.9157    141.3081
  1343.2000      8.4265      2.1696      0.3113     29.1134     25.6740    141.2232
  1343.3000      8.6696      2.1867      0.3634     28.0758     26.1786    143.4120
  1343.4000      8.6696      2.1638      0.3196     29.4641     26.0564    146.2988
  1343.5000      8.8626      2.1113      0.3335     32.6499     25.2096    148.6007
  1343.6000      8.8626      2.0676      0.4449     35.2943     24.2449    148.5942
  1343.7000      8.8626      2.0655      0.4458     35.4242     23.6870    144.6257
  1343.8000      8.9037      2.1032      0.4590     33.1421     23.7472    139.7358
  1343.9000      8.9037      2.1496      0.4842     30.3299     24.5710    139.0680
  1344.0000      8.8812      2.1796      0.5078     28.5119     25.7641    141.8572
  1344.1000      8.8812      2.1894      0.5255     27.9135     26.5271    143.7637
  1344.2000      8.8812      2.1866      0.5264     28.0863     26.6256    144.2809
  1344.3000      8.8476      2.1926      0.4731     27.7222     26.5117    143.0158
  1344.4000      8.8476      2.2368      0.4505     25.0412     26.6150    141.4219
  1344.5000      8.7943      2.3154      0.4626     20.2810     27.1194    141.3887
  1344.6000      8.7943      2.3941      0.4563     15.5100     27.7206    140.3062
  1344.7000      8.7943      2.4563      0.4743     11.7387     27.8213    136.6336
  1344.8000      8.7685      2.4995      0.5438      9.1240     27.4955    133.0992
  1344.9000      8.7685      2.5178      0.5089      8.0141     27.3358    130.8083
  1345.0000      8.7902      2.5172      0.4458      8.0471     27.5635    128.9888
  1345.1000      8.7902      2.5073      0.4162      8.6471     27.8393    128.5940
  1345.2000      8.7902      2.4790      0.3822     10.3648     27.7354    130.2871
  1345.3000      8.8159      2.4235      0.2230     13.7254     27.5503    132.5618
  1345.4000      8.8159      2.3586      0.1135     17.6613     27.6949    133.1059
  1345.5000      8.7866      2.3007      0.1583     21.1720     27.9820    132.2577
  1345.6000      8.7866      2.2437      0.2360     24.6258     27.8393    131.0835
  1345.7000      8.7866      2.1939      0.1914     27.6407     27.1172    128.8389
  1345.8000      8.6883      2.1862      0.1725     28.1118     26.4210    126.7002
  1345.9000      8.6883      2.2479      0.2522     24.3687     26.2067    124.2739
  1346.0000      8.5637      2.3684      0.3875     17.0692     26.3325    121.1408
  1346.1000      8.5637      2.5052      0.4613      8.7747     26.5332    121.1022
  1346.2000      8.5637      2.6128      0.4923      2.2532     26.8603    123.5779
  1346.3000      8.4015      2.6678      0.5030     -1.0774     27.1513    122.9144
  1346.4000      8.4015      2.6790      0.4355     -1.7563     26.9092    119.2064
  1346.5000      8.2354      2.6621      0.3856     -0.7344     26.1045    118.3224
  1346.6000      8.2354      2.6195      0.2908      1.8461     25.3641    121.1316
  1346.7000      8.2354      2.5669      0.1466      5.0392     24.9423    121.6973
  1346.8000      8.1510      2.5331      0.1023      7.0862     24.4696    116.2344
  1346.9000      8.1510      2.5234      0.1208      7.6743     23.9612    110.2180
  1347.0000      8.1342      2.5181      0.0795      7.9925     23.6169    108.7053
  1347.1000      8.1342      2.4999      0.0456      9.0944     23.3230    110.2350
