~Version Information
VERS.                      2.0: CWLS Log ASCII Standard - VERSION 2.0
WRAP.                       NO: One line per depth step
~Well Information Block
STRT.FT                -6.7500: 
STOP.FT              1466.2500: 
STEP.FT                 0.2500: 
NULL.                -999.2500: 
COMP.          Pioneer Natural Resources: COMPANY
WELL.          Pallet Ranch 34-15 Tr: WELL
FLD.           Purgatorie River: FIELD
LOC.           465' FSL & 2138' FEL--: LOCATION
PROV.                       CO: PROVINCE
CNTY.               Las Animas: COUNTRY
SRVC.          Patterson Wireline: SERVICE COMPANY
DATE.          Wed Jan 25 09:38:09 2006: LOG DATE
UWI.           05 071 08657 00: UNIQUE WELL ID
~Curve Information Block
DEPT.FT            0 000 00 00: Depth
CCL.                          : Casing Collar Locator
TT3.usec                      : CBL 3' Travel Time
AMP3.mV                       : CBL 3' Amplitude
GR.GAPI                       : Gamma Ray
~Parameter Information Block
~A  Depth       CCL         TT3         AMP3         GR     
# ...
   562.7500      0.0000    727.9472     10.2372     65.9952
   563.0000      0.0000    725.5306     10.1597     74.4985
   563.2500      0.0000    724.4576     10.0510     82.7138
   563.5000      0.0000    725.3581      9.9089     89.0835
   563.7500      0.0000    727.5778      9.7499     93.0298
   564.0000      0.0000    729.8205      9.5970     94.7268
   564.2500      0.0000    731.2556      9.4616     94.7917
   564.5000      0.0000    731.8577      9.3382     93.9761
   564.7500      0.0000    731.9926      9.2172     92.5061
   565.0000      0.0000    731.9869      9.1026     89.8150
   565.2500      0.0000    732.0023      9.0191     85.6484
   565.5000      0.0000    732.0744      9.0018     81.2516
   565.7500      0.0000    732.1816      9.0744     78.5107
   566.0000      0.0000    732.3152      9.2330     77.8946
   566.2500      0.0000    732.5654      9.4429     78.1817
   566.5000      0.0000    733.2475      9.6515     78.3845
   566.7500      0.0000    735.0056      9.8136     79.0116
   567.0000      0.0000    738.5833      9.9173     81.1074
   567.2500      0.0000    743.6732      9.9949     84.8159
   567.5000      0.0000    747.0059     10.1080     89.3407
   567.7500      0.0000    741.2513     10.3128     93.6909
   568.0000      0.0000    716.8212     10.6224     96.9396
   568.2500      0.0000    667.4482     10.9931     98.3223
   568.5000      0.0000    597.1556     11.3495     97.7717
   568.7500      0.0000    523.0978     11.6238     96.0958
   569.0000      0.0000    468.6638     11.7768     94.1425
   569.2500      0.0000    449.4524     11.7962     92.0191
   569.5000      0.0000    463.3213     11.6950     89.5578
   569.7500      0.0000    493.4988     11.5167     87.3746
   570.0000      0.0000    521.2081     11.3258     86.7344
   570.2500      0.0000    535.8254     11.1768     88.1251
   570.5000      0.0000    536.5232     11.0829     90.4655
   570.7500      0.0000    529.4191     11.0132     92.0789
   571.0000      0.0000    524.6148     10.9204     92.1576
   571.2500      0.0000    532.0008     10.7728     90.9585
   571.5000      0.0000    556.1343     10.5706     88.9201
   571.7500      0.0000    594.1828     10.3365     86.3019
   572.0000      0.0000    637.9168     10.0957     83.8041
   572.2500      0.0000    677.5136      9.8642     83.0270
   572.5000      0.0000    705.9529      9.6488     85.7086
   572.7500      0.0000    722.0136      9.4526     92.0297
   573.0000      0.0000    729.1077      9.2785     99.7747
   573.2500      0.0000    731.6359      9.1286    105.7271
   573.5000      0.0000    732.4650      9.0030    108.1821
   573.7500      0.0000    732.7672      8.9011    107.9310
   574.0000      0.0000    732.7962      8.8228    106.8999
   574.2500      0.0000    732.4263      8.7689    106.3665
   574.5000      0.0000    731.2928      8.7363    106.3916
   574.7500      0.0000    728.7258      8.7152    106.1227
   575.0000      0.0000    724.1022      8.6917    104.2296
   575.2500      0.0000    717.6744      8.6574     99.5179
   575.5000      0.0000    711.0179      8.6125     91.7946
   575.7500      0.0000    706.1531      8.5569     82.3759
   576.0000      0.0000    703.9951      8.4818     73.5015
   576.2500      0.0000    704.1141      8.3715     66.9510
   576.5000      0.0000    706.4704      8.2209     63.1483
   576.7500      0.0000    713.6946      8.0589     61.4947
   577.0000      0.0000    731.7404      7.9371     61.3329
   577.2500      0.0000    766.3279      7.8689     62.3690
   577.5000      0.0000    814.9373      7.7894     64.2897
   577.7500      0.0000    862.4802      7.6213     66.2590
   578.0000      0.0000    890.9671      7.3738     67.1212
   578.2500      0.0000    896.4238      7.1319     66.3555
   578.5000      0.0000    891.3663      6.9634     64.7494
   578.7500      2.0000    887.8441      6.8804     63.8669
   579.0000      0.0000    882.5206      6.8788     64.9541
   579.2500      0.0000    861.8928      6.9812     68.4248
   579.5000      0.0000    820.0597      7.2331     73.8193
   579.7500      0.0000    768.5938      7.6497     79.7053
   580.0000      0.0000    728.0559      8.1601     83.9973
   580.2500      0.0000    710.3747      8.6314     85.0868
   580.5000      0.0000    711.2070      8.9800     82.8191
   580.7500      0.0000    718.6077      9.2373     78.3448
   581.0000      0.0000    724.6928      9.4811     73.3003
   581.2500      0.0000    728.0416      9.7380     69.1438
   581.5000      0.0000    729.7560      9.9724     66.7221
   581.7500      0.0000    730.7005     10.1362     66.0793
   582.0000      0.0000    731.2771     10.2115     66.8260
   582.2500      0.0000    731.7180     10.2249     68.7333
   582.5000      0.0000    732.1052     10.2319     71.7191
   582.7500      0.0000    732.4120     10.2805     75.3036
   583.0000      0.0000    732.5652     10.3884     78.4538
   583.2500      0.0000    732.5343     10.5554     80.1267
   583.5000      0.0000    732.3643     10.7819     79.9168
   583.7500      0.0000    732.1493     11.0619     78.3045
   584.0000      0.0000    731.9794     11.3637     76.4847
   584.2500      0.0000    731.8987     11.6312     75.7526
   584.5000      0.0000    731.9264     11.8104     76.6836
   584.7500      0.0000    732.1088     11.8825     78.9015
   585.0000      0.0000    732.2815     11.8774     81.5615
   585.2500      0.0000    731.1082     11.8560     83.6552
   585.5000      0.0000    724.3724     11.8731     83.9346
   585.7500      0.0000    704.5313     11.9506     81.5220
   586.0000      0.0000    665.1373     12.0726     77.1502
   586.2500      0.0000    610.0846     12.1949     73.1902
   586.5000      0.0000    558.6664     12.2587     71.7878
   586.7500      0.0000    536.1400     12.2164     73.0502
   587.0000      0.0000    554.4948     12.0670     75.2183
   587.2500      0.0000    602.5325     11.8666     76.3255
   587.5000      0.0000    655.9307     11.6902     75.6584
   587.7500      0.0000    695.5051     11.5821     74.0365
   588.0000      0.0000    715.4841     11.5423     72.8256
   588.2500      0.0000    718.5311     11.5494     72.4196
   588.5000      0.0000    708.5120     11.5864     71.7576
   588.7500      0.0000    689.8830     11.6464     69.5660
   589.0000      0.0000    671.0686     11.7220     65.8797
   589.2500      0.0000    662.9731     11.7981     62.1657
   589.5000      0.0000    670.5720     11.8622     60.1650
   589.7500      0.0000    687.4270     11.9206     60.7118
   590.0000      0.0000    700.5991     11.9929     63.3462
   590.2500      0.0000    700.5535     12.0882     66.7271
   590.5000      0.0000    687.2856     12.1918     69.4286
   590.7500      0.0000    670.3411     12.2739     70.6664
   591.0000      0.0000    662.7073     12.3020     70.6759
   591.2500      0.0000    670.8747     12.2504     70.6180
   591.5000      0.0000    689.8860     12.1157     72.0572
   591.7500      0.0000    708.8650     11.9270     76.0774
   592.0000      0.0000    719.7865     11.7356     82.3942
   592.2500      0.0000    719.8172     11.5899     89.1971
   592.5000      0.0000    708.9509     11.5177     94.2544
   592.7500      0.0000    689.9968     11.5148     96.5442
   593.0000      0.0000    670.9629     11.5413     96.7870
   593.2500      0.0000    662.7821     11.5405     96.2648
   593.5000      0.0000    670.8239     11.4707     95.4074
   593.7500      0.0000    689.8395     11.3224     93.8736
   594.0000      0.0000    709.3175     11.1088     91.7493
   594.2500      0.0000    722.4790     10.8563     90.0570
   594.5000      0.0000    728.9717     10.6041     89.9452
   594.7500      0.0000    731.5568     10.4000     91.7281
   595.0000      0.0000    732.7598     10.2811     94.8561
   595.2500      0.0000    734.0211     10.2544     98.5301
   595.5000      0.0000    736.0270     10.2921    102.0389
   595.7500      0.0000    738.7658     10.3427    104.6816
   596.0000      0.0000    741.4149     10.3570    105.9061
