~Version Information
VERS.                      2.0: CWLS Log ASCII Standard - VERSION 2.0
WRAP.                       NO: One line per depth step
~Well Information Block
STRT.FT                 0.0000: 
STOP.FT              2062.2500: 
STEP.FT                 0.2500: 
NULL.                -999.2500: 
COMP.          Petrogulf Corporation: COMPANY
WELL.           Montoya 12-44R: WELL
FLD.           Purgatorie River: FIELD
LOC.           713' FSL & 798' FEL: LOCATION
PROV.                 Colorado: PROVINCE
CNTY.               Las Animas: COUNTRY
SRVC.                Patterson: SERVICE COMPANY
DATE.          Wed Nov 09 13:30:24 2005: LOG DATE
UWI.           05-071-08538               : UNIQUE WELL ID
~Curve Information Block
DEPT.FT            0 000 00 00: Depth
CCL.                          : Casing Collar Locator
TT3.usec                      : CBL 3' Travel Time
AMP3.mV                       : CBL 3' Amplitude
GR.GAPI                       : Gamma Ray
~Parameter Information Block
~A  Depth       CCL         TT3         AMP3         GR     
# ...
   670.0000      0.0000    258.6934     50.2491     49.0468
   670.2500      0.0000    258.7003     50.2427     53.2041
   670.5000      0.0000    258.7068     50.0770     56.9936
   670.7500      0.0000    258.7191     49.7686     58.7574
   671.0000      0.0000    258.7661     49.3154     58.1366
   671.2500      0.0000    258.8678     48.7592     56.0098
   671.5000      0.0000    259.0047     48.2160     53.8084
   671.7500      0.0000    259.1123     47.8699     52.9111
   672.0000      0.0000    259.1411     47.8329     54.1107
   672.2500      0.0000    259.1135     47.9930     57.1954
   672.5000      0.0000    259.0909     48.1047     61.1809
   672.7500      0.0000    259.1150     47.9644     65.1165
   673.0000      0.0000    259.2026     47.4637     68.5889
   673.2500      0.0000    259.3584     46.6286     71.5293
   673.5000      0.0000    259.5611     45.6500     73.8279
   673.7500      0.0000    259.7694     44.7637     75.2115
   674.0000      0.0000    259.9817     44.0789     75.4239
   674.2500      0.0000    260.3955     43.5512     74.5316
   674.5000      0.0000    261.7973     43.0756     73.0190
   674.7500      0.0000    265.8043     42.5203     71.3301
   675.0000      0.0000    273.5321     41.7350     69.2502
   675.2500      0.0000    283.2027     40.7145     66.1747
   675.5000      0.0000    290.9943     39.6898     62.2329
   675.7500      0.0000    294.9946     38.9346     58.7349
   676.0000      0.0000    296.2153     38.5506     57.1079
   676.2500      0.0000    296.3124     38.4369     57.5196
   676.5000      0.0000    296.1937     38.3918     58.8312
   676.7500      0.0000    296.1655     38.2514     59.8037
   677.0000      0.0000    296.2635     37.9964     60.0774
   677.2500      0.0000    296.3842     37.7317     59.9862
   677.5000      0.0000    296.3962     37.5368     59.8393
   677.7500      0.0000    296.2610     37.3944     59.6687
   678.0000      0.0000    296.0582     37.2614     59.4398
   678.2500      0.0000    295.9112     37.1046     59.1493
   678.5000      0.0000    295.8962     36.8682     58.6364
   678.7500      0.0000    296.0069     36.5052     57.4656
   679.0000      0.0000    296.1723     36.0850     55.2908
   679.2500      0.0000    296.3062     35.7838     52.4536
   679.5000      0.0000    296.3634     35.7355     49.9406
   679.7500      0.0000    296.3532     35.9260     48.5409
   680.0000      0.0000    296.3041     36.1673     48.2549
   680.2500      0.0000    296.2440     36.1806     48.6807
   680.5000      0.0000    296.2003     35.8311     49.6489
   680.7500      0.0000    296.1818     35.3054     51.1068
   681.0000      0.0000    296.1630     34.9951     52.5402
   681.2500      0.0000    296.1155     35.1949     52.9922
   681.5000      0.0000    296.0465     35.9005     51.9268
   681.7500      0.0000    295.9852     36.8416     49.9016
   682.0000      0.0000    295.9405     37.7027     48.1443
   682.2500      0.0000    295.8914     38.2911     47.4484
   682.5000      0.0000    295.8143     38.5513     47.6291
   682.7500      0.0000    295.7094     38.5420     48.0772
   683.0000      0.0000    295.5969     38.4089     48.5303
   683.2500      0.0000    295.5072     38.2937     49.0462
   683.5000      0.0000    295.4904     38.2050     49.5278
   683.7500      0.0000    295.6333     37.9818     49.7015
   684.0000      0.0000    296.1738     37.3189     49.4714
   684.2500      0.0000    297.8363     35.8232     49.0507
   684.5000      0.0000    301.9196     33.2753     48.8028
   684.7500      0.0000    309.0404     29.8958     48.9995
   685.0000      0.0000    317.3648     26.1708     49.5867
   685.2500      0.0000    323.6996     22.4884     50.2003
   685.5000      0.0000    326.7170     19.0610     50.5039
   685.7500      0.0000    327.4474     16.0345     50.4321
   686.0000      0.0000    327.2908     13.5334     50.1747
   686.2500      0.0000    326.9915     11.6078     50.1528
   686.5000      0.0000    326.7910     10.1933     50.8772
   686.7500      0.0000    326.6440      9.1731     52.4024
   687.0000      0.0000    326.3541      8.4267     53.9414
   687.2500      0.0000    325.8181      7.8360     54.4089
   687.5000      0.0000    325.1960      7.3451     53.4688
   687.7500      0.0000    324.7319      6.9726     51.8042
   688.0000      0.0000    324.4973      6.7168     50.2676
   688.2500      0.0000    324.4797      6.5335     49.0470
   688.5000      0.0000    324.7576      6.4257     47.8734
   688.7500      0.0000    325.3668      6.4660     46.7555
   689.0000      0.0000    326.1591      6.6915     46.0907
   689.2500      0.0000    326.9454      7.0481     46.0969
   689.5000      0.0000    327.6460      7.4804     46.4583
   689.7500      0.0000    328.3254      7.9943     46.6466
   690.0000      0.0000    329.3081      8.5559     46.4765
   690.2500      0.0000    332.0606      9.0429     46.2165
   690.5000      0.0000    341.2164      9.3635     46.1117
   690.7500      0.0000    364.2756      9.5089     45.9519
   691.0000      0.0000    403.7491      9.5207     45.3628
   691.2500      0.0000    448.7477      9.5077     44.4595
   691.5000      0.0000    482.1919      9.5795     43.9538
   691.7500      0.0000    496.4896      9.6840     44.5821
   692.0000      0.0000    496.5401      9.6660     46.5766
   692.2500      0.0000    495.6320      9.4919     49.6260
   692.5000      0.0000    510.1831      9.2677     53.1472
   692.7500      0.0000    545.3360      9.0938     56.6066
   693.0000      0.0000    589.8609      9.0006     59.7258
   693.2500      0.0000    628.0639      9.0142     62.5985
   693.5000      0.0000    648.6647      9.1956     65.7130
   693.7500      0.0000    651.7614      9.5640     69.5192
   694.0000      0.0000    646.6203     10.0988     73.6066
   694.2500      0.0000    637.5219     10.8305     76.5962
   694.5000      0.0000    619.9680     11.8070     77.4103
   694.7500      0.0000    586.7469     12.9957     76.6470
   695.0000      0.0000    532.1714     14.2503     76.4049
   695.2500      0.0000    463.6175     15.3297     78.6785
   695.5000      0.0000    406.5659     16.0348     83.9863
   695.7500      0.0000    378.6508     16.3865     91.4419
   696.0000      0.0000    372.5763     16.5675     99.7367
   696.2500      0.0000    373.6121     16.6917    107.6561
   696.5000      0.0000    375.2639     16.7463    113.9316
   696.7500      0.0000    378.3620     16.6813    117.5490
   697.0000      0.0000    389.0985     16.4398    118.6355
   697.2500      0.0000    416.5463     15.9696    118.5367
   697.5000      0.0000    457.5129     15.2751    118.5692
   697.7500      0.0000    489.5732     14.4788    118.8747
   698.0000      0.0000    505.8189     13.8134    118.6770
   698.2500      0.0000    530.5916     13.4762    117.4785
   698.5000      0.0000    565.7767     13.5222    115.7108
   698.7500      0.0000    572.4594     13.9274    113.9697
   699.0000      0.0000    527.5898     14.6389    111.9201
   699.2500      0.0000    453.6686     15.5029    108.5852
   699.5000      0.0000    389.3405     16.2584    103.8648
   699.7500      0.0000    353.2338     16.6940     99.2695
   700.0000      0.0000    339.8161     16.7838     96.8060
   700.2500      0.0000    338.4476     16.6317     97.2748
   700.5000      0.0000    347.4703     16.2779     99.7832
   700.7500      0.0000    374.5290     15.5885    102.6345
   701.0000      0.0000    422.1863     14.4849    104.3721
   701.2500      0.0000    471.6499     13.3221    104.3750
   701.5000      0.0000    501.6893     12.5861    103.1718
   701.7500      0.0000    521.0131     12.1321    102.0666
   702.0000      0.0000    544.7288     11.5195    101.7863
   702.2500      0.0000    562.0313     10.8576    101.6183
   702.5000      0.0000    563.5215     10.5102    100.4717
   702.7500      0.0000    558.6938     10.5471     98.4333
   703.0000      0.0000    552.5638     10.8013     96.6111
   703.2500      2.0000    544.5308     11.0240     95.8280
