~Version Information
VERS.                      2.0: CWLS Log ASCII Standard - VERSION 2.0
WRAP.                       NO: One line per depth step
~Well Information Block
STRT.FT               460.0000: 
STOP.FT              2311.7500: 
STEP.FT                 0.2500: 
NULL.                -999.2500: 
COMP.          Pioneer Natural Resources: COMPANY
WELL.          McDonald 33-31 R: WELL
FLD.           Purgatoire River: FIELD
LOC.           1386' FSL & 1926' FEL: LOCATION
STAT.                 Colorado: State
CNTY.               Las Animas: COUNTY
CTRY.                      USA: Country
SECT.                       31: Section
TOWN.                      32S: Township
RANG.                      66W: Range
SRVC.                Patterson: SERVICE COMPANY
DATE.          Fri Sep 23 00:08:18 2005: LOG DATE
API.           05 071 08533 00: API#
~Curve Information Block
DEPT.FT            0 000 00 00: Depth
SN.Ohm-m                      : IEL Short Normal
SP.mV                         : IEL Spontaneous Potential
DIR.Ohm-m                     : IEL Induction Resistivity
GR.GAPI                       : Gamma Ray
~Parameter Information Block
~A  Depth        SN          SP         DIR          GR     
# ...
  1900.5000      1.4631   -351.3159     17.9957     80.0678
  1900.7500      1.3208   -352.6298     17.8620     80.9031
  1901.0000      1.1973   -353.9440     17.7476     81.9831
  1901.2500      1.1041   -355.1735     17.6357     82.2002
  1901.5000      1.0437   -356.2599     17.5131     81.4230
  1901.7500      1.0091   -357.1796     17.3801     80.4238
  1902.0000      0.9906   -357.9398     17.2487     78.9431
  1902.2500      0.9838   -358.5670     17.1352     78.0865
  1902.5000      0.9941   -359.0925     17.0524     76.6239
  1902.7500      1.0329   -359.5404     17.0076     75.4703
  1903.0000      1.1077   -359.9216     17.0032     74.2605
  1903.2500      1.2125   -360.2346     17.0375     74.4445
  1903.5000      1.3253   -360.4719     17.1031     76.2993
  1903.7500      1.4209   -360.6306     17.1834     77.8198
  1904.0000      1.4865   -360.7209     17.2556     78.9073
  1904.2500      1.5267   -360.7696     17.2965     78.4198
  1904.5000      1.5536   -360.8179     17.2916     76.1594
  1904.7500      1.5757   -360.9140     17.2396     74.1402
  1905.0000      1.5944   -361.1023     17.1507     71.6659
  1905.2500      1.6081   -361.4131     17.0409     71.2193
  1905.5000      1.6167   -361.8560     16.9251     72.9136
  1905.7500      1.6234   -362.4167     16.8115     75.1860
  1906.0000      1.6334   -363.0571     16.7031     78.9724
  1906.2500      1.6505   -363.7218     16.6027     81.1066
  1906.5000      1.6760   -364.3451     16.5172     83.1278
  1906.7500      1.7067   -364.8606     16.4542     83.5637
  1907.0000      1.7316   -365.2136     16.4164     82.9609
  1907.2500      1.7311   -365.3709     16.3985     81.9467
  1907.5000      1.6842   -365.3280     16.3931     80.0167
  1907.7500      1.5844   -365.1096     16.3988     78.7176
  1908.0000      1.4503   -364.7641     16.4232     77.0911
  1908.2500      1.3158   -364.3518     16.4772     76.4558
  1908.5000      1.2074   -363.9312     16.5663     76.6326
  1908.7500      1.1303   -363.5466     16.6846     77.4706
  1909.0000      1.0763   -363.2219     16.8169     78.7346
  1909.2500      1.0377   -362.9611     16.9454     78.7535
  1909.5000      1.0113   -362.7545     17.0562     77.1807
  1909.7500      0.9954   -362.5900     17.1422     75.5970
  1910.0000      0.9867   -362.4616     17.2006     73.4730
  1910.2500      0.9811   -362.3737     17.2300     72.4636
  1910.5000      0.9769   -362.3394     17.2309     71.5497
  1910.7500      0.9763   -362.3727     17.2085     71.3300
  1911.0000      0.9830   -362.4807     17.1721     71.5022
  1911.2500      0.9970   -362.6581     17.1311     71.7501
  1911.5000      1.0124   -362.8865     17.0894     71.7858
  1911.7500      1.0193   -363.1392     17.0450     71.3864
  1912.0000      1.0074   -363.3890     16.9941     70.4442
  1912.2500      0.9687   -363.6163     16.9344     70.0770
  1912.5000      0.9031   -363.8126     16.8635     70.5259
  1912.7500      0.8229   -363.9811     16.7722     71.3336
  1913.0000      0.7490   -364.1323     16.6419     72.4210
  1913.2500      0.6973   -364.2786     16.4478     72.7525
  1913.5000      0.6711   -364.4287     16.1685     73.2162
  1913.7500      0.6644   -364.5829     15.7962     74.3316
  1914.0000      0.6693   -364.7320     15.3414     78.5963
  1914.2500      0.6810   -364.8586     14.8313     83.5095
  1914.5000      0.7003   -364.9398     14.3029     93.3995
  1914.7500      0.7334   -364.9517     13.7916    100.7948
  1915.0000      0.7844   -364.8726     13.3212    111.5151
  1915.2500      0.8463   -364.6866     12.9001    117.8691
  1915.5000      0.9055   -364.3849     12.5240    125.7248
  1915.7500      0.9594   -363.9677     12.1840    129.4504
  1916.0000      1.0239   -363.4452     11.8754    132.0561
  1916.2500      1.1160   -362.8396     11.6027    131.8954
  1916.5000      1.2361   -362.1835     11.3778    130.2091
  1916.7500      1.3715   -361.5176     11.2149    129.2029
  1917.0000      1.5119   -360.8845     11.1231    128.9582
  1917.2500      1.6500   -360.3212     11.1020    129.5304
  1917.5000      1.7720   -359.8533     11.1418    130.4253
  1917.7500      1.8569   -359.4926     11.2261    130.3568
  1918.0000      1.8877   -359.2387     11.3372    128.5363
  1918.2500      1.8634   -359.0840     11.4593    126.1190
  1918.5000      1.8001   -359.0181     11.5796    121.3234
  1918.7500      1.7179   -359.0291     11.6880    118.0773
  1919.0000      1.6246   -359.1017     11.7776    114.3533
  1919.2500      1.5195   -359.2125     11.8465    112.9022
  1919.5000      1.4161   -359.3288     11.8973    112.0158
  1919.7500      1.3444   -359.4104     11.9351    112.1628
  1920.0000      1.3182   -359.4180     11.9638    113.6702
  1920.2500      1.3127   -359.3242     11.9845    115.5093
  1920.5000      1.2886   -359.1235     11.9965    118.7782
  1920.7500      1.2352   -358.8369     11.9996    120.7866
  1921.0000      1.1767   -358.5091     11.9960    123.2955
  1921.2500      1.1392   -358.1983     11.9899    124.7756
  1921.5000      1.1259   -357.9617     11.9849    126.8543
  1921.7500      1.1229   -357.8419     11.9825    127.9845
  1922.0000      1.1189   -357.8576     11.9812    128.5564
  1922.2500      1.1124   -358.0024     11.9773    127.6740
  1922.5000      1.1050   -358.2491     11.9674    124.4059
  1922.7500      1.0950   -358.5609     11.9512    121.8412
  1923.0000      1.0775   -358.9016     11.9332    119.9859
  1923.2500      1.0505   -359.2456     11.9205    121.1015
  1923.5000      1.0189   -359.5801     11.9193    125.6191
  1923.7500      0.9929   -359.9025     11.9310    128.8255
  1924.0000      0.9798   -360.2119     11.9522    130.8457
  1924.2500      0.9780   -360.5005     11.9772    129.6711
  1924.5000      0.9780   -360.7468     12.0014    125.3432
  1924.7500      0.9706   -360.9153     12.0241    121.9261
  1925.0000      0.9541   -360.9611     12.0479    117.2758
  1925.2500      0.9353   -360.8405     12.0761    114.8505
  1925.5000      0.9239   -360.5229     12.1108    112.7888
  1925.7500      0.9275   -360.0013     12.1531    112.5296
  1926.0000      0.9483   -359.2985     12.2045    112.6923
  1926.2500      0.9841   -358.4682     12.2666    112.1213
  1926.5000      1.0299   -357.5886     12.3409    109.5251
  1926.7500      1.0822   -356.7502     12.4289    107.3269
  1927.0000      1.1423   -356.0387     12.5333    105.1944
  1927.2500      1.2160   -355.5176     12.6573    104.9315
  1927.5000      1.3088   -355.2132     12.8021    105.0168
  1927.7500      1.4203   -355.1074     12.9642    104.2230
  1928.0000      1.5422   -355.1414     13.1352    100.8231
  1928.2500      1.6586   -355.2302     13.3060     97.5898
  1928.5000      1.7472   -355.2845     13.4732     93.2695
  1928.7500      1.7856   -355.2349     13.6433     91.7850
  1929.0000      1.7617   -355.0497     13.8308     92.0812
  1929.2500      1.6833   -354.7426     14.0509     93.3191
  1929.5000      1.5783   -354.3668     14.3130     95.1111
  1929.7500      1.4828   -353.9987     14.6191     95.7315
  1930.0000      1.4235   -353.7153     14.9655     95.8289
  1930.2500      1.4071   -353.5741     15.3446     95.3885
  1930.5000      1.4232   -353.6007     15.7446     93.5405
  1930.7500      1.4557   -353.7879     16.1502     91.3356
  1931.0000      1.4916   -354.1041     16.5494     87.3063
  1931.2500      1.5240   -354.5078     16.9408     85.0675
  1931.5000      1.5485   -354.9610     17.3327     83.5287
  1931.7500      1.5614   -355.4374     17.7318     83.5829
  1932.0000      1.5594   -355.9229     18.1302     83.9278
  1932.2500      1.5407   -356.4102     18.5008     83.4822
  1932.5000      1.5074   -356.8928     18.8052     81.2788
  1932.7500      1.4667   -357.3596     19.0091     79.2377
  1933.0000      1.4296   -357.7953     19.0968     76.8461
  1933.2500      1.4073   -358.1831     19.0804     76.3640
  1933.5000      1.4058   -358.5096     18.9988     77.1587
  1933.7500      1.4235   -358.7682     18.9053     77.9874
