~Version Information
VERS.                      2.0: CWLS Log ASCII Standard - VERSION 2.0
WRAP.                       NO: One line per depth step
~Well Information Block
STRT.FT                 0.0000: 
STOP.FT              2062.2500: 
STEP.FT                 0.2500: 
NULL.                -999.2500: 
COMP.          Petrogulf Corporation: COMPANY
WELL.           Montoya 12-44R: WELL
FLD.           Purgatorie River: FIELD
LOC.           713' FSL & 798' FEL: LOCATION
PROV.                 Colorado: PROVINCE
CNTY.               Las Animas: COUNTRY
SRVC.                Patterson: SERVICE COMPANY
DATE.          Wed Nov 09 13:30:24 2005: LOG DATE
UWI.           05-071-08538               : UNIQUE WELL ID
~Curve Information Block
DEPT.FT            0 000 00 00: Depth
CCL.                          : Casing Collar Locator
TT3.usec                      : CBL 3' Travel Time
AMP3.mV                       : CBL 3' Amplitude
GR.GAPI                       : Gamma Ray
~Parameter Information Block
~A  Depth       CCL         TT3         AMP3         GR     
# ...
   268.0000      0.0000    290.5999     38.0816     92.9802
   268.2500      0.0000    282.7828     40.0933     98.5316
   268.5000      0.0000    273.1799     41.8229    100.8211
   268.7500      0.0000    265.5233     43.0738     99.7371
   269.0000      0.0000    261.6024     43.7089     96.8828
   269.2500      0.0000    260.3672     43.7504     94.5819
   269.5000      0.0000    260.2528     43.3681     94.3952
   269.7500      0.0000    260.6513     42.7789     96.3003
   270.0000      0.0000    262.0921     42.1281     99.0721
   270.2500      0.0000    266.0894     41.4677    101.3974
   270.5000      0.0000    273.6738     40.8003    102.8354
   270.7500      0.0000    283.0688     40.1255    103.8887
   271.0000      0.0000    290.5917     39.5208    105.2194
   271.2500      0.0000    294.4926     39.1027    106.8031
   271.5000      0.0000    295.8303     38.7960    107.7946
   271.7500      0.0000    296.2114     38.2585    107.2815
   272.0000      0.0000    296.4961     37.1551    105.2981
   272.2500      0.0000    296.9571     35.4621    103.0370
   272.5000      0.0000    297.5644     33.4698    101.8397
   272.7500      0.0000    298.1711     31.4825    102.0369
   273.0000      0.0000    298.8730     29.5423    102.9065
   273.2500      0.0000    300.4660     27.5319    103.6189
   273.5000      0.0000    304.4584     25.4759    103.9486
   273.7500      0.0000    311.7225     23.5709    104.0855
   274.0000      0.0000    320.5475     21.9353    104.1004
   274.2500      0.0000    327.5699     20.4735    103.8122
   274.5000      0.0000    331.1881     19.0391    103.0718
   274.7500      0.0000    332.3741     17.6488    102.0744
   275.0000      0.0000    332.8245     16.4397    101.5079
   275.2500      0.0000    334.2323     15.4599    102.2058
   275.5000      0.0000    338.7035     14.6103    104.2738
   275.7500      0.0000    347.4973     13.8000    106.5025
   276.0000      0.0000    358.5038     13.0824    106.8096
   276.2500      0.0000    367.4301     12.6170    103.5306
   276.5000      0.0000    372.3422     12.4936     96.7349
   276.7500      0.0000    374.9399     12.6253     88.5265
   277.0000      0.0000    378.5082     12.8752     81.8193
   277.2500      0.0000    385.7099     13.2041     78.6624
   277.5000      0.0000    394.3260     13.6299     79.5287
   277.7500      0.0000    395.1996     14.1427     83.4770
   278.0000      0.0000    382.7195     14.6809     88.5386
   278.2500      0.0000    365.0488     15.1435     92.5807
   278.5000      0.0000    353.3840     15.4975     94.6100
   278.7500      0.0000    347.8484     15.8604     95.4591
   279.0000      0.0000    342.8753     16.3622     97.0221
   279.2500      0.0000    337.5331     16.9594    100.5286
   279.5000      0.0000    333.9266     17.4657    105.4017
   279.7500      0.0000    332.4347     17.7454    109.6853
   280.0000      0.0000    332.1100     17.8303    111.2448
   280.2500      0.0000    332.2556     17.8375    108.6895
   280.5000      0.0000    332.5355     17.7983    102.1874
   280.7500      0.0000    332.7752     17.6620     94.0214
   281.0000      0.0000    332.9317     17.4625     87.6255
   281.2500      0.0000    333.0228     17.3228     85.1920
   281.5000      0.0000    333.1565     17.2867     86.1046
   281.7500      0.0000    334.0561     17.2980     87.7731
   282.0000      0.0000    338.1019     17.3165     87.7822
   282.2500      0.0000    348.7701     17.3319     85.3658
   282.5000      0.0000    365.4541     17.2963     81.4018
   282.7500      0.0000    382.6672     17.0764     77.4429
   283.0000      0.0000    405.0396     16.4625     74.6021
   283.2500      0.0000    449.7853     15.3704     72.8820
   283.5000      0.0000    514.9020     14.1125     71.2156
   283.7500      0.0000    565.9717     13.2682     68.1841
   284.0000      0.0000    574.1233     13.1712     63.1091
   284.2500      0.0000    554.3873     13.6228     56.9342
   284.5000      0.0000    548.3864     14.1600     52.0108
   284.7500      2.0000    566.9415     14.4991     50.4949
   285.0000      0.0000    576.3803     14.6473     52.6553
   285.2500      0.0000    546.5891     14.7113     56.9108
   285.5000      0.0000    485.9843     14.7471     61.4899
   285.7500      0.0000    430.7739     14.7319     65.7837
   286.0000      0.0000    409.6348     14.6197     70.2485
   286.2500      0.0000    414.9466     14.5333     75.6272
   286.5000      0.0000    413.9143     14.9294     82.2922
   286.7500      0.0000    390.6922     16.2071     89.7873
   287.0000      0.0000    360.7791     17.9928     96.7932
   287.2500      0.0000    341.8928     19.3651    101.7484
   287.5000      0.0000    334.7302     19.8524    103.6682
   287.7500      0.0000    332.6635     19.6861    102.6254
   288.0000      0.0000    331.8475     19.2750     99.8036
   288.2500      0.0000    331.3589     18.9006     97.0178
   288.5000      0.0000    331.1300     18.7582     95.7110
   288.7500      0.0000    331.1348     18.9382     96.1245
   289.0000      0.0000    331.2347     19.3717     97.3250
   289.2500      0.0000    331.2571     19.9291     97.9588
   289.5000      0.0000    331.1549     20.5536     97.1032
   289.7500      0.0000    330.9865     21.2324     94.6772
   290.0000      0.0000    330.7950     21.8659     91.3924
   290.2500      0.0000    330.5958     22.3010     88.6398
   290.5000      0.0000    330.3116     22.5381     88.0357
   290.7500      0.0000    329.3743     22.7437     90.1786
   291.0000      0.0000    326.4252     23.0327     93.6636
   291.2500      0.0000    320.4243     23.3787     95.9891
   291.5000      0.0000    312.6993     23.6786     95.7624
   291.7500      0.0000    306.3371     23.8368     93.6248
   292.0000      0.0000    302.9422     23.8747     90.9566
   292.2500      0.0000    301.7323     23.9521     88.3677
   292.5000      0.0000    301.3951     24.2134     85.8080
   292.7500      0.0000    301.2483     24.6651     83.5452
   293.0000      0.0000    301.0623     25.2661     82.3331
   293.2500      0.0000    300.7032     26.0750     82.7437
   293.5000      0.0000    300.1083     27.1921     84.7626
   293.7500      0.0000    299.3826     28.5713     87.9714
   294.0000      0.0000    298.6855     30.0156     91.8282
   294.2500      0.0000    298.0762     31.3567     95.7560
   294.5000      0.0000    297.5465     32.5724     99.1752
   294.7500      0.0000    297.1076     33.7089    101.6511
   295.0000      0.0000    296.8063     34.7296    103.2113
   295.2500      0.0000    296.6819     35.5037    104.5427
   295.5000      0.0000    296.7097     35.9230    106.3633
   295.7500      0.0000    296.8042     35.9765    108.1494
   296.0000      0.0000    296.8828     35.7269    108.0827
   296.2500      0.0000    296.9336     35.2468    105.0494
   296.5000      0.0000    297.0463     34.5571    100.2066
   296.7500      0.0000    297.3252     33.6552     95.8963
   297.0000      0.0000    297.7618     32.6399     93.6066
   297.2500      0.0000    298.2301     31.6952     93.5819
   297.5000      0.0000    298.5641     30.9115     95.6223
   297.7500      0.0000    298.6941     30.2142     99.3756
   298.0000      0.0000    298.7289     29.4824    104.0280
   298.2500      0.0000    298.8250     28.7221    108.2036
   298.5000      0.0000    299.0279     28.0735    110.4335
   298.7500      0.0000    299.2684     27.6388    109.9612
   299.0000      0.0000    299.4865     27.3904    107.3265
   299.2500      0.0000    299.7488     27.2365    104.0315
   299.5000      0.0000    300.1074     27.1136    101.3724
   299.7500      0.0000    300.3961     27.0455     99.4937
   300.0000      0.0000    300.4109     27.1169     97.5730
   300.2500      0.0000    300.1490     27.3641     94.9045
   300.5000      0.0000    299.7336     27.6908     91.8352
   300.7500      0.0000    299.3370     27.8815     89.6106
   301.0000      0.0000    299.1335     27.7621     89.1935
   301.2500      0.0000    299.1422     27.3829     90.3353
