~Version Information
VERS.                      2.0: CWLS Log ASCII Standard - VERSION 2.0
WRAP.                       NO: One line per depth step
~Well Information Block
STRT.FT               585.0000: 
STOP.FT              2277.5000: 
STEP.FT                 0.1000: 
NULL.                -999.2500: 
COMP.          Pioneer Natural Resources: COMPANY
WELL.          Interceptor 43-13 Tr: WELL
FLD.           Purgatoire River: FIELD
LOC.           2006' FSL & 438' FEL: LOCATION
PROV.                 Colorado: PROVINCE
CNTY.               Las Animas: COUNTRY
SRVC.                Patterson: SERVICE COMPANY
DATE.          Mon Oct 17 07:15:06 2005: LOG DATE
UWI.           05 071 08549 00: UNIQUE WELL ID
~Curve Information Block
DEPT.FT            0 000 00 00: Depth
DCAL.in                       : CDL Caliper
RHOB.g/cc                     : CDL Bulk Density
RHOC.g/cc                     : CDL Density Correction
DPOR.pu                       : CDL Density Porosity
GR.GAPI                       : Gamma Ray
NPOR.pu                       : Neutron Porosity
~Parameter Information Block
~A  Depth       DCAL        RHOB        RHOC        DPOR         GR         NPOR    
# ...
  1036.2000      8.1512      2.3416      0.0143     18.6925     57.1293     16.6105
  1036.3000      8.1398      2.3420      0.0243     18.6662     61.0721     16.5241
  1036.4000      8.1398      2.3426     -0.0002     18.6297     59.4269     16.2385
  1036.5000      8.1236      2.3444      0.0514     18.5219     57.4289     15.7095
  1036.6000      8.1236      2.3514      0.0895     18.0953     60.9818     15.3226
  1036.7000      8.1236      2.3564      0.0585     17.7969     67.0374     15.2980
  1036.8000      8.1024      2.3534      0.0528     17.9741     71.8878     15.5710
  1036.9000      8.1024      2.3501      0.0255     18.1744     74.3276     15.9199
  1037.0000      8.1046      2.3569      0.0383     17.7644     72.8277     16.1053
  1037.1000      8.1046      2.3708      0.0874     16.9196     66.9442     15.9402
  1037.2000      8.1046      2.3806      0.0612     16.3254     58.0526     15.5881
  1037.3000      8.1062      2.3881      0.0532     15.8743     51.2456     15.6441
  1037.4000      8.1062      2.3983      0.0786     15.2524     49.5145     16.0872
  1037.5000      8.0926      2.3993      0.1181     15.1938     49.9431     16.3177
  1037.6000      8.0926      2.3838      0.0301     16.1341     50.3139     16.2874
  1037.7000      8.0926      2.3652      0.0601     17.2593     51.3812     16.3229
  1037.8000      8.0826      2.3492      0.0348     18.2310     52.4085     16.4911
  1037.9000      8.0826      2.3283      0.0389     19.4970     50.3255     16.7057
  1038.0000      8.0850      2.3078     -0.0166     20.7367     47.9927     16.8800
  1038.1000      8.0850      2.3043     -0.0216     20.9514     51.7865     17.1082
  1038.2000      8.0850      2.3156      0.0135     20.2689     60.1004     17.2618
  1038.3000      8.0840      2.3249      0.0287     19.7045     65.9203     16.9882
  1038.4000      8.0840      2.3245      0.0454     19.7260     66.7008     16.7346
  1038.5000      8.0771      2.3219      0.0547     19.8866     64.4739     16.8911
  1038.6000      8.0771      2.3287      0.0594     19.4738     59.2825     16.9176
  1038.7000      8.0771      2.3449      0.0745     18.4908     52.1692     16.5058
  1038.8000      8.0550      2.3592      0.0952     17.6221     49.7583     16.2483
  1038.9000      8.0550      2.3676      0.0598     17.1122     55.7831     16.5836
  1039.0000      8.0350      2.3775      0.1149     16.5146     64.7011     17.1725
  1039.1000      8.0350      2.3909      0.1081     15.7030     68.8217     17.5740
  1039.2000      8.0350      2.4043      0.0967     14.8921     66.3526     18.0610
  1039.3000      8.0252      2.4138      0.0729     14.3177     60.8770     18.9981
  1039.4000      8.0252      2.4185      0.0602     14.0297     58.6363     19.9394
  1039.5000      8.0126      2.4203      0.1303     13.9230     61.2752     20.4561
  1039.6000      8.0126      2.4255      0.0782     13.6078     64.9305     20.8037
  1039.7000      8.0126      2.4466      0.1224     12.3280     68.5929     21.3396
  1039.8000      8.0072      2.4883      0.1239      9.7989     72.1757     22.0088
  1039.9000      8.0072      2.5354      0.1992      6.9432     73.9803     22.3690
  1040.0000      7.9927      2.5672      0.1871      5.0199     73.8893     22.4089
  1040.1000      7.9927      2.5894      0.1435      3.6756     70.5009     22.7230
  1040.2000      7.9927      2.6165      0.1754      2.0295     64.4573     23.5924
  1040.3000      7.9681      2.6437      0.1434      0.3824     63.1600     24.5835
  1040.4000      7.9681      2.6572      0.1703     -0.4378     68.7963     24.8337
  1040.5000      7.9654      2.6472      0.0908      0.1676     75.2741     24.3080
  1040.6000      7.9654      2.6191      0.1027      1.8748     77.6594     23.7532
  1040.7000      7.9654      2.5950      0.0516      3.3328     75.9120     23.3589
  1040.8000      7.9470      2.5934      0.0547      3.4326     75.4467     23.0857
  1040.9000      7.9470      2.6079      0.0676      2.5544     80.5910     23.0506
  1041.0000      7.8965      2.6280      0.0209      1.3306     88.8447     23.1219
  1041.1000      7.8965      2.6505      0.0941     -0.0290     94.5598     23.0464
  1041.2000      7.8965      2.6621      0.0863     -0.7335     94.5247     22.7066
  1041.3000      7.8653      2.6573      0.0492     -0.4446     91.7503     22.3934
  1041.4000      7.8653      2.6425      0.0920      0.4538     90.2602     22.5890
  1041.5000      7.9780      2.6179      0.0696      1.9458     90.8419     23.3149
  1041.6000      7.9780      2.5820      0.0409      4.1204     93.3628     24.3406
  1041.7000      7.9780      2.5418     -0.0270      6.5573     99.1197     25.2740
  1041.8000      8.0183      2.5119     -0.0183      8.3677    108.6382     25.6952
  1041.9000      8.0183      2.5034     -0.0131      8.8819    118.7335     25.8606
  1042.0000      8.0249      2.5130     -0.0165      8.3020    124.7764     25.9979
  1042.1000      8.0249      2.5273     -0.0021      7.4353    123.5585     25.7317
  1042.2000      8.0249      2.5375     -0.0186      6.8196    121.3736     25.2359
  1042.3000      8.0290      2.5412      0.0059      6.5918    124.6261     25.0784
  1042.4000      8.0290      2.5304      0.0510      7.2498    129.0152     25.4625
  1042.5000      8.0272      2.5060      0.0377      8.7261    131.8587     26.2699
  1042.6000      8.0272      2.4935     -0.0257      9.4858    134.4601     26.7748
  1042.7000      8.0272      2.5001      0.0577      9.0843    139.3774     26.4965
  1042.8000      8.0126      2.5043      0.0148      8.8275    147.4864     25.9270
  1042.9000      8.0126      2.5092     -0.0200      8.5315    154.3302     25.6485
  1043.0000      8.0287      2.5317      0.0389      7.1688    157.7194     25.9575
  1043.1000      8.0287      2.5607      0.0702      5.4140    160.1391     26.7024
  1043.2000      8.0287      2.5796      0.0324      4.2637    161.4028     27.3125
  1043.3000      8.0284      2.5927      0.0968      3.4740    158.0711     27.5718
  1043.4000      8.0284      2.6049      0.1224      2.7329    152.1852     27.7090
  1043.5000      7.9827      2.6088      0.1613      2.4941    150.1804     27.9251
  1043.6000      7.9827      2.6019      0.1085      2.9153    153.8202     28.2408
  1043.7000      7.9827      2.5978      0.0317      3.1614    158.4421     28.4281
  1043.8000      7.9853      2.6022      0.0625      2.8966    160.4897     28.2803
  1043.9000      7.9853      2.6039      0.0654      2.7966    159.0928     28.0251
  1044.0000      7.9839      2.6021      0.0487      2.9017    154.0353     27.8696
  1044.1000      7.9839      2.6068      0.0596      2.6162    145.0446     27.8319
  1044.2000      7.9839      2.6135      0.0138      2.2133    138.4935     27.8296
  1044.3000      7.9568      2.6108      0.0547      2.3732    140.6117     27.8158
  1044.4000      7.9568      2.6042      0.0190      2.7787    146.0811     27.8769
  1044.5000      7.9888      2.6042      0.0503      2.7747    149.1638     27.7923
  1044.6000      7.9888      2.6029      0.0779      2.8529    151.4686     27.2966
  1044.7000      7.9888      2.5851      0.0558      3.9357    156.9511     26.7283
  1044.8000      7.9745      2.5552     -0.0178      5.7441    163.6757     26.5517
  1044.9000      7.9745      2.5303     -0.0090      7.2545    164.7812     26.7615
  1045.0000      7.9750      2.5172     -0.0027      8.0500    160.5853     27.2116
  1045.1000      7.9750      2.5170     -0.0009      8.0624    155.7176     27.6048
  1045.2000      7.9750      2.5295      0.0285      7.3009    149.5256     27.8011
  1045.3000      7.9881      2.5468      0.0465      6.2551    143.3841     28.0623
  1045.4000      7.9881      2.5555      0.0984      5.7270    140.2954     28.6145
  1045.5000      7.9838      2.5480     -0.0023      6.1798    140.9434     29.2036
  1045.6000      7.9838      2.5358      0.0680      6.9186    145.5552     29.3662
  1045.7000      7.9838      2.5312      0.0889      7.1975    151.2815     29.4195
