~Version Information
VERS.                      2.0: CWLS Log ASCII Standard - VERSION 2.0
WRAP.                       NO: One line per depth step
~Well Information Block
STRT.FT               770.0000: 
STOP.FT              2171.0000: 
STEP.FT                 0.1000: 
NULL.                -999.2500: 
COMP.          Pioneer Natural Resources: COMPANY
WELL.              Kermit 32-7: WELL
FLD.           Purgatoire River: FIELD
LOC.           2002' FNL & 2103' FEL: LOCATION
PROV.                 Colorado: PROVINCE
CNTY.               Las Animas: COUNTRY
SRVC.                Patterson: SERVICE COMPANY
DATE.          Thu Jan 12 03:02:28 2006: LOG DATE
UWI.           05 071 08647 00: UNIQUE WELL ID
~Curve Information Block
DEPT.FT            0 000 00 00: Depth
DCAL.in                       : CDL Caliper
RHOB.g/cc                     : CDL Bulk Density
RHOC.g/cc                     : CDL Density Correction
DPOR.pu                       : CDL Density Porosity
GR.GAPI                       : Gamma Ray
NPOR.pu                       : Neutron Porosity
~Parameter Information Block
~A  Depth       DCAL        RHOB        RHOC        DPOR         GR         NPOR    
# ...
  2056.4000      7.7816      2.5386      0.0951      6.7543     65.0893     17.2121
  2056.5000      7.7890      2.5556      0.1033      5.7196     63.4756     17.4845
  2056.6000      7.7890      2.5508      0.0651      6.0143     62.3151     18.0521
  2056.7000      7.7890      2.5268      0.0296      7.4658     62.5016     19.3074
  2056.8000      7.8054      2.5001      0.0328      9.0862     62.9222     20.5547
  2056.9000      7.8054      2.4822      0.0337     10.1710     66.7424     20.9418
  2057.0000      7.8139      2.4753      0.0253     10.5860     72.5123     20.4661
  2057.1000      7.8139      2.4797      0.0448     10.3199     73.6799     19.9006
  2057.2000      7.8139      2.4880      0.0824      9.8177     73.5394     19.7223
  2057.3000      7.8188      2.4897      0.0333      9.7164     77.1534     19.2007
  2057.4000      7.8188      2.4885      0.0395      9.7880     80.0288     18.2032
  2057.5000      7.8079      2.4892      0.0800      9.7476     77.2952     17.6598
  2057.6000      7.8079      2.4817      0.0734     10.2028     72.7881     18.0235
  2057.7000      7.8079      2.4679      0.0241     11.0373     70.5101     18.9848
  2057.8000      7.8104      2.4704      0.0094     10.8844     68.9825     19.5343
  2057.9000      7.8104      2.4940      0.0704      9.4522     65.4213     19.3872
  2058.0000      7.8234      2.5176      0.0647      8.0248     60.6372     19.0423
  2058.1000      7.8234      2.5204      0.1250      7.8515     59.6521     19.0150
  2058.2000      7.8234      2.5027      0.0271      8.9266     62.9623     19.7863
  2058.3000      7.8125      2.4864      0.0369      9.9154     68.1176     21.0430
  2058.4000      7.8125      2.4871      0.0691      9.8743     74.4660     21.7741
  2058.5000      7.7934      2.5015      0.0495      9.0012     81.9851     21.4005
  2058.6000      7.7934      2.5204      0.1045      7.8563     90.1486     20.6819
  2058.7000      7.7934      2.5349      0.1142      6.9776     95.2684     20.4811
  2058.8000      7.7821      2.5412      0.1422      6.5918     93.9917     20.6543
  2058.9000      7.7821      2.5420      0.0993      6.5451     88.3523     20.8620
  2059.0000      7.7822      2.5436      0.0970      6.4466     83.8774     20.8225
  2059.1000      7.7822      2.5473      0.0994      6.2220     82.5372     20.1071
  2059.2000      7.7822      2.5421      0.0907      6.5366     80.3740     18.9888
  2059.3000      7.7833      2.5236      0.0877      7.6613     74.4514     18.1963
  2059.4000      7.7833      2.5081      0.0015      8.6030     67.6988     18.2532
  2059.5000      7.7884      2.5075      0.0312      8.6359     65.2461     19.0042
  2059.6000      7.7884      2.5104      0.0773      8.4618     66.7980     19.7282
  2059.7000      7.7884      2.5101      0.0328      8.4791     67.9275     20.3781
  2059.8000      7.7993      2.5148      0.0303      8.1934     65.7280     21.0792
  2059.9000      7.7993      2.5166      0.0848      8.0847     63.2267     21.4839
  2060.0000      7.7991      2.5030      0.0058      8.9092     64.8404     21.3206
  2060.1000      7.7991      2.4836      0.0569     10.0834     69.2548     20.4627
  2060.2000      7.7991      2.4735      0.0235     10.6973     73.8339     19.5133
  2060.3000      7.7977      2.4826      0.0033     10.1469     76.6892     19.2193
  2060.4000      7.7977      2.5031      0.0529      8.9057     77.1109     19.5366
  2060.5000      7.8042      2.5105      0.0666      8.4553     75.2543     19.8455
  2060.6000      7.8042      2.5018      0.0426      8.9810     71.8173     19.9818
  2060.7000      7.8042      2.4946      0.0402      9.4169     70.6970     20.2401
  2060.8000      7.8033      2.4923      0.0580      9.5546     71.9761     20.4920
  2060.9000      7.8033      2.4883      0.0139      9.7970     69.0238     20.2310
  2061.0000      7.8058      2.4851      0.0130      9.9945     64.1564     19.6637
  2061.1000      7.8058      2.4866      0.0411      9.9048     66.3821     19.5391
  2061.2000      7.8058      2.4924      0.0264      9.5527     72.1925     19.5233
  2061.3000      7.8048      2.5019      0.0513      8.9781     73.7074     19.0806
  2061.4000      7.8048      2.5181      0.0507      7.9956     71.1929     18.8539
  2061.5000      7.8153      2.5432      0.0700      6.4736     68.0248     19.1199
  2061.6000      7.8153      2.5638      0.1253      5.2216     67.9719     19.4114
  2061.7000      7.8153      2.5669      0.0986      5.0375     73.5968     19.5498
  2061.8000      7.8268      2.5631      0.0764      5.2673     78.6239     19.7566
  2061.9000      7.8268      2.5664      0.1077      5.0693     74.8192     19.9047
  2062.0000      7.8189      2.5761      0.1175      4.4790     68.5367     19.6325
  2062.1000      7.8189      2.5841      0.1119      3.9936     67.7983     19.3509
  2062.2000      7.8189      2.5767      0.1106      4.4430     69.1687     19.3987
  2062.3000      7.8169      2.5484      0.0870      6.1545     70.2556     19.9412
  2062.4000      7.8169      2.5195      0.0478      7.9103     71.7932     20.9703
  2062.5000      7.8193      2.5132      0.0390      8.2889     74.3125     21.6510
  2062.6000      7.8193      2.5255      0.0914      7.5433     78.1608     21.5033
  2062.7000      7.8193      2.5385      0.0782      6.7591     80.0487     20.8586
  2062.8000      7.8302      2.5455      0.0653      6.3320     77.0849     20.1820
  2062.9000      7.8302      2.5410      0.1038      6.6045     71.6270     20.1435
  2063.0000      7.8237      2.5229      0.0368      7.7045     66.2818     20.6643
  2063.1000      7.8237      2.5058      0.0659      8.7378     63.2108     20.9020
  2063.2000      7.8237      2.4929      0.0664      9.5202     65.2850     20.5802
  2063.3000      7.8277      2.4796     -0.0034     10.3268     70.7860     19.8028
  2063.4000      7.8277      2.4873     -0.0311      9.8605     72.6905     18.5203
  2063.5000      7.8231      2.5246      0.1200      7.5990     68.0425     17.4570
  2063.6000      7.8231      2.5623      0.0728      5.3126     63.0256     18.0152
  2063.7000      7.8231      2.5839      0.1181      4.0048     58.8598     20.2496
  2063.8000      7.8121      2.5970      0.0918      3.2101     53.0275     22.3014
  2063.9000      7.8121      2.6064      0.1121      2.6402     49.8555     22.5037
  2064.0000      7.8123      2.6068      0.1002      2.6202     53.0968     21.2761
  2064.1000      7.8123      2.5934      0.0944      3.4287     59.6600     20.0373
  2064.2000      7.8123      2.5708      0.0692      4.7976     66.4763     19.7784
  2064.3000      7.8192      2.5514      0.0706      5.9758     73.4117     20.4183
  2064.4000      7.8192      2.5407      0.0463      6.6235     77.1936     20.7779
  2064.5000      7.8244      2.5327      0.0665      7.1093     74.7179     20.6156
  2064.6000      7.8244      2.5238      0.0704      7.6468     71.9502     20.5914
  2064.7000      7.8244      2.5261      0.0006      7.5103     74.3796     20.5212
  2064.8000      7.8281      2.5449      0.0697      6.3690     76.4189     19.8954
  2064.9000      7.8281      2.5613      0.0854      5.3787     73.3458     19.0016
  2065.0000      7.8281      2.5599      0.1018      5.4583     67.6096     18.7863
  2065.1000      7.8281      2.5443      0.1050      6.4064     63.7652     19.4377
  2065.2000      7.8281      2.5246      0.0643      7.6021     62.1470     20.2306
  2065.3000      7.8209      2.5144      0.0469      8.2191     59.0582     20.6601
  2065.4000      7.8209      2.5246      0.0271      7.6016     55.8693     20.7603
  2065.5000      7.8147      2.5506      0.0721      6.0266     58.7097     20.3104
  2065.6000      7.8147      2.5732      0.0589      4.6518     64.7023     19.1111
  2065.7000      7.8147      2.5764      0.1447      4.4630     67.8284     17.9619
  2065.8000      7.8107      2.5594      0.1007      5.4906     70.0445     17.6993
  2065.9000      7.8107      2.5403      0.0660      6.6497     71.8263     18.3876
