~Version Information
VERS.                      2.0: CWLS Log ASCII Standard - VERSION 2.0
WRAP.                       NO: One line per depth step
~Well Information Block
STRT.FT               655.0000: 
STOP.FT              2623.7000: 
STEP.FT                 0.1000: 
NULL.                -999.2500: 
COMP.          Pioneer Natural Resources: COMPANY
WELL.             Aviator 12-4: WELL
FLD.           Purgatoire River: FIELD
LOC.           1969' FNL & 732' FWL--: LOCATION
CNTY.               Las Animas: COUNTY
SRVC.                Patterson: SERVICE COMPANY
DATE.          Mon Apr 10 07:35:20 2006: LOG DATE
UWI.           05 071 08714 00: UNIQUE WELL ID
STAT.                 Colorado: STATE
~Curve Information Block
DEPT.FT            0 000 00 00: Depth
DCAL.in                       : CDL Caliper
RHOB.g/cc                     : CDL Bulk Density
RHOC.g/cc                     : CDL Density Correction
DPOR.pu                       : CDL Density Porosity
NPOR.pu                       : Neutron Porosity
GR.GAPI                       : Gamma Ray
~Parameter Information Block
~A  Depth       DCAL        RHOB        RHOC        DPOR        NPOR         GR     
# ...
  2075.8000      7.9758      2.6201      0.1273      1.8136     21.7454     46.3564
  2075.9000      7.9758      2.6056      0.1109      2.6894     21.7882     44.8495
  2076.0000      7.9782      2.5856      0.0909      3.9034     21.7094     44.4874
  2076.1000      7.9782      2.5679      0.0658      4.9750     22.0307     45.5350
  2076.2000      7.9782      2.5581      0.0503      5.5696     22.8371     46.8105
  2076.3000      7.9818      2.5556      0.0614      5.7222     23.2270     45.2135
  2076.4000      7.9818      2.5576      0.0441      5.5988     23.0462     41.7844
  2076.5000      7.9843      2.5682      0.0514      4.9573     23.2313     39.6053
  2076.6000      7.9843      2.5900      0.0952      3.6387     23.9222     39.3151
  2076.7000      7.9843      2.6089      0.1155      2.4919     24.3891     39.9476
  2076.8000      7.9876      2.6084      0.0751      2.5228     24.1958     41.5095
  2076.9000      7.9876      2.5974      0.0763      3.1866     23.6896     43.3898
  2077.0000      7.9917      2.5910      0.1125      3.5759     23.3121     42.4492
  2077.1000      7.9917      2.5883      0.0639      3.7408     23.0757     39.0679
  2077.2000      7.9917      2.5864      0.0836      3.8515     22.8067     36.7644
  2077.3000      7.9931      2.5842      0.0807      3.9891     22.4835     35.7186
  2077.4000      7.9931      2.5879      0.0487      3.7642     22.4311     34.2729
  2077.5000      7.9929      2.6078      0.0424      2.5550     22.6389     32.1681
  2077.6000      7.9929      2.6328      0.1083      1.0417     22.6740     31.9654
  2077.7000      7.9929      2.6398      0.0887      0.6156     22.5758     36.6172
  2077.8000      7.9894      2.6252      0.0716      1.5001     22.5842     44.9033
  2077.9000      7.9894      2.6033      0.0668      2.8286     22.3985     50.8391
  2078.0000      7.9791      2.5930      0.0349      3.4530     21.9672     49.6423
  2078.1000      7.9791      2.5977      0.0568      3.1693     21.6637     43.4074
  2078.2000      7.9791      2.6000      0.0649      3.0311     21.7836     39.1209
  2078.3000      7.9662      2.5933      0.0306      3.4337     22.2150     39.7205
  2078.4000      7.9662      2.5892      0.0697      3.6851     22.4436     42.6472
  2078.5000      7.9596      2.5908      0.0657      3.5903     22.4512     44.7855
  2078.6000      7.9596      2.5935      0.0568      3.4271     22.5332     43.1034
  2078.7000      7.9596      2.6003      0.0110      3.0111     22.7424     37.6853
  2078.8000      7.9574      2.6193      0.0618      1.8601     22.8451     33.7498
  2078.9000      7.9574      2.6399      0.0935      0.6151     22.8533     35.7305
  2079.0000      7.9544      2.6472      0.0578      0.1722     22.8600     40.2772
  2079.1000      7.9544      2.6481      0.0566      0.1161     22.6816     43.2521
  2079.2000      7.9544      2.6439      0.0927      0.3680     22.4045     44.9828
  2079.3000      7.9475      2.6300      0.0352      1.2103     22.0433     45.7304
  2079.4000      7.9475      2.6216      0.0620      1.7192     21.5599     45.5221
  2079.5000      7.9377      2.6280      0.1112      1.3349     21.3867     43.1708
  2079.6000      7.9377      2.6341      0.0899      0.9628     21.8280     38.3560
  2079.7000      7.9377      2.6325      0.0404      1.0585     22.6035     35.0124
  2079.8000      7.9318      2.6308      0.0831      1.1637     23.1128     36.3157
  2079.9000      7.9318      2.6311      0.0671      1.1476     23.1922     40.0479
  2080.0000      7.9305      2.6323      0.0780      1.0720     23.1986     41.5292
  2080.1000      7.9305      2.6313      0.0467      1.1333     23.1591     40.1978
  2080.2000      7.9305      2.6264      0.0583      1.4324     22.9016     39.1386
  2080.3000      7.9306      2.6170      0.0463      2.0014     22.4862     39.2620
  2080.4000      7.9306      2.6012      0.0885      2.9552     22.0747     38.3122
  2080.5000      7.9314      2.5866      0.0593      3.8443     21.7974     36.9966
  2080.6000      7.9314      2.5865      0.0381      3.8462     21.7428     39.3401
  2080.7000      7.9314      2.5957      0.0657      3.2923     22.0317     44.9690
  2080.8000      7.9349      2.5955      0.0604      3.3039     22.6104     47.4745
  2080.9000      7.9349      2.5830      0.0312      4.0617     23.1669     43.9686
  2081.0000      7.9448      2.5663      0.0291      5.0729     23.4364     39.2449
  2081.1000      7.9448      2.5530     -0.0096      5.8787     23.3162     37.2716
  2081.2000      7.9448      2.5522      0.0108      5.9262     22.9576     37.9118
  2081.3000      7.9645      2.5649      0.0303      5.1575     22.6951     39.0588
  2081.4000      7.9645      2.5807      0.0163      4.1988     22.5980     38.9979
  2081.5000      7.9830      2.5842      0.0554      3.9862     22.6602     37.5991
  2081.6000      7.9830      2.5681      0.0380      4.9666     22.9263     35.9619
  2081.7000      7.9830      2.5447     -0.0032      6.3844     23.1281     35.9511
  2081.8000      7.9901      2.5352     -0.0391      6.9580     23.0418     38.1749
  2081.9000      7.9901      2.5567     -0.0111      5.6574     22.7762     40.8649
  2082.0000      7.9903      2.6128      0.0183      2.2575     22.2917     42.6301
  2082.1000      7.9903      2.6776      0.0896     -1.6725     21.4236     44.0213
  2082.2000      7.9903      2.7071      0.1608     -3.4618     20.4075     46.2466
  2082.3000      7.9891      2.6892      0.0600     -2.3735     19.9455     47.9860
  2082.4000      7.9891      2.6566      0.0511     -0.4020     20.3355     47.7092
  2082.5000      7.9889      2.6404      0.0686      0.5791     21.0292     46.7147
  2082.6000      7.9889      2.6396      0.0960      0.6275     21.2259     47.7036
  2082.7000      7.9889      2.6400      0.0746      0.6032     20.6960     50.2016
  2082.8000      7.9898      2.6344      0.0513      0.9464     19.9656     50.0982
  2082.9000      7.9898      2.6227      0.0466      1.6526     19.8973     48.7931
  2083.0000      7.9901      2.6187      0.0204      1.8999     20.7069     50.3176
  2083.1000      7.9901      2.6384      0.0101      0.7043     21.4728     53.0461
  2083.2000      7.9901      2.6703      0.0778     -1.2292     21.6171     53.6729
  2083.3000      7.9897      2.6831      0.0908     -2.0068     21.7298     52.5326
  2083.4000      7.9897      2.6671      0.0617     -1.0392     22.2951     50.8147
  2083.5000      7.9895      2.6437     -0.0046      0.3845     22.8307     48.3053
  2083.6000      7.9895      2.6355      0.0042      0.8818     22.6134     45.3064
  2083.7000      7.9895      2.6417      0.0368      0.5037     21.9382     42.4200
  2083.8000      7.9877      2.6516      0.0663     -0.0978     21.3438     39.3966
  2083.9000      7.9877      2.6612      0.0683     -0.6766     20.9275     36.8218
  2084.0000      7.9850      2.6743      0.0142     -1.4710     20.7143     35.9473
  2084.1000      7.9850      2.6920      0.0301     -2.5473     20.5766     37.1276
  2084.2000      7.9850      2.6940      0.1208     -2.6668     20.5081     41.6779
  2084.3000      7.9842      2.6659      0.0531     -0.9621     20.7614     48.7257
  2084.4000      7.9842      2.6301      0.0041      1.2077     21.3394     52.4780
  2084.5000      7.9844      2.6133      0.0376      2.2226     21.8760     49.1141
  2084.6000      7.9844      2.6160     -0.0003      2.0586     22.1634     42.4225
  2084.7000      7.9844      2.6228      0.0380      1.6485     22.2764     39.2810
  2084.8000      7.9863      2.6213      0.0184      1.7390     22.4692     42.7205
  2084.9000      7.9863      2.6140      0.0168      2.1789     22.9699     49.1725
  2085.0000      7.9856      2.6067      0.0445      2.6244     23.5735     52.1562
  2085.1000      7.9856      2.5980      0.0385      3.1492     23.7255     49.6546
  2085.2000      7.9856      2.5845      0.0488      3.9721     23.3111     45.1498
  2085.3000      7.9813      2.5704     -0.0125      4.8226     22.9515     42.6646
