~Version Information
VERS.                      2.0: CWLS Log ASCII Standard - VERSION 2.0
WRAP.                       NO: One line per depth step
~Well Information Block
STRT.FT               525.0000: 
STOP.FT              2377.2000: 
STEP.FT                 0.1000: 
NULL.                -999.2500: 
COMP.          Pioneer Natural Resources: COMPANY
WELL.          Sparrowhawk 22-12: WELL
FLD.           Purgatoire River: FIELD
LOC.           2049' FNL & 2060' FWL--: LOCATION
CNTY.               Las Animas: COUNTY
SRVC.                Patterson: SERVICE COMPANY
DATE.          Thu Mar 23 13:24:48 2006: LOG DATE
UWI.           05 071 08484 00: UNIQUE WELL ID
STAT.                 Colorado: STATE
~Curve Information Block
DEPT.FT            0 000 00 00: Depth
DCAL.in                       : CDL Caliper
RHOB.g/cc                     : CDL Bulk Density
RHOC.g/cc                     : CDL Density Correction
DPOR.pu                       : CDL Density Porosity
NPOR.pu                       : Neutron Porosity
GR.GAPI                       : Gamma Ray
~Parameter Information Block
~A  Depth       DCAL        RHOB        RHOC        DPOR        NPOR         GR     
# ...
  1379.4000      8.0049      2.6313      0.0489      1.1319     22.5266     85.3889
  1379.5000      8.0176      2.6286      0.0462      1.2984     23.1571     83.3994
  1379.6000      8.0176      2.6246      0.0621      1.5419     23.3885     85.8691
  1379.7000      8.0176      2.6197      0.0220      1.8336     23.4708     90.6780
  1379.8000      8.0511      2.6260      0.0457      1.4559     23.4363     94.1077
  1379.9000      8.0511      2.6329      0.0726      1.0345     23.1780     94.1097
  1380.0000      8.0966      2.6196      0.0520      1.8407     22.8411     90.2951
  1380.1000      8.0966      2.5934     -0.0005      3.4321     22.8271     85.4687
  1380.2000      8.0966      2.5740      0.0089      4.6066     23.0945     81.1290
  1380.3000      8.1299      2.5662     -0.0005      5.0782     23.3604     79.8533
  1380.4000      8.1299      2.5680      0.0433      4.9726     23.7353     86.3453
  1380.5000      8.1356      2.5782      0.0264      4.3540     24.3907     99.8508
  1380.6000      8.1356      2.5891      0.0773      3.6922     25.0556    111.3714
  1380.7000      8.1356      2.5869      0.0622      3.8237     25.3255    112.6377
  1380.8000      8.1210      2.5690      0.0342      4.9076     25.1508    106.9593
  1380.9000      8.1210      2.5442      0.0089      6.4142     24.9381    102.3887
  1381.0000      8.1038      2.5187      0.0227      7.9589     25.2335    103.4662
  1381.1000      8.1038      2.5023     -0.0217      8.9536     25.9171    109.4377
  1381.2000      8.1038      2.5041      0.0255      8.8397     26.4403    112.8991
  1381.3000      8.0841      2.5171      0.0269      8.0537     26.6407    110.3576
  1381.4000      8.0841      2.5281      0.0276      7.3884     26.6860    110.4465
  1381.5000      8.0576      2.5298      0.0446      7.2865     26.6305    116.8323
  1381.6000      8.0576      2.5237      0.0402      7.6534     26.5820    120.5261
  1381.7000      8.0576      2.5230      0.0696      7.6974     26.8252    117.9164
  1381.8000      8.0399      2.5383      0.0446      6.7668     27.3034    114.2859
  1381.9000      8.0399      2.5675      0.1040      4.9999     27.6796    113.8156
  1382.0000      8.0413      2.5971      0.0964      3.2061     27.7545    118.1191
  1382.1000      8.0413      2.6163      0.1093      2.0397     27.6720    125.2096
  1382.2000      8.0413      2.6263      0.0649      1.4388     27.5099    128.6635
  1382.3000      8.0482      2.6289      0.1213      1.2784     27.2636    128.5000
  1382.4000      8.0482      2.6173      0.1079      1.9799     27.0738    130.8131
  1382.5000      8.0561      2.5963      0.0539      3.2526     26.7184    134.4043
  1382.6000      8.0561      2.5834      0.0486      4.0386     26.0202    135.0502
  1382.7000      8.0561      2.5752      0.0953      4.5317     25.2493    131.4507
  1382.8000      8.0672      2.5595      0.0174      5.4876     24.7215    122.9882
  1382.9000      8.0672      2.5496      0.0348      6.0876     24.4175    115.2992
  1383.0000      8.0793      2.5585      0.0490      5.5452     23.8979    112.3149
  1383.1000      8.0793      2.5732      0.1107      4.6543     23.1694    109.2840
  1383.2000      8.0793      2.5832      0.0432      4.0500     22.8854    105.1677
  1383.3000      8.0901      2.5925      0.0667      3.4852     23.0349    101.9815
  1383.4000      8.0901      2.5983      0.0423      3.1343     22.8818     96.6953
  1383.5000      8.0939      2.5958      0.0459      3.2834     22.4183     88.5408
  1383.6000      8.0939      2.5834      0.0713      4.0369     22.3413     80.8824
  1383.7000      8.0939      2.5675      0.0228      4.9980     22.8965     77.6141
  1383.8000      8.0875      2.5688      0.0521      4.9232     23.8121     81.0127
  1383.9000      8.0875      2.5910      0.0440      3.5747     24.7226     87.2937
  1384.0000      8.0760      2.6076      0.0944      2.5717     25.2774     88.7272
  1384.1000      8.0760      2.5930      0.0777      3.4528     25.4121     86.0335
  1384.2000      8.0760      2.5569      0.0671      5.6424     25.3698     86.7063
  1384.3000      8.0716      2.5264     -0.0034      7.4899     25.5369     90.7996
  1384.4000      8.0716      2.5053      0.0430      8.7706     26.1720     96.3051
  1384.5000      8.0735      2.4817      0.0220     10.1983     27.1184    103.2286
  1384.6000      8.0735      2.4664     -0.0284     11.1244     28.0881    109.5851
  1384.7000      8.0735      2.4722      0.0224     10.7737     28.7307    115.4134
  1384.8000      8.0805      2.4903      0.0466      9.6775     28.8625    123.2977
  1384.9000      8.0805      2.5117      0.0313      8.3830     28.9448    131.1514
  1385.0000      8.1051      2.5249      0.0416      7.5844     29.3882    134.0420
  1385.1000      8.1051      2.5087      0.0569      8.5658     30.0037    135.8847
  1385.2000      8.1051      2.4585      0.0647     11.6053     30.2914    142.2802
  1385.3000      8.1469      2.3881      0.0218     15.8705     30.2768    147.9365
  1385.4000      8.1469      2.3064     -0.0108     20.8261     30.7337    145.2711
  1385.5000      8.1781      2.2080     -0.0229     26.7902     31.8587    136.3757
  1385.6000      8.1781      2.0889     -0.0315     34.0061     33.0063    128.7491
  1385.7000      8.1781      1.9660     -0.0701     41.4530     33.7216    125.7918
  1385.8000      8.1931      1.8644     -0.1279     47.6116     33.9851    125.1468
  1385.9000      8.1931      1.7835     -0.1302     52.5149     33.7863    121.6266
  1386.0000      8.2048      1.7045     -0.1233     57.3008     33.2628    115.4338
  1386.1000      8.2048      1.6396     -0.1397     61.2353     32.8420    110.7833
  1386.2000      8.2048      1.6331     -0.0812     61.6316     32.7111    107.1527
  1386.3000      8.2213      1.6970      0.0992     57.7580     32.7143    104.8271
  1386.4000      8.2213      1.7951      0.1724     51.8128     32.6019    106.2641
  1386.5000      8.2228      1.8875      0.1976     46.2118     32.4968    111.0351
  1386.6000      8.2228      1.9578      0.1783     41.9487     32.6123    113.5855
  1386.7000      8.2228      2.0125      0.1367     38.6335     32.7691    107.2758
  1386.8000      8.1989      2.0554      0.1457     36.0344     32.9071     96.0433
  1386.9000      8.1989      2.0776      0.1090     34.6920     33.0703     89.9857
  1387.0000      8.1993      2.0793      0.1528     34.5904     33.0841     91.8988
  1387.1000      8.1993      2.0784      0.1047     34.6436     33.0069     96.6705
  1387.2000      8.1993      2.0873      0.1135     34.1018     32.9912     99.7756
  1387.3000      8.2641      2.0879      0.1094     34.0691     32.9462    100.9839
  1387.4000      8.2641      2.0611      0.0092     35.6921     33.0604    101.0625
  1387.5000      8.3612      2.0132     -0.0013     38.5933     33.3495    101.1870
  1387.6000      8.3612      1.9551      0.0133     42.1160     33.3014    103.6584
  1387.7000      8.3612      1.8912     -0.0033     45.9882     32.9314    105.6050
  1387.8000      8.4170      1.8215     -0.0150     50.2145     32.8335    103.3519
  1387.9000      8.4170      1.7475     -0.0058     54.6952     33.2726     97.0628
  1388.0000      8.4333      1.6816     -0.0332     58.6904     33.9578     86.6785
  1388.1000      8.4333      1.6276     -0.0015     61.9662     34.4612     75.4222
  1388.2000      8.4333      1.5643     -0.0483     65.8030     34.8184     68.1765
  1388.3000      8.4533      1.4815     -0.1370     70.8183     35.2528     64.0336
  1388.4000      8.4533      1.4019     -0.1514     75.6451     35.4379     59.5965
  1388.5000      8.4919      1.3439     -0.1191     79.1549     35.1355     54.9085
  1388.6000      8.4919      1.3021     -0.0597     81.6933     34.7669     50.3799
  1388.7000      8.4919      1.2742     -0.0766     83.3833     34.7228     46.2990
  1388.8000      8.5872      1.2713      0.0062     83.5584     34.9355     45.0902
  1388.9000      8.5872      1.2875      0.0800     82.5771     34.9662     47.5970
