~Version Information
VERS.                      2.0: CWLS Log ASCII Standard - VERSION 2.0
WRAP.                       NO: One line per depth step
~Well Information Block
STRT.FT                -8.5000: 
STOP.FT              2823.2500: 
STEP.FT                 0.2500: 
NULL.                -999.2500: 
COMP.          Pioneer Natural Resources: COMPANY
WELL.                AMX 13-13: WELL
FLD.           Purgatorie River: FIELD
LOC.           2316' FSL & 865' FWL--: LOCATION
PROV.                       CO: PROVINCE
CNTY.               Las Animas: COUNTRY
SRVC.          Patterson Wireline: SERVICE COMPANY
DATE.          Tue Dec 27 10:40:58 2005: LOG DATE
UWI.           05 071 08630 00: UNIQUE WELL ID
~Curve Information Block
DEPT.FT            0 000 00 00: Depth
CCL.                          : Casing Collar Locator
TT3.usec                      : CBL 3' Travel Time
AMP3.mV                       : CBL 3' Amplitude
GR.GAPI                       : Gamma Ray
~Parameter Information Block
~A  Depth       CCL         TT3         AMP3         GR     
# ...
  1130.5000      0.0000    742.1010      7.4825    136.8862
  1130.7500      0.0000    733.5611      7.4864    131.5881
  1131.0000      0.0000    726.6233      7.4677    128.5231
  1131.2500      0.0000    723.8679      7.4348    129.0414
  1131.5000      0.0000    725.2466      7.4007    133.0430
  1131.7500      0.0000    728.6097      7.3663    138.4216
  1132.0000      0.0000    731.8541      7.3185    142.5109
  1132.2500      0.0000    733.4862      7.2464    144.0427
  1132.5000      0.0000    732.1732      7.1570    143.6359
  1132.7500      0.0000    727.7010      7.0754    142.7980
  1133.0000      0.0000    722.1593      7.0295    142.5457
  1133.2500      0.0000    718.5950      7.0327    142.7653
  1133.5000      0.0000    718.4306      7.0807    142.9833
  1133.7500      0.0000    721.0259      7.1642    143.6113
  1134.0000      0.0000    725.2669      7.2849    145.6469
  1134.2500      0.0000    730.3298      7.4566    148.8596
  1134.5000      0.0000    735.0492      7.6906    151.2183
  1134.7500      0.0000    738.0420      7.9790    150.8938
  1135.0000      0.0000    739.2372      8.2962    148.2336
  1135.2500      0.0000    740.4317      8.6175    144.9914
  1135.5000      0.0000    743.3986      8.9395    142.1934
  1135.7500      0.0000    747.9280      9.2806    139.8736
  1136.0000      0.0000    752.2846      9.6640    138.5198
  1136.2500      0.0000    754.9512     10.0949    139.1461
  1136.5000      0.0000    755.2645     10.5415    141.4859
  1136.7500      0.0000    752.8976     10.9280    143.4803
  1137.0000      0.0000    747.7007     11.1494    143.4653
  1137.2500      0.0000    740.1516     11.1049    142.0767
  1137.5000      0.0000    731.3907     10.7319    140.9362
  1137.7500      0.0000    722.7444     10.0365    139.8373
  1138.0000      0.0000    715.8746      9.1173    136.3390
  1138.2500      0.0000    713.2576      8.1458    128.3519
  1138.5000      0.0000    717.1960      7.2929    116.5435
  1138.7500      0.0000    727.9821      6.6523    103.9920
  1139.0000      0.0000    743.7602      6.2245     93.8969
  1139.2500      0.0000    761.8270      5.9560     87.8709
  1139.5000      0.0000    779.1358      5.7859     85.9656
  1139.7500      0.0000    792.3342      5.6718     87.5746
  1140.0000      0.0000    798.6266      5.5994     91.8670
  1140.2500      0.0000    796.3190      5.5884     97.6165
  1140.5000      0.0000    784.6628      5.6915    103.1969
  1140.7500      0.0000    765.0969      5.9691    107.1420
  1141.0000      0.0000    742.8591      6.4424    108.9544
  1141.2500      0.0000    725.1723      7.0573    109.8027
  1141.5000      0.0000    716.6819      7.6935    112.3595
  1141.7500      0.0000    717.1050      8.2174    118.8516
  1142.0000      0.0000    722.7952      8.5403    128.3635
  1142.2500      0.0000    729.3395      8.6478    136.7783
  1142.5000      0.0000    733.0344      8.5903    140.4711
  1142.7500      0.0000    731.9178      8.4476    139.7309
  1143.0000      0.0000    726.5789      8.2906    137.7712
  1143.2500      0.0000    719.6351      8.1568    136.9494
  1143.5000      0.0000    713.8123      8.0513    137.1076
  1143.7500      0.0000    710.3461      7.9673    137.1148
  1144.0000      0.0000    709.1194      7.9047    136.3030
  1144.2500      0.0000    709.7443      7.8706    134.2486
  1144.5000      0.0000    711.9409      7.8635    130.7250
  1144.7500      0.0000    715.2521      7.8689    126.4982
  1145.0000      0.0000    719.2206      7.8736    123.2909
  1145.2500      0.0000    723.7850      7.8766    122.3130
  1145.5000      0.0000    728.7272      7.8816    123.0929
  1145.7500      0.0000    732.5867      7.8842    124.1601
  1146.0000      0.0000    733.0019      7.8744    124.6209
  1146.2500      0.0000    728.9598      7.8477    124.5086
  1146.5000      0.0000    722.4003      7.8108    123.8080
  1146.7500      0.0000    716.8182      7.7754    122.0350
  1147.0000      0.0000    714.2626      7.7492    118.8561
  1147.2500      0.0000    714.0428      7.7328    114.3653
  1147.5000      0.0000    714.1744      7.7216    108.8190
  1147.7500      0.0000    713.6906      7.7098    102.8361
  1148.0000      0.0000    713.7476      7.6900     97.7555
  1148.2500      0.0000    716.7364      7.6522     95.0270
  1148.5000      0.0000    723.9980      7.5893     95.0428
  1148.7500      0.0000    734.0493      7.5034     96.8733
  1149.0000      0.0000    743.3060      7.4075     99.2006
  1149.2500      0.0000    748.7964      7.3152    101.1926
  1149.5000      0.0000    750.1974      7.2285    102.4822
  1149.7500      0.0000    749.3830      7.1335    102.8983
  1150.0000      0.0000    748.5176      7.0135    102.6940
  1150.2500      0.0000    748.5267      6.8666    102.6852
  1150.5000      0.0000    748.8947      6.7086    103.6152
  1150.7500      0.0000    748.6804      6.5587    105.4207
  1151.0000      0.0000    747.6808      6.4270    107.3352
  1151.2500      0.0000    746.3903      6.3178    108.5090
  1151.5000      0.0000    745.2024      6.2379    108.3376
  1151.7500      0.0000    744.6157      6.1954    106.5621
  1152.0000      0.0000    746.2031      6.1898    103.5008
  1152.2500      0.0000    751.8157      6.2088     99.9818
  1152.5000      0.0000    760.9279      6.2368     96.6807
  1152.7500      0.0000    769.7760      6.2654     93.7521
  1153.0000      0.0000    774.1951      6.3004     91.5607
  1153.2500      0.0000    773.2057      6.3556     91.3868
  1153.5000      0.0000    769.7170      6.4374     94.4082
  1153.7500      0.0000    767.9735      6.5355     99.5801
  1154.0000      0.0000    770.2042      6.6318    103.2687
  1154.2500      0.0000    775.1312      6.7160    101.8286
  1154.5000      0.0000    779.3651      6.7889     94.6392
  1154.7500      0.0000    780.3365      6.8558     84.6097
  1155.0000      0.0000    778.3759      6.9235     76.1236
  1155.2500      0.0000    776.3291      7.0053     72.3620
  1155.5000      0.0000    777.0527      7.1221     73.6271
  1155.7500      0.0000    781.0105      7.2910     77.3644
  1156.0000      0.0000    786.1669      7.5073     79.8611
  1156.2500      0.0000    789.8157      7.7394     78.7398
  1156.5000      0.0000    789.9902      7.9398     74.5049
  1156.7500      0.0000    785.5065      8.0649     69.7093
  1157.0000      0.0000    775.9866      8.0842     66.5452
  1157.2500      0.0000    762.5652      7.9790     65.4061
  1157.5000      0.0000    748.0351      7.7432     65.5766
  1157.7500      0.0000    735.7783      7.3844     66.4374
  1158.0000      0.0000    728.9716      6.9163     67.5778
  1158.2500      0.0000    730.5448      6.3624     68.5103
  1158.5000      0.0000    741.8915      5.7892     69.1445
  1158.7500      0.0000    760.0431      5.3107     70.4247
  1159.0000      0.0000    776.6917      5.0176     74.0111
  1159.2500      0.0000    782.0850      4.9068     81.2315
  1159.5000      0.0000    771.9873      4.9039     92.1664
  1159.7500     -2.0000    751.5262      4.9422    105.2760
  1160.0000      0.0000    731.5872      5.0142    117.9531
  1160.2500      0.0000    720.7762      5.1850    128.0958
  1160.5000      0.0000    720.1443      5.5717    135.5634
  1160.7500      0.0000    724.6146      6.2537    141.8651
  1161.0000      0.0000    728.7734      7.1360    148.1456
  1161.2500      0.0000    731.1370      7.9372    153.7865
  1161.5000      0.0000    733.2623      8.3893    157.2859
  1161.7500      0.0000    735.9508      8.4481    158.1446
  1162.0000      0.0000    737.4650      8.2717    157.5487
  1162.2500      0.0000    735.2513      8.0378    157.4359
  1162.5000      0.0000    728.9672      7.8320    159.0182
  1162.7500      0.0000    721.9214      7.6690    161.9450
  1163.0000      0.0000    719.1086      7.5437    164.6766
  1163.2500      0.0000    722.9365      7.4497    165.7101
  1163.5000      0.0000    730.9434      7.3819    164.5831
  1163.7500      0.0000    738.3713      7.3410    162.1311
