~Version Information
VERS.                      2.0: CWLS Log ASCII Standard - VERSION 2.0
WRAP.                       NO: One line per depth step
~Well Information Block
STRT.FT               800.0000: 
STOP.FT              3500.0000: 
STEP.FT                 0.2500: 
NULL.                -999.2500: 
COMP.          Pioneer Natural Resources: COMPANY
WELL.          Cordillera 34-7: WELL
FLD.           Purgatoire River: FIELD
LOC.           598' FSL & 1770' FEL--: LOCATION
PROV.                 Colorado: PROVINCE
CNTY.               Las Animas: COUNTRY
SRVC.                Patterson: SERVICE COMPANY
DATE.          Thu Oct 27 20:08:30 2005: LOG DATE
UWI.           05 071 08552 00: UNIQUE WELL ID
~Curve Information Block
DEPT.FT            0 000 00 00: Depth
SN.Ohm-m                      : IEL Short Normal
SP.mV                         : IEL Spontaneous Potential
DIR.Ohm-m                     : IEL Induction Resistivity
GR.GAPI                       : Gamma Ray
~Parameter Information Block
~A  Depth        SN          SP         DIR          GR     
# ...
  1872.0000     20.9744    157.1454     18.0204     89.0015
  1872.2500     20.3694    156.7899     17.8066     93.0882
  1872.5000     19.7159    156.3540     17.5255     99.7968
  1872.7500     19.0587    155.9522     17.1702    103.3056
  1873.0000     18.4342    155.7060     16.7435    106.0805
  1873.2500     17.8538    155.6461     16.2605    106.9656
  1873.5000     17.2905    155.6835     15.7488    108.8881
  1873.7500     16.6857    155.6836     15.2425    111.0482
  1874.0000     15.9789    155.5780     14.7730    114.9877
  1874.2500     15.1613    155.4105     14.3619    117.7636
  1874.5000     14.3158    155.2787     14.0180    122.4403
  1874.7500     13.5819    155.2366     13.7398    125.9552
  1875.0000     13.0626    155.2647     13.5180    130.9410
  1875.2500     12.7625    155.3299     13.3387    133.5751
  1875.5000     12.5900    155.4488     13.1861    136.8209
  1875.7500     12.3985    155.6808     13.0461    138.9451
  1876.0000     12.0709    156.0752     12.9100    141.4960
  1876.2500     11.6334    156.6322     12.7765    141.5612
  1876.5000     11.2584    157.2970     12.6497    137.2258
  1876.7500     11.1299    157.9729     12.5368    131.3099
  1877.0000     11.3386    158.5515     12.4455    120.3206
  1877.2500     11.8624    158.9541     12.3818    113.8404
  1877.5000     12.5630    159.1674     12.3484    108.3932
  1877.7500     13.2235    159.2487     12.3433    108.0056
  1878.0000     13.6670    159.2934     12.3595    110.8917
  1878.2500     13.8566    159.3795     12.3869    113.8859
  1878.5000     13.8589    159.5187     12.4158    118.3926
  1878.7500     13.7521    159.6490     12.4412    120.9898
  1879.0000     13.5939    159.6811     12.4647    124.0663
  1879.2500     13.4243    159.5793     12.4923    125.4987
  1879.5000     13.2569    159.4063     12.5316    126.6257
  1879.7500     13.0785    159.2810     12.5863    126.8232
  1880.0000     12.8684    159.2795     12.6536    126.8608
  1880.2500     12.6276    159.3818     12.7244    126.9681
  1880.5000     12.4003    159.5116     12.7861    127.1478
  1880.7500     12.2645    159.6202     12.8279    127.0743
  1881.0000     12.2961    159.7257     12.8448    126.5571
  1881.2500     12.5392    159.8855     12.8397    125.8557
  1881.5000     12.9820    160.1400     12.8215    123.5862
  1881.7500     13.5521    160.4730     12.8025    120.8233
  1882.0000     14.1399    160.8154     12.7937    115.2603
  1882.2500     14.6341    161.0922     12.8013    111.6863
  1882.5000     14.9650    161.2718     12.8250    108.3227
  1882.7500     15.1256    161.3811     12.8583    107.6818
  1883.0000     15.1362    161.4902     12.8900    108.4596
  1883.2500     14.9996    161.6736     12.9063    109.6914
  1883.5000     14.7084    161.9588     12.8928    112.3578
  1883.7500     14.2851    162.3032     12.8368    114.6850
  1884.0000     13.7928    162.6317     12.7309    118.6271
  1884.2500     13.3026    162.8987     12.5784    121.0136
  1884.5000     12.8430    163.1082     12.3938    123.4715
  1884.7500     12.3839    163.2889     12.1993    124.4625
  1885.0000     11.8892    163.4734     12.0159    125.8460
  1885.2500     11.3848    163.6983     11.8581    127.0499
  1885.5000     10.9596    163.9967     11.7321    129.1556
  1885.7500     10.6880    164.3725     11.6388    130.5270
  1886.0000     10.5566    164.7824     11.5768    132.3300
  1886.2500     10.4954    165.1522     11.5430    133.2275
  1886.5000     10.4816    165.4229     11.5338    133.5309
  1886.7500     10.5698    165.5892     11.5449    132.5933
  1887.0000     10.8287    165.6935     11.5736    128.9856
  1887.2500     11.2999    165.7796     11.6204    125.1775
  1887.5000     11.9836    165.8533     11.6886    118.1971
  1887.7500     12.7979    165.8873     11.7823    113.4273
  1888.0000     13.5913    165.8582     11.9046    107.1576
  1888.2500     14.2425    165.7716     12.0566    103.9060
  1888.5000     14.7271    165.6557     12.2379    100.6716
  1888.7500     15.0816    165.5370     12.4471     99.7191
  1889.0000     15.3456    165.4248     12.6830    100.1992
  1889.2500     15.5468    165.3107     12.9447    101.5916
  1889.5000     15.7085    165.1718     13.2316    104.3400
  1889.7500     15.8551    164.9737     13.5428    106.0487
  1890.0000     16.0157    164.6869     13.8789    108.1624
  1890.2500     16.2261    164.3159     14.2432    109.4115
  1890.5000     16.5281    163.9101     14.6428    110.9789
  1890.7500     16.9605    163.5326     15.0866    111.5236
  1891.0000     17.5435    163.2184     15.5822    111.2993
  1891.2500     18.2767    162.9677     16.1312    110.6114
  1891.5000     19.1512    162.7720     16.7269    109.2313
  1891.7500     20.1602    162.6315     17.3508    108.2184
  1892.0000     21.2959    162.5448     17.9725    106.4070
  1892.2500     22.5507    162.4890     18.5526    104.6720
  1892.5000     23.9345    162.4196     19.0494    100.5589
  1892.7500     25.4810    162.3004     19.4228     96.6737
  1893.0000     27.2170    162.1437     19.6325     89.7914
  1893.2500     29.0981    162.0239     19.6350     85.1548
  1893.5000     30.9626    162.0426     19.3913     78.8732
  1893.7500     32.5530    162.2564     18.8878     75.1774
  1894.0000     33.5634    162.6203     18.1553     70.1363
  1894.2500     33.6725    163.0050     17.2675     67.0605
  1894.5000     32.6072    163.2836     16.3161     63.0755
  1894.7500     30.2862    163.4101     15.3807     61.1133
  1895.0000     26.9755    163.4288     14.5112     60.0756
  1895.2500     23.2431    163.4241     13.7271     61.3292
  1895.5000     19.6728    163.4584     13.0262     66.8456
  1895.7500     16.6368    163.5407     12.3947     72.7349
  1896.0000     14.2980    163.6384     11.8166     83.6597
  1896.2500     12.6792    163.7133     11.2800     91.5141
  1896.5000     11.6649    163.7459     10.7787    102.8564
  1896.7500     11.0489    163.7327     10.3114    109.3557
  1897.0000     10.6469    163.6741      9.8794    116.2632
  1897.2500     10.3457    163.5764      9.4858    118.5698
  1897.5000     10.0838    163.4629      9.1359    118.8998
  1897.7500      9.8410    163.3753      8.8382    117.7065
  1898.0000      9.6382    163.3553      8.6026    115.1129
  1898.2500      9.5045    163.4169      8.4374    113.4393
  1898.5000      9.4191    163.5325      8.3459    111.5965
  1898.7500      9.2948    163.6457      8.3248    110.8411
  1899.0000      9.0459    163.7019      8.3638    109.9813
  1899.2500      8.6747    163.6804      8.4477    109.4794
  1899.5000      8.2907    163.6055      8.5585    109.7910
  1899.7500      8.0543    163.5238      8.6787    111.6374
  1900.0000      8.1001    163.4630      8.7947    117.2617
  1900.2500      8.4762    163.4107      8.8990    121.9476
  1900.5000      9.0944    163.3293      8.9914    127.8295
  1900.7500      9.7584    163.1843      9.0774    129.9369
  1901.0000     10.2819    162.9601      9.1640    130.0231
  1901.2500     10.5784    162.6560      9.2560    128.4422
  1901.5000     10.6582    162.2798      9.3534    124.7601
  1901.7500     10.5813    161.8602      9.4521    122.2419
  1902.0000     10.4210    161.4697      9.5466    119.9815
  1902.2500     10.2465    161.2156      9.6330    120.2378
  1902.5000     10.1101    161.1738      9.7104    123.1983
  1902.7500     10.0479    161.3201      9.7801    126.0016
  1903.0000     10.0862    161.5338      9.8452    129.7370
  1903.2500     10.2392    161.6805      9.9123    131.4571
  1903.5000     10.4956    161.6949      9.9929    132.9497
  1903.7500     10.8143    161.5888     10.1023    133.3161
  1904.0000     11.1397    161.3961     10.2554    132.8548
  1904.2500     11.4284    161.1251     10.4620    131.8951
  1904.5000     11.6623    160.7641     10.7231    129.9290
  1904.7500     11.8404    160.3227     11.0309    128.6417
  1905.0000     11.9819    159.8655     11.3709    127.1724
  1905.2500     12.1170    159.5143     11.7275    126.6056
