~Version Information
VERS.                      2.0: CWLS Log ASCII Standard - VERSION 2.0
WRAP.                       NO: One line per depth step
~Well Information Block
STRT.FT               420.0000: 
STOP.FT              2888.7500: 
STEP.FT                 0.2500: 
NULL.                -999.2500: 
COMP.          Pioneer Natural Resources: COMPANY
WELL.          Touchstone 11-32: WELL
FLD.           Purgatoire River: FIELD
LOC.           853' FNL & 407' FWL--: LOCATION
CNTY.               Las Animas: COUNTY
SRVC.                Patterson: SERVICE COMPANY
DATE.          Thu Feb 23 14:02:36 2006: LOG DATE
UWI.           05 071 08564 00: UNIQUE WELL ID
STAT.                 Colorado: STATE
~Curve Information Block
DEPT.FT            0 000 00 00: Depth
SN.Ohm-m                      : IEL Short Normal
SP.mV                         : IEL Spontaneous Potential
DIR.Ohm-m                     : IEL Induction Resistivity
GR.GAPI                       : Gamma Ray
~Parameter Information Block
~A  Depth        SN          SP         DIR          GR     
   420.0000   2000.0000   1974.0000 100000.0000    116.4686
   420.2500   2000.0000   1974.0000 100000.0000    113.7819
   420.5000   2000.0000   1974.0000 100000.0000    109.6193
   420.7500   2000.0000   1974.0000 100000.0000    107.3977
   421.0000   2000.0000   1974.0000 100000.0000    105.7809
   421.2500   2000.0000   1974.0000 100000.0000    105.9735
   421.5000   2000.0000   1974.0000 100000.0000     71.6534
   421.7500   2000.0000   1974.0000 100000.0000     72.3366
   422.0000   2000.0000   1974.0000 100000.0000     72.4655
   422.2500   2000.0000   1974.0000 100000.0000     71.6921
   422.5000   2000.0000   1974.0000 100000.0000     69.4841
   422.7500   2000.0000   1974.0000 100000.0000     67.7168
   423.0000   2000.0000   1974.0000 100000.0000     65.3708
   423.2500   2000.0000   1974.0000 100000.0000     64.3594
   423.5000   2000.0000   1974.0000 100000.0000     63.9027
   423.7500   2000.0000   1974.0000 100000.0000     64.0946
   424.0000   2000.0000   1974.0000 100000.0000     64.3525
   424.2500   2000.0000   1974.0000 100000.0000     64.2045
   424.5000   2000.0000   1974.0000 100000.0000     63.7408
   424.7500   2000.0000   1974.0000 100000.0000     63.6822
   425.0000   2000.0000   1974.0000 100000.0000     64.5011
   425.2500   2000.0000   1974.0000 100000.0000     65.7092
   425.5000   2000.0000   1974.0000 100000.0000     68.2733
   425.7500   2000.0000   1974.0000 100000.0000     70.2164
   426.0000   2000.0000   1974.0000 100000.0000     72.8749
   426.2500   2000.0000   1974.0000 100000.0000     74.0781
   426.5000   2000.0000   1974.0000 100000.0000     74.4999
   426.7500   2000.0000   1974.0000 100000.0000     73.8801
   427.0000   2000.0000   1974.0000 100000.0000     72.5163
   427.2500   2000.0000   1974.0000 100000.0000     72.2025
   427.5000   2000.0000   1974.0000 100000.0000     73.8912
   427.7500   2000.0000   1974.0000 100000.0000     76.6619
   428.0000   2000.0000   1974.0000 100000.0000     82.6907
   428.2500   2000.0000   1974.0000 100000.0000     87.3432
   428.5000   2000.0000   1974.0000 100000.0000     94.3774
   428.7500   2000.0000   1974.0000 100000.0000     98.8500
   429.0000   2000.0000   1974.0000 100000.0000    105.0803
   429.2500   2000.0000   1974.0000      7.2835    108.6798
   429.5000   2000.0000   1974.0000      3.8066    112.2584
   429.7500   2000.0000   1974.0000      3.1969    112.7244
   430.0000   2000.0000   1974.0000      3.6368    109.9271
   430.2500   2000.0000   1974.0000      5.6549    106.0003
   430.5000   2000.0000   1974.0000     15.7517     98.4470
   430.7500   2000.0000   1974.0000 100000.0000     93.3049
   431.0000   2000.0000   1974.0000 100000.0000     86.5516
   431.2500   2000.0000   1974.0000 100000.0000     82.8532
   431.5000   2000.0000   1974.0000 100000.0000     78.3732
   431.7500   2000.0000   1974.0000 100000.0000     75.9815
   432.0000   2000.0000   1974.0000 100000.0000     73.1508
   432.2500   2000.0000   1974.0000     34.7221     71.8213
   432.5000   2000.0000   1974.0000     16.9625     70.9208
   432.7500   2000.0000   1974.0000     13.1776     71.0228
   433.0000   2000.0000   1974.0000     12.3355     71.6046
   433.2500   2000.0000   1974.0000     12.7872     71.8516
   433.5000   2000.0000   1974.0000     14.0396     71.8968
   433.7500   2000.0000   1974.0000     15.8014     72.0362
   434.0000   2000.0000   1974.0000     17.7116     72.9816
   434.2500   2000.0000   1974.0000     19.3285     74.0307
   434.5000   2000.0000   1974.0000     20.4146     75.2020
   434.7500   2000.0000   1974.0000     21.2415     74.9225
   435.0000   2000.0000   1974.0000     22.5112     72.2361
   435.2500   2000.0000   1974.0000     25.1059     69.2488
   435.5000   2000.0000   1974.0000     29.9930     64.4067
   435.7500   2000.0000   1974.0000     37.9130     61.7768
   436.0000   2000.0000   1974.0000     47.5651     59.3974
   436.2500   2000.0000   1974.0000     52.9557     58.7769
   436.5000   2000.0000   1974.0000     49.2574     58.8524
   436.7500   2000.0000   1974.0000     41.0193     59.3337
   437.0000   2000.0000   1974.0000     33.8528     60.3467
   437.2500   2000.0000   1974.0000     29.2313     60.9944
   437.5000   2000.0000   1974.0000     26.8093     61.4804
   437.7500   2000.0000   1974.0000     26.0259     61.2656
   438.0000   2000.0000   1974.0000     26.4089     60.2433
   438.2500   2000.0000   1974.0000     27.5111     59.5289
   438.5000   2000.0000   1974.0000     28.8538     59.2366
   438.7500   2000.0000   1974.0000     29.9967     59.6441
   439.0000   2000.0000   1974.0000     30.6848     60.5073
   439.2500   2000.0000   1974.0000     30.9059     60.8096
   439.5000   2000.0000   1974.0000     30.7963     60.6122
   439.7500   2000.0000   1974.0000     30.5020     60.1240
   440.0000   2000.0000   1974.0000     30.1037     58.9659
   440.2500   2000.0000   1974.0000     29.6133     58.0692
   440.5000   2000.0000   1974.0000     29.0078     57.5157
   440.7500   2000.0000   1974.0000     28.2679     58.5764
   441.0000   2000.0000   1974.0000     27.4008     63.4359
   441.2500   2000.0000   1974.0000     26.4417     68.8369
   441.5000   2000.0000   1974.0000     25.4428     79.2079
   441.7500   2000.0000   1974.0000     24.4604     86.9653
   442.0000   2000.0000   1974.0000     23.5457     98.9870
   442.2500   2000.0000   1974.0000     22.7360    106.7307
   442.5000   2000.0000   1974.0000     22.0488    116.4966
   442.7500   2000.0000   1974.0000     21.4813    120.7884
   443.0000   2000.0000   1974.0000     21.0166    123.1076
   443.2500   2000.0000   1974.0000     20.6357    122.4120
   443.5000   2000.0000   1974.0000     20.3290    119.9417
   443.7500   2000.0000   1974.0000     20.1000    118.2937
   444.0000   2000.0000   1974.0000     19.9596    116.3693
   444.2500   2000.0000   1974.0000     19.9168    115.4192
   444.5000   2000.0000   1974.0000     19.9737    114.4382
   444.7500   2000.0000   1974.0000     20.1267    113.9209
   445.0000   2000.0000   1974.0000     20.3668    112.5656
   445.2500   2000.0000   1974.0000     20.6785    110.8174
   445.5000   2000.0000   1974.0000     21.0383    106.9698
   445.7500   2000.0000   1974.0000     21.4170    104.1771
   446.0000   2000.0000   1974.0000     21.7856    100.9219
   446.2500   2000.0000   1974.0000     22.1204     99.6785
   446.5000   2000.0000   1974.0000     22.4091     98.5519
   446.7500   2000.0000   1974.0000     22.6549     97.7159
   447.0000   2000.0000   1974.0000     22.8751     96.3396
   447.2500   2000.0000   1974.0000     23.0900     95.9221
   447.5000   2000.0000   1974.0000     23.3107     96.6472
   447.7500   2000.0000   1974.0000     23.5359     97.6243
   448.0000   2000.0000   1974.0000     23.7570     98.5394
   448.2500   2000.0000   1974.0000     23.9658     98.4237
   448.5000   2000.0000   1974.0000     24.1569     97.5401
   448.7500   2000.0000   1974.0000     24.3279     96.8024
   449.0000   2000.0000   1974.0000     24.4799     95.3776
   449.2500   2000.0000   1974.0000     24.6163     93.8220
   449.5000   2000.0000   1974.0000     24.7386     89.9806
   449.7500   2000.0000   1974.0000     24.8414     86.3994
   450.0000   2000.0000   1974.0000     24.9159     80.0436
   450.2500   2000.0000   1974.0000     24.9600     75.6363
   450.5000   2000.0000   1974.0000     24.9857     69.6987
   450.7500   2000.0000   1974.0000     25.0132     66.7775
   451.0000   2000.0000   1974.0000     25.0572     64.8970
   451.2500   2000.0000   1974.0000     25.1160     65.6293
   451.5000   2000.0000   1974.0000     25.1746     69.5023
   451.7500   2000.0000   1974.0000     25.2179     73.3113
   452.0000   2000.0000   1974.0000     25.2440     79.1382
   452.2500   2000.0000   1974.0000     25.2678     82.0051
   452.5000   2000.0000   1974.0000     25.3152     83.3783
   452.7500   2000.0000   1974.0000     25.4106     82.0459
   453.0000   2000.0000   1974.0000     25.5656     77.2517
   453.2500   2000.0000   1974.0000     25.7723     73.0732
