~Version Information
VERS.                      2.0: CWLS Log ASCII Standard - VERSION 2.0
WRAP.                       NO: One line per depth step
~Well Information Block
STRT.FT               520.0000: 
STOP.FT              2555.2000: 
STEP.FT                 0.1000: 
NULL.                -999.2500: 
COMP.          Pioneer Natural Resources: COMPANY
WELL.          Horsefeathers 24-34: WELL
FLD.           Purgatoire River: FIELD
LOC.           183' FSL & 1570' FWL--: LOCATION
CNTY.               Las Animas: COUNTY
SRVC.                Patterson: SERVICE COMPANY
DATE.          Mon Feb 06 08:03:40 2006: LOG DATE
UWI.           05 071 08675 00: UNIQUE WELL ID
STAT.                 Colorado: STATE
~Curve Information Block
DEPT.FT            0 000 00 00: Depth
DCAL.in                       : CDL Caliper
RHOB.g/cc                     : CDL Bulk Density
RHOC.g/cc                     : CDL Density Correction
DPOR.pu                       : CDL Density Porosity
NPOR.pu                       : Neutron Porosity
GR.GAPI                       : Gamma Ray
~Parameter Information Block
~A  Depth       DCAL        RHOB        RHOC        DPOR        NPOR         GR     
# ...
  1585.6000      8.0834      2.4846      0.0695     10.0271     15.2359     80.8513
  1585.7000      8.0834      2.4898      0.0702      9.7100     15.9692     88.4323
  1585.8000      8.0828      2.4776      0.0706     10.4513     16.1301     94.4874
  1585.9000      8.0828      2.4582      0.0486     11.6243     15.9007     94.2220
  1586.0000      8.0829      2.4546     -0.0119     11.8410     15.8473     91.6935
  1586.1000      8.0829      2.4718      0.0762     10.8011     15.9538     90.3199
  1586.2000      8.0829      2.4881      0.0654      9.8135     15.9119     88.4609
  1586.3000      8.0847      2.4919      0.0923      9.5821     15.8186     85.5504
  1586.4000      8.0847      2.4896      0.0397      9.7215     15.6170     86.1192
  1586.5000      8.0863      2.4916      0.0548      9.5976     15.4268     89.3611
  1586.6000      8.0863      2.4997      0.0668      9.1113     15.5743     90.2582
  1586.7000      8.0863      2.5050      0.0620      8.7874     15.7897     89.5330
  1586.8000      8.0849      2.5048      0.0493      8.8016     15.8352     87.8463
  1586.9000      8.0849      2.5065      0.0684      8.6948     15.8122     84.6808
  1587.0000      8.0831      2.5135      0.0739      8.2742     15.7425     80.4779
  1587.1000      8.0831      2.5170      0.0741      8.0600     15.4971     74.8946
  1587.2000      8.0831      2.5097      0.0805      8.5002     15.1078     72.9185
  1587.3000      8.0825      2.4936      0.0690      9.4807     15.0354     81.1335
  1587.4000      8.0825      2.4750      0.0526     10.6038     15.5770     91.4838
  1587.5000      8.0827      2.4679      0.0231     11.0367     16.3708     92.4387
  1587.6000      8.0827      2.4855      0.0407      9.9689     16.7632     89.2679
  1587.7000      8.0827      2.5196      0.0786      7.9014     16.3843     89.6755
  1587.8000      8.0829      2.5415      0.0828      6.5730     15.4981     91.3899
  1587.9000      8.0829      2.5375      0.0585      6.8212     14.8128     93.7549
  1588.0000      8.0832      2.5210      0.0473      7.8170     14.7279     98.6197
  1588.1000      8.0832      2.5056      0.0506      8.7497     14.9555    102.2767
  1588.2000      8.0832      2.4994      0.0318      9.1271     15.2528    100.8660
  1588.3000      8.0826      2.5057      0.0538      8.7445     15.6438     97.2628
  1588.4000      8.0826      2.5136      0.0552      8.2653     15.9796     96.9346
  1588.5000      8.0829      2.5142      0.0565      8.2311     15.8794    101.9418
  1588.6000      8.0829      2.5096      0.0673      8.5065     15.3052    107.7179
  1588.7000      8.0829      2.5052      0.0379      8.7780     14.8828    108.6016
  1588.8000      8.0849      2.5012      0.0701      9.0210     15.2007    106.9006
  1588.9000      8.0849      2.4925      0.0676      9.5439     15.9606    107.5152
  1589.0000      8.0863      2.4828      0.0462     10.1329     16.2882    108.6353
  1589.1000      8.0863      2.4797      0.0855     10.3197     15.8237    107.2249
  1589.2000      8.0863      2.4838      0.0558     10.0742     15.2383    104.8396
  1589.3000      8.0868      2.4929      0.0622      9.5184     15.2397    101.1043
  1589.4000      8.0868      2.5036      0.0730      8.8747     15.4518     94.3154
  1589.5000      8.0868      2.5075      0.1083      8.6373     15.2798     88.7276
  1589.6000      8.0868      2.4990      0.0650      9.1515     14.8712     89.0055
  1589.7000      8.0868      2.4904      0.0315      9.6737     14.3921     91.7894
  1589.8000      8.0870      2.4939      0.0412      9.4606     14.0189     94.0389
  1589.9000      8.0870      2.5027      0.0357      8.9298     13.9459     95.9453
  1590.0000      8.0864      2.5123      0.0496      8.3454     14.0768     94.8987
  1590.1000      8.0864      2.5265      0.0403      7.4858     14.2648     92.9126
  1590.2000      8.0864      2.5336      0.0812      7.0547     14.3214     94.1671
  1590.3000      8.0835      2.5210      0.0455      7.8184     14.1174     96.9841
  1590.4000      8.0835      2.5030      0.0473      8.9091     13.8753     96.9038
  1590.5000      8.0798      2.4944      0.0487      9.4278     13.7757     89.1891
  1590.6000      8.0798      2.4965      0.0343      9.3052     13.5864     76.1527
  1590.7000      8.0798      2.5068      0.0312      8.6791     13.3478     69.0608
  1590.8000      8.0756      2.5138      0.0978      8.2528     13.4188     73.5196
  1590.9000      8.0756      2.5133      0.0583      8.2850     13.6791     81.4333
  1591.0000      8.0686      2.5180      0.0921      8.0009     13.8586     84.0043
  1591.1000      8.0686      2.5260      0.1059      7.5179     14.0476     82.3393
  1591.2000      8.0686      2.5250      0.0699      7.5761     14.2872     79.5190
  1591.3000      8.0615      2.5174      0.0681      8.0372     14.1592     75.5871
  1591.4000      8.0615      2.5047      0.0641      8.8081     13.6733     71.4502
  1591.5000      8.0572      2.4887      0.0134      9.7762     13.2865     69.0078
  1591.6000      8.0572      2.4845      0.0153     10.0331     12.8603     68.4897
  1591.7000      8.0572      2.4945      0.0377      9.4265     12.3374     70.0828
  1591.8000      8.0550      2.5058      0.0438      8.7413     12.1118     73.2392
  1591.9000      8.0550      2.5154      0.0597      8.1592     12.0577     75.1083
  1592.0000      8.0554      2.5270      0.0208      7.4530     12.0658     74.5130
  1592.1000      8.0554      2.5297      0.0751      7.2914     12.3174     72.1804
  1592.2000      8.0554      2.5132      0.0550      8.2918     12.6935     68.6420
  1592.3000      8.0562      2.4991      0.0100      9.1485     13.0626     67.9720
  1592.4000      8.0562      2.4992      0.0641      9.1404     13.5665     71.4509
  1592.5000      8.0564      2.4958      0.0241      9.3455     14.0390     72.1917
  1592.6000      8.0564      2.4907      0.0179      9.6547     14.3053     68.6387
  1592.7000      8.0564      2.4905      0.0539      9.6657     14.5533     66.7855
  1592.8000      8.0574      2.4854      0.0501      9.9752     14.7609     68.0870
  1592.9000      8.0574      2.4768      0.0561     10.4974     14.7859     71.8349
  1593.0000      8.0564      2.4725      0.0580     10.7602     14.7881     77.9453
  1593.1000      8.0564      2.4680      0.0302     11.0333     14.6238     80.8811
  1593.2000      8.0564      2.4622      0.0216     11.3845     13.9878     77.0130
  1593.3000      8.0551      2.4653      0.0035     11.1960     13.3683     71.3516
  1593.4000      8.0551      2.4770      0.0346     10.4876     13.4603     68.5126
  1593.5000      8.0551      2.4900      0.0435      9.6992     13.8690     67.6742
  1593.6000      8.0551      2.5045      0.0523      8.8202     13.6595     67.7146
  1593.7000      8.0551      2.5127      0.0993      8.3231     12.7518     68.4245
  1593.8000      8.0562      2.5093      0.0325      8.5290     11.9463     69.0903
  1593.9000      8.0562      2.5046      0.0723      8.8126     11.9587     68.9196
  1594.0000      8.0568      2.5008      0.0661      9.0417     12.8076     68.3001
  1594.1000      8.0568      2.4953      0.0652      9.3755     13.9444     67.8653
  1594.2000      8.0568      2.4982      0.0502      9.2009     14.4080     67.3698
  1594.3000      8.0570      2.5196      0.0399      7.9038     13.9474     67.3250
  1594.4000      8.0570      2.5459      0.0847      6.3065     13.3644     68.6824
  1594.5000      8.0586      2.5582      0.0730      5.5618     13.0002     72.3262
  1594.6000      8.0586      2.5637      0.0608      5.2278     12.8865     77.3374
  1594.7000      8.0586      2.5676      0.0933      4.9961     13.2205     78.8880
  1594.8000      8.0598      2.5565      0.0822      5.6656     13.8875     77.0433
  1594.9000      8.0598      2.5384      0.0146      6.7611     14.5591     75.4579
  1595.0000      8.0591      2.5348      0.0475      6.9842     15.0110     73.7071
  1595.1000      8.0591      2.5411      0.0422      6.5998     15.0971     73.9733
