~Version Information
VERS.                      2.0: CWLS Log ASCII Standard - VERSION 2.0
WRAP.                       NO: One line per depth step
~Well Information Block
STRT.FT                10.0000: 
STOP.FT               715.0000: 
STEP.FT                 0.1000: 
NULL.                -999.2500: 
COMP.          Pioneer Natural Resources: COMPANY
WELL.           Belvedere 14-7: WELL
FLD.           Purgatorie River: FIELD
LOC.           786' FSL & 1283' FWL: LOCATION
PROV.                 Colorado: PROVINCE
CNTY.               Las Animas: COUNTRY
SRVC.                Patterson: SERVICE COMPANY
DATE.          Mon Nov 28 07:30:54 2005: LOG DATE
UWI.           05-071-08557               : UNIQUE WELL ID
~Curve Information Block
DEPT.FT            0 000 00 00: Depth
DCAL.in                       : CDL Caliper
RHOB.g/cc                     : CDL Bulk Density
RHOC.g/cc                     : CDL Density Correction
DPOR.pu                       : CDL Density Porosity
GR.GAPI                       : Gamma Ray
NPOR.pu                       : Neutron Porosity
~Parameter Information Block
~A  Depth       DCAL        RHOB        RHOC        DPOR         GR         NPOR    
# ...
   422.8000      7.9153      2.4731      0.0310     10.7186    107.0829     23.0485
   422.9000      7.9153      2.4582      0.0460     11.6236    112.0672     22.4499
   423.0000      7.9171      2.4360      0.0179     12.9683    115.7314     22.4361
   423.1000      7.9171      2.4169      0.0034     14.1302    114.5070     22.9292
   423.2000      7.9171      2.4068      0.0593     14.7415    112.5571     23.5147
   423.3000      7.9222      2.3968      0.0518     15.3485    113.1183     23.6591
   423.4000      7.9222      2.3795      0.0837     16.3954    114.3974     23.1121
   423.5000      7.9279      2.3557      0.0159     17.8367    115.5119     22.2819
   423.6000      7.9279      2.3288      0.0764     19.4653    116.7403     21.8123
   423.7000      7.9279      2.3126      0.0147     20.4468    117.2470     21.8690
   423.8000      7.9258      2.3351      0.0322     19.0865    115.4155     22.3474
   423.9000      7.9258      2.4123      0.0692     14.4031    111.1056     23.4415
   424.0000      7.9057      2.5381      0.0933      6.7817    106.4264     25.1220
   424.1000      7.9057      2.6970      0.1664     -2.8506    101.0686     26.8558
   424.2000      7.9057      2.8663      0.2414    -13.1097     94.0367     28.3981
   424.3000      7.9044      3.0114      0.3521    -21.9039     87.4984     29.7885
   424.4000      7.9044      3.0922      0.3749    -26.7979     82.8104     30.8164
   424.5000      7.8826      3.0857      0.3142    -26.4051     78.9633     31.2318
   424.6000      7.8826      3.0031      0.1935    -21.3974     76.5771     30.9826
   424.7000      7.8826      2.8837     -0.0294    -14.1625     77.9378     30.1209
   424.8000      7.8578      2.7639     -0.1440     -6.9036     81.0856     28.7898
   424.9000      7.8578      2.6529     -0.1759     -0.1750     82.6707     27.4649
   425.0000      7.8492      2.5548     -0.2380      5.7704     84.6777     26.3701
   425.1000      7.8492      2.4905     -0.2040      9.6651     89.0845     25.0714
   425.2000      7.8492      2.4698     -0.0831     10.9223     93.5278     23.5743
   425.3000      7.9404      2.4681      0.0215     11.0218     97.0199     22.4243
   425.4000      7.9404      2.4560      0.0757     11.7586    100.1044     21.6684
   425.5000      7.9498      2.4374      0.0306     12.8843    101.2736     21.2122
   425.6000      7.9498      2.4370      0.0802     12.9085    100.8984     21.2598
   425.7000      7.9498      2.4489      0.1190     12.1874    102.0251     21.6667
   425.8000      7.9452      2.4490      0.0879     12.1805    105.4627     21.8840
   425.9000      7.9452      2.4357      0.0820     12.9893    109.6779     21.7628
   426.0000      7.9312      2.4208      0.0609     13.8879    111.8445     21.6930
   426.1000      7.9312      2.4112      0.0585     14.4717    110.7513     21.9086
   426.2000      7.9312      2.4030      0.0612     14.9720    109.4913     22.2304
   426.3000      7.9413      2.3915      0.0310     15.6691    108.9621     22.6227
   426.4000      7.9413      2.3829      0.0500     16.1892    107.8805     23.0864
   426.5000      7.9323      2.3857      0.0387     16.0154    107.7318     23.3045
   426.6000      7.9323      2.4002      0.0484     15.1378    108.6356     23.1249
   426.7000      7.9323      2.4109      0.1002     14.4927    107.9775     22.7935
   426.8000      7.9206      2.4019      0.0759     15.0336    105.8839     22.5621
   426.9000      7.9206      2.3802      0.0946     16.3490    105.9369     22.4105
   427.0000      7.9297      2.3569      0.1067     17.7616    108.6688     22.0797
   427.1000      7.9297      2.3274      0.0853     19.5486    109.4118     21.4975
   427.2000      7.9297      2.2743      0.1170     22.7685    105.0146     20.9208
   427.3000      7.9533      2.1859      0.0599     28.1274     97.7814     20.4713
   427.4000      7.9533      2.0720      0.0517     35.0298     92.0877     19.9973
   427.5000      7.9395      1.9497     -0.0303     42.4406     89.5671     19.3814
   427.6000      7.9395      1.8316     -0.0421     49.5981     88.5527     18.7240
   427.7000      7.9395      1.7293     -0.1027     55.8021     88.2652     18.1942
   427.8000      7.9352      1.6583     -0.1146     60.1028     87.4494     17.7439
   427.9000      7.9352      1.6365     -0.1173     61.4262     82.9005     17.2205
   428.0000      7.9519      1.6650     -0.0047     59.6997     77.0890     16.7800
   428.1000      7.9519      1.7220      0.0527     56.2417     75.6580     16.6982
   428.2000      7.9519      1.7932      0.0808     51.9244     76.6737     17.0269
   428.3000      7.9676      1.8805      0.1135     46.6339     76.7864     17.6360
   428.4000      7.9676      1.9779      0.1651     40.7306     76.5002     18.4037
   428.5000      7.9753      2.0678      0.1686     35.2822     77.5346     19.2677
   428.6000      7.9753      2.1381      0.1720     31.0231     82.2009     20.1066
   428.7000      7.9753      2.1931      0.1243     27.6916     90.0706     21.0189
   428.8000      7.9554      2.2517      0.0694     24.1420     97.6922     22.1454
   428.9000      7.9554      2.3211      0.0925     19.9307    103.0356     23.1979
   429.0000      7.9758      2.3830      0.1183     16.1845    106.6084     23.8130
   429.1000      7.9758      2.4240      0.1216     13.6997    108.2152     24.1311
   429.2000      7.9758      2.4535      0.1068     11.9091    107.5979     24.3168
   429.3000      7.9556      2.4753      0.1359     10.5849    107.8231     24.2471
   429.4000      7.9556      2.4765      0.1386     10.5134    111.3928     24.0512
   429.5000      7.9458      2.4600      0.0788     11.5168    115.4931     23.9830
   429.6000      7.9458      2.4430      0.0706     12.5430    117.1933     24.0095
   429.7000      7.9458      2.4216      0.0523     13.8420    116.6972     23.9530
   429.8000      7.9600      2.3853      0.0491     16.0407    113.9690     23.6489
   429.9000      7.9600      2.3489     -0.0296     18.2474    110.9160     23.1252
   430.0000      8.0025      2.3310      0.0309     19.3306    111.7057     22.6324
   430.1000      8.0025      2.3220      0.0293     19.8806    116.0453     22.1685
   430.2000      8.0025      2.3088     -0.0006     20.6809    118.5337     21.7265
   430.3000      8.1017      2.3019     -0.0125     21.0993    115.9107     21.7398
   430.4000      8.1017      2.3119      0.0384     20.4909    112.4997     22.2440
   430.5000      8.1445      2.3268      0.0602     19.5907    112.7865     22.6980
   430.6000      8.1445      2.3273      0.0699     19.5597    114.7571     23.0416
   430.7000      8.1445      2.3188     -0.0052     20.0726    116.6073     23.5414
   430.8000      8.0308      2.3274      0.0105     19.5488    118.0963     24.0538
   430.9000      8.0308      2.3603      0.0180     17.5584    117.3716     24.2955
   431.0000      7.9910      2.3994      0.0217     15.1852    115.1902     24.3319
   431.1000      7.9910      2.4267      0.0473     13.5347    115.2634     24.2687
   431.2000      7.9910      2.4304      0.0889     13.3105    117.5729     23.8925
   431.3000      7.9857      2.4131      0.0327     14.3563    119.4198     23.2637
   431.4000      7.9857      2.3968     -0.0072     15.3436    120.1270     22.9285
   431.5000      8.0359      2.3987      0.0252     15.2282    120.1514     23.0622
   431.6000      8.0359      2.4147      0.0105     14.2604    119.5436     23.2618
   431.7000      8.0359      2.4250      0.0445     13.6350    119.6090     23.3584
   431.8000      8.0342      2.4102      0.0281     14.5340    122.1012     23.6046
   431.9000      8.0342      2.3843     -0.0462     16.1011    126.4235     24.0212
   432.0000      8.0325      2.3799     -0.0302     16.3696    128.5750     24.2738
   432.1000      8.0325      2.3982     -0.0055     15.2628    126.2134     24.1217
   432.2000      8.0325      2.4152      0.0246     14.2289    121.4671     23.6997
   432.3000      8.0055      2.4177      0.0216     14.0810    117.7417     23.3445
