~Version Information
VERS.                      2.0: CWLS Log ASCII Standard - VERSION 2.0
WRAP.                       NO: One line per depth step
~Well Information Block
STRT.FT                -8.2500: 
STOP.FT              1580.5000: 
STEP.FT                 0.2500: 
NULL.                -999.2500: 
COMP.          Pioneer Natural Resources: COMPANY
WELL.          Daytona 31-14 Tr: WELL
FLD.           Purgatorie River: FIELD
LOC.           683' FNL & 1943' FEL--: LOCATION
CNTY.               Las Animas: COUNTY
SRVC.          Patterson Wireline: SERVICE COMPANY
DATE.          Thu Feb 02 08:47:22 2006: LOG DATE
UWI.           05 071 08681 00: UNIQUE WELL ID
STAT.                       CO: STATE
~Curve Information Block
DEPT.FT            0 000 00 00: Depth
CCL.                          : Casing Collar Locator
TT3.usec                      : CBL 3' Travel Time
AMP3.mV                       : CBL 3' Amplitude
GR.GAPI                       : Gamma Ray
~Parameter Information Block
~A  Depth       CCL         TT3         AMP3         GR     
# ...
  1432.2500      0.0000    486.5309      3.7328     87.5074
  1432.5000      0.0000    486.7134      3.7433     86.3874
  1432.7500      0.0000    489.5881      3.7608     83.5297
  1433.0000      0.0000    495.9821      3.7837     80.1191
  1433.2500      0.0000    505.4465      3.8063     76.8668
  1433.5000      0.0000    517.6487      3.8205     73.5234
  1433.7500      0.0000    534.0271      3.8202     69.5017
  1434.0000      0.0000    556.8894      3.8035     64.8359
  1434.2500      0.0000    585.6494      3.7743     60.4766
  1434.5000      0.0000    614.3118      3.7413     57.8484
  1434.7500      0.0000    634.0128      3.7140     58.1255
  1435.0000      0.0000    638.4623      3.6961     61.6306
  1435.2500      0.0000    626.9570      3.6820     67.6565
  1435.5000      0.0000    603.7167      3.6625     74.7970
  1435.7500      0.0000    575.8159      3.6339     81.5418
  1436.0000      0.0000    550.5110      3.6001     86.8010
  1436.2500      0.0000    532.2371      3.5658     90.2573
  1436.5000      0.0000    521.3554      3.5327     92.4430
  1436.7500      0.0000    515.6916      3.5016     94.3872
  1437.0000      0.0000    512.8849      3.4750     96.7258
  1437.2500      0.0000    511.4775      3.4558     98.8865
  1437.5000      0.0000    510.8163      3.4439     99.4053
  1437.7500      0.0000    510.6505      3.4350     97.3515
  1438.0000      0.0000    510.8584      3.4213     93.2531
  1438.2500      0.0000    511.2936      3.3951     88.5798
  1438.5000      0.0000    511.7653      3.3534     84.6916
  1438.7500      0.0000    512.0675      3.3006     82.3768
  1439.0000      0.0000    511.9609      3.2479     81.8693
  1439.2500      0.0000    511.0554      3.2091     82.8578
  1439.5000      0.0000    508.8066      3.1964     84.5225
  1439.7500      0.0000    505.0233      3.2149     85.8380
  1440.0000      0.0000    500.9318      3.2584     86.1379
  1440.2500      0.0000    499.9269      3.3100     85.5369
  1440.5000      0.0000    507.0362      3.3521     84.7028
  1440.7500      0.0000    527.0939      3.3784     84.1174
  1441.0000      0.0000    562.1439      3.3931     83.6277
  1441.2500      0.0000    608.8175      3.3990     82.8567
  1441.5000      0.0000    657.9729      3.3939     81.8675
  1441.7500      0.0000    698.6368      3.3806     81.1518
  1442.0000      0.0000    723.5049      3.3754     81.0060
  1442.2500      0.0000    730.4213      3.3984     81.0955
  1442.5000      0.0000    719.4202      3.4506     80.5810
  1442.7500      0.0000    690.5777      3.5055     78.7019
  1443.0000      0.0000    645.6896      3.5282     75.5726
  1443.2500      0.0000    590.7344      3.5054     72.6528
  1443.5000      0.0000    535.1557      3.4527     72.1352
  1443.7500      0.0000    488.5144      3.3968     75.2175
  1444.0000      0.0000    457.5074      3.3553     80.8123
  1444.2500      0.0000    444.6932      3.3312     86.3179
  1444.5000      0.0000    448.2643      3.3186     89.5963
  1444.7500      0.0000    462.0214      3.3122     89.8956
  1445.0000      0.0000    476.1407      3.3116     87.4054
  1445.2500      0.0000    481.0332      3.3188     82.9557
  1445.5000      0.0000    473.9732      3.3328     78.1116
  1445.7500      0.0000    462.0724      3.3464     74.5078
  1446.0000      0.0000    457.2602      3.3509     72.5048
  1446.2500      0.0000    468.4353      3.3414     70.9847
  1446.5000      0.0000    497.7569      3.3209     68.8690
  1446.7500      0.0000    540.8597      3.2979     66.3726
  1447.0000      0.0000    588.4813      3.2812     64.4294
  1447.2500      0.0000    629.7064      3.2757     63.5256
  1447.5000      0.0000    655.7967      3.2831     63.7332
  1447.7500      0.0000    661.9093      3.3030     65.3991
  1448.0000      0.0000    647.1645      3.3310     69.0047
  1448.2500      0.0000    615.3491      3.3586     74.4081
  1448.5000      0.0000    575.0117      3.3773     80.5657
  1448.7500      0.0000    536.4190      3.3855     85.9207
  1449.0000      0.0000    506.8098      3.3888     89.0228
  1449.2500      0.0000    488.0546      3.3926     89.1830
  1449.5000      0.0000    478.0245      3.3966     86.8356
  1449.7500      0.0000    473.3678      3.3968     83.2870
  1450.0000      0.0000    471.4407      3.3905     80.0207
  1450.2500      0.0000    470.8761      3.3790     78.1002
  1450.5000      0.0000    471.4399      3.3641     78.0298
  1450.7500      0.0000    473.6698      3.3462     79.8281
  1451.0000      0.0000    478.3009      3.3245     82.9272
  1451.2500      0.0000    485.4973      3.3002     86.1472
  1451.5000      0.0000    494.4917      3.2782     88.2205
  1451.7500      0.0000    504.3123      3.2659     88.4654
  1452.0000      0.0000    514.9675      3.2671     86.8395
  1452.2500      0.0000    527.7751      3.2785     83.5406
  1452.5000      0.0000    544.5584      3.2938     78.9071
  1452.7500      0.0000    566.2810      3.3119     73.5527
  1453.0000      0.0000    591.6600      3.3393     68.2362
  1453.2500      0.0000    616.9908      3.3825     63.6380
  1453.5000      0.0000    638.4208      3.4389     60.3996
  1453.7500      0.0000    654.8170      3.4963     59.2725
  1454.0000      0.0000    667.6718      3.5406     60.9688
  1454.2500      0.0000    678.3593      3.5641     65.7676
  1454.5000      0.0000    686.6081      3.5700     73.5313
  1454.7500      0.0000    691.6237      3.5682     84.3123
  1455.0000      0.0000    693.2333      3.5669     98.5862
  1455.2500      0.0000    691.4849      3.5673    116.4374
  1455.5000      0.0000    686.9097      3.5660    136.5797
  1455.7500      0.0000    682.6168      3.5599    156.1416
  1456.0000      0.0000    684.2449      3.5495    171.1517
  1456.2500      0.0000    695.1453      3.5380    178.0711
  1456.5000      0.0000    712.2773      3.5293    176.3915
  1456.7500      0.0000    728.7805      3.5216    169.7725
  1457.0000      0.0000    739.8585      3.5057    163.4457
  1457.2500      0.0000    744.9702      3.4741    160.4006
  1457.5000      0.0000    745.6005      3.4323    160.4510
  1457.7500      0.0000    742.6651      3.3977    162.0395
  1458.0000      0.0000    735.9332      3.3841    163.9828
  1458.2500      0.0000    724.7419      3.3913    166.1278
  1458.5000      0.0000    708.9152      3.4100    169.1160
  1458.7500      0.0000    690.0500      3.4354    173.1651
  1459.0000      0.0000    672.7635      3.4740    176.8549
  1459.2500      0.0000    663.3119      3.5412    177.5614
  1459.5000      0.0000    664.8337      3.6463    173.1539
  1459.7500      0.0000    674.2791      3.7757    163.1447
  1460.0000      0.0000    685.3375      3.8924    148.7189
  1460.2500      0.0000    693.6089      3.9603    132.2671
  1460.5000      0.0000    698.1167      3.9735    116.9109
  1460.7500      0.0000    699.5052      3.9590    105.9503
  1461.0000      0.0000    698.6930      3.9486    101.8823
  1461.2500      0.0000    696.8785      3.9479    105.2654
  1461.5000      0.0000    695.3567      3.9360    114.5012
  1461.7500      0.0000    694.7891      3.8925    126.9541
  1462.0000      0.0000    694.7774      3.8226    140.3311
  1462.2500      0.0000    694.0776      3.7559    153.1786
  1462.5000      0.0000    690.9231      3.7216    164.4880
  1462.7500      0.0000    683.5472      3.7250    172.9490
  1463.0000      0.0000    671.9352      3.7455    176.4910
  1463.2500      0.0000    659.9423      3.7571    173.2428
  1463.5000      0.0000    654.1268      3.7496    163.9263
  1463.7500      0.0000    658.5063      3.7331    153.1024
  1464.0000      0.0000    670.6961      3.7256    146.7660
  1464.2500      0.0000    684.0927      3.7397    147.9091
  1464.5000      0.0000    693.3387      3.7731    154.5383
  1464.7500      0.0000    697.4284      3.8083    161.9904
  1465.0000      0.0000    698.9465      3.8224    166.6939
  1465.2500      0.0000    701.5591      3.8036    167.7975
  1465.5000      0.0000    707.7172      3.7570    166.5319
