~Version Information
VERS.                      2.0: CWLS Log ASCII Standard - VERSION 2.0
WRAP.                       NO: One line per depth step
~Well Information Block
STRT.FT               620.0000: 
STOP.FT              3067.2500: 
STEP.FT                 0.2500: 
NULL.                -999.2500: 
COMP.          Pioneer Natural Resources: COMPANY
WELL.          Interceptor 43-13 Kv: WELL
FLD.           Purgatoire River: FIELD
LOC.           2073' FSL & 519' FEL--: LOCATION
PROV.                 Colorado: PROVINCE
CNTY.               Las Animas: COUNTRY
SRVC.                Patterson: SERVICE COMPANY
DATE.          Sat Jan 14 19:35:17 2006: LOG DATE
UWI.           05 071 08655 00: UNIQUE WELL ID
~Curve Information Block
DEPT.FT            0 000 00 00: Depth
SN.Ohm-m                      : IEL Short Normal
SP.mV                         : IEL Spontaneous Potential
DIR.Ohm-m                     : IEL Induction Resistivity
GR.GAPI                       : Gamma Ray
~Parameter Information Block
~A  Depth        SN          SP         DIR          GR     
# ...
  1089.0000   2000.0000   1977.0000     21.2657    128.9788
  1089.2500   2000.0000   1977.0000     20.8500    128.7479
  1089.5000   2000.0000   1977.0000     20.4150    127.3275
  1089.7500   2000.0000   1977.0000     20.0137    126.2350
  1090.0000   2000.0000   1977.0000     19.6992    125.0110
  1090.2500   2000.0000   1977.0000     19.5132    124.4030
  1090.5000   2000.0000   1977.0000     19.4801    123.0394
  1090.7500   2000.0000   1977.0000     19.5999    121.4515
  1091.0000   2000.0000   1977.0000     19.8450    118.2886
  1091.2500   2000.0000   1977.0000     20.1651    116.2288
  1091.5000   2000.0000   1977.0000     20.5032    114.0191
  1091.7500   2000.0000   1977.0000     20.8138    113.1009
  1092.0000   2000.0000   1977.0000     21.0709    111.7776
  1092.2500   2000.0000   1977.0000     21.2659    110.4924
  1092.5000   2000.0000   1977.0000     21.4049    107.9211
  1092.7500   2000.0000   1977.0000     21.5101    106.2514
  1093.0000   2000.0000   1977.0000     21.6197    105.0583
  1093.2500   2000.0000   1977.0000     21.7775    105.6361
  1093.5000   2000.0000   1977.0000     22.0170    108.3212
  1093.7500   2000.0000   1977.0000     22.3491    110.6627
  1094.0000   2000.0000   1977.0000     22.7613    113.8552
  1094.2500   2000.0000   1977.0000     23.2253    115.3368
  1094.5000   2000.0000   1977.0000     23.7106    116.1066
  1094.7500   2000.0000   1977.0000     24.1961    115.5085
  1095.0000   2000.0000   1977.0000     24.6749    113.1405
  1095.2500   2000.0000   1977.0000     25.1535    110.9506
  1095.5000   2000.0000   1977.0000     25.6497    107.5801
  1095.7500   2000.0000   1977.0000     26.1883    105.7788
  1096.0000   2000.0000   1977.0000     26.7945    104.4699
  1096.2500   2000.0000   1977.0000     27.4822    104.6746
  1096.5000   2000.0000   1977.0000     28.2401    106.0091
  1096.7500   2000.0000   1977.0000     29.0258    106.7439
  1097.0000   2000.0000   1977.0000     29.7743    105.9727
  1097.2500   2000.0000   1977.0000     30.4223    103.7431
  1097.5000   2000.0000   1977.0000     30.9409     98.6059
  1097.7500   2000.0000   1977.0000     31.3559     95.1195
  1098.0000   2000.0000   1977.0000     31.7375     91.4107
  1098.2500   2000.0000   1977.0000     32.1637     90.0479
  1098.5000   2000.0000   1977.0000     32.6845     88.4884
  1098.7500   2000.0000   1977.0000     33.3062     86.9673
  1099.0000   2000.0000   1977.0000     33.9970     83.6621
  1099.2500   2000.0000   1977.0000     34.7072     81.3443
  1099.5000   2000.0000   1977.0000     35.3921     78.9270
  1099.7500   2000.0000   1977.0000     36.0284     78.2434
  1100.0000   2000.0000   1977.0000     36.6170     77.9660
  1100.2500   2000.0000   1977.0000     37.1693     77.7438
  1100.5000   2000.0000   1977.0000     37.6884     76.8987
  1100.7500   2000.0000   1977.0000     38.1592     76.0314
  1101.0000   2000.0000   1977.0000     38.5530     74.5379
  1101.2500   2000.0000   1977.0000     38.8395     73.6114
  1101.5000   2000.0000   1977.0000     38.9971     72.7289
  1101.7500   2000.0000   1977.0000     39.0147     72.6001
  1102.0000   2000.0000   1977.0000     38.8937     72.7914
  1102.2500   2000.0000   1977.0000     38.6539     72.8219
  1102.5000   2000.0000   1977.0000     38.3372     72.5355
  1102.7500   2000.0000   1977.0000     37.9990     72.4163
  1103.0000   2000.0000   1977.0000     37.6894     72.8405
  1103.2500   2000.0000   1977.0000     37.4374     73.3365
  1103.5000   2000.0000   1977.0000     37.2475     73.4768
  1103.7500   2000.0000   1977.0000     37.1071     72.8821
  1104.0000   2000.0000   1977.0000     36.9920     71.5086
  1104.2500   2000.0000   1977.0000     36.8719     70.8927
  1104.5000   2000.0000   1977.0000     36.7230     71.0193
  1104.7500   2000.0000   1977.0000     36.5469     71.6567
  1105.0000   2000.0000   1977.0000     36.3757     72.7431
  1105.2500   2000.0000   1977.0000     36.2505     73.2473
  1105.5000   2000.0000   1977.0000     36.1888     73.4713
  1105.7500   2000.0000   1977.0000     36.1699     73.1811
  1106.0000   2000.0000   1977.0000     36.1485     72.0120
  1106.2500   2000.0000   1977.0000     36.0849     70.9334
  1106.5000   2000.0000   1977.0000     35.9658     69.5920
  1106.7500   2000.0000   1977.0000     35.8065     69.3133
  1107.0000   2000.0000   1977.0000     35.6392     70.2837
  1107.2500   2000.0000   1977.0000     35.4996     71.8889
  1107.5000   2000.0000   1977.0000     35.4163     75.1680
  1107.7500   2000.0000   1977.0000     35.4007     77.2446
  1108.0000   2000.0000   1977.0000     35.4406     79.0230
  1108.2500   2000.0000   1977.0000     35.5054     79.0722
  1108.5000   2000.0000   1977.0000     35.5685     77.9439
  1108.7500   2000.0000   1977.0000     35.6326     76.9023
  1109.0000   2000.0000   1977.0000     35.7367     75.4403
  1109.2500   2000.0000   1977.0000     35.9330     74.5051
  1109.5000   2000.0000   1977.0000     36.2470     72.8970
  1109.7500   2000.0000   1977.0000     36.6539     71.7299
  1110.0000   2000.0000   1977.0000     37.0864     70.3525
  1110.2500   2000.0000   1977.0000     37.4702     69.9605
  1110.5000   2000.0000   1977.0000     37.7598     70.1452
  1110.7500   2000.0000   1977.0000     37.9531     70.5196
  1111.0000   2000.0000   1977.0000     38.0839     70.8806
  1111.2500   2000.0000   1977.0000     38.2052     70.7635
  1111.5000   2000.0000   1977.0000     38.3729     70.1838
  1111.7500   2000.0000   1977.0000     38.6334     69.9170
  1112.0000   2000.0000   1977.0000     39.0112     70.3425
  1112.2500   2000.0000   1977.0000     39.5053     71.1875
  1112.5000   2000.0000   1977.0000     40.1012     72.6282
  1112.7500   2000.0000   1977.0000     40.7896     73.2134
  1113.0000   2000.0000   1977.0000     41.5705     73.1689
  1113.2500   2000.0000   1977.0000     42.4286     72.7628
  1113.5000   2000.0000   1977.0000     43.3011     72.4151
  1113.7500   2000.0000   1977.0000     44.0740     72.6212
  1114.0000   2000.0000   1977.0000     44.6268     73.2765
  1114.2500   2000.0000   1977.0000     44.8974     73.6548
  1114.5000   2000.0000   1977.0000     44.9137     74.2372
  1114.7500   2000.0000   1977.0000     44.7636     75.0020
  1115.0000   2000.0000   1977.0000     44.5287     77.1782
  1115.2500   2000.0000   1977.0000     44.2348     79.2617
  1115.5000   2000.0000   1977.0000     43.8514     82.8001
  1115.7500   2000.0000   1977.0000     43.3248     85.0144
  1116.0000   2000.0000   1977.0000     42.6122     87.4931
  1116.2500   2000.0000   1977.0000     41.6891     88.4175
  1116.5000   2000.0000   1977.0000     40.5416     88.9965
  1116.7500   2000.0000   1977.0000     39.1681     89.4073
  1117.0000   2000.0000   1977.0000     37.5980     91.5596
  1117.2500   2000.0000   1977.0000     35.9069     94.8276
  1117.5000   2000.0000   1977.0000     34.2011    102.6352
  1117.7500   2000.0000   1977.0000     32.5810    108.8583
  1118.0000   2000.0000   1977.0000     31.1072    117.2205
  1118.2500   2000.0000   1977.0000     29.7931    120.9883
  1118.5000   2000.0000   1977.0000     28.6180    123.4765
  1118.7500   2000.0000   1977.0000     27.5475    123.6655
  1119.0000   2000.0000   1977.0000     26.5530    123.5578
  1119.2500   2000.0000   1977.0000     25.6234    123.9630
  1119.5000   2000.0000   1977.0000     24.7667    125.0752
  1119.7500   2000.0000   1977.0000     23.9972    125.4807
  1120.0000   2000.0000   1977.0000     23.3183    125.0894
  1120.2500   2000.0000   1977.0000     22.7099    124.7155
  1120.5000   2000.0000   1977.0000     22.1325    125.5360
  1120.7500   2000.0000   1977.0000     21.5453    127.4081
  1121.0000   2000.0000   1977.0000     20.9279    131.4742
  1121.2500   2000.0000   1977.0000     20.2905    134.2549
  1121.5000   2000.0000   1977.0000     19.6653    137.8290
  1121.7500   2000.0000   1977.0000     19.0898    139.8995
  1122.0000   2000.0000   1977.0000     18.5944    143.0297
  1122.2500   2000.0000   1977.0000     18.2009    145.3170
