~Version Information
 VERS.                                  2.0 : CWLS LAS VERSION
 WRAP.                                   NO : WRAPING MODE
 SWARE .                 MController 2.5.0J : SOFTWARE VERSION
~Well Information
 WELL.YWAM 7-32R : WELL
 COMP.                Petrogulf Corporation : COMPANY
 FLD.                      Purgatoire River : FIELD
 LOC.                 SW/NE Sec 7 T33S R67W : LOCATION
 DATE.9/28/05 : DATE(S) LOGGED
 SRVC.       BLANCO Geological Services LLC : SERVICE COMPANY
 STAT.                                   CO : STATE
 CNTY.                           Las Animas : COUNTY
 CTRY.                                  USA : COUNTRY
 API.                       05-071-08518-00 : API NUMBER
 STRT.FT                               1.00 : START DEPTH
 STOP.FT                            2100.00 : STOP DEPTH
 STEP.FT                               1.00 : DEPTH INCREMENT
 NULL.                                -9999 : NULL VALUE
~Curve information
 DEPTH.FT                                   :
 ROP.MIN/FT                                 :
 GAS.UNITS                                  :
~ASCII Log data
# ...
      2001.0         3.42        163.9 
      2002.0         0.77        163.9 
      2003.0         0.70         81.3 
      2004.0         0.77         23.6 
      2005.0         0.82         18.5 
      2006.0         0.93         24.4 
      2007.0         0.83         30.5 
      2008.0         0.67         34.8 
      2009.0         0.78         36.3 
      2010.0         0.73         35.8 
      2011.0         0.67         30.0 
      2012.0         0.67         24.3 
      2013.0         0.67         25.1 
      2014.0         0.65         27.5 
      2015.0         0.60         27.6 
      2016.0         0.53         27.3 
      2017.0         0.63         25.9 
      2018.0         0.80         26.2 
      2019.0         0.82         26.2 
      2020.0         0.90         25.3 
      2021.0         0.83         25.3 
      2022.0         0.70         24.9 
      2023.0         0.68         24.3 
      2024.0         0.60         23.7 
      2025.0         0.60         23.7 
      2026.0         0.63         24.5 
      2027.0         0.93         24.7 
      2028.0         0.75         24.0 
      2029.0         0.67         22.8 
      2030.0         0.57         22.8 
      2031.0         5.13        135.3 
      2032.0         0.57         25.2 
      2033.0         0.63         31.9 
      2034.0         0.43         31.8 
      2035.0         3.12         43.2 
      2036.0         0.47         43.2 
      2037.0         0.40         42.6 
      2038.0         0.75         41.3 
      2039.0         0.47         42.0 
      2040.0         0.37         44.4 
      2041.0         0.37         45.9 
      2042.0         0.50         45.2 
      2043.0         0.50         43.6 
      2044.0         0.60         40.1 
      2045.0         0.58         32.4 
      2046.0         0.63         23.6 
      2047.0         0.73         23.1 
      2048.0         0.93         23.6 
      2049.0         1.02         22.2 
      2050.0         1.03         24.3 
      2051.0         0.77         25.1 
      2052.0         0.70         24.9 
      2053.0         0.92         24.8 
      2054.0         0.97         24.2 
      2055.0         1.03         23.9 
      2056.0         0.92         23.7 
      2057.0         0.87         23.1 
      2058.0         0.83         22.6 
      2059.0         0.83         23.6 
      2060.0         1.05         28.3 
      2061.0         2.47        120.1 
      2062.0         0.98         99.5 
      2063.0         1.07         32.0 
      2064.0         0.97         21.5 
      2065.0         0.98         21.3 
      2066.0         0.87         24.6 
      2067.0         0.87         24.6 
      2068.0         0.95         24.5 
      2069.0         0.93         24.8 
      2070.0         0.83         24.9 
      2071.0         0.70         23.5 
      2072.0         0.75         23.0 
      2073.0         0.70         22.4 
      2074.0         0.80         23.0 
      2075.0         0.87         23.1 
      2076.0         0.95         22.9 
      2077.0         1.17         22.4 
      2078.0         1.03         21.8 
      2079.0         0.82         22.2 
      2080.0         0.87         22.4 
      2081.0         0.73         22.6 
      2082.0         0.77         22.6 
      2083.0         0.82         22.6 
      2084.0         0.87         22.8 
      2085.0         1.10         22.0 
      2086.0         1.22         21.5 
      2087.0         0.80         21.8 
      2088.0         0.63         22.3 
      2089.0         0.60         22.6 
      2090.0         0.63         23.7 
      2091.0         2.32         54.5 
      2092.0         1.95        130.9 
      2093.0         1.63        102.8 
      2094.0         1.65         25.5 
      2095.0         1.67         23.4 
      2096.0         1.08         24.3 
      2097.0         0.83         22.9 
      2098.0         0.77         21.3 
      2099.0         0.97         28.8 
      2100.0         0.88         25.8 
