~Version Information
VERS.                      2.0: CWLS Log ASCII Standard - VERSION 2.0
WRAP.                       NO: One line per depth step
~Well Information Block
STRT.FT                -7.7500: 
STOP.FT              1793.5000: 
STEP.FT                 0.2500: 
NULL.                -999.2500: 
COMP.          Pioneer Natural Resources: COMPANY
WELL.           Loews 41-32 Tr: WELL
FLD.           Purgatorie River: FIELD
LOC.           706' FNL & 224' FEL--: LOCATION
CNTY.               Las Animas: COUNTY
SRVC.          Patterson Wireline: SERVICE COMPANY
DATE.          Fri Feb 24 11:31:48 2006: LOG DATE
UWI.           05 071 08690 00: UNIQUE WELL ID
STAT.                       CO: STATE
~Curve Information Block
DEPT.FT            0 000 00 00: Depth
CCL.                          : Casing Collar Locator
TT3.usec                      : CBL 3' Travel Time
AMP3.mV                       : CBL 3' Amplitude
GR.GAPI                       : Gamma Ray
~Parameter Information Block
~A  Depth       CCL         TT3         AMP3         GR     
# ...
   930.2500      0.0000    489.2992     17.7365    112.5931
   930.5000      0.0000    478.5241     18.0912    106.3182
   930.7500      0.0000    487.4538     17.9835    103.8328
   931.0000      0.0000    507.4942     17.7682    106.6257
   931.2500      0.0000    528.3116     17.6618    113.1471
   931.5000      0.0000    536.4344     17.7214    120.3186
   931.7500      0.0000    519.8633     17.9279    125.6627
   932.0000      0.0000    480.6995     18.2033    128.2880
   932.2500      0.0000    437.6693     18.4193    128.6786
   932.5000      0.0000    411.5089     18.4743    127.9880
   932.7500      0.0000    409.6946     18.3817    127.3310
   933.0000      0.0000    424.1378     18.2607    127.1367
   933.2500      0.0000    438.7405     18.2345    126.7209
   933.5000      0.0000    439.4713     18.3383    124.7372
   933.7500      0.0000    422.7054     18.5129    120.4426
   934.0000      0.0000    396.3902     18.6643    114.5151
   934.2500      0.0000    372.1896     18.7286    108.5957
   934.5000      0.0000    356.5223     18.7072    104.2429
   934.7500      0.0000    348.8712     18.6570    102.2449
   935.0000      0.0000    345.8211     18.6472    102.4306
   935.2500      0.0000    344.6306     18.7145    103.7855
   935.5000      0.0000    344.0119     18.8525    105.0392
   935.7500      0.0000    343.5326     19.0367    105.6366
   936.0000      0.0000    343.1142     19.2482    106.1923
   936.2500      0.0000    342.7831     19.4723    107.7947
   936.5000      0.0000    342.6004     19.6870    110.9654
   936.7500      0.0000    342.5721     19.8600    115.3502
   937.0000      0.0000    342.6343     19.9576    120.1599
   937.2500      0.0000    342.7255     19.9612    124.6649
   937.5000      0.0000    342.8627     19.8824    128.3285
   937.7500      0.0000    343.2249     19.7560    130.7416
   938.0000      0.0000    344.2886     19.6102    131.6560
   938.2500      0.0000    346.9881     19.4441    131.0227
   938.5000      0.0000    352.3731     19.2415    129.0509
   938.7500      0.0000    360.2975     19.0049    126.5472
   939.0000      0.0000    368.1736     18.7694    125.0288
   939.2500      0.0000    372.3922     18.5786    125.6499
   939.5000      0.0000    372.7755     18.4514    127.6714
   939.7500      0.0000    375.8306     18.3706    128.6067
   940.0000      0.0000    392.0746     18.3034    126.2580
   940.2500      0.0000    427.1413     18.2301    120.3113
   940.5000      0.0000    472.3607     18.1566    112.1536
   940.7500      0.0000    505.2455     18.1101    103.9807
   941.0000      0.0000    505.1919     18.1254     97.9958
   941.2500      0.0000    471.4431     18.2275     95.4284
   941.5000      0.0000    422.8798     18.4209     95.8980
   941.7500      0.0000    380.2064     18.6984     97.9660
   942.0000      0.0000    351.7147     19.0480    100.2929
   942.2500      0.0000    334.6355     19.4457    102.1429
   942.5000      0.0000    323.8035     19.8476    103.0979
   942.7500      0.0000    316.4767     20.2029    102.8204
   943.0000      0.0000    311.8591     20.4752    101.2684
   943.2500      0.0000    309.4265     20.6525     98.9855
   943.5000      0.0000    308.3967     20.7432     97.0065
   943.7500      0.0000    308.0282     20.7703     96.3314
   944.0000      0.0000    307.8787     20.7685     97.3526
   944.2500      0.0000    307.7636     20.7744     99.6176
   944.5000      0.0000    307.6361     20.8091    102.0469
   944.7500      0.0000    307.5010     20.8674    103.5922
   945.0000      0.0000    307.3756     20.9289    103.9887
   945.2500      0.0000    307.2740     20.9808    103.9554
   945.5000      0.0000    307.2032     21.0253    104.4928
   945.7500      0.0000    307.1679     21.0696    105.9510
   946.0000      0.0000    307.1668     21.1180    108.0144
   946.2500      0.0000    307.1854     21.1772    110.5903
   946.5000      0.0000    307.2005     21.2586    114.1442
   946.7500      0.0000    307.1921     21.3725    118.7657
   947.0000      0.0000    307.1435     21.5249    123.4436
   947.2500      0.0000    307.0419     21.7172    127.0986
   947.5000      0.0000    306.8958     21.9350    129.9510
   947.7500      0.0000    306.7538     22.1367    132.9001
   948.0000      0.0000    306.6912     22.2677    135.9088
   948.2500      0.0000    306.7619     22.2964    137.9026
   948.5000      0.0000    306.9550     22.2395    137.8670
   948.7500      0.0000    307.1917     22.1509    135.3130
   949.0000      0.0000    307.3736     22.0807    130.2613
   949.2500      0.0000    307.4547     22.0331    123.7620
   949.5000      0.0000    307.4852     21.9623    118.1824
   949.7500      0.0000    307.6394     21.8158    116.0424
   950.0000      0.0000    308.3258     21.5833    118.2171
   950.2500      0.0000    310.6759     21.2991    123.2463
   950.5000      0.0000    317.5110     20.9990    128.1270
   950.7500      0.0000    334.2825     20.6862    130.0780
   951.0000      0.0000    368.3188     20.3390    128.4632
   951.2500      0.0000    424.6037     19.9408    125.3395
   951.5000      0.0000    499.6058     19.4984    123.7573
   951.7500      0.0000    579.4331     19.0367    125.3767
   952.0000      0.0000    646.8347     18.5841    129.5955
   952.2500      0.0000    691.7678     18.1646    134.6564
   952.5000      0.0000    715.3710     17.8017    139.3306
   952.7500      0.0000    725.1928     17.5217    143.3279
   953.0000      0.0000    728.5420     17.3431    146.4187
   953.2500      0.0000    729.5887     17.2566    148.2039
   953.5000      0.0000    729.6782     17.2212    148.8769
   953.7500      0.0000    728.0818     17.1938    149.4674
   954.0000      0.0000    721.9324     17.1664    151.1339
   954.2500      0.0000    706.3847     17.1779    154.3595
   954.5000      0.0000    676.9904     17.2828    158.4796
   954.7500      0.0000    634.4783     17.4971    161.9133
   955.0000      0.0000    587.8353     17.7676    163.3376
   955.2500      0.0000    551.3845     17.9950    162.6207
   955.5000      0.0000    537.5877     18.0960    160.4091
   955.7500      0.0000    551.2426     18.0544    157.3388
   956.0000      0.0000    587.5507     17.9215    154.0980
   956.2500      0.0000    633.8947     17.7623    151.5778
   956.5000      0.0000    675.6302     17.5944    149.9628
   956.7500      0.0000    703.4250     17.3836    147.8774
   957.0000      0.0000    716.4286     17.0980    143.2364
   957.2500      0.0000    719.4402     16.7625    134.9396
   957.5000      0.0000    717.8688     16.4540    123.3864
   957.7500      0.0000    714.1094     16.2471    109.9309
   958.0000      0.0000    705.6708     16.1711     96.4294
   958.2500      0.0000    685.2643     16.2228     84.8392
   958.5000      0.0000    644.7271     16.4145     76.4615
   958.7500      0.0000    582.5269     16.7917     71.5426
   959.0000      0.0000    508.3521     17.3975     69.7859
   959.2500      0.0000    438.1990     18.2215     70.8551
   959.5000      0.0000    383.8986     19.1889     74.0414
   959.7500      0.0000    347.9351     20.2009     77.7964
   960.0000      0.0000    326.5935     21.1905     80.4245
   960.2500      0.0000    315.0042     22.1444     81.3973
   960.5000      0.0000    309.3036     23.0718     81.3978
   960.7500      0.0000    306.7875     23.9518     80.9931
   961.0000      0.0000    305.7803     24.7067     79.9045
   961.2500      0.0000    305.4941     25.2150     77.6174
   961.5000      0.0000    305.7922     25.3465     74.0767
   961.7500      0.0000    307.0256     25.0166     69.8762
   962.0000      0.0000    309.8090     24.2537     66.3334
   962.2500      0.0000    314.4997     23.2312     65.0703
   962.5000      0.0000    320.4391     22.2190     66.6760
   962.7500      0.0000    325.6475     21.4779     69.7500
   963.0000      0.0000    327.7466     21.1631     71.8192
   963.2500      0.0000    325.6803     21.2829     71.2209
   963.5000      0.0000    320.5960     21.7265     67.9552
