~Version Information
VERS.                      2.0: CWLS Log ASCII Standard - VERSION 2.0
WRAP.                       NO: One line per depth step
~Well Information Block
STRT.FT               529.2000: 
STOP.FT              1325.2000: 
STEP.FT                 0.1000: 
NULL.                -999.2500: 
COMP.          Pioneer Natural Resources: COMPANY
WELL.            Erin 21-15 Tr: WELL
FLD.           Purgatoire River: FIELD
LOC.           1217' FNL & 2284' FWL--: LOCATION
CNTY.               Las Animas: COUNTY
SRVC.                Patterson: SERVICE COMPANY
DATE.          Mon Mar 06 14:26:48 2006: LOG DATE
UWI.           05 071 08712 00: UNIQUE WELL ID
STAT.                 Colorado: STATE
~Curve Information Block
DEPT.FT            0 000 00 00: Depth
DCAL.in                       : CDL Caliper
RHOB.g/cc                     : CDL Bulk Density
RHOC.g/cc                     : CDL Density Correction
DPOR.pu                       : CDL Density Porosity
GR.GAPI                       : Gamma Ray
~Parameter Information Block
~A  Depth       DCAL        RHOB        RHOC        DPOR         GR     
# ...
  1190.0000      7.8915      2.5712      0.0635      4.7732    141.8468
  1190.1000      7.8915      2.5652      0.0465      5.1394    145.9336
  1190.2000      7.8915      2.5528      0.0492      5.8908    151.4049
  1190.3000      7.8919      2.5433      0.0136      6.4683    153.5083
  1190.4000      7.8919      2.5324      0.0978      7.1284    153.1515
  1190.5000      7.8915      2.5083      0.0141      8.5892    152.4456
  1190.6000      7.8915      2.4826      0.0199     10.1430    150.2076
  1190.7000      7.8915      2.4716      0.0064     10.8112    147.1520
  1190.8000      7.8901      2.4754      0.0385     10.5817    146.3566
  1190.9000      7.8901      2.4901      0.0180      9.6885    148.0936
  1191.0000      7.8890      2.5133      0.0405      8.2879    150.5045
  1191.1000      7.8890      2.5367      0.0619      6.8671    152.8423
  1191.2000      7.8890      2.5507      0.0732      6.0183    156.6795
  1191.3000      7.8911      2.5581      0.0625      5.5708    162.0691
  1191.4000      7.8911      2.5673      0.0598      5.0098    166.3214
  1191.5000      7.8932      2.5735      0.1154      4.6370    166.0951
  1191.6000      7.8932      2.5686      0.0839      4.9331    161.4679
  1191.7000      7.8932      2.5598      0.0837      5.4680    157.4795
  1191.8000      7.8933      2.5551      0.0708      5.7501    156.6913
  1191.9000      7.8933      2.5540      0.0953      5.8199    156.0797
  1192.0000      7.8936      2.5566      0.0814      5.6589    154.9682
  1192.1000      7.8936      2.5670      0.0731      5.0326    155.0955
  1192.2000      7.8936      2.5822      0.1020      4.1112    153.0132
  1192.3000      7.8931      2.5958      0.0873      3.2853    144.1357
  1192.4000      7.8931      2.6087      0.0779      2.5017    132.5766
  1192.5000      7.8914      2.6186      0.0946      1.9020    125.9513
  1192.6000      7.8914      2.6183      0.1018      1.9219    125.2136
  1192.7000      7.8914      2.6083      0.1146      2.5301    126.2001
  1192.8000      7.8913      2.5973      0.0486      3.1964    123.2919
  1192.9000      7.8913      2.5943      0.0522      3.3758    115.6479
  1193.0000      7.8921      2.5966      0.0697      3.2373    108.0028
  1193.1000      7.8921      2.5956      0.0263      3.2955    104.8506
  1193.2000      7.8921      2.5939      0.0223      3.3993    106.9070
  1193.3000      7.8910      2.5986      0.0389      3.1140    110.6111
  1193.4000      7.8910      2.6083      0.0600      2.5259    110.7057
  1193.5000      7.8883      2.6140      0.0662      2.1792    105.2505
  1193.6000      7.8883      2.6130      0.0782      2.2404     97.7186
  1193.7000      7.8883      2.6100      0.0848      2.4263     92.1354
  1193.8000      7.8869      2.6030      0.0939      2.8505     87.2999
  1193.9000      7.8869      2.5868      0.0556      3.8296     80.5185
  1194.0000      7.8879      2.5708      0.0446      4.7985     74.4284
  1194.1000      7.8879      2.5645      0.0792      5.1804     69.9524
  1194.2000      7.8879      2.5618      0.0487      5.3459     65.3880
  1194.3000      7.8903      2.5616      0.0230      5.3555     63.9160
  1194.4000      7.8903      2.5692      0.0298      4.8999     67.1301
  1194.5000      7.8925      2.5778      0.0629      4.3782     71.6047
  1194.6000      7.8925      2.5839      0.0134      4.0062     76.6564
  1194.7000      7.8925      2.5981      0.0682      3.1430     83.3199
  1194.8000      7.8939      2.6166      0.0899      2.0261     89.7096
  1194.9000      7.8939      2.6238      0.0477      1.5880     92.8754
  1195.0000      7.8941      2.6161      0.0988      2.0550     91.9889
  1195.1000      7.8941      2.6000      0.0796      3.0319     89.8092
  1195.2000      7.8941      2.5942      0.0532      3.3818     92.3061
  1195.3000      7.8940      2.6104      0.0792      2.4019    100.9081
  1195.4000      7.8940      2.6313      0.1292      1.1361    105.7490
  1195.5000      7.8932      2.6364      0.0674      0.8268     99.1883
  1195.6000      7.8932      2.6284      0.0690      1.3071     87.7206
  1195.7000      7.8932      2.6188      0.0858      1.8931     77.6725
  1195.8000      7.8913      2.6111      0.1009      2.3606     70.7131
  1195.9000      7.8913      2.6057      0.0576      2.6828     67.8340
  1196.0000      7.8888      2.5997      0.0709      3.0466     66.1671
  1196.1000      7.8888      2.5892      0.0242      3.6865     62.1073
  1196.2000      7.8888      2.5811      0.0048      4.1736     55.9518
  1196.3000      7.8882      2.5859      0.0180      3.8852     54.0710
  1196.4000      7.8882      2.6023      0.0898      2.8926     57.5751
  1196.5000      7.8902      2.6104      0.0760      2.4004     58.5445
  1196.6000      7.8902      2.5923      0.0691      3.4996     53.6302
  1196.7000      7.8902      2.5680     -0.0222      4.9692     47.4065
  1196.8000      7.8911      2.5739      0.0314      4.6140     45.6078
  1196.9000      7.8911      2.6004      0.0987      3.0037     48.2140
  1197.0000      7.8903      2.6096      0.1038      2.4492     50.9374
  1197.1000      7.8903      2.5909      0.0558      3.5795     52.7086
  1197.2000      7.8903      2.5674      0.0220      5.0073     55.3577
  1197.3000      7.8902      2.5612      0.0443      5.3843     58.3439
  1197.4000      7.8902      2.5712      0.0295      4.7737     58.5076
  1197.5000      7.8913      2.5848      0.0674      3.9497     56.5223
  1197.6000      7.8913      2.5960      0.0241      3.2713     59.3219
  1197.7000      7.8913      2.6079      0.0389      2.5525     67.2848
  1197.8000      7.8907      2.6151      0.0980      2.1135     70.9479
  1197.9000      7.8907      2.6057      0.0571      2.6848     67.7729
  1198.0000      7.8882      2.5748      0.0685      4.5603     65.1842
  1198.1000      7.8882      2.5279      0.0608      7.4011     67.5599
  1198.2000      7.8882      2.4916     -0.0271      9.5982     72.3650
  1198.3000      7.8889      2.4875     -0.0137      9.8508     76.7711
  1198.4000      7.8889      2.4952      0.0284      9.3829     81.1451
  1198.5000      7.8966      2.4841      0.0428     10.0572     87.3026
  1198.6000      7.8966      2.4607     -0.0274     11.4729     97.1458
  1198.7000      7.8966      2.4515     -0.0137     12.0288    110.5781
  1198.8000      7.9071      2.4557      0.0377     11.7751    126.9730
  1198.9000      7.9071      2.4584      0.0327     11.6092    143.8828
  1199.0000      7.9140      2.4559      0.0486     11.7632    156.0879
  1199.1000      7.9140      2.4380      0.0539     12.8507    161.4370
  1199.2000      7.9140      2.3900      0.0404     15.7605    163.1436
  1199.3000      7.9189      2.3117      0.0121     20.5059    163.8035
  1199.4000      7.9189      2.2116      0.0103     26.5676    162.8987
  1199.5000      7.9251      2.0959     -0.0264     33.5841    160.2699
  1199.6000      7.9251      1.9760     -0.0678     40.8456    156.4081
  1199.7000      7.9251      1.8660     -0.0819     47.5140    151.8779
  1199.8000      7.9344      1.7714     -0.1019     53.2475    148.1480
  1199.9000      7.9344      1.7088     -0.1687     57.0450    142.9409
  1200.0000      7.9483      1.7032     -0.1206     57.3843    133.9959
  1200.1000      7.9483      1.7569     -0.0417     54.1280    125.2317
  1200.2000      7.9483      1.8560      0.0642     48.1187    118.6043
  1200.3000      7.9693      1.9879      0.2041     40.1248    110.8340
  1200.4000      7.9693      2.1374      0.2900     31.0669    105.7668
  1200.5000      7.9882      2.2816      0.3229     22.3264    106.1531
  1200.6000      7.9882      2.3977      0.3086     15.2932    106.4792
  1200.7000      7.9882      2.4771      0.3110     10.4788    105.1522
  1200.8000      7.9891      2.5242      0.2443      7.6229    107.9873
  1200.9000      7.9891      2.5484      0.1986      6.1599    116.1549
  1201.0000      7.9452      2.5588      0.0816      5.5303    123.3182
  1201.1000      7.9452      2.5609      0.0690      5.4004    126.7915
