~Version Information
 VERS.                                  2.0 : CWLS LAS VERSION
 WRAP.                                   NO : WRAPING MODE
 SWARE .                  MController 2.5.1 : SOFTWARE VERSION
~Well Information
 WELL.                        Loews41-32 Tr : WELL
 COMP.  Pioneer Natural Resources USA, Inc. : COMPANY
 FLD.                      Purgatoire River : FIELD
 LOC.             NW/NE Sec. 32, T32S, R67W : LOCATION
 DATE.                           02/20/2006 : DATE(S) LOGGED
 SRVC.                  Entrada GeoSciences : SERVICE COMPANY
 STAT.                             Colorado : STATE
 CNTY.                           Las Animas : COUNTY
 CTRY.                        United States : COUNTRY
 API.                          05-071-08690 : API NUMBER
 STRT.FT                             638.00 : START DEPTH
 STOP.FT                            1825.00 : STOP DEPTH
 STEP.FT                               1.00 : DEPTH INCREMENT
 NULL.                                -9999 : NULL VALUE
~Curve information
 DEPTH.FT                                   :
 ROP.MIN/FT                                 :
 GAS.UNITS                                  :
~ASCII Log data
# ...
     1038.00         0.23          5.7 
     1039.00         0.20          4.9 
     1040.00         0.20          4.7 
     1041.00         0.27          5.1 
     1042.00         0.30          5.9 
     1043.00         0.23          4.9 
     1044.00         0.27          5.0 
     1045.00         0.37          5.4 
     1046.00         0.37          5.1 
     1047.00         0.45          4.7 
     1048.00         0.33          5.0 
     1049.00         0.20          5.8 
     1050.00         0.23          5.6 
     1051.00         0.37          5.3 
     1052.00         0.37          5.6 
     1053.00         0.37          3.3 
     1054.00         0.33          5.0 
     1055.00         0.37          5.1 
     1056.00         0.33          5.0 
     1057.00         0.38          4.3 
     1058.00         0.30          3.6 
     1059.00         0.27          3.9 
     1060.00         0.37          3.2 
     1061.00         0.57          4.0 
     1062.00         0.43          3.4 
     1063.00         0.33          3.0 
     1064.00         0.37          3.6 
     1065.00         0.45          3.6 
     1066.00         0.60          3.7 
     1067.00         0.73          3.5 
     1068.00         0.70          3.7 
     1069.00         0.50          3.0 
     1070.00         0.43          3.2 
     1071.00         0.55          2.8 
     1072.00         0.57          3.5 
     1073.00         0.70          3.9 
     1074.00         0.40          3.0 
     1075.00         0.23          3.2 
     1076.00         0.23          5.1 
     1077.00         0.30          5.9 
     1078.00         0.47          5.5 
     1079.00         0.40          7.6 
     1080.00         0.50          6.9 
     1081.00         0.32          6.3 
     1082.00         0.30          7.1 
     1083.00         0.17          6.6 
     1084.00         0.20          5.1 
     1085.00         0.27          5.7 
     1086.00         0.43          5.5 
     1087.00         0.40          4.7 
     1088.00         0.50          3.5 
     1089.00         0.43          3.7 
     1090.00         0.52          2.2 
     1091.00         0.50          3.1 
     1092.00         0.60          2.7 
     1093.00         0.60          2.4 
     1094.00         0.63          2.0 
     1095.00         0.63          2.4 
     1096.00         0.62          2.2 
     1097.00         0.60          1.9 
     1098.00         0.63          2.1 
     1099.00         0.47          2.8 
     1100.00         0.43          3.4 
     1101.00         0.53          2.7 
     1102.00         0.45          2.7 
     1103.00         0.53          4.7 
     1104.00         0.20          4.0 
     1105.00         0.33          6.3 
     1106.00         0.33          6.9 
     1107.00         0.50          8.0 
     1108.00         0.37          8.2 
     1109.00         0.30          7.2 
     1110.00         0.35          8.5 
     1111.00         0.27          7.2 
     1112.00         0.33          7.8 
     1113.00         0.33          6.7 
     1114.00         0.40          5.3 
     1115.00         0.43          3.2 
     1116.00         0.37          3.9 
     1117.00         0.37          2.9 
     1118.00         0.33          2.5 
     1119.00         0.52          2.7 
     1120.00         0.60          2.2 
     1121.00         0.63          1.8 
     1122.00         0.60          1.7 
     1123.00         0.50          1.7 
     1124.00         0.43          1.9 
     1125.00         0.48          2.0 
     1126.00         0.50          1.8 
     1127.00         0.27          1.2 
     1128.00         0.27          1.6 
     1129.00         0.33          2.2 
     1130.00         0.53          2.4 
     1131.00         0.60          1.8 
     1132.00         0.60          1.8 
     1133.00         0.75          2.2 
     1134.00         0.60          2.4 
     1135.00         0.43          4.0 
     1136.00         0.43          5.3 
     1137.00         0.43          5.6 
     1138.00         0.40          6.3 
     1139.00         0.45          4.4 
     1140.00         0.30          4.5 
     1141.00         0.37          3.1 
     1142.00         0.30          3.7 
     1143.00         0.37          2.8 
     1144.00         0.43          2.8 
     1145.00         0.50          2.6 
     1146.00         0.50          1.5 
     1147.00         0.45          1.3 
     1148.00         0.43          1.5 
     1149.00         0.50          1.5 
     1150.00         0.50          1.3 
     1151.00         0.43          0.9 
     1152.00         0.50          1.4 
     1153.00         0.37          1.3 
     1154.00         0.37          1.8 
     1155.00         0.48          1.3 
     1156.00         0.37          1.7 
     1157.00         0.40          0.6 
     1158.00         0.37          1.2 
     1159.00         0.27          1.2 
     1160.00         0.47          1.5 
     1161.00         0.43          2.1 
     1162.00         0.37          1.9 
     1163.00         0.65          1.9 
     1164.00         0.63          5.0 
     1165.00         0.37          6.8 
     1166.00         0.37          8.7 
     1167.00         0.52          9.8 
     1168.00         0.30          9.8 
     1169.00         0.37          9.8 
     1170.00         0.47          9.4 
     1171.00         0.43          7.7 
     1172.00         0.40          7.2 
     1173.00         0.67          4.2 
     1174.00         0.48          2.5 
     1175.00         0.43          2.6 
     1176.00         0.47          1.0 
     1177.00         0.53          1.5 
     1178.00         0.50          0.9 
     1179.00         0.43          0.8 
     1180.00         0.43          0.6 
     1181.00         0.55          0.5 
     1182.00         0.60          0.9 
     1183.00         0.50          0.2 
     1184.00         0.53          0.4 
     1185.00         0.47          0.8 
     1186.00         0.50          0.4 
     1187.00         0.50          0.9 
     1188.00         0.48          0.8 
     1189.00         0.50          1.1 
     1190.00         0.50          1.4 
     1191.00         0.20          0.9 
     1192.00         0.57          2.8 
     1193.00         0.27          4.6 
     1194.00         0.17          5.3 
     1195.00         0.07          5.3 
     1196.00         0.30          6.8 
     1197.00         0.30          8.4 
     1198.00         0.23          9.2 
     1199.00         0.20          8.6 
     1200.00         0.20          8.1 
     1201.00         0.27          8.9 
     1202.00         0.30          8.7 
     1203.00         0.30          8.2 
     1204.00         0.38          7.7 
     1205.00         0.30          6.6 
     1206.00         0.40          5.4 
     1207.00         0.47          4.1 
     1208.00         0.40          3.4 
     1209.00         0.40          2.6 
     1210.00         0.43          2.4 
     1211.00         0.53          1.3 
     1212.00         0.42          1.5 
     1213.00         0.60          0.4 
     1214.00         0.40          0.1 
     1215.00         0.47          0.8 
     1216.00         0.40         -1.0 
     1217.00         0.37         -1.3 
     1218.00         0.40         -0.7 
     1219.00         0.43          0.4 
     1220.00         0.45          0.2 
     1221.00         0.17          0.4 
     1222.00         0.40          0.3 
     1223.00         0.53          0.5 
     1224.00         0.43          1.0 
     1225.00         0.37          1.6 
     1226.00         0.33          1.7 
     1227.00         0.50          3.2 
     1228.00         0.47          3.7 
     1229.00         0.23          4.2 
     1230.00         0.37          3.8 
     1231.00         0.15          3.0 
     1232.00         0.37          3.2 
     1233.00         0.27          3.2 
     1234.00         0.27          2.5 
     1235.00         0.20          2.7 
     1236.00         0.23          1.3 
     1237.00         0.23          1.4 
