~Version Information
VERS.                      2.0: CWLS Log ASCII Standard - VERSION 2.0
WRAP.                       NO: One line per depth step
~Well Information Block
STRT.FT               315.0000: 
STOP.FT              1292.5000: 
STEP.FT                 0.1000: 
NULL.                -999.2500: 
COMP.          Pioneer Natural Resources: COMPANY
WELL.          Hot Tomatoes 22-20: WELL
FLD.           Purgatoire River: FIELD
LOC.           2120' FNL & 2585' FWL: LOCATION
CNTY.               Las Animas: COUNTY
SRVC.                Patterson: SERVICE COMPANY
DATE.          Mon Feb 27 07:06:41 2006: LOG DATE
UWI.           05 071 08701 00: UNIQUE WELL ID
STAT.                 Colorado: STATE
~Curve Information Block
DEPT.FT            0 000 00 00: Depth
DCAL.in                       : CDL Caliper
RHOB.g/cc                     : CDL Bulk Density
RHOC.g/cc                     : CDL Density Correction
DPOR.pu                       : CDL Density Porosity
GR.GAPI                       : Gamma Ray
NPOR.pu                       : Neutron Porosity
~Parameter Information Block
~A  Depth       DCAL        RHOB        RHOC        DPOR         GR         NPOR    
# ...
   382.2000      8.4150      2.4326      0.3618     13.1770    107.9640     22.6911
   382.3000      8.4567      2.5341      0.3654      7.0217    106.6781     23.6460
   382.4000      8.4567      2.5901      0.3014      3.6287    103.5278     25.1127
   382.5000      8.4216      2.6219      0.1873      1.7036    100.6159     26.6012
   382.6000      8.4216      2.6492      0.1705      0.0510    101.5728     27.4442
   382.7000      8.4216      2.6649      0.1777     -0.9023    106.2210     27.1317
   382.8000      8.1817      2.6720      0.0754     -1.3316    110.2581     26.1883
   382.9000      8.1817      2.6806      0.1822     -1.8557    109.9494     25.5576
   383.0000      8.0046      2.6697      0.1559     -1.1934    104.0488     25.0944
   383.1000      8.0046      2.6327      0.0792      1.0507     94.1579     24.1791
   383.2000      8.0046      2.5976      0.0830      3.1757     83.4734     22.6488
   383.3000      7.9641      2.5800      0.0451      4.2419     75.1736     20.9996
   383.4000      7.9641      2.5758     -0.0030      4.4952     71.0452     19.7959
   383.5000      7.9530      2.5814      0.0099      4.1567     70.5669     19.0088
   383.6000      7.9530      2.5961     -0.0174      3.2647     71.6427     18.6204
   383.7000      7.9530      2.6126      0.0002      2.2694     73.2992     18.5739
   383.8000      7.9658      2.6165      0.0801      2.0312     74.8139     18.5156
   383.9000      7.9658      2.5926      0.0303      3.4778     77.1104     18.4001
   384.0000      8.0035      2.5374      0.0409      6.8258     82.9942     18.2457
   384.1000      8.0035      2.4780     -0.0276     10.4227     89.3785     18.0114
   384.2000      8.0035      2.4488     -0.0047     12.1916     93.9827     17.9886
   384.3000      7.9530      2.4497      0.0013     12.1422    100.3473     18.3389
   384.4000      7.9530      2.4612      0.0583     11.4439    108.4966     19.0228
   384.5000      7.9481      2.4699      0.0985     10.9154    115.6562     19.8675
   384.6000      7.9481      2.4699      0.1056     10.9140    120.8097     20.5941
   384.7000      7.9481      2.4604      0.1185     11.4904    125.8479     20.8603
   384.8000      7.9660      2.4484      0.1037     12.2201    132.2551     20.5410
   384.9000      7.9660      2.4488      0.1096     12.1947    137.1644     20.1176
   385.0000      8.0045      2.4584      0.1604     11.6113    138.7152     19.7786
   385.1000      8.0045      2.4570      0.1528     11.6975    139.3565     19.2864
   385.2000      8.0045      2.4426      0.1455     12.5703    143.6685     18.8894
   385.3000      8.0411      2.4239      0.1275     13.7020    150.9244     18.7031
   385.4000      8.0411      2.4014      0.1278     15.0663    155.4594     18.5067
   385.5000      8.0869      2.3724      0.1168     16.8257    155.6993     18.3704
   385.6000      8.0869      2.3326      0.0959     19.2366    156.9752     18.4960
   385.7000      8.0869      2.2752      0.0966     22.7153    161.1392     18.6587
   385.8000      8.1786      2.2134      0.0660     26.4615    161.2429     18.5153
   385.9000      8.1786      2.1798      0.0616     28.4950    155.3986     18.2934
   386.0000      8.1852      2.1894      0.0918     27.9153    152.0049     18.2636
   386.1000      8.1852      2.2321      0.1940     25.3300    154.7046     18.2949
   386.2000      8.1852      2.2946      0.1695     21.5367    155.6904     18.1414
   386.3000      8.1771      2.3705      0.2191     16.9366    150.0748     17.9351
   386.4000      8.1771      2.4398      0.3309     12.7394    141.4541     17.7758
   386.5000      8.1895      2.4713      0.3412     10.8314    133.4811     17.4099
   386.6000      8.1895      2.4480      0.3094     12.2405    129.1983     16.9006
   386.7000      8.1895      2.3725      0.2493     16.8169    132.2176     16.4445
   386.8000      8.2768      2.2644      0.1549     23.3699    140.4448     16.0959
   386.9000      8.2768      2.1587      0.0996     29.7753    147.2093     16.1441
   387.0000      8.2177      2.0872      0.0755     34.1097    146.5678     16.6736
   387.1000      8.2177      2.0575      0.0150     35.9072    138.6911     17.3106
   387.2000      8.2177      2.0484      0.0528     36.4576    131.5203     17.5625
   387.3000      8.1749      2.0243      0.0562     37.9200    130.1992     17.5270
   387.4000      8.1749      1.9642      0.0739     41.5662    130.0430     17.7100
   387.5000      8.1828      1.8784      0.0803     46.7634    124.7980     18.0796
   387.6000      8.1828      1.7982      0.0629     51.6264    114.0174     18.3879
   387.7000      8.1828      1.7385      0.1298     55.2436    101.3896     18.6871
   387.8000      8.1460      1.6788      0.1047     58.8621     90.7885     18.6345
   387.9000      8.1460      1.5974     -0.0134     63.7918     86.2328     17.9659
   388.0000      8.1402      1.5119     -0.1686     68.9756     86.7968     17.0910
   388.1000      8.1402      1.4626     -0.0910     71.9661     86.1782     16.6413
   388.2000      8.1402      1.4756     -0.0526     71.1736     82.2663     17.0141
   388.3000      8.1722      1.5560      0.0456     66.3002     79.0315     17.8874
   388.4000      8.1722      1.6885      0.1613     58.2697     80.6851     18.7634
   388.5000      8.1698      1.8498      0.2468     48.4948     88.4254     19.7502
   388.6000      8.1698      2.0209      0.3054     38.1247     98.8636     20.7720
   388.7000      8.1698      2.1827      0.3673     28.3186    106.3866     21.2651
   388.8000      8.2379      2.3151      0.3969     20.2953    110.4782     21.4694
   388.9000      8.2379      2.4015      0.3615     15.0602    114.6888     21.8884
   389.0000      8.2830      2.4400      0.2685     12.7265    119.7157     22.2959
   389.1000      8.2830      2.4463      0.1291     12.3430    124.6515     22.6320
   389.2000      8.2830      2.4357      0.1077     12.9867    129.8609     22.9351
   389.3000      8.1993      2.4237      0.0017     13.7131    135.2413     23.1688
   389.4000      8.1993      2.4271     -0.0133     13.5109    140.3608     23.3791
   389.5000      8.1079      2.4388      0.0331     12.8015    143.3834     23.4342
   389.6000      8.1079      2.4436     -0.0012     12.5102    142.3902     23.4459
   389.7000      8.1079      2.4446      0.0451     12.4496    139.5774     23.5129
   389.8000      8.1017      2.4506      0.0271     12.0820    138.6278     23.1637
   389.9000      8.1017      2.4677      0.0508     11.0480    141.3336     22.6018
   390.0000      8.0969      2.4935      0.0705      9.4825    146.0945     22.6683
   390.1000      8.0969      2.5106      0.0889      8.4479    146.8634     23.3077
   390.2000      8.0969      2.5070      0.1214      8.6654    140.8710     23.4659
   390.3000      8.0973      2.4939      0.0698      9.4613    132.8921     22.7889
   390.4000      8.0973      2.4812      0.1189     10.2291    127.1357     22.3276
   390.5000      8.0992      2.4694      0.0602     10.9437    125.1170     22.7581
   390.6000      8.0992      2.4687      0.0895     10.9870    127.2980     23.5302
   390.7000      8.0992      2.4865      0.0842      9.9094    131.7483     23.9975
   390.8000      8.1019      2.5111      0.1223      8.4201    135.8273     24.0036
   390.9000      8.1019      2.5161      0.1620      8.1173    138.1041     23.5028
   391.0000      8.1027      2.4927      0.0794      9.5334    137.1862     22.9094
   391.1000      8.1027      2.4667      0.0588     11.1086    132.2513     22.9148
   391.2000      8.1027      2.4628      0.0487     11.3468    123.9810     23.3164
   391.3000      8.1002      2.4830      0.0590     10.1228    115.9832     23.5524
   391.4000      8.1002      2.5120      0.1013      8.3630    113.3441     23.6647
   391.5000      8.0987      2.5337      0.0986      7.0468    114.9185     24.1472
   391.6000      8.0987      2.5550      0.0554      5.7549    117.0946     24.9512
   391.7000      8.0987      2.5883      0.1171      3.7377    122.3286     25.2195
