~Version Information
VERS.                      2.0: CWLS Log ASCII Standard - VERSION 2.0
WRAP.                       NO: One line per depth step
~Well Information Block
STRT.FT                -8.2500: 
STOP.FT              1439.2500: 
STEP.FT                 0.2500: 
NULL.                -999.2500: 
COMP.          Pioneer Natural Resources: COMPANY
WELL.          Old Faithful 21-2: WELL
FLD.           Purgatorie River: FIELD
LOC.           806' FNL & 2509' FWL--: LOCATION
PROV.                       CO: PROVINCE
CNTY.               Las Animas: COUNTRY
SRVC.          Patterson Wireline: SERVICE COMPANY
DATE.          Mon Dec 12 11:21:25 2005: LOG DATE
UWI.           08 071 08617 00: UNIQUE WELL ID
~Curve Information Block
DEPT.FT            0 000 00 00: Depth
CCL.                          : Casing Collar Locator
TT3.usec                      : CBL 3' Travel Time
AMP3.mV                       : CBL 3' Amplitude
GR.GAPI                       : Gamma Ray
~Parameter Information Block
~A  Depth       CCL         TT3         AMP3         GR     
# ...
  1130.7500      0.0000    762.0104      7.9239     57.4500
  1131.0000      0.0000    759.3343      7.9244     65.7544
  1131.2500      0.0000    750.7609      7.9497     75.8066
  1131.5000      0.0000    740.1683      8.0126     87.6818
  1131.7500      0.0000    729.1558      8.1138    100.6432
  1132.0000      0.0000    715.8187      8.2200    113.1227
  1132.2500      0.0000    697.1474      8.2755    123.1672
  1132.5000      0.0000    673.6857      8.2411    129.5484
  1132.7500      0.0000    650.9742      8.1205    132.8057
  1133.0000      0.0000    635.2062      7.9498    134.8626
  1133.2500      0.0000    628.2078      7.7676    137.3584
  1133.5000      0.0000    627.1077      7.5997    140.3618
  1133.7500      0.0000    626.9250      7.4678    142.5386
  1134.0000      0.0000    622.6599      7.4014    142.4742
  1134.2500      0.0000    612.1942      7.4284    140.0190
  1134.5000      0.0000    600.4987      7.5503    136.4025
  1134.7500      0.0000    599.3422      7.7296    132.9524
  1135.0000      0.0000    618.0450      7.9064    129.9774
  1135.2500      0.0000    652.8358      8.0264    126.9422
  1135.5000      0.0000    687.5078      8.0586    122.9261
  1135.7500      0.0000    704.8727      8.0011    116.7238
  1136.0000      0.0000    695.9474      7.8798    107.6511
  1136.2500      0.0000    660.5173      7.7396     96.9215
  1136.5000      0.0000    605.0980      7.6234     87.6069
  1136.7500      0.0000    541.9935      7.5511     82.5331
  1137.0000      0.0000    485.5473      7.5145     82.1952
  1137.2500      0.0000    445.2221      7.4921     84.7635
  1137.5000      0.0000    421.9505      7.4678     87.7589
  1137.7500      0.0000    410.8629      7.4405     89.4477
  1138.0000      0.0000    406.2757      7.4180     89.1147
  1138.2500      0.0000    404.4512      7.4050     86.9003
  1138.5000      0.0000    403.6912      7.4029     83.7652
  1138.7500      0.0000    403.7145      7.4181     81.0786
  1139.0000      0.0000    405.4491      7.4617     79.7671
  1139.2500      0.0000    411.1914      7.5340     79.9851
  1139.5000      0.0000    423.6706      7.6147     81.6043
  1139.7500      0.0000    442.7278      7.6731     84.5129
  1140.0000      0.0000    462.2819      7.6914     88.2235
  1140.2500      0.0000    473.7452      7.6776     91.6490
  1140.5000      0.0000    476.2100      7.6559     93.6551
  1140.7500      0.0000    482.1601      7.6465     93.8412
  1141.0000      0.0000    508.9611      7.6562     92.7935
  1141.2500      0.0000    562.9416      7.6823     91.4916
  1141.5000      0.0000    632.5256      7.7214     90.2785
  1141.7500      0.0000    697.2181      7.7714     88.5422
  1142.0000      0.0000    742.5568      7.8281     85.7320
  1142.2500      0.0000    766.7176      7.8837     82.3904
  1142.5000      0.0000    775.8212      7.9299     79.6841
  1142.7500      0.0000    776.3144      7.9640     78.1304
  1143.0000      0.0000    771.6266      7.9862     77.3747
  1143.2500      0.0000    763.2432      7.9907     77.1273
  1143.5000      0.0000    752.6667      7.9643     77.7022
  1143.7500      0.0000    741.7878      7.8988     79.3968
  1144.0000      0.0000    731.6542      7.8049     81.4890
  1144.2500      0.0000    721.6576      7.7112     82.1575
  1144.5000      0.0000    710.9143      7.6461     79.8875
  1144.7500      0.0000    700.5341      7.6218     75.1239
  1145.0000      0.0000    693.4948      7.6292     70.0311
  1145.2500      0.0000    691.3498      7.6449     66.4166
  1145.5000      0.0000    690.5345      7.6452     64.3737
  1145.7500      0.0000    681.7266      7.6231     63.0312
  1146.0000      0.0000    654.2990      7.5930     61.9543
  1146.2500      0.0000    604.7119      7.5750     61.4905
  1146.5000      0.0000    541.9929      7.5734     62.2682
  1146.7500      0.0000    482.9339      7.5782     64.7494
  1147.0000      0.0000    440.2840      7.5851     68.9826
  1147.2500      0.0000    415.9934      7.6011     74.3485
  1147.5000      0.0000    404.9505      7.6262     79.5130
  1147.7500      0.0000    402.8117      7.6391     82.9693
  1148.0000      0.0000    410.3683      7.6108     83.8488
  1148.2500      0.0000    432.4833      7.5348     82.1921
  1148.5000      0.0000    472.9783      7.4408     78.4997
  1148.7500      0.0000    528.6295      7.3789     73.4707
  1149.0000      0.0000    587.8755      7.3868     68.3827
  1149.2500      0.0000    637.3566      7.4668     65.1568
  1149.5000      0.0000    669.3923      7.5916     65.3017
  1149.7500      0.0000    681.9615      7.7282     68.7159
  1150.0000      0.0000    674.2398      7.8546     73.7084
  1150.2500      0.0000    646.2781      7.9582     78.1429
  1150.5000      0.0000    601.8130      8.0330     80.7101
  1150.7500      0.0000    548.0287      8.0859     81.5542
  1151.0000      0.0000    493.1204      8.1367     81.9007
  1151.2500      0.0000    445.3394      8.2010     83.0004
  1151.5000      0.0000    412.4907      8.2701     85.2274
  1151.7500      0.0000    400.9594      8.3112     87.9101
  1152.0000      0.0000    415.5136      8.2904     89.7826
  1152.2500      0.0000    458.0137      8.1975     89.5788
  1152.5000      0.0000    523.1812      8.0543     86.4583
  1152.7500      0.0000    596.1653      7.9062     80.4757
  1153.0000      0.0000    658.1625      7.8046     73.0175
  1153.2500      0.0000    697.1243      7.7927     66.4102
  1153.5000      0.0000    713.6345      7.8949     62.6411
  1153.7500      0.0000    717.6235      8.1050     62.4514
  1154.0000      0.0000    720.0300      8.3801     65.4062
  1154.2500      0.0000    726.2323      8.6565     70.2599
  1154.5000      0.0000    734.9955      8.8819     75.2800
  1154.7500      0.0000    741.6085      9.0304     78.7775
  1155.0000      0.0000    741.1911      9.0925     79.7136
  1155.2500      0.0000    730.5677      9.0632     78.0257
  1155.5000      0.0000    710.3672      8.9469     74.6449
  1155.7500      0.0000    687.6013      8.7677     71.1740
  1156.0000      0.0000    674.5095      8.5715     68.9492
  1156.2500      0.0000    680.6519      8.4133     68.0520
  1156.5000      0.0000    704.4383      8.3317     67.5328
  1156.7500      0.0000    734.1097      8.3286     66.8266
  1157.0000      0.0000    757.3809      8.3745     66.5096
  1157.2500      0.0000    768.5689      8.4384     67.2810
  1157.5000      0.0000    767.6086      8.5114     68.6595
  1157.7500      0.0000    756.2455      8.6026     69.3999
  1158.0000      0.0000    737.1742      8.7156     68.9772
  1158.2500      0.0000    715.0165      8.8353     67.8449
  1158.5000      0.0000    695.3376      8.9342     66.2353
  1158.7500      0.0000    681.7827      8.9927     63.5223
  1159.0000      0.0000    674.6205      9.0106     59.1723
  1159.2500      0.0000    672.0601      9.0013     53.8984
  1159.5000      0.0000    672.1563      8.9781     49.4348
  1159.7500      0.0000    673.1401      8.9464     47.2708
  1160.0000      0.0000    672.4633      8.9073     47.7767
  1160.2500      0.0000    666.8559      8.8653     50.2299
  1160.5000      0.0000    654.9924      8.8165     53.1481
  1160.7500      0.0000    640.6425      8.7209     54.7783
  1161.0000      0.0000    631.4235      8.4964     54.1444
  1161.2500      0.0000    632.5317      8.0718     52.0285
  1161.5000      0.0000    642.1784      7.4690     50.3875
  1161.7500      0.0000    653.8294      6.8239     50.3704
  1162.0000      0.0000    660.8049      6.3101     51.3096
  1162.2500      0.0000    657.4885      6.0412     51.8099
  1162.5000      0.0000    640.0988      6.0347     51.1612
  1162.7500      0.0000    611.5536      6.2200     49.4151
  1163.0000      0.0000    584.6918      6.4682     46.8506
  1163.2500      0.0000    575.1042      6.6611     44.0282
  1163.5000     -2.0000    588.5016      6.7609     42.2330
  1163.7500      0.0000    615.8255      6.7988     43.2818
  1164.0000      0.0000    638.5643      6.8190     48.4111
