~Version Information
VERS.                      2.0: CWLS Log ASCII Standard - VERSION 2.0
WRAP.                       NO: One line per depth step
~Well Information Block
STRT.FT                65.0000: 
STOP.FT               998.0000: 
STEP.FT                 0.2500: 
NULL.                -999.2500: 
COMP.          Pioneer Natural Resources: COMPANY
WELL.              Gough 14-29: WELL
FLD.           Purgatorie River: FIELD
LOC.           1199' FSL & 676' FWL: LOCATION
PROV.                 Colorado: PROVINCE
CNTY.               Las Animas: COUNTRY
SRVC.                Patterson: SERVICE COMPANY
DATE.          Wed Dec 28 08:38:26 2005: LOG DATE
UWI.                          : UNIQUE WELL ID
~Curve Information Block
DEPT.FT            0 000 00 00: Depth
CCL.                          : Casing Collar Locator
TT3.usec                      : CBL 3' Travel Time
AMP3.mV                       : CBL 3' Amplitude
GR.GAPI                       : Gamma Ray
~Parameter Information Block
~A  Depth       CCL         TT3         AMP3         GR     
# ...
   500.5000      0.0000    783.7126      8.0521     80.4296
   500.7500     -2.0000    783.3002      7.9267     78.5260
   501.0000      2.0000    792.9706      7.8817     76.8197
   501.2500      0.0000    820.6183      7.8958     74.7962
   501.5000      0.0000    854.2452      8.0031     71.8284
   501.7500      0.0000    872.0378      8.3271     68.0116
   502.0000      0.0000    858.1831      9.0185     64.1851
   502.2500      0.0000    820.6909      9.9669     61.2860
   502.5000      0.0000    787.2232     10.8259     59.7558
   502.7500      0.0000    773.3008     11.4624     59.4016
   503.0000      0.0000    772.2504     11.9602     59.6767
   503.2500      0.0000    775.0222     12.2837     60.2724
   503.5000      0.0000    779.8990     12.3711     61.6040
   503.7500      0.0000    786.2071     12.3137     64.4431
   504.0000      0.0000    791.4033     12.2335     68.8270
   504.2500      0.0000    794.0223     12.1646     73.6601
   504.5000      0.0000    794.3970     12.0814     77.8157
   504.7500      0.0000    792.1028     11.9569     81.2577
   505.0000      0.0000    784.6802     11.7994     84.4815
   505.2500      0.0000    771.4472     11.6596     87.0288
   505.5000      0.0000    759.1341     11.5870     87.2864
   505.7500      0.0000    757.3227     11.5780     84.0714
   506.0000      0.0000    766.0749     11.5898     78.1833
   506.2500      0.0000    776.0067     11.6012     72.0665
   506.5000      0.0000    779.2367     11.6345     68.0135
   506.7500      0.0000    774.7574     11.7108     66.8598
   507.0000      0.0000    767.6154     11.8153     67.9943
   507.2500      0.0000    763.9199     11.9207     69.9870
   507.5000      0.0000    765.5745     12.0081     71.1921
   507.7500      0.0000    769.5384     12.0454     70.4590
   508.0000      0.0000    771.6774     11.9886     67.8030
   508.2500      0.0000    773.5560     11.8345     64.3359
   508.5000      0.0000    779.0417     11.6440     61.3629
   508.7500      0.0000    784.4881     11.4943     59.4798
   509.0000      0.0000    781.6956     11.4234     58.4165
   509.2500      0.0000    767.5819     11.4154     57.5980
   509.5000      0.0000    747.7826     11.4311     56.8277
   509.7500      0.0000    732.0189     11.4571     56.4280
   510.0000      0.0000    726.2673     11.5109     56.7784
   510.2500      0.0000    731.7351     11.5996     57.7904
   510.5000      0.0000    746.9317     11.6911     58.9256
   510.7500      0.0000    765.0220     11.7423     59.8005
   511.0000      0.0000    775.3971     11.7510     60.6838
   511.2500      0.0000    774.0070     11.7595     62.0531
   511.5000      0.0000    767.4685     11.8130     63.6862
   511.7500      0.0000    764.3870     11.9256     64.7543
   512.0000      0.0000    767.8449     12.0698     64.9229
   512.2500      0.0000    774.4191     12.2061     64.8214
   512.5000      0.0000    774.5399     12.3350     65.2641
   512.7500      0.0000    759.5279     12.4875     66.3822
   513.0000      0.0000    731.9959     12.6804     67.5706
   513.2500      0.0000    705.0141     12.9134     68.0345
   513.5000      0.0000    689.7642     13.1866     67.4037
   513.7500      0.0000    686.0726     13.4954     65.9654
   514.0000      0.0000    684.8272     13.8170     64.3263
   514.2500      0.0000    678.5192     14.1356     62.8951
   514.5000      0.0000    668.8150     14.4617     61.7420
   514.7500      0.0000    662.9013     14.8123     60.7945
   515.0000      0.0000    663.6877     15.1986     59.9395
   515.2500      0.0000    665.3610     15.6190     59.0086
   515.5000      0.0000    655.3851     16.0363     58.0159
   515.7500      0.0000    616.4150     16.4157     57.3849
   516.0000      0.0000    538.3033     16.8064     57.5403
   516.2500      0.0000    440.2852     17.2829     58.1726
   516.5000      0.0000    361.5988     17.7966     58.3750
   516.7500      0.0000    321.0757     18.2064     57.6521
   517.0000      0.0000    307.6714     18.4622     56.3778
   517.2500      0.0000    304.7983     18.6417     55.2414
   517.5000      0.0000    304.3538     18.8119     54.7231
   517.7500      0.0000    304.2632     18.9550     55.2006
   518.0000      0.0000    304.2755     19.0252     57.0472
   518.2500      0.0000    304.4097     19.0021     60.1052
   518.5000      0.0000    304.6297     18.9129     63.1204
   518.7500      0.0000    304.8300     18.8330     64.2802
   519.0000      0.0000    304.9247     18.8148     62.7353
   519.2500      0.0000    304.9119     18.8122     59.5000
   519.5000      0.0000    304.8682     18.7334     56.6418
   519.7500      0.0000    304.8622     18.5747     55.5170
   520.0000      0.0000    304.8729     18.4295     55.8042
   520.2500      0.0000    304.8325     18.3532     56.2024
   520.5000      0.0000    304.7482     18.2921     55.9102
   520.7500      0.0000    304.7189     18.1624     55.1518
   521.0000      0.0000    304.8077     17.9580     54.3784
   521.2500      0.0000    304.9881     17.7555     53.5362
   521.5000      0.0000    305.4252     17.6131     52.3978
   521.7500      0.0000    307.6555     17.5035     51.2935
   522.0000      0.0000    316.9092     17.3647     51.1243
   522.2500      0.0000    340.6308     17.1825     52.5747
   522.5000      0.0000    374.3914     17.0176     55.5066
   522.7500      0.0000    394.2665     16.9576     59.2426
   523.0000      0.0000    390.5012     17.0075     63.2967
   523.2500      0.0000    397.3806     17.0455     67.6762
   523.5000      0.0000    451.7954     16.9398     72.5666
   523.7500      0.0000    538.8937     16.6592     77.7812
   524.0000      0.0000    610.4540     16.2562     82.4535
   524.2500      0.0000    642.3799     15.8287     85.3718
   524.5000      0.0000    649.2608     15.4702     85.8679
   524.7500      0.0000    654.3774     15.1962     84.4551
   525.0000      0.0000    665.0649     14.9685     82.6766
   525.2500      0.0000    676.1338     14.7723     82.4270
   525.5000      0.0000    686.0364     14.6063     85.1816
   525.7500      0.0000    697.7574     14.4422     91.4202
   526.0000      0.0000    709.1754     14.2616    100.4921
   526.2500      0.0000    715.8037     14.0836    110.8497
   526.5000      0.0000    717.0455     13.9119    120.4259
   526.7500      0.0000    714.0888     13.7025    127.1735
   527.0000      0.0000    708.2828     13.4340    129.7422
   527.2500      0.0000    702.6788     13.1771    127.8448
   527.5000      0.0000    700.5707     13.0399    122.0781
   527.7500      0.0000    702.9990     13.0387    113.5697
   528.0000      0.0000    708.6331     13.0838    103.9519
   528.2500      0.0000    714.4031     13.1256     95.5559
   528.5000      0.0000    717.8800     13.1856     91.0898
   528.7500      0.0000    719.0648     13.2513     92.4113
   529.0000      0.0000    718.8585     13.2957     99.3581
   529.2500      0.0000    717.2457     13.3281    109.8990
   529.5000      0.0000    713.2944     13.3397    121.4140
   529.7500      0.0000    706.9028     13.2962    131.6924
   530.0000      0.0000    699.9499     13.2133    139.0303
   530.2500      0.0000    694.3817     13.1765    142.0808
   530.5000      0.0000    691.6506     13.2626    140.3271
   530.7500      0.0000    693.4901     13.4675    134.9664
   531.0000      0.0000    698.3497     13.7398    128.8343
   531.2500      0.0000    701.9377     14.0363    124.7003
   531.5000      0.0000    704.1588     14.2982    123.4350
   531.7500      0.0000    707.6538     14.4471    124.0727
   532.0000      0.0000    710.8616     14.4465    125.5711
   532.2500      0.0000    709.3319     14.3066    127.9600
   532.5000      0.0000    701.3720     14.0449    131.4949
   532.7500      0.0000    690.3978     13.6903    135.1132
   533.0000      0.0000    682.7000     13.2955    136.4621
   533.2500      0.0000    682.7054     12.9285    133.7734
   533.5000      0.0000    690.4838     12.6590    127.5318
   533.7500      0.0000    702.2176     12.5264    120.0711
