~Version Information
 VERS.                                  2.0 : CWLS LAS VERSION
 WRAP.                                   NO : WRAPING MODE
 SWARE .                 MController 2.5.0J : SOFTWARE VERSION
~Well Information
 WELL.                    Parklane 43-34 Tr : WELL
 COMP.   Pioneer Natural Resources USA Inc. : COMPANY
 FLD.                      Purgatoire River : FIELD
 LOC.                NE/SE SEC 34 T32S R66W : LOCATION
 DATE.                             07/28/05 : DATE(S) LOGGED
 SRVC.       Blanco Geological Services LLC : SERVICE COMPANY
 STAT.                             Colorado : STATE
 CNTY.                           Las Animas : COUNTY
 CTRY.                                  USA : COUNTRY
 API.                       05-071-08452-00 : API NUMBER
 STRT.FT                             594.00 : START DEPTH
 STOP.FT                            1451.00 : STOP DEPTH
 STEP.FT                               1.00 : DEPTH INCREMENT
 NULL.                                -9999 : NULL VALUE
~Curve information
 DEPTH.FT                                   :
 ROP.MIN/FT                                 :
 GAS.UNITS                                  :
~ASCII Log data
# ...
       994.0         0.17          8.3 
       995.0         0.20          9.1 
       996.0         0.17          9.2 
       997.0         0.17          8.6 
       998.0         0.17          9.4 
       999.0         0.17          8.8 
      1000.0         0.20          8.7 
      1001.0         0.17          8.6 
      1002.0         0.17          8.7 
      1003.0         0.17          8.8 
      1004.0         0.10          8.9 
      1005.0         0.10          8.4 
      1006.0         0.17          8.9 
      1007.0         0.17          9.4 
      1008.0         0.22          9.2 
      1009.0         0.20          8.9 
      1010.0         0.23          9.1 
      1011.0         0.17          9.4 
      1012.0         0.17          9.4 
      1013.0         0.17          8.7 
      1014.0         0.17          9.1 
      1015.0         0.27          9.0 
      1016.0         0.60          9.4 
      1017.0         0.10          9.4 
      1018.0         0.20          8.6 
      1019.0         0.33          8.7 
      1020.0         0.43          9.5 
      1021.0         0.42          9.4 
      1022.0         0.33          9.0 
      1023.0         0.27          9.4 
      1024.0         0.13          8.7 
      1025.0         0.13          9.2 
      1026.0         0.13          9.1 
      1027.0         0.17          9.1 
      1028.0         0.13          9.2 
      1029.0         0.20          9.5 
      1030.0         0.20          8.9 
      1031.0         0.20          9.5 
      1032.0         0.20          9.4 
      1033.0         0.17          8.7 
      1034.0         0.20         14.0 
      1035.0         0.17         25.2 
      1036.0         0.17         35.4 
      1037.0         0.20         36.7 
      1038.0         0.25         34.9 
      1039.0         0.17         26.9 
      1040.0         0.17         25.3 
      1041.0         0.17         18.3 
      1042.0         0.13         13.1 
      1043.0         0.17         10.6 
      1044.0         0.20         10.2 
      1045.0         0.17          9.1 
      1046.0         1.00         10.2 
      1047.0         0.20         10.1 
      1048.0         0.10         11.1 
      1049.0         0.10         11.7 
      1050.0         0.43         20.2 
      1051.0         0.32         25.6 
      1052.0         0.23         25.5 
      1053.0         0.23         21.4 
      1054.0         0.23         17.9 
      1055.0         0.20         12.5 
      1056.0         0.20         10.8 
      1057.0         0.17          9.2 
      1058.0         0.43          9.8 
      1059.0         0.53          9.7 
      1060.0         0.40         21.1 
      1061.0         0.37         53.7 
      1062.0         0.32         75.1 
      1063.0         0.13         86.6 
      1064.0         0.17         94.2 
      1065.0         0.17         96.5 
      1066.0         0.17         96.3 
      1067.0         0.20         90.1 
      1068.0         0.13         84.6 
      1069.0         0.17         76.7 
      1070.0         0.07         69.4 
      1071.0         0.20         64.6 
      1072.0         0.17         55.9 
      1073.0         0.20         43.9 
      1074.0         0.20         28.5 
      1075.0         0.20         19.6 
      1076.0         6.63         33.0 
      1077.0         0.10          9.6 
      1078.0         0.33          9.0 
      1079.0         0.30          9.2 
      1080.0         0.30          9.6 
      1081.0         0.32          9.0 
      1082.0         0.30          9.4 
      1083.0         0.17          9.7 
      1084.0         0.17          9.3 
      1085.0         0.20          9.6 
      1086.0         0.20          9.2 
      1087.0         0.17          9.1 
      1088.0         0.27          9.6 
      1089.0         0.30          9.3 
      1090.0         0.30          9.1 
      1091.0         0.30         10.1 
      1092.0         0.27          9.3 
      1093.0         0.30          9.6 
      1094.0         0.38          9.8 
      1095.0         0.30          9.8 
      1096.0         0.30          9.5 
      1097.0         0.30          9.4 
      1098.0         0.33         10.1 
      1099.0         0.30          9.7 
      1100.0         0.30         10.1 
      1101.0         0.30          9.8 
      1102.0         0.27          9.7 
      1103.0         0.37         10.4 
      1104.0         0.27          9.9 
      1105.0         0.32         10.2 
      1106.0         2.20         10.0 
      1107.0         0.10          9.2 
      1108.0         0.33          9.5 
      1109.0         0.30          9.8 
      1110.0         0.38          9.3 
      1111.0         0.37          9.4 
      1112.0         0.30          9.5 
      1113.0         0.33         10.0 
      1114.0         0.33          9.6 
      1115.0         0.37          9.8 
      1116.0         0.27          9.9 
      1117.0         0.23          9.7 
      1118.0         0.17          9.5 
      1119.0         0.13          9.8 
      1120.0         0.23          9.8 
      1121.0         0.23          9.6 
      1122.0         0.10          9.1 
      1123.0         0.25          8.9 
      1124.0         0.30          9.0 
      1125.0         0.30          9.8 
      1126.0         0.33         12.4 
      1127.0         0.33         12.6 
      1128.0         0.37         12.4 
      1129.0         0.30         10.7 
      1130.0         0.30         11.0 
      1131.0         0.33         10.3 
      1132.0         0.33         10.8 
      1133.0         0.30         10.1 
      1134.0         0.32         10.1 
      1135.0         0.37         10.1 
      1136.0         2.23         10.1 
      1137.0         0.48         10.2 
      1138.0         0.37         10.3 
      1139.0         0.37          9.7 
      1140.0         0.33          9.8 
      1141.0         0.43          9.4 
      1142.0         0.37         10.0 
      1143.0         0.37          9.9 
      1144.0         0.23         10.3 
      1145.0         0.27         10.0 
      1146.0         0.27         10.1 
      1147.0         0.23          9.8 
      1148.0         0.25          9.7 
      1149.0         0.20         10.2 
      1150.0         0.30         10.3 
      1151.0         0.30          9.8 
      1152.0         0.27         10.1 
      1153.0         0.30          9.8 
      1154.0         0.33         10.3 
      1155.0         0.27         10.0 
      1156.0         0.23          9.8 
      1157.0         0.30         10.2 
      1158.0         0.30         10.2 
      1159.0         0.27         11.0 
      1160.0         0.25         14.9 
      1161.0         0.27         19.0 
      1162.0         0.20         20.1 
      1163.0         0.23         21.7 
      1164.0         0.23         19.6 
      1165.0         0.13         16.9 
      1166.0         1.98         41.0 
      1167.0         0.27         42.3 
      1168.0         0.27         44.0 
      1169.0         0.17         43.9 
      1170.0         0.13         41.6 
      1171.0         0.10         41.5 
      1172.0         0.20         40.9 
      1173.0         0.23         39.2 
      1174.0         0.23         38.8 
      1175.0         0.17         37.0 
      1176.0         0.23         35.6 
      1177.0         0.23         35.3 
      1178.0         0.20         34.6 
      1179.0         0.20         33.9 
      1180.0         0.13         32.2 
      1181.0         0.23         32.1 
      1182.0         0.20         32.2 
      1183.0         0.18         32.1 
      1184.0         0.43         34.4 
      1185.0         0.33         35.8 
      1186.0         0.17         33.4 
      1187.0         0.13         30.5 
      1188.0         0.20         28.9 
      1189.0         0.20         27.3 
      1190.0         0.17         28.0 
      1191.0         0.13         28.3 
      1192.0         0.17         31.2 
      1193.0         0.23         36.7 
