~Version Information
VERS.                      2.0: CWLS Log ASCII Standard - VERSION 2.0
WRAP.                       NO: One line per depth step
~Well Information Block
STRT.FT                -2.0000: 
STOP.FT              2017.5000: 
STEP.FT                 0.2500: 
NULL.                -999.2500: 
COMP.          Pioneer Natural Resources: COMPANY
WELL.            Zink 44-10 Tr: WELL
FLD.           Purgatoire River: FIELD
LOC.           486' FSL & 554' FEL--: LOCATION
PROV.                 Colorado: PROVINCE
CNTY.               Las Animas: COUNTRY
SRVC.                Patterson: SERVICE COMPANY
DATE.          Mon Aug 01 14:01:23 2005: LOG DATE
UWI.           05 071 08446 00: UNIQUE WELL ID
~Curve Information Block
DEPT.FT            0 000 00 00: Depth
CCL.                          : Casing Collar Locator
TT3.usec                      : CBL 3' Travel Time
AMP3.mV                       : CBL 3' Amplitude
GR.GAPI                       : Gamma Ray
~Parameter Information Block
~A  Depth       CCL         TT3         AMP3         GR     
# ...
  1840.5000      0.0000    770.7956      6.3947    143.4747
  1840.7500      0.0000    763.1737      5.9696    140.3246
  1841.0000      0.0000    755.0291      5.5659    133.8952
  1841.2500      0.0000    750.0186      5.2522    124.9223
  1841.5000      0.0000    750.5729      5.0739    115.5872
  1841.7500      0.0000    755.6375      5.0308    107.6649
  1842.0000      0.0000    761.7647      5.0873    101.2874
  1842.2500      0.0000    766.3799      5.2022     95.9671
  1842.5000      0.0000    769.2002      5.3506     92.2483
  1842.7500      0.0000    771.2801      5.5230     91.6022
  1843.0000      0.0000    773.8088      5.7192     94.7736
  1843.2500      0.0000    777.3659      5.9550    100.7867
  1843.5000      0.0000    781.4348      6.2645    107.7034
  1843.7500      0.0000    784.4918      6.6743    114.0909
  1844.0000      0.0000    784.4506      7.1628    119.6068
  1844.2500      0.0000    779.0075      7.6564    124.4286
  1844.5000      0.0000    766.6071      8.0762    128.5569
  1844.7500      0.0000    748.4221      8.3830    131.7768
  1845.0000      0.0000    729.4525      8.5774    133.9478
  1845.2500      0.0000    716.5502      8.6756    135.0306
  1845.5000      0.0000    714.4526      8.6933    134.9215
  1845.7500      0.0000    723.0061      8.6460    133.4386
  1846.0000      0.0000    736.9684      8.5576    130.4606
  1846.2500      0.0000    748.1942      8.4655    126.0380
  1846.5000      0.0000    749.9018      8.4129    120.6375
  1846.7500      0.0000    741.0966      8.4260    115.5359
  1847.0000      0.0000    727.2057      8.4996    112.6718
  1847.2500      0.0000    715.5088      8.6045    113.4945
  1847.5000      0.0000    709.7536      8.7071    117.7480
  1847.7500      0.0000    709.4767      8.7839    123.5605
  1848.0000      0.0000    713.3012      8.8246    128.7340
  1848.2500      0.0000    720.9135      8.8306    131.9331
  1848.5000      0.0000    732.0203      8.8125    132.9029
  1848.7500      0.0000    745.1885      8.7884    131.8150
  1849.0000      0.0000    758.1172      8.7792    128.4493
  1849.2500      0.0000    768.0925      8.7986    122.0413
  1849.5000      0.0000    772.2593      8.8457    112.0795
  1849.7500      0.0000    768.6678      8.9062     99.3837
  1850.0000      0.0000    757.8666      8.9641     86.2640
  1850.2500      0.0000    743.3987      9.0144     75.1705
  1850.5000      0.0000    730.2147      9.0661     67.0357
  1850.7500      0.0000    722.1492      9.1302     61.1367
  1851.0000      0.0000    720.4529      9.2042     56.5197
  1851.2500      0.0000    723.9552      9.2750     53.1206
  1851.5000      0.0000    730.0776      9.3366     51.4065
  1851.7500      0.0000    736.1201      9.3995     51.4864
  1852.0000      0.0000    740.4173      9.4783     52.8939
  1852.2500      0.0000    742.7224      9.5754     54.9077
  1852.5000      0.0000    743.6713      9.6755     56.7477
  1852.7500      0.0000    744.0388      9.7529     57.7079
  1853.0000      0.0000    744.4271      9.7782     57.5587
  1853.2500      0.0000    745.3440      9.7239     56.8489
  1853.5000      0.0000    747.2123      9.5761     56.4229
  1853.7500      0.0000    749.9922      9.3492     56.4636
  1854.0000      0.0000    752.8013      9.0893     56.2973
  1854.2500      0.0000    754.4028      8.8552     55.3707
  1854.5000      0.0000    754.5809      8.6867     54.2374
  1854.7500      0.0000    754.8832      8.5888     54.4808
  1855.0000      0.0000    757.4788      8.5442     57.9953
  1855.2500      0.0000    763.0460      8.5278     66.3236
  1855.5000      0.0000    769.7178      8.5002     79.8120
  1855.7500      0.0000    774.0541      8.4004     96.6389
  1856.0000      0.0000    773.2129      8.1839    112.8143
  1856.2500      0.0000    766.9481      7.8850    124.0146
  1856.5000      0.0000    758.4940      7.6093    128.3744
  1856.7500      0.0000    753.6165      7.4236    127.8244
  1857.0000      0.0000    757.4774      7.2734    126.3139
  1857.2500      0.0000    770.9312      7.0549    126.4786
  1857.5000      0.0000    789.6753      6.7481    128.0520
  1857.7500      0.0000    807.7190      6.4353    129.0269
  1858.0000     -2.0000    822.5469      6.2075    127.6777
  1858.2500      2.0000    837.6375      6.0934    123.6573
  1858.5000      2.0000    859.6171      6.0710    118.1166
  1858.7500     -2.0000    891.4898      6.1243    113.3360
  1859.0000      0.0000    927.6047      6.2806    111.7343
  1859.2500      0.0000    955.3246      6.5756    114.2478
  1859.5000      0.0000    962.1604      6.9635    119.4558
  1859.7500      0.0000    943.3014      7.2960    124.9041
  1860.0000      0.0000    905.1823      7.4475    129.4093
  1860.2500      0.0000    862.1428      7.4443    133.4441
  1860.5000      0.0000    827.4767      7.4253    137.1846
  1860.7500      0.0000    806.3838      7.4925    139.0645
  1861.0000      0.0000    796.4499      7.6352    136.8078
  1861.2500      0.0000    792.7388      7.7803    129.5863
  1861.5000      0.0000    791.5798      7.8780    118.8844
  1861.7500      0.0000    791.2250      7.9347    107.5191
  1862.0000      0.0000    791.0724      7.9821     98.1555
  1862.2500      0.0000    790.9599      8.0345     92.6604
  1862.5000      0.0000    790.8335      8.0800     92.2151
  1862.7500      0.0000    790.6431      8.0992     97.3041
  1863.0000      0.0000    790.2586      8.0787    107.3666
  1863.2500      0.0000    789.4020      8.0190    120.6024
  1863.5000      0.0000    787.7450      7.9406    134.2298
  1863.7500      0.0000    785.3394      7.8816    145.1250
  1864.0000      0.0000    783.0510      7.8737    151.0209
  1864.2500      0.0000    782.2065      7.9204    152.0068
  1864.5000      0.0000    783.4258      7.9974    150.6836
  1864.7500      0.0000    785.9252      8.0722    150.0007
  1865.0000      0.0000    788.1737      8.1213    150.9210
  1865.2500      0.0000    788.9991      8.1328    152.7175
  1865.5000      0.0000    787.9838      8.1051    154.9840
  1865.7500      0.0000    785.3311      8.0479    157.9985
  1866.0000      0.0000    781.6934      7.9781    161.1148
  1866.2500      0.0000    777.6946      7.9082    162.2118
  1866.5000      0.0000    773.2839      7.8401    158.9996
  1866.7500      0.0000    768.0254      7.7733    150.1340
  1867.0000      0.0000    762.4210      7.7178    135.6667
  1867.2500      0.0000    758.5642      7.6919    117.6538
  1867.5000      0.0000    759.3024      7.7086     99.9953
  1867.7500      0.0000    767.3620      7.7690     86.4254
  1868.0000      0.0000    785.2043      7.8722     78.2455
  1868.2500      0.0000    813.8168      8.0255     74.1635
  1868.5000      0.0000    849.8565      8.2389     72.0344
  1868.7500      0.0000    885.0873      8.5076     70.4421
  1869.0000      0.0000    911.3170      8.7961     69.2381
  1869.2500      0.0000    926.0276      9.0373     69.4733
  1869.5000      0.0000    931.4062      9.1585     72.7541
  1869.7500      0.0000    928.4199      9.1215     79.9289
  1870.0000      0.0000    914.5755      8.9441     90.0563
  1870.2500      0.0000    888.4526      8.6822    100.7193
  1870.5000      0.0000    854.4731      8.3930    109.3794
  1870.7500      0.0000    821.1636      8.1155    114.7012
  1871.0000      0.0000    795.1007      7.8764    117.2186
  1871.2500      0.0000    777.5793      7.7006    119.0053
  1871.5000      0.0000    766.2562      7.6095    122.2893
  1871.7500      0.0000    758.4622      7.6057    127.8613
  1872.0000      0.0000    752.9380      7.6602    134.3597
  1872.2500      0.0000    749.5872      7.7251    138.7889
  1872.5000      0.0000    748.5951      7.7673    138.0833
  1872.7500      0.0000    749.9756      7.7853    131.0061
  1873.0000      0.0000    753.5410      7.7933    119.3032
  1873.2500      0.0000    758.8579      7.7996    107.3801
  1873.5000      0.0000    765.2565      7.8021    100.5391
  1873.7500      0.0000    772.0211      7.7992    102.2628
