~Version Information
VERS.                      2.0: CWLS Log ASCII Standard - VERSION 2.0
WRAP.                       NO: One line per depth step
~Well Information Block
STRT.FT               460.0000: 
STOP.FT              2824.0000: 
STEP.FT                 0.2500: 
NULL.                -999.2500: 
COMP.          Pioneer Natural Resources: COMPANY
WELL.           Dolzanie 34-12: WELL
FLD.           Purgatoire River: FIELD
LOC.           1001' FSL & 1750' FEL--: LOCATION
PROV.                 Colorado: PROVINCE
CNTY.               Las Animas: COUNTRY
SRVC.                Patterson: SERVICE COMPANY
DATE.          Wed Jul 20 07:51:58 2005: LOG DATE
UWI.           05 071 08439 00: UNIQUE WELL ID
~Curve Information Block
DEPT.FT            0 000 00 00: Depth
DIR.Ohm-m                     : IEL Induction Resistivity
SN.Ohm-m                      : IEL Short Normal
SP.mV                         : IEL Spontaneous Potential
GR.GAPI                       : Gamma Ray
~Parameter Information Block
~A  Depth       DIR          SN          SP          GR     
# ...
  2637.5000     26.1234     23.9650      7.9658     77.4294
  2637.7500     26.3435     24.0007      8.0070     77.9365
  2638.0000     26.5346     24.0317      8.0586     78.7491
  2638.2500     26.7206     24.0703      8.1307     79.3250
  2638.5000     26.9308     24.1134      8.2301     80.5702
  2638.7500     27.1917     24.1483      8.3593     81.7044
  2639.0000     27.5132     24.1642      8.5165     83.2186
  2639.2500     27.8723     24.1590      8.6965     83.5103
  2639.5000     28.2108     24.1368      8.8917     82.3293
  2639.7500     28.4527     24.1018      9.0933     80.7553
  2640.0000     28.5353     24.0546      9.2926     78.6452
  2640.2500     28.4334     23.9912      9.4814     78.1649
  2640.5000     28.1610     23.9029      9.6530     78.6297
  2640.7500     27.7530     23.7766      9.8011     78.8076
  2641.0000     27.2446     23.6022      9.9206     77.7726
  2641.2500     26.6637     23.3848     10.0065     76.5843
  2641.5000     26.0357     23.1484     10.0538     75.6367
  2641.7500     25.3914     22.9242     10.0573     76.0802
  2642.0000     24.7678     22.7340     10.0111     77.9193
  2642.2500     24.2025     22.5815      9.9093     79.3184
  2642.5000     23.7260     22.4577      9.7460     80.9827
  2642.7500     23.3575     22.3503      9.5162     81.7702
  2643.0000     23.1010     22.2510      9.2170     82.7515
  2643.2500     22.9457     22.1529      8.8491     83.3912
  2643.5000     22.8706     22.0473      8.4169     84.2523
  2643.7500     22.8492     21.9217      7.9298     84.6553
  2644.0000     22.8475     21.7600      7.4021     84.7883
  2644.2500     22.8129     21.5427      6.8527     84.3422
  2644.5000     22.6705     21.2493      6.3043     82.6845
  2644.7500     22.3439     20.8696      5.7828     81.3203
  2645.0000     21.8018     20.4177      5.3160     80.3111
  2645.2500     21.0948     19.9390      4.9322     81.0186
  2645.5000     20.3435     19.4953      4.6577     84.5912
  2645.7500     19.6815     19.1360      4.5144     88.7609
  2646.0000     19.2012     18.8748      4.5169     97.9333
  2646.2500     18.9301     18.6937      4.6701    105.7566
  2646.5000     18.8412     18.5658      4.9681    118.0919
  2646.7500     18.8802     18.4817      5.3947    124.7488
  2647.0000     18.9968     18.4648      5.9260    129.2010
  2647.2500     19.1666     18.5726      6.5336    127.8021
  2647.5000     19.3969     18.8798      7.1885    120.6988
  2647.7500     19.7167     19.4408      7.8650    114.4047
  2648.0000     20.1592     20.2473      8.5415    105.1750
  2648.2500     20.7425     21.2070      9.2020     99.8869
  2648.5000     21.4529     22.1660      9.8346     93.5461
  2648.7500     22.2353     22.9686     10.4306     90.2611
  2649.0000     22.9944     23.5180     10.9835     86.3567
  2649.2500     23.6127     23.8035     11.4886     84.3966
  2649.5000     23.9895     23.8813     11.9432     82.8888
  2649.7500     24.0825     23.8303     12.3477     83.0346
  2650.0000     23.9265     23.7101     12.7060     84.3808
  2650.2500     23.6101     23.5428     13.0259     85.2414
  2650.5000     23.2327     23.3212     13.3191     85.3116
  2650.7500     22.8695     23.0342     13.6000     84.4201
  2651.0000     22.5605     22.6910     13.8838     82.7479
  2651.2500     22.3172     22.3280     14.1850     82.5470
  2651.5000     22.1362     21.9947     14.5140     85.1133
  2651.7500     22.0106     21.7322     14.8761     88.6275
  2652.0000     21.9348     21.5616     15.2692     94.8255
  2652.2500     21.9021     21.4862     15.6840     98.3649
  2652.5000     21.9021     21.5003     16.1044    101.5902
  2652.7500     21.9234     21.5972     16.5092    102.1850
  2653.0000     21.9607     21.7706     16.8749    101.0135
  2653.2500     22.0214     22.0088     17.1781     99.3251
  2653.5000     22.1250     22.2872     17.3987     96.7195
  2653.7500     22.2952     22.5688     17.5226     95.6607
  2654.0000     22.5463     22.8186     17.5433     95.5674
  2654.2500     22.8697     23.0239     17.4630     96.2423
  2654.5000     23.2313     23.2034     17.2921     97.4227
  2654.7500     23.5860     23.3990     17.0472     97.7858
  2655.0000     23.9046     23.6552     16.7482     97.0164
  2655.2500     24.1947     23.9981     16.4148     95.3489
  2655.5000     24.4965     24.4259     16.0640     90.9424
  2655.7500     24.8551     24.9130     15.7083     86.9578
  2656.0000     25.2887     25.4240     15.3560     80.3686
  2656.2500     25.7737     25.9235     15.0127     76.2186
  2656.5000     26.2566     26.3819     14.6839     71.1746
  2656.7500     26.6829     26.7784     14.3772     68.8844
  2657.0000     27.0228     27.1029     14.1034     67.3853
  2657.2500     27.2770     27.3519     13.8770     67.7049
  2657.5000     27.4650     27.5238     13.7139     69.8057
  2657.7500     27.6080     27.6181     13.6298     72.0014
  2658.0000     27.7185     27.6395     13.6370     76.1350
  2658.2500     27.7971     27.5995     13.7421     79.1464
  2658.5000     27.8361     27.5133     13.9450     83.1004
  2658.7500     27.8256     27.3968     14.2388     84.8870
  2659.0000     27.7596     27.2664     14.6111     86.3548
  2659.2500     27.6411     27.1382     15.0462     86.9081
  2659.5000     27.4835     27.0228     15.5272     87.4134
  2659.7500     27.3091     26.9158     16.0387     87.3864
  2660.0000     27.1405     26.7924     16.5673     86.5660
  2660.2500     26.9888     26.6120     17.1030     85.6035
  2660.5000     26.8422     26.3322     17.6391     84.1060
  2660.7500     26.6640     25.9269     18.1717     83.5965
  2661.0000     26.4059     25.4002     18.6999     84.3336
  2661.2500     26.0331     24.7881     19.2261     85.6818
  2661.5000     25.5454     24.1462     19.7555     87.6294
  2661.7500     24.9765     23.5325     20.2963     88.2135
  2662.0000     24.3725     22.9899     20.8579     88.2131
  2662.2500     23.7678     22.5340     21.4485     88.1341
  2662.5000     23.1782     22.1502     22.0729     88.1818
  2662.7500     22.6106     21.8076     22.7291     88.1547
  2663.0000     22.0753     21.4811     23.4076     87.9081
  2663.2500     21.5901     21.1658     24.0916     87.7424
  2663.5000     21.1729     20.8711     24.7597     87.6859
  2663.7500     20.8311     20.6049     25.3901     87.7595
  2664.0000     20.5563     20.3666     25.9644     87.9655
  2664.2500     20.3301     20.1522     26.4715     88.2078
  2664.5000     20.1375     19.9594     26.9086     88.7471
  2664.7500     19.9742     19.7844     27.2812     89.0230
  2665.0000     19.8424     19.6170     27.6002     88.8560
  2665.2500     19.7395     19.4441     27.8794     88.4496
  2665.5000     19.6529     19.2597     28.1320     88.2129
  2665.7500     19.5642     19.0705     28.3688     88.5939
  2666.0000     19.4580     18.8931     28.5968     89.3996
  2666.2500     19.3281     18.7441     28.8189     89.4669
  2666.5000     19.1798     18.6333     29.0350     88.4446
  2666.7500     19.0287     18.5626     29.2425     87.3702
  2667.0000     18.8978     18.5283     29.4373     86.3910
  2667.2500     18.8086     18.5211     29.6147     86.7974
  2667.5000     18.7715     18.5271     29.7697     89.1245
  2667.7500     18.7813     18.5317     29.8979     91.1610
  2668.0000     18.8207     18.5271     29.9953     93.2650
  2668.2500     18.8706     18.5147     30.0591     93.4595
  2668.5000     18.9213     18.5024     30.0878     92.3347
  2668.7500     18.9748     18.4997     30.0808     91.3115
  2669.0000     19.0385     18.5146     30.0384     90.0054
  2669.2500     19.1174     18.5535     29.9611     89.0547
  2669.5000     19.2097     18.6207     29.8482     86.6571
  2669.7500     19.3100     18.7178     29.6974     84.2563
  2670.0000     19.4124     18.8421     29.5034     80.4557
  2670.2500     19.5115     18.9837     29.2583     78.8393
  2670.5000     19.6002     19.1263     28.9517     78.9594
  2670.7500     19.6714     19.2536     28.5722     80.5912
