~Version Information
VERS.                      2.0: CWLS Log ASCII Standard - VERSION 2.0
WRAP.                       NO: One line per depth step
~Well Information Block
STRT.FT               245.0000: 
STOP.FT              1006.0000: 
STEP.FT                 0.1000: 
NULL.                -999.2500: 
COMP.          Pioneer Natural Resources: COMPANY
WELL.              Atlas 32-18: WELL
FLD.           Purgatoire River: FIELD
LOC.           1892' FNL & 1456' FEL: LOCATION
PROV.                 Colorado: PROVINCE
CNTY.               Las Animas: COUNTRY
SRVC.                Patterson: SERVICE COMPANY
DATE.          Mon Nov 21 08:58:56 2005: LOG DATE
UWI.           05 071 08556 00: UNIQUE WELL ID
~Curve Information Block
DEPT.FT            0 000 00 00: Depth
DCAL.in                       : CDL Caliper
RHOB.g/cc                     : CDL Bulk Density
RHOC.g/cc                     : CDL Density Correction
DPOR.pu                       : CDL Density Porosity
GR.GAPI                       : Gamma Ray
NPOR.pu                       : Neutron Porosity
~Parameter Information Block
~A  Depth       DCAL        RHOB        RHOC        DPOR         GR         NPOR    
   245.0000      8.2684      2.0060     -0.5506     39.0284     90.5214     22.9819
   245.1000      8.2684      1.9997     -0.4964     39.4151     89.0076     22.5621
   245.2000      8.2684      2.0031     -0.4881     39.2088     83.9966     22.1676
   245.3000      8.2683      2.0021     -0.5431     39.2695     81.7070     22.1513
   245.4000      8.2683      2.0027     -0.5342     39.2316     85.8918     22.3119
   245.5000      8.2655      2.0092     -0.5141     38.8359     90.3794     22.3191
   245.6000      8.2655      2.0118     -0.4940     38.6761     89.8803     22.5244
   245.7000      8.2655      2.0047     -0.5474     39.1097     89.1801     23.1232
   245.8000      8.2658      1.9942     -0.5244     39.7457     92.7839     23.3788
   245.9000      8.2658      1.9795     -0.4564     40.6346     94.3129     22.9089
   246.0000      8.2672      1.9606     -0.5943     41.7793     89.1942     22.2605
   246.1000      8.2672      1.9518     -0.5398     42.3152     83.7013     22.1383
   246.2000      8.2672      1.9557     -0.5256     42.0791     82.2666     22.8092
   246.3000      8.2679      1.9532     -0.4847     42.2297     85.2221     23.6991
   246.4000      8.2679      1.9410     -0.5863     42.9717     92.3354     24.0532
   246.5000      8.2710      1.9414     -0.5159     42.9460     98.8298     23.6012
   246.6000      8.2710      1.9580     -0.4666     41.9375    101.1241     22.5320
   246.7000      8.2710      1.9750     -0.4620     40.9076    101.3732     21.9019
   246.8000      8.2695      1.9810     -0.4137     40.5458    102.4974     22.4011
   246.9000      8.2695      1.9782     -0.4696     40.7145    104.2278     23.0558
   247.0000      8.2659      1.9795     -0.4889     40.6353    104.9581     22.8542
   247.1000      8.2659      1.9788     -0.4334     40.6783    103.2059     22.0607
   247.2000      8.2659      1.9592     -0.5210     41.8669     98.8056     21.3879
   247.3000      8.2675      1.9359     -0.5678     43.2770     95.3778     21.2089
   247.4000      8.2675      1.9381     -0.5359     43.1471     95.5074     21.3659
   247.5000      8.2661      1.9692     -0.4679     41.2576     94.9109     21.6770
   247.6000      8.2661      2.0126     -0.4866     38.6291     92.5134     22.3772
   247.7000      8.2661      2.0488     -0.4494     36.4355     91.2080     23.0017
   247.8000      8.2669      2.0602     -0.4738     35.7474     89.8235     22.9949
   247.9000      8.2669      2.0360     -0.5122     37.2116     87.1872     23.0086
   248.0000      8.2613      1.9781     -0.5343     40.7191     84.3248     23.2183
   248.1000      8.2613      1.9045     -0.6117     45.1808     82.4272     23.1257
   248.2000      8.2613      1.8411     -0.6000     49.0240     82.4687     22.7632
   248.3000      8.2676      1.8017     -0.6524     51.4113     84.3157     22.5006
   248.4000      8.2676      1.7805     -0.5494     52.6964     86.6564     23.1246
   248.5000      8.2751      1.7719     -0.6880     53.2204     86.7733     24.3936
   248.6000      8.2751      1.7913     -0.6698     52.0396     83.2364     24.7624
   248.7000      8.2751      1.8417     -0.6090     48.9871     78.1100     24.0808
   248.8000      8.2722      1.8962     -0.5795     45.6825     73.3137     23.5462
   248.9000      8.2722      1.9293     -0.6216     43.6782     70.9104     23.5948
   249.0000      8.2677      1.9304     -0.5512     43.6097     73.0745     23.7233
   249.1000      8.2677      1.9087     -0.5886     44.9296     78.4383     23.4004
   249.2000      8.2677      1.8923     -0.5975     45.9191     82.1962     23.0458
   249.3000      8.2692      1.8924     -0.5217     45.9128     81.3155     23.0921
   249.4000      8.2692      1.8956     -0.5902     45.7187     78.9808     23.1468
   249.5000      8.2667      1.9010     -0.5246     45.3934     79.5658     23.2964
   249.6000      8.2667      1.9141     -0.5229     44.5990     82.5133     23.5056
   249.7000      8.2667      1.9289     -0.4449     43.7047     86.7424     23.3236
   249.8000      8.2632      1.9397     -0.5425     43.0503     92.4485     22.7870
   249.9000      8.2632      1.9523     -0.5036     42.2825     95.7942     22.3313
   250.0000      8.2621      1.9574     -0.4003     41.9729     93.7370     22.3743
   250.1000      8.2621      1.9435     -0.5014     42.8169     88.8603     22.8525
   250.2000      8.2621      1.9212     -0.5195     44.1673     84.0681     23.2570
   250.3000      8.2515      1.8973     -0.5031     45.6161     79.4897     23.4019
   250.4000      8.2515      1.8800     -0.5842     46.6665     74.9994     23.4312
   250.5000      8.2544      1.8849     -0.5517     46.3724     74.4155     23.5437
   250.6000      8.2544      1.9108     -0.5328     44.8030     77.0158     23.9480
   250.7000      8.2544      1.9384     -0.4665     43.1253     76.8757     24.5353
   250.8000      8.2530      1.9476     -0.4796     42.5691     73.8384     24.5989
   250.9000      8.2530      1.9317     -0.4809     43.5334     71.5276     24.1711
   251.0000      8.2515      1.9028     -0.5375     45.2877     70.5315     24.2371
   251.1000      8.2515      1.8811     -0.5222     46.6016     69.0129     24.8905
   251.2000      8.2515      1.8775     -0.5629     46.8183     67.3571     25.2745
   251.3000      8.2532      1.8883     -0.5596     46.1625     68.4159     24.9952
   251.4000      8.2532      1.8951     -0.5166     45.7535     72.0769     24.6957
   251.5000      8.2530      1.8841     -0.5503     46.4167     74.5515     24.8132
   251.6000      8.2530      1.8700     -0.6391     47.2732     73.5671     24.9325
   251.7000      8.2530      1.8657     -0.5903     47.5363     72.2757     24.6946
   251.8000      8.2535      1.8642     -0.6367     47.6240     74.0140     24.1403
   251.9000      8.2535      1.8656     -0.6023     47.5390     76.4945     23.6132
   252.0000      8.2537      1.8647     -0.5208     47.5942     77.0439     23.3340
   252.1000      8.2537      1.8427     -0.5567     48.9295     75.9005     23.0257
   252.2000      8.2537      1.8102     -0.6313     50.8991     73.6669     22.9695
   252.3000      8.2476      1.8045     -0.6435     51.2418     71.9437     23.3296
   252.4000      8.2476      1.8248     -0.5525     50.0099     71.6760     23.5014
   252.5000      8.2261      1.8421     -0.6048     48.9617     73.1221     23.6113
   252.6000      8.2261      1.8574     -0.6538     48.0383     76.1601     23.6907
   252.7000      8.2261      1.8814     -0.5790     46.5793     78.2613     23.4307
   252.8000      8.2472      1.9057     -0.5270     45.1110     76.7950     22.9467
   252.9000      8.2472      1.9141     -0.5142     44.6014     76.0252     22.1731
   253.0000      8.2541      1.8995     -0.5586     45.4837     81.0239     21.1796
   253.1000      8.2541      1.8761     -0.5747     46.9060     87.4940     20.8537
   253.2000      8.2541      1.8623     -0.5393     47.7373     87.3264     21.5479
   253.3000      8.2536      1.8558     -0.5357     48.1309     80.8078     41.2410
   253.4000      8.2536      1.8516     -0.5861     48.3895     76.3633     40.9912
   253.5000      8.2536      1.8632     -0.5765     47.6856     77.4509     40.5849
   253.6000      8.2536      1.8929     -0.5380     45.8843     79.7557     40.3425
   253.7000      8.2536      1.9057     -0.4487     45.1082     80.4832     40.1280
   253.8000      8.2587      1.8773     -0.6040     46.8282     80.1832     39.5492
   253.9000      8.2587      1.8302     -0.5633     49.6869     79.1866     38.4692
   254.0000      8.2614      1.7776     -0.5526     52.8718     79.3031     37.5069
   254.1000      8.2614      1.7054     -0.5346     57.2502     83.0577     36.8562
   254.2000      8.2614      1.6266     -0.6727     62.0265     89.6841     35.8202
   254.3000      8.2505      1.5870     -0.6548     64.4218     92.4879     34.3438
   254.4000      8.2505      1.6005     -0.6263     63.6082     88.1885     32.9680
   254.5000      8.2084      1.6441     -0.5566     60.9626     85.5861     31.7993
