~Version Information
VERS.                      2.0: CWLS Log ASCII Standard - VERSION 2.0
WRAP.                       NO: One line per depth step
~Well Information Block
STRT.FT                 0.0000: 
STOP.FT               683.5000: 
STEP.FT                 0.2500: 
NULL.                -999.2500: 
COMP.          Pioneer Natural Resources: COMPANY
WELL.           Belvedere 14-7: WELL
FLD.           Purgatorie River: FIELD
LOC.           786' FSL & 1283' FWL: LOCATION
PROV.                 Colorado: PROVINCE
CNTY.               Las Animas: COUNTRY
SRVC.                Patterson: SERVICE COMPANY
DATE.          Fri Dec 02 12:52:31 2005: LOG DATE
UWI.           05-071-08557               : UNIQUE WELL ID
~Curve Information Block
DEPT.FT            0 000 00 00: Depth
CCL.                          : Casing Collar Locator
TT3.usec                      : CBL 3' Travel Time
AMP3.mV                       : CBL 3' Amplitude
GR.GAPI                       : Gamma Ray
~Parameter Information Block
~A  Depth       CCL         TT3         AMP3         GR     
# ...
   167.5000      0.0000    727.6501     11.4950     92.4355
   167.7500      0.0000    727.5638     11.4807     89.1031
   168.0000      0.0000    727.4290     11.4914     85.9894
   168.2500      0.0000    727.4113     11.4935     83.6422
   168.5000      0.0000    727.5488     11.4326     83.2054
   168.7500      0.0000    727.7882     11.3139     85.1243
   169.0000      0.0000    728.0806     11.2051     88.2201
   169.2500      0.0000    728.2725     11.1716     90.4012
   169.5000      0.0000    728.2028     11.2264     90.3303
   169.7500      0.0000    727.9193     11.3344     88.1638
   170.0000      0.0000    727.5580     11.4511     84.8093
   170.2500      0.0000    727.2117     11.5396     80.9352
   170.5000      0.0000    726.9812     11.5834     76.8117
   170.7500      0.0000    726.9314     11.6227     72.7989
   171.0000      0.0000    727.0262     11.7239     69.6738
   171.2500      0.0000    727.1529     11.8831     68.3950
   171.5000      0.0000    726.9992     12.0131     69.5084
   171.7500      0.0000    725.7367     12.0465     72.7774
   172.0000      0.0000    722.3393     12.0233     77.4533
   172.2500      0.0000    717.5930     12.0454     82.7958
   172.5000      0.0000    715.1561     12.1493     88.2200
   172.7500      0.0000    717.4273     12.2612     93.1638
   173.0000      0.0000    721.9455     12.2786     97.1244
   173.2500      0.0000    725.1896     12.1749     99.8669
   173.5000      0.0000    726.5225     12.0149    101.4786
   173.7500      0.0000    726.8901     11.8640    102.1647
   174.0000      0.0000    726.8889     11.7206    102.0167
   174.2500      0.0000    726.6879     11.5434    101.1072
   174.5000      0.0000    726.2480     11.3146     99.8949
   174.7500      0.0000    724.9553     11.0732     99.2711
   175.0000      0.0000    721.7943     10.8882     99.6175
   175.2500      0.0000    717.4241     10.8013     99.7917
   175.5000      0.0000    715.3580     10.7827     97.7385
   175.7500      0.0000    717.8897     10.7364     92.4406
   176.0000      0.0000    722.5161     10.5869     84.9791
   176.2500      0.0000    725.7266     10.3797     77.5771
   176.5000      0.0000    726.9487     10.2367     71.8620
   176.7500      0.0000    727.2526     10.2070     68.2427
   177.0000      0.0000    727.3354     10.2358     66.7861
   177.2500      0.0000    727.3298     10.2796     68.1571
   177.5000      0.0000    727.2415     10.3564     73.2458
   177.7500      0.0000    727.0870     10.4755     81.8981
   178.0000      0.0000    726.8433     10.6019     92.2804
   178.2500      0.0000    726.5630     10.7089    101.5022
   178.5000      0.0000    726.4263     10.8107    106.9095
   178.7500      0.0000    726.4979     10.9152    107.3092
   179.0000      0.0000    726.6144     10.9841    103.5314
   179.2500      0.0000    726.6438     10.9893     97.9541
   179.5000      0.0000    726.6530     10.9685     93.2929
   179.7500      0.0000    726.7194     10.9697     91.3622
   180.0000      0.0000    726.7988     10.9702     92.3560
   180.2500      0.0000    726.8476     10.9199     95.0831
   180.5000      0.0000    726.8918     10.8319     98.1445
   180.7500      0.0000    726.9370     10.7462    100.9718
   181.0000      0.0000    726.9427     10.6660    103.6734
   181.2500      0.0000    726.8942     10.6064    106.0804
   181.5000      0.0000    726.8326     10.6107    107.2073
   181.7500      0.0000    726.8206     10.6686    105.7691
   182.0000      0.0000    726.8414     10.7068    101.3273
   182.2500      0.0000    726.5855     10.6772     94.8576
   182.5000      0.0000    725.0593     10.6077     88.0574
   182.7500      0.0000    720.5358     10.5559     82.1635
   183.0000      0.0000    712.6685     10.5425     77.5624
   183.2500      0.0000    705.6969     10.5686     74.2207
   183.5000      0.0000    705.7001     10.6379     72.0342
   183.7500      0.0000    712.6810     10.7143     70.6838
   184.0000      0.0000    720.3227     10.7302     69.4706
   184.2500      0.0000    723.5759     10.6612     67.5651
   184.5000      0.0000    721.6019     10.5378     64.5856
   184.7500      0.0000    716.0886     10.3960     61.0028
   185.0000      0.0000    710.4973     10.2710     57.8413
   185.2500      0.0000    708.1851     10.2084     55.7563
   185.5000      0.0000    710.3521     10.2119     54.6027
   185.7500      0.0000    715.8749     10.2275     54.1792
   186.0000      0.0000    721.6605     10.2375     54.9882
   186.2500      0.0000    725.1332     10.2811     57.7574
   186.5000      0.0000    726.2966     10.3430     62.4908
   186.7500      0.0000    726.3566     10.3456     68.4027
   187.0000      0.0000    725.9817     10.2840     74.5175
   187.2500      0.0000    724.7609     10.2381     79.8254
   187.5000      0.0000    721.6065     10.2224     83.1103
   187.7500      0.0000    717.0535     10.1625     83.4629
   188.0000      0.0000    714.7070     10.0446     81.3457
   188.2500      0.0000    716.9195      9.9289     78.7055
   188.5000      0.0000    720.5158      9.8079     77.4591
   188.7500      0.0000    720.7827      9.6153     77.8788
   189.0000      0.0000    717.5812      9.3606     78.7614
   189.2500      0.0000    715.2212      9.1281     78.9960
   189.5000      0.0000    715.9560      8.9954     78.5556
   189.7500      0.0000    715.8126      9.0034     78.0922
   190.0000      0.0000    710.9033      9.1118     77.9690
   190.2500      0.0000    705.0610      9.2156     77.6731
   190.5000      0.0000    705.6088      9.2781     75.9699
   190.7500      0.0000    713.1489      9.3545     71.8745
   191.0000      0.0000    721.4651      9.4689     65.9621
   191.2500      0.0000    726.0443      9.5748     60.6248
   191.5000      0.0000    726.7602      9.6226     58.4633
   191.7500      0.0000    723.3584      9.5883     60.1739
   192.0000      0.0000    712.7312      9.4885     64.1308
   192.2500      0.0000    693.8336      9.4157     67.8963
   192.5000      0.0000    675.0934      9.4633     69.8272
   192.7500      0.0000    667.2083      9.5883     69.5079
   193.0000      0.0000    665.5447      9.6606     67.5108
   193.2500      0.0000    653.7292      9.6350     65.3043
   193.5000      0.0000    630.0607      9.5661     64.9239
   193.7500      0.0000    616.6739      9.4921     67.8526
   194.0000      0.0000    626.5651      9.3887     73.8665
   194.2500      0.0000    636.5425      9.2305     80.9572
   194.5000      0.0000    614.4824      9.0773     86.3369
   194.7500      0.0000    554.0757      9.0319     87.9672
   195.0000      0.0000    478.1867      9.1201     85.9253
   195.2500      0.0000    418.9074      9.3070     82.3484
   195.5000      0.0000    390.7676      9.5587     79.7021
   195.7500      0.0000    389.3728      9.8281     79.2021
   196.0000      0.0000    408.2513     10.0767     80.8439
   196.2500      0.0000    435.2168     10.3139     84.1509
   196.5000      0.0000    443.6080     10.5645     88.3899
   196.7500      0.0000    419.5689     10.8200     92.4859
   197.0000      0.0000    383.7575     11.0529     95.2923
   197.2500      0.0000    359.5979     11.2733     96.2377
   197.5000      0.0000    348.7922     11.5276     95.8690
   197.7500      0.0000    346.6413     11.8251     95.7056
   198.0000      0.0000    352.0080     12.1053     97.3322
   198.2500      0.0000    361.6302     12.3125    101.2979
   198.5000      0.0000    369.0945     12.4925    106.4235
   198.7500      0.0000    370.1552     12.7750    110.0411
   199.0000      0.0000    367.3366     13.1944    109.6318
   199.2500      0.0000    372.9119     13.5447    104.9991
   199.5000      0.0000    403.9269     13.4711     98.7525
   199.7500      0.0000    461.5684     12.6930     94.1658
   200.0000      0.0000    521.2367     11.3407     92.5436
   200.2500      0.0000    564.8795     10.0592     92.7157
   200.5000      0.0000    603.5553      9.3571     92.7701
   200.7500      0.0000    641.4805      9.1208     92.0322
