~Version Information
VERS.                      2.0: CWLS Log ASCII Standard - VERSION 2.0
WRAP.                       NO: One line per depth step
~Well Information Block
STRT.FT               310.0000: 
STOP.FT              2298.0000: 
STEP.FT                 0.2500: 
NULL.                -999.2500: 
COMP.          Pioneer Natural Resources: COMPANY
WELL.               Relay 12-7: WELL
FLD.           Purgatoire River: FIELD
LOC.           1999' FNL & 848' FWL: LOCATION
PROV.                 Colorado: PROVINCE
CNTY.               Las Animas: COUNTRY
SRVC.                Patterson: SERVICE COMPANY
DATE.          Fri Dec 16 17:39:57 2005: LOG DATE
UWI.           05 071 08453 00: UNIQUE WELL ID
~Curve Information Block
DEPT.FT            0 000 00 00: Depth
SN.Ohm-m                      : IEL Short Normal
SP.mV                         : IEL Spontaneous Potential
DIR.Ohm-m                     : IEL Induction Resistivity
GR.GAPI                       : Gamma Ray
~Parameter Information Block
~A  Depth        SN          SP         DIR          GR     
# ...
  1482.5000     58.2357     32.8074     34.6008     30.8419
  1482.7500     60.0777     33.1159     37.9853     31.8088
  1483.0000     61.3930     33.5102     41.1019     34.6447
  1483.2500     62.2650     33.9735     43.8376     36.8111
  1483.5000     62.9112     34.4916     46.2527     39.5141
  1483.7500     63.5638     35.0564     48.4530     40.6062
  1484.0000     64.3077     35.6657     50.4204     40.8107
  1484.2500     65.2190     36.3223     51.9897     39.9684
  1484.5000     66.4356     37.0314     52.9979     37.7333
  1484.7500     67.8790     37.7965     53.4459     36.0649
  1485.0000     69.1519     38.6187     53.4910     33.9916
  1485.2500     69.8354     39.4988     53.3081     33.2515
  1485.5000     69.7027     40.4381     52.9945     33.8719
  1485.7500     68.6274     41.4308     52.5961     35.9034
  1486.0000     66.6238     42.4526     52.1831     41.5917
  1486.2500     64.0995     43.4550     51.8584     46.7181
  1486.5000     61.6761     44.3748     51.6731     55.1807
  1486.7500     59.6166     45.1551     51.5206     60.8289
  1487.0000     57.7317     45.7649     51.1069     69.1329
  1487.2500     55.8633     46.2064     50.0636     74.5314
  1487.5000     54.1523     46.5100     48.1598     81.7749
  1487.7500     52.7678     46.7243     45.4502     85.3426
  1488.0000     51.6408     46.9038     42.2250     88.0884
  1488.2500     50.6020     47.0948     38.8343     88.5362
  1488.5000     49.5226     47.3245     35.5552     88.6527
  1488.7500     48.1609     47.5968     32.5576     89.0454
  1489.0000     46.1666     47.9003     29.9237     90.4031
  1489.2500     43.3775     48.2195     27.6720     91.9917
  1489.5000     39.9235     48.5394     25.7731     96.6195
  1489.7500     36.0805     48.8456     24.1669    102.1676
  1490.0000     32.2064     49.1252     22.7829    114.7428
  1490.2500     28.6653     49.3692     21.5612    125.0135
  1490.5000     25.6541     49.5737     20.4634    139.6340
  1490.7500     23.2071     49.7388     19.4702    146.4945
  1491.0000     21.3258     49.8698     18.5734    150.1979
  1491.2500     19.9788     49.9785     17.7686    148.6450
  1491.5000     19.0894     50.0781     17.0550    142.8333
  1491.7500     18.5875     50.1725     16.4386    138.0544
  1492.0000     18.3367     50.2518     15.9355    130.6312
  1492.2500     18.0944     50.3019     15.5706    125.8147
  1492.5000     17.7442     50.3197     15.3725    119.9643
  1492.7500     17.4457     50.3204     15.3652    117.8224
  1493.0000     17.4153     50.3307     15.5613    117.1753
  1493.2500     17.7425     50.3744     15.9575    117.0782
  1493.5000     18.4525     50.4600     16.5326    114.2845
  1493.7500     19.4931     50.5798     17.2472    109.7088
  1494.0000     20.6312     50.7206     18.0482     99.7348
  1494.2500     21.6370     50.8742     18.8790     92.4695
  1494.5000     22.6247     51.0395     19.6930     82.9656
  1494.7500     23.9736     51.2160     20.4619     78.4116
  1495.0000     25.8759     51.3993     21.1732     74.9674
  1495.2500     28.0463     51.5803     21.8110     74.9392
  1495.5000     29.9189     51.7486     22.3297     77.5548
  1495.7500     31.1017     51.8951     22.6373     80.3301
  1496.0000     31.5490     52.0151     22.6147     84.8328
  1496.2500     31.3741     52.1114     22.1784     87.6786
  1496.5000     30.6088     52.1946     21.3493     91.9084
  1496.7500     29.2517     52.2816     20.2537     95.3126
  1497.0000     27.4606     52.3902     19.0506    102.6704
  1497.2500     25.4679     52.5324     17.8531    109.5326
  1497.5000     23.3959     52.7076     16.7107    122.2017
  1497.7500     21.2943     52.9031     15.6416    131.2013
  1498.0000     19.2817     53.0982     14.6685    143.3620
  1498.2500     17.4985     53.2734     13.8245    149.4876
  1498.5000     15.9325     53.4188     13.1358    154.6306
  1498.7500     14.4991     53.5376     12.6064    155.3857
  1499.0000     13.2450     53.6429     12.2157    153.5274
  1499.2500     12.2829     53.7477     11.9274    151.0458
  1499.5000     11.6628     53.8562     11.6994    146.2362
  1499.7500     11.3808     53.9621     11.4945    142.4389
  1500.0000     11.3954     54.0525     11.2885    136.0933
  1500.2500     11.6356     54.1156     11.0742    131.8175
  1500.5000     12.0007     54.1441     10.8600    126.3817
  1500.7500     12.3716     54.1390     10.6621    124.0123
  1501.0000     12.7173     54.1104     10.4958    122.9322
  1501.2500     13.1242     54.0754     10.3705    123.8649
  1501.5000     13.6185     54.0523     10.2880    127.1440
  1501.7500     14.0386     54.0514     10.2439    129.9543
  1502.0000     14.1433     54.0711     10.2281    134.0450
  1502.2500     13.8306     54.1015     10.2258    136.4024
  1502.5000     13.2305     54.1305     10.2176    139.2682
  1502.7500     12.5791     54.1477     10.1794    140.4440
  1503.0000     12.0383     54.1421     10.0858    140.0425
  1503.2500     11.6524     54.0999      9.9180    137.8333
  1503.5000     11.4175     54.0051      9.6739    131.8383
  1503.7500     11.3591     53.8454      9.3724    126.9202
  1504.0000     11.4564     53.6183      9.0479    120.4929
  1504.2500     11.5213     53.3332      8.7375    118.2303
  1504.5000     11.3813     53.0086      8.4693    119.1239
  1504.7500     11.1241     52.6689      8.2564    122.3231
  1505.0000     10.9442     52.3425      8.0981    129.4001
  1505.2500     10.8618     52.0580      7.9843    134.5202
  1505.5000     10.7933     51.8372      7.9003    141.2529
  1505.7500     10.7168     51.6870      7.8312    144.5572
  1506.0000     10.5859     51.5966      7.7655    147.3802
  1506.2500     10.3214     51.5413      7.6964    147.8152
  1506.5000     10.0046     51.4931      7.6224    146.3078
  1506.7500      9.8669     51.4330      7.5462    143.9716
  1507.0000     10.0352     51.3559      7.4732    139.3200
  1507.2500     10.3789     51.2682      7.4105    136.4699
  1507.5000     10.6243     51.1842      7.3654    134.4814
  1507.7500     10.5900     51.1284      7.3432    135.1006
  1508.0000     10.3226     51.1348      7.3461    137.8679
  1508.2500     10.0099     51.2298      7.3729    139.8475
  1508.5000      9.7643     51.4099      7.4197    141.8291
  1508.7500      9.5824     51.6375      7.4816    142.3025
  1509.0000      9.4717     51.8595      7.5536    141.6603
  1509.2500      9.4539     52.0327      7.6336    140.4238
  1509.5000      9.5179     52.1408      7.7250    138.3675
  1509.7500      9.6524     52.1965      7.8377    137.8707
  1510.0000      9.8217     52.2320      7.9853    139.6063
  1510.2500      9.9390     52.2805      8.1804    142.2576
  1510.5000      9.9654     52.3581      8.4276    147.1079
  1510.7500      9.9912     52.4555      8.7197    149.9326
  1511.0000     10.1361     52.5463      9.0382    151.9913
  1511.2500     10.3733     52.6072      9.3612    151.4088
  1511.5000     10.5514     52.6320      9.6731    148.2788
  1511.7500     10.6153     52.6289      9.9708    145.8150
  1512.0000     10.6656     52.6073     10.2593    142.9773
  1512.2500     10.8260     52.5670     10.5412    141.4682
  1512.5000     11.2036     52.4954     10.8126    138.2982
  1512.7500     11.8742     52.3742     11.0640    134.8728
  1513.0000     12.8097     52.1934     11.2844    127.6704
  1513.2500     13.8459     51.9644     11.4626    122.1906
  1513.5000     14.6752     51.7200     11.5871    115.4514
  1513.7500     15.0353     51.5043     11.6455    113.7018
  1514.0000     15.0122     51.3591     11.6269    116.6956
  1514.2500     14.8964     51.3092     11.5265    121.6932
  1514.5000     14.7433     51.3524     11.3519    130.5980
  1514.7500     14.3815     51.4586     11.1237    135.7360
  1515.0000     13.8500     51.5821     10.8675    140.5551
  1515.2500     13.4145     51.6809     10.6027    141.5806
  1515.5000     13.1089     51.7345     10.3355    140.1457
  1515.7500     12.7379     51.7506     10.0623    137.6377
