~Version Information
VERS.                      2.0: CWLS Log ASCII Standard - VERSION 2.0
WRAP.                       NO: One line per depth step
~Well Information Block
STRT.FT               520.0000: 
STOP.FT              2555.2500: 
STEP.FT                 0.2500: 
NULL.                -999.2500: 
COMP.          Pioneer Natural Resources: COMPANY
WELL.          Horsefeathers 24-34: WELL
FLD.           Purgatoire River: FIELD
LOC.           183' FSL & 1570' FWL--: LOCATION
CNTY.               Las Animas: COUNTY
SRVC.                Patterson: SERVICE COMPANY
DATE.          Sun Feb 05 17:35:59 2006: LOG DATE
UWI.           05 071 08675 00: UNIQUE WELL ID
STAT.                 Colorado: STATE
~Curve Information Block
DEPT.FT            0 000 00 00: Depth
SN.Ohm-m                      : IEL Short Normal
SP.mV                         : IEL Spontaneous Potential
DIR.Ohm-m                     : IEL Induction Resistivity
GR.GAPI                       : Gamma Ray
~Parameter Information Block
NPORSHIFT.              0.0000: NPORSHIFT
~A  Depth        SN          SP         DIR          GR     
# ...
  1860.0000      9.6629     25.3078      8.5653    162.6269
  1860.2500      9.2883     25.4273      8.2183    159.2418
  1860.5000      8.9883     25.5574      7.9547    155.7743
  1860.7500      8.7599     25.6952      7.7684    155.5291
  1861.0000      8.5903     25.8348      7.6501    157.9956
  1861.2500      8.4641     25.9686      7.5882    160.5282
  1861.5000      8.3705     26.0887      7.5703    163.4094
  1861.7500      8.3055     26.1870      7.5850    163.6225
  1862.0000      8.2682     26.2567      7.6230    160.9451
  1862.2500      8.2567     26.2930      7.6780    157.9721
  1862.5000      8.2694     26.2934      7.7460    153.7876
  1862.7500      8.3098     26.2586      7.8247    151.7249
  1863.0000      8.3869     26.1925      7.9124    148.9086
  1863.2500      8.5077     26.1017      8.0096    146.4512
  1863.5000      8.6698     25.9957      8.1180    141.7811
  1863.7500      8.8603     25.8851      8.2398    138.7937
  1864.0000      9.0623     25.7806      8.3750    136.1613
  1864.2500      9.2614     25.6923      8.5207    136.0912
  1864.5000      9.4474     25.6280      8.6706    138.0229
  1864.7500      9.6119     25.5936      8.8161    139.9432
  1865.0000      9.7464     25.5930      8.9478    142.4164
  1865.2500      9.8432     25.6287      9.0573    143.1250
  1865.5000      9.8989     25.7027      9.1388    142.2736
  1865.7500      9.9169     25.8169      9.1909    140.7801
  1866.0000      9.9091     25.9731      9.2178    138.5926
  1866.2500      9.8917     26.1731      9.2301    137.8898
  1866.5000      9.8793     26.4176      9.2425    138.1799
  1866.7500      9.8812     26.7056      9.2700    138.9597
  1867.0000      9.9006     27.0338      9.3241    140.5439
  1867.2500      9.9364     27.3960      9.4100    141.7334
  1867.5000      9.9863     27.7843      9.5258    143.2265
  1867.7500     10.0483     28.1895      9.6631    143.5558
  1868.0000     10.1223     28.6023      9.8097    142.5703
  1868.2500     10.2104     29.0142      9.9554    141.0079
  1868.5000     10.3164     29.4181     10.0968    137.5901
  1868.7500     10.4450     29.8073     10.2381    134.7337
  1869.0000     10.6007     30.1754     10.3870    130.4620
  1869.2500     10.7856     30.5155     10.5498    128.6625
  1869.5000     10.9979     30.8201     10.7298    128.9960
  1869.7500     11.2311     31.0816     10.9284    131.0359
  1870.0000     11.4759     31.2937     11.1466    134.6369
  1870.2500     11.7240     31.4524     11.3859    135.9261
  1870.5000     11.9731     31.5571     11.6464    134.9280
  1870.7500     12.2276     31.6115     11.9264    132.5341
  1871.0000     12.4955     31.6223     12.2240    127.7367
  1871.2500     12.7870     31.5981     12.5405    124.6174
  1871.5000     13.1138     31.5479     12.8832    121.0068
  1871.7500     13.4883     31.4782     13.2637    119.4079
  1872.0000     13.9172     31.3924     13.6914    117.7479
  1872.2500     14.3968     31.2903     14.1667    116.7073
  1872.5000     14.9124     31.1696     14.6779    114.6623
  1872.7500     15.4431     31.0282     15.2042    112.8665
  1873.0000     15.9675     30.8663     15.7237    109.9069
  1873.2500     16.4677     30.6884     16.2215    108.3595
  1873.5000     16.9361     30.5036     16.6930    108.0013
  1873.7500     17.3834     30.3235     17.1412    109.4777
  1874.0000     17.8385     30.1602     17.5724    113.5755
  1874.2500     18.3417     30.0230     17.9937    116.6213
  1874.5000     18.9373     29.9160     18.4170    120.3296
  1874.7500     19.6738     29.8371     18.8646    121.8246
  1875.0000     20.6029     29.7784     19.3701    121.9790
  1875.2500     21.7665     29.7276     19.9720    120.2592
  1875.5000     23.1767     29.6708     20.7027    114.7389
  1875.7500     24.8042     29.5954     21.5806    109.4815
  1876.0000     26.5916     29.4927     22.6101    100.1864
  1876.2500     28.4884     29.3592     23.7870     93.4434
  1876.5000     30.4821     29.1967     25.1042     83.0649
  1876.7500     32.5923     29.0114     26.5516     76.5007
  1877.0000     34.8258     28.8122     28.1130     68.3190
  1877.2500     37.1185     28.6084     29.7616     64.4101
  1877.5000     39.3044     28.4090     31.4546     60.9145
  1877.7500     41.1436     28.2218     33.1219     59.9287
  1878.0000     42.4084     28.0541     34.6542     59.9047
  1878.2500     42.9892     27.9124     35.9112     60.4841
  1878.5000     42.9515     27.8033     36.7679     61.6463
  1878.7500     42.5083     27.7320     37.1823     62.4427
  1879.0000     41.9242     27.7018     37.2211     63.9573
  1879.2500     41.4139     27.7125     37.0102     65.6403
  1879.5000     41.0908     27.7595     36.6599     69.6763
  1879.7500     40.9738     27.8346     36.2344     72.9851
  1880.0000     41.0225     27.9263     35.7772     77.1021
  1880.2500     41.1695     28.0227     35.3466     78.2680
  1880.5000     41.3437     28.1131     35.0198     77.1680
  1880.7500     41.4919     28.1899     34.8667     75.1069
  1881.0000     41.5985     28.2496     34.9243     71.7379
  1881.2500     41.6902     28.2926     35.1882     70.1191
  1881.5000     41.8166     28.3220     35.6176     68.9509
  1881.7500     42.0191     28.3423     36.1481     68.6659
  1882.0000     42.3105     28.3576     36.7077     68.2268
  1882.2500     42.6739     28.3708     37.2324     67.6800
  1882.5000     43.0722     28.3831     37.6703     66.5210
  1882.7500     43.4622     28.3944     37.9762     65.7691
  1883.0000     43.8070     28.4031     38.1073     65.1950
  1883.2500     44.0815     28.4078     38.0309     65.3486
  1883.5000     44.2700     28.4072     37.7418     66.2237
  1883.7500     44.3571     28.4010     37.2761     66.9303
  1884.0000     44.3258     28.3896     36.7070     67.6057
  1884.2500     44.1634     28.3737     36.1223     67.6739
  1884.5000     43.8670     28.3543     35.5942     67.6122
  1884.7500     43.4401     28.3315     35.1569     68.0525
  1885.0000     42.8810     28.3046     34.8019     70.4752
  1885.2500     42.1718     28.2726     34.4886     73.3419
  1885.5000     41.2714     28.2357     34.1598     78.2955
  1885.7500     40.1176     28.1960     33.7512     81.0645
  1886.0000     38.6527     28.1595     33.1920     83.8112
  1886.2500     36.8667     28.1361     32.4031     85.1072
  1886.5000     34.8287     28.1385     31.3136     87.3133
  1886.7500     32.6775     28.1806     29.9006     89.4929
  1887.0000     30.5727     28.2740     28.2251     94.7135
  1887.2500     28.6439     28.4254     26.4251     99.8280
  1887.5000     26.9638     28.6343     24.6636    109.3579
  1887.7500     25.5535     28.8924     23.0730    115.9379
  1888.0000     24.4062     29.1839     21.7291    124.5183
  1888.2500     23.5064     29.4878     20.6580    128.9953
  1888.5000     22.8352     29.7802     19.8559    133.5810
  1888.7500     22.3662     30.0383     19.3062    134.7214
  1889.0000     22.0659     30.2429     18.9886    132.2070
  1889.2500     21.9074     30.3805     18.8827    127.2595
  1889.5000     21.8915     30.4445     18.9705    115.6132
  1889.7500     22.0692     30.4349     19.2412    106.2509
  1890.0000     22.5489     30.3560     19.6971     92.5670
  1890.2500     23.4683     30.2153     20.3552     85.1386
  1890.5000     24.9162     30.0211     21.2412     77.8499
  1890.7500     26.8375     29.7814     22.3712     75.5017
  1891.0000     28.9929     29.5046     23.7241     74.6461
  1891.2500     31.0227     29.2000     25.2098     74.9268
  1891.5000     32.5811     28.8792     26.6518     75.1102
  1891.7500     33.4581     28.5567     27.8107     74.5909
  1892.0000     33.6331     28.2492     28.4621     73.0084
  1892.2500     33.2544     27.9732     28.4979     71.8360
  1892.5000     32.5642     27.7429     27.9815     70.6089
  1892.7500     31.7927     27.5664     27.1079     70.4878
  1893.0000     31.0630     27.4451     26.1006     71.8571
  1893.2500     30.3589     27.3738     25.1155     73.9459
