~Version Information
VERS.                      2.0: CWLS Log ASCII Standard - VERSION 2.0
WRAP.                       NO: One line per depth step
~Well Information Block
STRT.FT                 0.0000: 
STOP.FT               988.7500: 
STEP.FT                 0.2500: 
NULL.                -999.2500: 
COMP.          Pioneer Natural Resources: COMPANY
WELL.             Quartz 13-22: WELL
FLD.           Purgatoire River: FIELD
LOC.           1933' FSL & 675' FWL --------: LOCATION
PROV.                 Colorado: PROVINCE
CNTY.               Las Animas: COUNTRY
SRVC.                         : SERVICE COMPANY
DATE.          Thu Dec 22 09:29:32 2005: LOG DATE
UWI.                          : UNIQUE WELL ID
~Curve Information Block
DEPT.FT            0 000 00 00: Depth
CCL.                          : Casing Collar Locator
TT3.usec                      : CBL 3' Travel Time
AMP3.mV                       : CBL 3' Amplitude
AMP5.mV                       : CBL 5' Amplitude
GR.GAPI                       : Gamma Ray
~Parameter Information Block
~A  Depth       CCL         TT3         AMP3        AMP5         GR     
# ...
   560.0000      0.0000    728.7442      9.6852      1.5735     70.8275
   560.2500      0.0000    727.5783      9.9162      1.5535     68.3893
   560.5000      0.0000    728.8784     10.1134      1.5904     66.6085
   560.7500      0.0000    732.0396     10.2259      1.6832     65.8543
   561.0000      0.0000    735.1510     10.2092      1.8064     66.6756
   561.2500      0.0000    736.3366     10.0778      1.9278     69.6899
   561.5000      0.0000    734.8798      9.9159      2.0218     75.1574
   561.7500      0.0000    731.6061      9.8317      2.0752     82.7831
   562.0000      0.0000    728.4197      9.8972      2.0881     91.7152
   562.2500      0.0000    727.2213     10.1192      2.0701    100.4935
   562.5000      0.0000    728.8208     10.4435      2.0391    107.4307
   562.7500      0.0000    732.5840     10.7738      2.0237    111.6282
   563.0000      0.0000    737.1006     11.0089      2.0545    113.5289
   563.2500      0.0000    741.3585     11.0940      2.1427    114.1850
   563.5000      0.0000    745.3851     11.0537      2.2657    114.0962
   563.7500      0.0000    749.7488     10.9703      2.3766    113.0005
   564.0000      0.0000    754.5159     10.9231      2.4315    110.7549
   564.2500      0.0000    758.7966     10.9352      2.4172    108.2049
   564.5000      0.0000    761.2612     10.9681      2.3643    106.8677
   564.7500      0.0000    760.9207     10.9668      2.3280    107.4169
   565.0000      0.0000    757.6489     10.9137      2.3494    108.6217
   565.2500      0.0000    752.4969     10.8375      2.4286    108.4734
   565.5000      0.0000    747.5292     10.7721      2.5355    106.5374
   565.7500      0.0000    744.6935     10.7190      2.6387    104.4745
   566.0000      0.0000    744.3890     10.6575      2.7189    103.9149
   566.2500      0.0000    745.1182     10.5815      2.7617    104.5694
   566.5000      0.0000    744.6188     10.5166      2.7473    104.8535
   566.7500      0.0000    741.5843     10.4972      2.6598    103.6118
   567.0000      0.0000    736.7853     10.5265      2.5123    100.8222
   567.2500      0.0000    732.5663     10.5529      2.3520     97.4354
   567.5000      0.0000    730.9059     10.4927      2.2278     94.9512
   567.7500      0.0000    731.8746     10.2938      2.1591     94.4689
   568.0000      0.0000    734.0177      9.9885      2.1429     95.8517
   568.2500      0.0000    735.9708      9.6751      2.1718     98.1691
   568.5000      0.0000    737.3958      9.4410      2.2231    100.7738
   568.7500      0.0000    738.7007      9.3090      2.2523    103.4997
   569.0000      0.0000    740.4352      9.2561      2.2251    106.0452
   569.2500      0.0000    742.7350      9.2599      2.1539    107.6141
   569.5000      0.0000    744.8422      9.3103      2.0918    107.2023
   569.7500      0.0000    745.3927      9.3841      2.0955    104.2406
   570.0000      0.0000    743.4964      9.4307      2.1911     99.1426
   570.2500      0.0000    739.4069      9.3960      2.3558     93.2196
   570.5000      0.0000    734.2506      9.2575      2.5231     87.9596
   570.7500      0.0000    729.3707      9.0410      2.6153     84.3601
   571.0000      0.0000    725.7143      8.8117      2.5845     82.8546
   571.2500      0.0000    723.4988      8.6476      2.4326     83.5730
   571.5000      0.0000    722.3901      8.6018      2.2031     86.4160
   571.7500      0.0000    721.9441      8.6758      1.9555     90.8534
   572.0000      0.0000    721.8099      8.8286      1.7416     95.7424
   572.2500      0.0000    721.6915      9.0116      1.5974     99.5430
   572.5000      0.0000    721.3758      9.1915      1.5439    101.1870
   572.7500      0.0000    720.8500      9.3418      1.5804    101.0668
   573.0000      0.0000    720.3140      9.4317      1.6766    100.7423
   573.2500      0.0000    720.1219      9.4385      1.7849    101.1504
   573.5000      0.0000    720.8517      9.3718      1.8666    101.4640
   573.7500      0.0000    723.4228      9.2788      1.9125    100.0839
   574.0000      0.0000    728.8223      9.2253      1.9432     96.2571
   574.2500      0.0000    737.2811      9.2653      1.9919     90.4058
   574.5000      0.0000    747.6071      9.4151      2.0733     83.4252
   574.7500      0.0000    757.8030      9.6398      2.1584     76.1250
   575.0000      0.0000    766.7784      9.8643      2.1893     69.1573
   575.2500      0.0000    775.1020     10.0115      2.1261     63.2064
   575.5000      0.0000    783.2977     10.0411      1.9790     59.2294
   575.7500      0.0000    789.6271      9.9565      1.8011     58.3741
   576.0000      0.0000    790.6767      9.7733      1.6587     61.3669
   576.2500      0.0000    784.4257      9.4795      1.5953     67.6696
   576.5000      0.0000    772.1563      9.0392      1.6108     75.1939
   576.7500      0.0000    757.4993      8.4665      1.6776     81.3116
   577.0000      0.0000    744.2982      7.9007      1.7689     84.5675
   577.2500      0.0000    735.1965      7.5497      1.8564     85.3161
   577.5000      0.0000    731.2955      7.4976      1.8957     84.6905
   577.7500      0.0000    732.2700      7.6070      1.8442     83.3356
   578.0000      0.0000    736.5166      7.6772      1.7035     81.1794
   578.2500      0.0000    741.6256      7.6589      1.5385     77.9770
   578.5000      0.0000    745.4739      7.6498      1.4380     73.8536
   578.7500      0.0000    747.1507      7.7318      1.4393     69.4737
   579.0000      2.0000    746.9000      7.8857      1.4940     65.8264
   579.2500      0.0000    745.7462      8.0290      1.5227     63.8016
   579.5000      0.0000    745.3090      8.1001      1.4966     63.8046
   579.7500      0.0000    746.9523      8.1327      1.4484     65.7315
   580.0000      0.0000    750.2795      8.2691      1.4203     69.3243
   580.2500      0.0000    752.8671      8.6599      1.4257     74.3882
   580.5000      0.0000    752.0764      9.3230      1.4502     80.4952
   580.7500      0.0000    747.2089     10.1116      1.4722     86.6610
   581.0000      0.0000    739.9372     10.8063      1.4931     91.5942
   581.2500      0.0000    732.8635     11.2308      1.5501     94.2712
   581.5000      0.0000    727.7680     11.3237      1.6819     94.2499
   581.7500      0.0000    724.9736     11.1438      1.8800     91.8567
   582.0000      0.0000    723.8326     10.8008      2.0879     88.5038
   582.2500      0.0000    723.4617     10.3737      2.2480     86.3528
   582.5000      0.0000    723.1995      9.8984      2.3384     86.9144
   582.7500      0.0000    722.7673      9.4141      2.3655     90.0282
   583.0000      0.0000    722.1995      8.9923      2.3417     94.3799
   583.2500      0.0000    721.6314      8.7032      2.2763     98.4204
   583.5000      0.0000    721.1315      8.5581      2.1790    100.7235
   583.7500      0.0000    720.6878      8.4938      2.0657    100.4824
   584.0000      0.0000    720.2780      8.4242      1.9623     98.1196
   584.2500      0.0000    719.9092      8.3125      1.9009     94.8976
   584.5000      0.0000    719.5892      8.1861      1.9024     91.7798
   584.7500      0.0000    719.2914      8.0881      1.9534     89.0557
   585.0000      0.0000    718.9725      8.0263      2.0060     86.8738
   585.2500      0.0000    718.6268      7.9714      2.0081     85.4320
   585.5000      0.0000    718.3095      7.8926      1.9380     84.5708
   585.7500      0.0000    718.0922      7.7892      1.8094     83.8337
   586.0000      0.0000    718.0028      7.6919      1.6615     83.2420
   586.2500      0.0000    718.0146      7.6350      1.5469     83.4861
   586.5000      0.0000    718.0827      7.6310      1.5051     84.9044
   586.7500      0.0000    718.1805      7.6680      1.5305     86.6874
   587.0000      0.0000    718.3115      7.7255      1.5806     87.8138
   587.2500      0.0000    718.4847      7.7892      1.6238     88.6176
   587.5000      0.0000    718.6815      7.8534      1.6662     90.5064
   587.7500      0.0000    718.8612      7.9140      1.7301     93.8410
