~Version Information
VERS.                      2.0: CWLS Log ASCII Standard - VERSION 2.0
WRAP.                       NO: One line per depth step
~Well Information Block
STRT.FT                 0.0000: 
STOP.FT              2473.5000: 
STEP.FT                 0.2500: 
NULL.                -999.2500: 
COMP.          Petrogulf Corporation: COMPANY
WELL.          Montoya 18-11V-B: WELL
FLD.           Purgatorie River: FIELD
LOC.           848' FNL & 619' FWL: LOCATION
PROV.                 Colorado: PROVINCE
CNTY.               Las Animas: COUNTRY
SRVC.                Patterson: SERVICE COMPANY
DATE.          Wed Nov 09 10:15:13 2005: LOG DATE
UWI.                          : UNIQUE WELL ID
~Curve Information Block
DEPT.FT            0 000 00 00: Depth
CCL.                          : Casing Collar Locator
TT3.usec                      : CBL 3' Travel Time
AMP3.mV                       : CBL 3' Amplitude
GR.GAPI                       : Gamma Ray
~Parameter Information Block
~A  Depth       CCL         TT3         AMP3         GR     
# ...
  2110.5000      0.0000    714.6462      4.0806     97.4582
  2110.7500      0.0000    713.0363      3.8223    102.7615
  2111.0000      0.0000    714.6384      3.5142    105.3214
  2111.2500      0.0000    715.4418      3.1894    103.9132
  2111.5000      0.0000    715.6682      2.8828    100.1269
  2111.7500      0.0000    720.6265      2.6156     96.6477
  2112.0000      0.0000    734.3919      2.3935     95.2027
  2112.2500      0.0000    756.3247      2.2383     95.7438
  2112.5000      0.0000    777.1262      2.2014     97.0144
  2112.7500      0.0000    780.2339      2.3080     97.8225
  2113.0000      0.0000    760.0187      2.5051     97.9707
  2113.2500      0.0000    730.0241      2.6846     98.0700
  2113.5000      0.0000    705.8406      2.7538     98.6610
  2113.7500      0.0000    692.0728      2.6899     99.6980
  2114.0000      0.0000    686.8823      2.5413    100.6122
  2114.2500      0.0000    689.4044      2.3752    100.5639
  2114.5000      0.0000    701.4111      2.2212     98.9653
  2114.7500      0.0000    723.2792      2.0611     96.1687
  2115.0000      0.0000    748.5331      1.8685     93.3529
  2115.2500      0.0000    764.9081      1.6505     91.2659
  2115.5000      0.0000    761.3658      1.4410     89.2343
  2115.7500      0.0000    738.4267      1.2674     85.8043
  2116.0000      0.0000    713.7665      1.1452     80.3657
  2116.2500      0.0000    709.9534      1.1011     73.8977
  2116.5000      0.0000    737.4548      1.1830     68.2261
  2116.7500      0.0000    787.9692      1.4504     64.9653
  2117.0000      0.0000    838.0968      1.9497     65.0195
  2117.2500      0.0000    863.4379      2.6910     68.2611
  2117.5000      0.0000    854.4406      3.6408     73.2915
  2117.7500      0.0000    821.2029      4.7845     77.9609
  2118.0000      0.0000    783.0541      6.2423     80.5832
  2118.2500      0.0000    749.3688      8.3028     80.7596
  2118.5000      0.0000    711.4311     11.3009     79.1590
  2118.7500      0.0000    652.0507     15.3886     76.6281
  2119.0000      0.0000    562.5380     20.4000     73.5352
  2119.2500      0.0000    459.3907     25.9080     69.8975
  2119.5000      0.0000    375.6936     31.2209     65.8633
  2119.7500      0.0000    328.3081     35.3730     61.7692
  2120.0000      0.0000    310.0397     37.4452     57.8835
  2120.2500      0.0000    310.3121     37.0249     54.3525
  2120.5000      0.0000    330.1819     34.3738     51.3920
  2120.7500      0.0000    382.5871     30.3067     49.4952
  2121.0000      0.0000    475.2725     25.8829     49.5043
  2121.2500      0.0000    585.9272     21.9065     52.2267
  2121.5000      0.0000    672.4620     18.6079     57.5324
  2121.7500      0.0000    715.0630     15.8180     63.8668
  2122.0000      0.0000    725.1642     13.3495     69.1656
  2122.2500      0.0000    720.5646     11.2036     72.5215
  2122.5000      0.0000    712.8776      9.5030     74.9005
  2122.7500      0.0000    707.3339      8.3181     78.1991
  2123.0000      0.0000    703.1842      7.5924     83.4814
  2123.2500      0.0000    701.0735      7.1853     89.9100
  2123.5000      0.0000    703.6885      6.9542     95.4968
  2123.7500      0.0000    704.0606      6.8083     99.0480
  2124.0000      0.0000    693.3622      6.7095    100.9631
  2124.2500      0.0000    678.7307      6.6395    101.8228
  2124.5000      0.0000    673.5636      6.6026    100.9704
  2124.7500      0.0000    678.8966      6.6862     97.2270
  2125.0000      0.0000    684.6742      7.0427     90.5704
  2125.2500      0.0000    684.9418      7.7596     82.5111
  2125.5000      0.0000    683.2492      8.7687     75.0398
  2125.7500      0.0000    680.8887      9.8492     69.6380
  2126.0000      0.0000    674.2834     10.6721     67.2073
  2126.2500      0.0000    664.7275     10.9517     68.3084
  2126.5000      0.0000    658.5670     10.6510     72.6396
  2126.7500      0.0000    661.7431      9.9486     78.1969
  2127.0000      0.0000    675.6711      9.0632     81.9135
  2127.2500      0.0000    694.2762      8.2188     81.9595
  2127.5000      0.0000    710.4299      7.5741     79.2625
  2127.7500      0.0000    723.4882      7.0596     76.5473
  2128.0000      0.0000    733.1129      6.4674     76.0776
  2128.2500      0.0000    735.8797      5.7367     78.1527
  2128.5000      0.0000    734.3192      4.9899     81.2891
  2128.7500      0.0000    735.6736      4.3691     83.7660
  2129.0000      0.0000    739.9346      3.9588     85.1391
  2129.2500      0.0000    738.9659      3.7489     86.1976
  2129.5000      0.0000    727.4031      3.6284     87.6016
  2129.7500      0.0000    709.3504      3.4680     89.0157
  2130.0000      0.0000    693.5481      3.2272     89.5675
  2130.2500      0.0000    685.8500      2.9835     88.7412
  2130.5000      0.0000    685.3866      2.8317     86.8070
  2130.7500      0.0000    685.2000      2.7824     84.7037
  2131.0000      0.0000    679.7972      2.7769     83.5457
  2131.2500      0.0000    672.1302      2.7625     83.9664
  2131.5000      0.0000    669.7090      2.7315     85.7536
  2131.7500      0.0000    675.5659      2.6872     88.0902
  2132.0000      0.0000    687.1631      2.6244     90.2012
  2132.2500      0.0000    702.0003      2.5469     91.8628
  2132.5000      0.0000    719.8568      2.4801     93.3267
  2132.7500      0.0000    739.1758      2.4837     94.7173
  2133.0000      0.0000    753.5353      2.6081     95.6895
  2133.2500      0.0000    755.4934      2.8255     95.8508
  2133.5000      0.0000    743.5988      3.0254     95.2209
  2133.7500      0.0000    722.6070      3.0805     94.0249
  2134.0000      0.0000    699.8082      2.9794     92.3432
  2134.2500      0.0000    682.8720      2.8616     90.1938
  2134.5000      0.0000    675.5505      2.8526     87.6324
  2134.7500      0.0000    675.0984      2.9515     84.6130
  2135.0000      0.0000    678.1016      3.1049     81.0580
  2135.2500      0.0000    687.3440      3.3028     77.0839
  2135.5000      0.0000    709.7017      3.5914     72.9103
  2135.7500      0.0000    745.2060      3.9900     68.6467
  2136.0000      0.0000    780.9893      4.4262     64.4620
  2136.2500     -2.0000    799.5425      4.7859     60.8337
  2136.5000      2.0000    788.5898      5.0383     58.3755
  2136.7500      0.0000    748.6510      5.3144     57.4217
  2137.0000      0.0000    701.5296      5.8189     57.8141
  2137.2500      0.0000    679.0013      6.6393     58.9257
  2137.5000      0.0000    689.2600      7.7161     59.8448
  2137.7500      0.0000    707.0711      8.9906     59.8253
  2138.0000      0.0000    703.1772     10.4027     58.9271
  2138.2500      0.0000    662.5760     11.7514     58.1462
  2138.5000      0.0000    585.0511     12.7640     58.4717
  2138.7500      0.0000    492.9112     13.3581     59.7374
  2139.0000      0.0000    419.8997     13.7027     60.8153
  2139.2500      0.0000    380.6586     13.9756     61.0557
  2139.5000      0.0000    367.2198     14.2065     61.0156
  2139.7500      0.0000    367.0286     14.3762     61.5098
  2140.0000      0.0000    371.1573     14.4815     62.4644
  2140.2500      0.0000    376.4687     14.4650     62.9882
  2140.5000      0.0000    389.1449     14.2266     62.2777
  2140.7500      0.0000    425.1838     13.6898     60.3508
  2141.0000      0.0000    498.1320     12.8118     58.0740
  2141.2500      0.0000    595.6082     11.6501     56.3846
  2141.5000      0.0000    680.3143     10.4279     55.4814
  2141.7500      0.0000    726.8481      9.3514     55.0435
  2142.0000      0.0000    743.1139      8.4181     55.1142
  2142.2500      0.0000    751.7585      7.5397     56.2046
  2142.5000      0.0000    762.5439      6.7208     58.5134
  2142.7500      0.0000    767.1508      6.0472     61.5595
  2143.0000      0.0000    757.3058      5.5984     64.6493
  2143.2500      0.0000    737.0377      5.3898     67.4052
  2143.5000      0.0000    717.1026      5.3912     69.9260
  2143.7500      0.0000    705.3953      5.5901     72.6348
