~Version Information
 VERS.                                  2.0 : CWLS LAS VERSION
 WRAP.                                   NO : WRAPING MODE
 SWARE .                 MController 2.5.0N : SOFTWARE VERSION
~Well Information
 WELL.                          Yoshi 14-30 : WELL
 COMP.    Pioneer Natural Resources USA Inc : COMPANY
 FLD.                      Purgatoire River : FIELD
 LOC.                 SW/SW Sec30 T32S R65W : LOCATION
 DATE.                             02/17/06 : DATE(S) LOGGED
 SRVC.       Blanco Geological Services LLC : SERVICE COMPANY
 STAT.                             Colorado : STATE
 CNTY.                           Las Animas : COUNTY
 CTRY.                                  USA : COUNTRY
 API.                       05-071-08699-00 : API NUMBER
 STRT.FT                             350.00 : START DEPTH
 STOP.FT                            1300.00 : STOP DEPTH
 STEP.FT                               1.00 : DEPTH INCREMENT
 NULL.                                -9999 : NULL VALUE
~Curve information
 DEPTH.FT                                   :
 ROP.MIN/FT                                 :
 GAS.UNITS                                  :
~ASCII Log data
# ...
       950.0         0.37        105.3 
       951.0         4.98        374.1 
       952.0         0.20        157.2 
       953.0         0.20        148.1 
       954.0         0.23        141.2 
       955.0         0.33        121.3 
       956.0         0.35        113.9 
       957.0         0.40        109.8 
       958.0         0.33        102.4 
       959.0         0.30         94.7 
       960.0         0.33         89.5 
       961.0         0.33         86.5 
       962.0         0.33         85.6 
       963.0         0.33         84.6 
       964.0         0.37         83.5 
       965.0         0.42         81.4 
       966.0         0.37         80.4 
       967.0         0.40         79.4 
       968.0         0.33         79.9 
       969.0         0.37         78.5 
       970.0         0.37         79.0 
       971.0         0.38         78.8 
       972.0         0.37         76.1 
       973.0         0.43         76.9 
       974.0         0.40         79.2 
       975.0         0.37         78.9 
       976.0         0.33         79.1 
       977.0         0.37         78.8 
       978.0         0.33         79.5 
       979.0         0.37         79.2 
       980.0         0.42         78.7 
       981.0         5.88       1112.0 
       982.0         0.33        128.6 
       983.0         0.35        119.7 
       984.0         0.27        133.8 
       985.0         0.27        161.6 
       986.0         0.27        165.9 
       987.0         0.23        153.1 
       988.0         0.20        145.1 
       989.0         0.23        136.6 
       990.0         0.27        129.8 
       991.0         0.23        116.6 
       992.0         0.23        104.3 
       993.0         0.27        102.0 
       994.0         0.27         97.1 
       995.0         0.28         93.9 
       996.0         0.27         93.3 
       997.0         0.27         86.4 
       998.0         0.30         83.1 
       999.0         0.33         82.5 
      1000.0         0.37         84.1 
      1001.0         0.37         87.3 
      1002.0         0.37         91.0 
      1003.0         0.35         90.6 
      1004.0         0.40        120.0 
      1005.0         0.37        172.8 
      1006.0         0.37        217.3 
      1007.0         0.30        250.1 
      1008.0         0.33        237.8 
      1009.0         0.37        215.4 
      1010.0         0.37        174.2 
      1011.0         3.62       1831.3 
      1012.0         0.38        732.9 
      1013.0         0.40        657.1 
      1014.0         0.47        620.1 
      1015.0         0.33        599.5 
      1016.0         0.27        561.8 
      1017.0         0.27        559.4 
      1018.0         0.23        531.5 
      1019.0         0.27        487.3 
      1020.0         0.30        473.5 
      1021.0         0.30        461.4 
      1022.0         0.27        445.9 
      1023.0         0.35        444.2 
      1024.0         0.30        144.8 
      1025.0         0.30        140.3 
      1026.0         0.30        135.7 
      1027.0         0.30        131.5 
      1028.0         0.30        126.1 
      1029.0         0.25        143.2 
      1030.0         0.27        145.3 
      1031.0         0.27        160.2 
      1032.0         0.23        174.0 
      1033.0         0.20        181.0 
      1034.0         0.23        178.8 
      1035.0         0.23        170.5 
      1036.0         0.33        166.2 
      1037.0         0.40        150.8 
      1038.0         0.43        146.1 
      1039.0         0.43        143.1 
      1040.0         0.45        139.9 
      1041.0         4.32       1545.9 
      1042.0         0.20        664.6 
      1043.0         0.20        631.5 
      1044.0         0.27        621.4 
      1045.0         0.40        564.8 
      1046.0         0.43        483.3 
      1047.0         0.40        453.6 
      1048.0         0.42        150.1 
      1049.0         0.47        135.1 
      1050.0         0.43        126.7 
      1051.0         0.43        124.5 
      1052.0         0.33        118.1 
      1053.0         0.27        118.8 
      1054.0         0.30        123.4 
      1055.0         0.30        125.0 
      1056.0         0.30        124.0 
      1057.0         0.38        121.7 
      1058.0         0.33        120.0 
      1059.0         0.37        118.7 
      1060.0         0.37        117.5 
      1061.0         0.37        117.3 
      1062.0         0.33        114.6 
      1063.0         0.33        114.0 
      1064.0         0.37        113.9 
      1065.0         0.30        113.3 
      1066.0         0.37        111.5 
      1067.0         0.35        110.7 
      1068.0         0.33        112.1 
      1069.0         0.33        112.9 
      1070.0         0.30        108.5 
      1071.0         3.15        379.3 
      1072.0         0.23        244.0 
      1073.0         0.33        226.8 
      1074.0         0.23        251.4 
      1075.0         0.23        262.0 
      1076.0         0.23        300.3 
      1077.0         0.23        326.4 
      1078.0         0.23        330.2 
      1079.0         0.27        323.9 
      1080.0         0.27        306.8 
      1081.0         0.25        287.5 
      1082.0         0.27        273.6 
      1083.0         0.30        233.7 
      1084.0         0.27        257.6 
      1085.0         0.27        257.6 
      1086.0         0.23        257.6 
      1087.0         0.27        269.9 
      1088.0         0.27        317.6 
      1089.0         0.23        363.0 
      1090.0         0.27        378.9 
      1091.0         0.23        380.9 
      1092.0         0.27        380.3 
      1093.0         0.30        376.4 
      1094.0         0.28        382.8 
      1095.0         0.27        381.7 
      1096.0         0.27        373.3 
      1097.0         0.30        373.1 
      1098.0         0.30        380.2 
      1099.0         0.30        351.6 
      1100.0         0.33        330.7 
      1101.0         3.15       2537.5 
      1102.0         0.30       1551.3 
      1103.0         0.33       1160.2 
      1104.0         0.33       1114.0 
      1105.0         0.47       1087.7 
      1106.0         0.42       1039.9 
      1107.0         0.47        968.8 
      1108.0         0.43        933.4 
      1109.0         0.43        877.5 
      1110.0         0.43        844.1 
      1111.0         0.47        837.4 
      1112.0         0.47        821.6 
      1113.0         0.52        804.7 
      1114.0         0.53        794.3 
      1115.0         0.40        786.2 
      1116.0         0.43        770.7 
      1117.0         0.33        763.9 
      1118.0         0.33        753.8 
      1119.0         0.33        719.1 
      1120.0         0.30        758.9 
      1121.0         0.30        840.4 
      1122.0         0.32        931.1 
      1123.0         0.27        953.3 
      1124.0         0.30        988.7 
      1125.0         0.27       1006.2 
      1126.0         0.27       1015.3 
      1127.0         0.30       1008.9 
      1128.0         0.30        985.6 
      1129.0         0.37        871.4 
      1130.0         0.37        663.2 
      1131.0         3.33       3062.4 
      1132.0         0.40       1485.3 
      1133.0         0.40       1233.6 
      1134.0         0.37       1183.7 
      1135.0         0.40       1161.8 
      1136.0         0.33       1106.9 
      1137.0         0.37       1023.0 
      1138.0         0.33        962.7 
      1139.0         0.33        909.2 
      1140.0         0.38        801.3 
      1141.0         0.33        815.5 
      1142.0         0.30        892.0 
      1143.0         0.33        949.2 
      1144.0         0.30        962.7 
      1145.0         0.33        951.6 
      1146.0         0.37        938.5 
      1147.0         0.40        919.3 
      1148.0         0.40        915.9 
      1149.0         0.38        904.8 
