~Version Information
VERS.                      2.0: CWLS Log ASCII Standard - VERSION 2.0
WRAP.                       NO: One line per depth step
~Well Information Block
STRT.FT               655.0000: 
STOP.FT              2623.7500: 
STEP.FT                 0.2500: 
NULL.                -999.2500: 
COMP.          Pioneer Natural Resources: COMPANY
WELL.             Aviator 12-4: WELL
FLD.           Purgatoire River: FIELD
LOC.           1969' FNL & 732' FWL--: LOCATION
CNTY.               Las Animas: COUNTY
SRVC.                Patterson: SERVICE COMPANY
DATE.          Sun Apr 09 14:25:03 2006: LOG DATE
UWI.           05 071 08714 00: UNIQUE WELL ID
STAT.                 Colorado: STATE
~Curve Information Block
DEPT.FT            0 000 00 00: Depth
SN.Ohm-m                      : IEL Short Normal
SP.mV                         : IEL Spontaneous Potential
DIR.Ohm-m                     : IEL Induction Resistivity
GR.GAPI                       : Gamma Ray
~Parameter Information Block
~A  Depth        SN          SP         DIR          GR     
# ...
  1559.5000     18.4488    -40.8378     14.1762    105.3118
  1559.7500     19.5148    -41.1132     14.9459    102.0359
  1560.0000     20.8008    -41.4260     15.8449     96.6997
  1560.2500     22.3491    -41.7720     16.9136     93.6486
  1560.5000     24.1530    -42.1464     18.1869     90.7310
  1560.7500     26.1637    -42.5436     19.6860     89.7872
  1561.0000     28.3098    -42.9570     21.4098     88.7969
  1561.2500     30.4848    -43.3790     23.3229     87.7853
  1561.5000     32.5885    -43.8016     25.3485     85.3313
  1561.7500     34.6095    -44.2169     27.3796     83.1495
  1562.0000     36.6125    -44.6189     29.3140     79.3514
  1562.2500     38.6320    -45.0041     31.0876     76.7504
  1562.5000     40.6145    -45.3721     32.6796     73.5764
  1562.7500     42.4644    -45.7256     34.0899     72.4355
  1563.0000     44.1016    -46.0694     35.3231     72.3316
  1563.2500     45.4619    -46.4089     36.3916     72.8794
  1563.5000     46.4844    -46.7487     37.3237     73.4284
  1563.7500     47.1185    -47.0898     38.1466     73.0841
  1564.0000     47.3588    -47.4288     38.8524     71.2464
  1564.2500     47.2735    -47.7564     39.3745     69.2941
  1564.5000     46.9557    -48.0572     39.6052     65.8142
  1564.7500     46.4454    -48.3105     39.4492     63.5892
  1565.0000     45.7162    -48.4920     38.8731     61.4281
  1565.2500     44.6910    -48.5757     37.9101     61.2575
  1565.5000     43.2456    -48.5379     36.6230     62.8801
  1565.7500     41.2853    -48.3601     35.0685     64.7256
  1566.0000     38.8796    -48.0344     33.2935     67.9524
  1566.2500     36.2767    -47.5677     31.3599     70.5331
  1566.5000     33.7785    -46.9842     29.3640     75.8940
  1566.7500     31.5895    -46.3256     27.4234     80.7732
  1567.0000     29.7169    -45.6467     25.6392     89.5285
  1567.2500     28.0162    -45.0067     24.0603     95.4648
  1567.5000     26.3271    -44.4594     22.6759    102.8605
  1567.7500     24.5548    -44.0430     21.4335    106.1504
  1568.0000     22.6959    -43.7749     20.2727    108.5680
  1568.2500     20.8449    -43.6515     19.1562    109.1093
  1568.5000     19.1652    -43.6526     18.0850    110.0675
  1568.7500     17.8188    -43.7502     17.0904    111.7937
  1569.0000     16.8857    -43.9158     16.2110    116.7642
  1569.2500     16.3264    -44.1264     15.4704    121.3603
  1569.5000     16.0079    -44.3673     14.8682    128.7691
  1569.7500     15.7711    -44.6311     14.3841    133.1476
  1570.0000     15.5155    -44.9154     13.9904    137.7955
  1570.2500     15.2401    -45.2190     13.6641    139.2984
  1570.5000     15.0068    -45.5393     13.3940    139.0380
  1570.7500     14.8622    -45.8697     13.1796    137.4173
  1571.0000     14.7919    -46.1995     13.0250    133.6873
  1571.2500     14.7498    -46.5143     12.9306    130.7919
  1571.5000     14.7059    -46.7975     12.8889    126.0388
  1571.7500     14.6576    -47.0327     12.8840    122.6933
  1572.0000     14.6218    -47.2063     12.8973    118.5341
  1572.2500     14.6141    -47.3092     12.9125    117.3865
  1572.5000     14.6284    -47.3392     12.9207    118.9064
  1572.7500     14.6500    -47.3004     12.9224    121.3777
  1573.0000     14.6780    -47.2038     12.9263    124.9399
  1573.2500     14.7230    -47.0645     12.9459    126.1736
  1573.5000     14.7982    -46.9003     12.9952    125.9749
  1573.7500     14.9224    -46.7289     13.0862    124.9303
  1574.0000     15.1150    -46.5656     13.2288    122.8810
  1574.2500     15.3816    -46.4219     13.4324    121.2798
  1574.5000     15.7225    -46.3051     13.7092    117.8561
  1574.7500     16.1559    -46.2183     14.0774    114.6020
  1575.0000     16.7175    -46.1608     14.5617    109.0294
  1575.2500     17.4428    -46.1292     15.1903    105.8783
  1575.5000     18.3438    -46.1179     15.9852    103.3087
  1575.7500     19.3826    -46.1192     16.9496    102.9650
  1576.0000     20.4728    -46.1242     18.0563    103.2767
  1576.2500     21.5175    -46.1229     19.2416    103.3231
  1576.5000     22.4463    -46.1056     20.4126    102.6813
  1576.7500     23.2148    -46.0644     21.4665    101.7103
  1577.0000     23.7924    -45.9943     22.3179     99.0601
  1577.2500     24.1878    -45.8952     22.9215     96.3413
  1577.5000     24.4743    -45.7714     23.2825     91.6462
  1577.7500     24.7473    -45.6320     23.4515     89.2627
  1578.0000     25.0557    -45.4886     23.5076     88.7427
  1578.2500     25.3785    -45.3538     23.5313     90.6524
  1578.5000     25.6453    -45.2391     23.5810     95.0938
  1578.7500     25.7766    -45.1536     23.6824     97.3303
  1579.0000     25.7415    -45.1033     23.8351     97.3672
  1579.2500     25.6021    -45.0906     24.0329     95.1838
  1579.5000     25.4967    -45.1152     24.2833     90.6954
  1579.7500     25.5823    -45.1744     24.6179     88.4008
  1580.0000     25.9834    -45.2641     25.0838     87.2392
  1580.2500     26.7360    -45.3793     25.7227     87.7179
  1580.5000     27.7447    -45.5151     26.5483     89.2188
  1580.7500     28.8200    -45.6671     27.5359     90.3034
  1581.0000     29.7976    -45.8311     28.6280     91.8143
  1581.2500     30.6321    -46.0038     29.7516     92.7465
  1581.5000     31.3823    -46.1812     30.8379     94.0084
  1581.7500     32.1348    -46.3591     31.8361     94.5619
  1582.0000     32.9450    -46.5322     32.7200     94.1682
  1582.2500     33.8210    -46.6950     33.4887     92.5897
  1582.5000     34.7327    -46.8422     34.1598     87.9450
  1582.7500     35.6183    -46.9698     34.7596     83.5859
  1583.0000     36.3972    -47.0768     35.3129     76.0526
  1583.2500     37.0133    -47.1649     35.8349     70.9890
  1583.5000     37.4724    -47.2393     36.3238     64.2395
  1583.7500     37.8328    -47.3066     36.7541     60.5488
  1584.0000     38.1593    -47.3738     37.0746     56.0817
  1584.2500     38.4944    -47.4450     37.2269     53.6405
  1584.5000     38.8416    -47.5198     37.1795     50.9297
  1584.7500     39.1368    -47.5918     36.9570     50.1202
  1585.0000     39.2522    -47.6477     36.6325     50.8379
  1585.2500     39.0471    -47.6692     36.2814     52.3979
  1585.5000     38.4140    -47.6348     35.9233     55.4795
  1585.7500     37.2991    -47.5235     35.4907     57.6952
  1586.0000     35.7238    -47.3183     34.8479     61.4382
  1586.2500     33.8101    -47.0096     33.8565     64.4950
  1586.5000     31.7782    -46.5974     32.4537     70.0073
  1586.7500     29.8717    -46.0913     30.6936     74.1154
  1587.0000     28.2374    -45.5102     28.7265     81.0434
  1587.2500     26.8833    -44.8793     26.7379     86.7680
  1587.5000     25.7347    -44.2271     24.8854     97.9633
  1587.7500     24.6991    -43.5812     23.2651    106.7352
  1588.0000     23.6994    -42.9658     21.9094    119.0722
  1588.2500     22.6859    -42.3987     20.8063    124.8315
  1588.5000     21.6490    -41.8908     19.9261    127.9658
  1588.7500     20.6417    -41.4465     19.2418    126.5609
  1589.0000     19.7811    -41.0648     18.7393    120.8663
  1589.2500     19.2004    -40.7413     18.4147    115.7966
  1589.5000     18.9858    -40.4693     18.2651    107.7084
  1589.7500     19.1479    -40.2417     18.2834    102.4969
  1590.0000     19.6368    -40.0511     18.4592     95.6094
  1590.2500     20.4148    -39.8901     18.7846     92.0358
  1590.5000     21.5170    -39.7515     19.2557     88.7723
  1590.7500     22.9524    -39.6285     19.8636     88.0561
  1591.0000     24.5371    -39.5149     20.5769     88.6657
  1591.2500     25.9421    -39.4059     21.3284     89.6870
  1591.5000     26.9365    -39.2978     22.0221     91.3043
  1591.7500     27.5213    -39.1884     22.5682     92.1137
  1592.0000     27.8570    -39.0765     22.9291     92.9003
  1592.2500     28.1223    -38.9611     23.1385     93.5550
  1592.5000     28.4094    -38.8406     23.2768     95.8571
  1592.7500     28.6757    -38.7121     23.4240     98.6418
