~Version Information
VERS.                      2.0: CWLS Log ASCII Standard - VERSION 2.0
WRAP.                       NO: One line per depth step
~Well Information Block
STRT.FT              1186.0000: 
STOP.FT              1577.0000: 
STEP.FT                 0.2500: 
NULL.                -999.2500: 
COMP.          XTO Energy Inc.: COMPANY
WELL.          Golden Eagle 19-10: WELL
FLD.           Purgatorie River: FIELD
LOC.           2684' FSL & 1825' FEL--: LOCATION
CNTY.               Las Animas: COUNTY
SRVC.          Superior Well Services: SERVICE COMPANY
DATE.          Mon Dec 11 16:19:11 2006: LOG DATE
UWI.           05 071 08697 00: UNIQUE WELL ID
STAT.                       CO: STATE
~Curve Information Block
DEPT.FT            0 000 00 00: Depth
CCL.                          : Casing Collar Locator
TT3.usec                      : CBL 3' Travel Time
AMP3.mV                       : CBL 3' Amplitude
GR.GAPI                       : Gamma Ray
~Parameter Information Block
~A  Depth       CCL         TT3         AMP3         GR     
# ...
  1353.5000      0.0000    261.3844     71.8801     43.7843
  1353.7500      0.0000    261.4101     71.9137     47.1257
  1354.0000      0.0000    261.4350     71.9401     52.0591
  1354.2500      0.0000    261.4554     71.9393     57.1426
  1354.5000      0.0000    261.4702     71.9083     60.7287
  1354.7500      0.0000    261.4797     71.8643     61.9438
  1355.0000      0.0000    261.4834     71.8342     61.0211
  1355.2500      0.0000    261.4812     71.8379     58.6646
  1355.5000      0.0000    261.4741     71.8809     55.3894
  1355.7500      0.0000    261.4646     71.9620     51.5630
  1356.0000      0.0000    261.4543     72.0879     47.7360
  1356.2500      0.0000    261.4426     72.2784     44.6680
  1356.5000      0.0000    261.4277     72.5503     43.1052
  1356.7500      0.0000    261.4096     72.8974     43.5879
  1357.0000      0.0000    261.3903     73.2862     46.3439
  1357.2500      0.0000    261.3720     73.6724     51.1827
  1357.5000      0.0000    261.3559     74.0191     57.3438
  1357.7500      0.0000    261.3420     74.3024     63.5990
  1358.0000      0.0000    261.3296     74.5116     68.9328
  1358.2500      0.0000    261.3178     74.6542     73.2019
  1358.5000      0.0000    261.3056     74.7599     76.7782
  1358.7500      0.0000    261.2915     74.8770     79.5615
  1359.0000      0.0000    261.2739     75.0568     80.9031
  1359.2500      0.0000    261.2514     75.3327     80.5696
  1359.5000      0.0000    261.2246     75.7007     79.0928
  1359.7500      0.0000    261.1970     76.1200     76.9805
  1360.0000      0.0000    261.1727     76.5381     74.3434
  1360.2500      0.0000    261.1526     76.9205     71.6276
  1360.5000      0.0000    261.1337     77.2575     69.9471
  1360.7500      0.0000    261.1121     77.5497     70.0251
  1361.0000      0.0000    261.0870     77.7980     71.1073
  1361.2500      0.0000    261.0601     78.0070     71.4233
  1361.5000      0.0000    261.0339     78.1860     69.7288
  1361.7500      0.0000    261.0102     78.3397     66.3251
  1362.0000      0.0000    260.9909     78.4627     62.7527
  1362.2500      0.0000    260.9778     78.5454     60.4853
  1362.5000      0.0000    260.9716     78.5858     59.6998
  1362.7500      0.0000    260.9713     78.5963     59.3793
  1363.0000      0.0000    260.9744     78.6031     58.8011
  1363.2500      0.0000    260.9782     78.6348     58.5552
  1363.5000      0.0000    260.9803     78.7034     59.7162
  1363.7500      0.0000    260.9794     78.7988     62.4251
  1364.0000      0.0000    260.9754     78.9000     65.8400
  1364.2500      0.0000    260.9692     78.9917     69.0509
  1364.5000      0.0000    260.9626     79.0670     71.3233
  1364.7500      0.0000    260.9575     79.1209     71.7746
  1365.0000      0.0000    260.9554     79.1487     69.8429
  1365.2500      0.0000    260.9568     79.1504     66.2988
  1365.5000      0.0000    260.9614     79.1347     63.1157
  1365.7500      0.0000    260.9680     79.1156     61.9275
  1366.0000      0.0000    260.9762     79.1050     62.8393
  1366.2500      0.0000    260.9850     79.1047     64.9003
  1366.5000      0.0000    260.9928     79.1044     67.3792
  1366.7500      0.0000    260.9976     79.0921     70.2560
  1367.0000      0.0000    260.9980     79.0676     73.6414
  1367.2500      0.0000    260.9941     79.0448     77.1704
  1367.5000      0.0000    260.9873     79.0413     80.2395
  1367.7500      0.0000    260.9799     79.0669     82.5541
  1368.0000      0.0000    260.9732     79.1219     84.0293
  1368.2500      0.0000    260.9671     79.1995     84.4626
  1368.5000      0.0000    260.9613     79.2879     83.9557
  1368.7500      0.0000    260.9565     79.3696     83.5278
  1369.0000      0.0000    260.9547     79.4228     84.5322
  1369.2500      0.0000    260.9571     79.4278     87.1144
  1369.5000      0.0000    260.9633     79.3787     89.5787
  1369.7500      0.0000    260.9715     79.2882     89.6292
  1370.0000      0.0000    260.9823     79.1733     86.3278
  1370.2500      0.0000    261.0095     79.0033     80.8743
  1370.5000      0.0000    261.1007     78.6118     75.5937
  1370.7500      0.0000    261.3597     77.6181     72.1184
  1371.0000      0.0000    261.9374     75.5184     70.3268
  1371.2500      0.0000    262.9585     72.0373     68.8721
  1371.5000      0.0000    264.4142     67.4857     66.5760
  1371.7500      0.0000    266.1075     62.6833     63.2021
  1372.0000      0.0000    267.7143     58.4755     59.2003
  1372.2500      0.0000    268.9373     55.3542     55.2588
  1372.5000      0.0000    269.6574     53.4159     52.1269
  1372.7500      0.0000    269.9966     52.4527     50.4070
  1373.0000     -2.0000    270.2645     52.0919     50.2886
  1373.2500      2.0000    270.8568     52.0089     51.5207
  1373.5000      0.0000    272.0866     52.1366     53.5890
  1373.7500      0.0000    273.8438     52.7569     55.9027
  1374.0000      0.0000    275.3035     54.3726     58.0425
  1374.2500      0.0000    275.2794     57.3191     59.9953
  1374.5000      0.0000    273.2274     61.3947     61.9988
  1374.7500      0.0000    269.8209     65.9322     63.9681
  1375.0000      0.0000    266.3556     70.2225     65.2652
  1375.2500      0.0000    263.7441     73.7837     65.3891
  1375.5000      0.0000    262.1653     76.3692     64.8611
  1375.7500      0.0000    261.3661     77.9613     65.1535
  1376.0000      0.0000    261.0239     78.7646     67.8132
  1376.2500      0.0000    260.9031     79.0837     73.7947
  1376.5000      0.0000    260.8716     79.1661     83.1317
  1376.7500      0.0000    260.8715     79.1483     94.4788
  1377.0000      0.0000    260.8805     79.0933    104.9844
  1377.2500      0.0000    260.8903     79.0320    111.3076
  1377.5000      0.0000    260.8971     78.9837    111.3130
  1377.7500      0.0000    260.8997     78.9614    105.0039
  1378.0000      0.0000    260.8984     78.9722     94.1883
  1378.2500      0.0000    260.8940     79.0154     81.4873
  1378.5000      0.0000    260.8870     79.0805     69.4086
  1378.7500      0.0000    260.8781     79.1509     59.8637
  1379.0000      0.0000    260.8685     79.2079     54.0044
  1379.2500      0.0000    260.8602     79.2354     52.0427
  1379.5000      0.0000    260.8542     79.2272     53.2037
  1379.7500      0.0000    260.8502     79.1932     56.1054
  1380.0000      0.0000    260.8465     79.1590     59.3529
  1380.2500      0.0000    260.8416     79.1566     61.9930
  1380.5000      0.0000    260.8348     79.2081     63.6820
  1380.7500      0.0000    260.8271     79.3123     64.4964
  1381.0000      0.0000    260.8197     79.4448     64.5343
  1381.2500      0.0000    260.8137     79.5729     63.7488
  1381.5000      0.0000    260.8084     79.6750     62.2313
  1381.7500      0.0000    260.8025     79.7476     60.4987
  1382.0000      0.0000    260.7961     79.7932     59.3542
  1382.2500      0.0000    260.7911     79.8063     59.4672
  1382.5000      0.0000    260.7893     79.7788     61.0685
  1382.7500      0.0000    260.7904     79.7210     64.0462
  1383.0000      0.0000    260.7913     79.6657     68.2955
  1383.2500      0.0000    260.7893     79.6412     73.6341
  1383.5000      0.0000    260.7846     79.6402     79.1354
  1383.7500      0.0000    260.7808     79.6201     82.8289
  1384.0000      0.0000    260.7820     79.5303     82.6400
  1384.2500      0.0000    260.7901     79.3438     78.0146
  1384.5000      0.0000    260.8039     79.0753     70.5580
  1384.7500      0.0000    260.8194     78.7790     62.7838
  1385.0000      0.0000    260.8335     78.5210     56.2167
  1385.2500      0.0000    260.8447     78.3453     50.9057
  1385.5000      0.0000    260.8529     78.2574     46.4995
  1385.7500      0.0000    260.8585     78.2376     43.1548
  1386.0000      0.0000    260.8611     78.2663     41.2422
  1386.2500      0.0000    260.8605     78.3383     40.6191
  1386.5000      0.0000    260.8565     78.4538     40.5713
  1386.7500      0.0000    260.8509     78.5936     40.4063
