~Version Information
VERS.                      2.0: CWLS Log ASCII Standard - VERSION 2.0
WRAP.                       NO: One line per depth step
~Well Information Block
STRT.FT                -8.5000: 
STOP.FT              1945.2500: 
STEP.FT                 0.2500: 
NULL.                -999.2500: 
COMP.          Pioneer Natural Resources: COMPANY
WELL.          Flying Horse 12-11 Tr: WELL
FLD.           Purgatorie River: FIELD
LOC.           2459' FNL & 410' FWL: LOCATION
STAT.                       CO: PROVINCE
CNTY.               Las Animas: COUNTY
CTRY.        USA : Country
SECT. 11 : Section
TOWN. 32S : Township
RANG. 66W : Range
SRVC.          Patterson Wireline: SERVICE COMPANY
DATE.          Thu Sep 08 15:44:22 2005: LOG DATE
API.           05 071 08485 00: UNIQUE WELL ID
~Curve Information Block
DEPT.FT            0 000 00 00: Depth
CCL.                          : Casing Collar Locator
TT3.usec                      : CBL 3' Travel Time
AMP3.mV                       : CBL 3' Amplitude
GR.GAPI                       : Gamma Ray
~Parameter Information Block
~A  Depth       CCL         TT3         AMP3         GR     
# ...
   494.0000      0.0000    303.6341     29.2781     62.7282
   494.2500      0.0000    303.6170     29.3255     61.4782
   494.5000      0.0000    303.5931     29.3666     59.4412
   494.7500      0.0000    303.5540     29.4428     55.7702
   495.0000      0.0000    303.4955     29.5916     50.6367
   495.2500      0.0000    303.4166     29.8315     45.6402
   495.5000      0.0000    303.3210     30.1442     42.5579
   495.7500      0.0000    303.2204     30.4740     41.7451
   496.0000      0.0000    303.1304     30.7522     41.9123
   496.2500      0.0000    303.0644     30.9316     41.3638
   496.5000      0.0000    303.0276     31.0052     39.3824
   496.7500      0.0000    303.0148     31.0032     36.6724
   497.0000      0.0000    303.0146     30.9717     34.7258
   497.2500      0.0000    303.0199     30.9452     34.7288
   497.5000      0.0000    303.0337     30.9311     36.8543
   497.7500      0.0000    303.0635     30.9185     40.3229
   498.0000      0.0000    303.1142     30.8933     43.8999
   498.2500      0.0000    303.1862     30.8433     46.3641
   498.5000      0.0000    303.2743     30.7631     46.9703
   498.7500      0.0000    303.3647     30.6652     45.9424
   499.0000      0.0000    303.4370     30.5844     44.4850
   499.2500      0.0000    303.4731     30.5632     43.9631
   499.5000      0.0000    303.4637     30.6265     44.9339
   499.7500      0.0000    303.4109     30.7675     46.9674
   500.0000      0.0000    303.3270     30.9511     49.2198
   500.2500      0.0000    303.2305     31.1320     50.9832
   500.5000      0.0000    303.1382     31.2751     51.7441
   500.7500      0.0000    303.0597     31.3687     51.0994
   501.0000      0.0000    302.9965     31.4218     49.0924
   501.2500      0.0000    302.9452     31.4528     46.6606
   501.5000      0.0000    302.9004     31.4738     45.2807
   501.7500      0.0000    302.8600     31.4792     45.8619
   502.0000      0.0000    302.8284     31.4480     47.9979
   502.2500      0.0000    302.8129     31.3602     50.2543
   502.5000      0.0000    302.8160     31.2118     51.1521
   502.7500      0.0000    302.8340     31.0127     50.1565
   503.0000      0.0000    302.8624     30.7797     48.1453
   503.2500      0.0000    302.8975     30.5394     46.8669
   503.5000      0.0000    302.9341     30.3321     47.4085
   503.7500      0.0000    302.9664     30.1965     48.9204
   504.0000      0.0000    302.9944     30.1416     49.1790
   504.2500      0.0000    303.0303     30.1351     46.8565
   504.5000      0.0000    303.0934     30.1250     43.1255
   504.7500      0.0000    303.1932     30.0751     40.7413
   505.0000      0.0000    303.3178     29.9882     41.8660
   505.2500      0.0000    303.4391     29.8994     47.0096
   505.5000      0.0000    303.5348     29.8456     55.3051
   505.7500      0.0000    303.6040     29.8356     65.0082
   506.0000      0.0000    303.6625     29.8482     74.1649
   506.2500      0.0000    303.7262     29.8561     81.6324
   506.5000      0.0000    303.8024     29.8450     87.5747
   506.7500      0.0000    303.8918     29.8081     92.8450
   507.0000      0.0000    303.9912     29.7351     97.9860
   507.2500      0.0000    304.0934     29.6125    102.6670
   507.5000      0.0000    304.1905     29.4368    105.9617
   507.7500      0.0000    304.2751     29.2265    107.3820
   508.0000      0.0000    304.3398     29.0199    107.4698
   508.2500      0.0000    304.3768     28.8551    106.9029
   508.5000      0.0000    304.3828     28.7488    105.2910
   508.7500      0.0000    304.3651     28.6907    101.6189
   509.0000      0.0000    304.3439     28.6520     95.8175
   509.2500      0.0000    304.3464     28.5991     89.2833
   509.5000      0.0000    304.3919     28.5102     83.8684
   509.7500      0.0000    304.4726     28.3926     80.7014
   510.0000      0.0000    304.5515     28.2826     79.7989
   510.2500      0.0000    304.5855     28.2215     80.3135
   510.5000      0.0000    304.5532     28.2298     81.0254
   510.7500      0.0000    304.4614     28.3061     80.9623
   511.0000      0.0000    304.3321     28.4430     80.0896
   511.2500      0.0000    304.1878     28.6299     79.5056
   511.5000      0.0000    304.0458     28.8421     80.6605
   511.7500      0.0000    303.9193     29.0405     84.2157
   512.0000      0.0000    303.8214     29.1885     89.4712
   512.2500      0.0000    303.7631     29.2692     94.6645
   512.5000      0.0000    303.7441     29.2863     97.9831
   512.7500      0.0000    303.7505     29.2533     98.7472
   513.0000      0.0000    303.7654     29.1815     97.8183
   513.2500      0.0000    303.7798     29.0774     96.8460
   513.5000      0.0000    303.7947     28.9488     97.2778
   513.7500      0.0000    303.8148     28.8082     99.9410
   514.0000      0.0000    303.8477     28.6668    104.6189
   514.2500      0.0000    303.9010     28.5261    109.4908
   514.5000      0.0000    303.9753     28.3788    111.8609
   514.7500      0.0000    304.0599     28.2182    110.3510
   515.0000      0.0000    304.1418     28.0441    106.1018
   515.2500      0.0000    304.2169     27.8594    101.4900
   515.5000      0.0000    304.2920     27.6649     98.1925
   515.7500      0.0000    304.3742     27.4627     96.6563
   516.0000      0.0000    304.4589     27.2644     96.4870
   516.2500      0.0000    304.5276     27.0934     96.6551
   516.5000      0.0000    304.5614     26.9753     95.8663
   516.7500      0.0000    304.5600     26.9192     93.6496
   517.0000      0.0000    304.5441     26.9101     91.0626
   517.2500      0.0000    304.5373     26.9234     89.7883
   517.5000      0.0000    304.5487     26.9412     90.5904
   517.7500      0.0000    304.5771     26.9536     92.8921
   518.0000      0.0000    304.6227     26.9550     95.4709
   518.2500      0.0000    304.7312     26.9446     97.2259
   518.5000      0.0000    305.0906     26.9214     97.6460
   518.7500      0.0000    306.5087     26.8701     96.8808
   519.0000      0.0000    311.6566     26.7626     95.1629
   519.2500      0.0000    326.6791     26.5781     92.2795
   519.5000      0.0000    360.4153     26.3177     88.0523
   519.7500      0.0000    416.9243     26.0043     83.1667
   520.0000      0.0000    483.8170     25.6838     78.8613
   520.2500      0.0000    531.1921     25.4190     75.7351
   520.5000      0.0000    532.3120     25.2586     73.2775
   520.7500      0.0000    489.3205     25.1918     70.5891
   521.0000      0.0000    434.2448     25.1304     67.3101
   521.2500      0.0000    403.2918     24.9278     63.9472
   521.5000      0.0000    412.0385     24.4361     61.4621
   521.7500      0.0000    452.6454     23.6096     60.4484
   522.0000      0.0000    510.4470     22.5753     60.5502
   522.2500      0.0000    581.5087     21.5469     60.6837
   522.5000      0.0000    670.3964     20.6614     59.8492
   522.7500      0.0000    771.0929     19.9587     57.7729
   523.0000      0.0000    861.4896     19.4844     54.8387
   523.2500      0.0000    923.6773     19.2941     51.5458
   523.5000      0.0000    959.6669     19.3498     48.2515
   523.7500     -2.0000    977.8217     19.5014     45.4624
   524.0000      0.0000    971.8898     19.5868     43.8705
   524.2500      0.0000    924.8069     19.5476     43.7350
   524.5000      0.0000    832.5068     19.4838     44.5414
   524.7500      0.0000    717.9727     19.6114     45.6096
   525.0000      0.0000    618.6154     20.1375     46.7629
   525.2500      0.0000    557.6061     21.1598     48.0754
   525.5000      0.0000    526.5535     22.6529     49.2019
   525.7500      0.0000    497.7336     24.4344     49.3820
   526.0000      0.0000    453.2082     26.1203     48.1971
   526.2500      0.0000    399.1330     27.2652     46.1595
   526.5000      0.0000    353.1088     27.6590     44.4175
   526.7500      0.0000    325.6684     27.4499     43.9294
   527.0000      0.0000    316.6806     26.9681     44.9841
   527.2500      0.0000    323.3845     26.4843     47.2727
