~Version Information
VERS.                      2.0: CWLS Log ASCII Standard - VERSION 2.0
WRAP.                       NO: One line per depth step
~Well Information Block
STRT.FT               660.0000: 
STOP.FT              2491.0000: 
STEP.FT                 0.2500: 
NULL.                -999.2500: 
COMP.          Petrogulf Corporation: COMPANY
WELL.          Montoya 18-11V-B: WELL
FLD.           Purgatorie River: FIELD
LOC.           848' FNL & 619' FWL: LOCATION
PROV.                 Colorado: PROVINCE
CNTY.               Las Animas: COUNTRY
SRVC.                Patterson: SERVICE COMPANY
DATE.          Wed Oct 05 04:34:17 2005: LOG DATE
UWI.                          : UNIQUE WELL ID
~Curve Information Block
DEPT.FT            0 000 00 00: Depth
SP.mV                         : DIL Spontaneous Potential
RILD.Ohm-m                    : DIL Deep Resistivity
RILM.Ohm-m                    : DIL Medium Resistivity
RLL3.Ohm-m                    : DIL Shallow Resistivity
GR.GAPI                       : Gamma Ray
~Parameter Information Block
~A  Depth        SP         RILD        RILM        RLL3         GR     
# ...
  1388.0000   2000.0000      7.4814      7.3716   2000.0000    161.5442
  1388.2500   2000.0000      7.5692      7.5011   2000.0000    158.5739
  1388.5000   2000.0000      7.6643      7.6502   2000.0000    151.9597
  1388.7500   2000.0000      7.7751      7.8144   2000.0000    147.1696
  1389.0000   2000.0000      7.9129      7.9906   2000.0000    140.8890
  1389.2500   2000.0000      8.0894      8.1793   2000.0000    137.6205
  1389.5000   2000.0000      8.3152      8.3849   2000.0000    133.9137
  1389.7500   2000.0000      8.5993      8.6162   2000.0000    132.2800
  1390.0000   2000.0000      8.9483      8.8854   2000.0000    131.9229
  1390.2500   2000.0000      9.3649      9.2064   2000.0000    133.5532
  1390.5000   2000.0000      9.8456      9.5947   2000.0000    138.2225
  1390.7500   2000.0000     10.3803     10.0655   2000.0000    141.6667
  1391.0000   2000.0000     10.9541     10.6342   2000.0000    145.2948
  1391.2500   2000.0000     11.5529     11.3159   2000.0000    146.1140
  1391.5000   2000.0000     12.1699     12.1245   2000.0000    144.9644
  1391.7500   2000.0000     12.8083     13.0730   2000.0000    142.7839
  1392.0000   2000.0000     13.4809     14.1711   2000.0000    137.3029
  1392.2500   2000.0000     14.2064     15.4244   2000.0000    131.8155
  1392.5000   2000.0000     15.0035     16.8326   2000.0000    120.3319
  1392.7500   2000.0000     15.8876     18.3873   2000.0000    110.7990
  1393.0000   2000.0000     16.8690     20.0718   2000.0000     95.3154
  1393.2500   2000.0000     17.9513     21.8600   2000.0000     85.3426
  1393.5000   2000.0000     19.1282     23.7162   2000.0000     72.4805
  1393.7500   2000.0000     20.3767     25.5944   2000.0000     65.9724
  1394.0000   2000.0000     21.6518     27.4380   2000.0000     59.9620
  1394.2500   2000.0000     22.8894     29.1809   2000.0000     58.3251
  1394.5000   2000.0000     24.0188     30.7523   2000.0000     58.1253
  1394.7500   2000.0000     24.9796     32.0859   2000.0000     58.4142
  1395.0000   2000.0000     25.7353     33.1323   2000.0000     58.1062
  1395.2500   2000.0000     26.2784     33.8705   2000.0000     57.2398
  1395.5000   2000.0000     26.6282     34.3135   2000.0000     55.5286
  1395.7500   2000.0000     26.8253     34.5041   2000.0000     54.5462
  1396.0000   2000.0000     26.9220     34.5045   2000.0000     53.8054
  1396.2500   2000.0000     26.9700     34.3820   2000.0000     54.0044
  1396.5000   2000.0000     27.0083     34.1972   2000.0000     55.6258
  1396.7500   2000.0000     27.0553     33.9958   2000.0000     57.4925
  1397.0000   2000.0000     27.1111     33.8066   2000.0000     60.5383
  1397.2500   2000.0000     27.1661     33.6419   2000.0000     62.0185
  1397.5000   2000.0000     27.2111     33.5016   2000.0000     62.7520
  1397.7500   2000.0000     27.2425     33.3772   2000.0000     62.2930
  1398.0000   2000.0000     27.2617     33.2571   2000.0000     60.6260
  1398.2500   2000.0000     27.2704     33.1295   2000.0000     59.2691
  1398.5000   2000.0000     27.2671     32.9842   2000.0000     57.7403
  1398.7500   2000.0000     27.2478     32.8129   2000.0000     57.3608
  1399.0000   2000.0000     27.2115     32.6087   2000.0000     57.4088
  1399.2500   2000.0000     27.1639     32.3667   2000.0000     57.3178
  1399.5000   2000.0000     27.1151     32.0845   2000.0000     56.3190
  1399.7500   2000.0000     27.0714     31.7646   2000.0000     55.1403
  1400.0000   2000.0000     27.0299     31.4156   2000.0000     53.4878
  1400.2500   2000.0000     26.9801     31.0519   2000.0000     53.1799
  1400.5000   2000.0000     26.9122     30.6911   2000.0000     54.8926
  1400.7500   2000.0000     26.8239     30.3507   2000.0000     57.6632
  1401.0000   2000.0000     26.7190     30.0440   2000.0000     63.5736
  1401.2500   2000.0000     26.6029     29.7779   2000.0000     67.7590
  1401.5000   2000.0000     26.4788     29.5532   2000.0000     72.7295
  1401.7500   2000.0000     26.3501     29.3662   2000.0000     74.6534
  1402.0000   2000.0000     26.2238     29.2118   2000.0000     75.5536
  1402.2500   2000.0000     26.1099     29.0859   2000.0000     75.2303
  1402.5000   2000.0000     26.0168     28.9869   2000.0000     74.1632
  1402.7500   2000.0000     25.9491     28.9157   2000.0000     73.3599
  1403.0000   2000.0000     25.9098     28.8748   2000.0000     71.9676
  1403.2500   2000.0000     25.9060     28.8673   2000.0000     70.7589
  1403.5000   2000.0000     25.9490     28.8949   2000.0000     68.7913
  1403.7500   2000.0000     26.0497     28.9571   2000.0000     67.8970
  1404.0000   2000.0000     26.2104     29.0505   2000.0000     67.8847
  1404.2500   2000.0000     26.4224     29.1686   2000.0000     68.6898
  1404.5000   2000.0000     26.6666     29.3027   2000.0000     70.4192
  1404.7500   2000.0000     26.9170     29.4442   2000.0000     71.5946
  1405.0000   2000.0000     27.1455     29.5855   2000.0000     73.2324
  1405.2500   2000.0000     27.3303     29.7219   2000.0000     74.1564
  1405.5000   2000.0000     27.4656     29.8505   2000.0000     74.8475
  1405.7500   2000.0000     27.5632     29.9701   2000.0000     74.6151
  1406.0000   2000.0000     27.6458     30.0796   2000.0000     73.5456
  1406.2500   2000.0000     27.7351     30.1783   2000.0000     72.9357
  1406.5000   2000.0000     27.8433     30.2663   2000.0000     72.8976
  1406.7500   2000.0000     27.9724     30.3451   2000.0000     73.2496
  1407.0000   2000.0000     28.1173     30.4179   2000.0000     73.2173
  1407.2500   2000.0000     28.2699     30.4893   2000.0000     72.3457
  1407.5000   2000.0000     28.4227     30.5651   2000.0000     69.9405
  1407.7500   2000.0000     28.5724     30.6512   2000.0000     68.0865
  1408.0000   2000.0000     28.7215     30.7538   2000.0000     65.6819
  1408.2500   2000.0000     28.8768     30.8789   2000.0000     64.5355
  1408.5000   2000.0000     29.0443     31.0322   2000.0000     63.4868
  1408.7500   2000.0000     29.2226     31.2175   2000.0000     63.1185
  1409.0000   2000.0000     29.3985     31.4351   2000.0000     62.9624
  1409.2500   2000.0000     29.5473     31.6786   2000.0000     63.1433
  1409.5000   2000.0000     29.6390     31.9313   2000.0000     63.6768
  1409.7500   2000.0000     29.6478     32.1643   2000.0000     63.9286
  1410.0000   2000.0000     29.5582     32.3362   2000.0000     63.9187
  1410.2500   2000.0000     29.3679     32.3986   2000.0000     63.9473
  1410.5000   2000.0000     29.0877     32.3052   2000.0000     64.8172
  1410.7500   2000.0000     28.7446     32.0259   2000.0000     65.9910
  1411.0000   2000.0000     28.3843     31.5581   2000.0000     67.7028
  1411.2500   2000.0000     28.0661     30.9318   2000.0000     68.1370
  1411.5000   2000.0000     27.8458     30.2057   2000.0000     67.5055
  1411.7500   2000.0000     27.7560     29.4537   2000.0000     66.9030
  1412.0000   2000.0000     27.7947     28.7509   2000.0000     67.8772
  1412.2500   2000.0000     27.9288     28.1604   2000.0000     71.0623
  1412.5000   2000.0000     28.1073     27.7256   2000.0000     80.5079
  1412.7500   2000.0000     28.2764     27.4682   2000.0000     88.9157
  1413.0000   2000.0000     28.3942     27.3885   2000.0000    100.3271
  1413.2500   2000.0000     28.4406     27.4696   2000.0000    104.1988
  1413.5000   2000.0000     28.4243     27.6820   2000.0000    101.9257
  1413.7500   2000.0000     28.3811     27.9904   2000.0000     95.8409
  1414.0000   2000.0000     28.3637     28.3620   2000.0000     83.5562
  1414.2500   2000.0000     28.4262     28.7729   2000.0000     75.4039
  1414.5000   2000.0000     28.6082     29.2126   2000.0000     65.7355
  1414.7500   2000.0000     28.9262     29.6836   2000.0000     61.7369
  1415.0000   2000.0000     29.3714     30.1977   2000.0000     59.4556
  1415.2500   2000.0000     29.9162     30.7701   2000.0000     59.8606
  1415.5000   2000.0000     30.5241     31.4129   2000.0000     62.0910
  1415.7500   2000.0000     31.1593     32.1318   2000.0000     63.9743
