~Version Information
VERS.                      2.0: CWLS Log ASCII Standard - VERSION 2.0
WRAP.                       NO: One line per depth step
~Well Information Block
STRT.FT                -5.0000: 
STOP.FT               912.2500: 
STEP.FT                 0.2500: 
NULL.                -999.2500: 
COMP.          Pioneer Natural Resources: COMPANY
WELL.               Ernie 31-6: WELL
FLD.           Purgatoire River: FIELD
LOC.           681' FNL & 2138' FEL: LOCATION
CNTY.               Las Animas: COUNTY
SRVC.                         : SERVICE COMPANY
DATE.          Tue Jun 27 10:36:58 2006: LOG DATE
UWI.           05 071 08716 00: UNIQUE WELL ID
STAT.                       CO: STATE
~Curve Information Block
DEPT.FT            0 000 00 00: Depth
GR.GAPI                       : Gamma Ray
CCL.                          : Casing Collar Locator
TT3.usec                      : CBL 3' Travel Time
AMP3.mV                       : CBL 3' Amplitude
~Parameter Information Block
~A  Depth        GR         CCL         TT3         AMP3    
# ...
   162.5000     77.1294      0.0000    753.3679      5.6485
   162.7500     78.1463      0.0000    747.2083      5.6549
   163.0000     79.2726      0.0000    748.5823      5.6635
   163.2500     80.7572      0.0000    758.1987      5.6750
   163.5000     82.8898      0.0000    771.0898      5.6821
   163.7500     85.1507      0.0000    780.6264      5.6779
   164.0000     86.6650      0.0000    783.0369      5.6671
   164.2500     87.2194      0.0000    778.4543      5.6623
   164.5000     87.1710      0.0000    769.0150      5.6692
   164.7500     86.6594      0.0000    756.7902      5.6769
   165.0000     85.5683      0.0000    743.3724      5.6683
   165.2500     84.2057      0.0000    730.5607      5.6377
   165.5000     83.6356      0.0000    720.0276      5.5948
   165.7500     85.1762      0.0000    711.5582      5.5546
   166.0000     89.5419      0.0000    702.5845      5.5285
   166.2500     96.3338      0.0000    690.4071      5.5212
   166.5000    104.1075      0.0000    674.5374      5.5282
   166.7500    110.7811      0.0000    657.0271      5.5384
   167.0000    114.2834      0.0000    641.1711      5.5413
   167.2500    113.3578      0.0000    629.5734      5.5352
   167.5000    108.0729      0.0000    622.8217      5.5262
   167.7500     99.6220      0.0000    620.0690      5.5240
   168.0000     89.7334      0.0000    620.9328      5.5390
   168.2500     80.2122      0.0000    627.0659      5.5801
   168.5000     72.5252      0.0000    641.6664      5.6494
   168.7500     67.3633      0.0000    665.9525      5.7356
   169.0000     64.5725      0.0000    694.6396      5.8109
   169.2500     63.6987      0.0000    716.2665      5.8264
   169.5000     64.7030      0.0000    721.2272      5.7233
   169.7500     68.0081      0.0000    709.9821      5.4768
   170.0000     73.7045      0.0000    691.5617      5.1390
   170.2500     80.8856      0.0000    674.2693      4.8186
   170.5000     87.9544      0.0000    660.2767      4.6054
   170.7500     93.4683      0.0000    649.1385      4.5224
   171.0000     96.8957      0.0000    642.0775      4.5459
   171.2500     99.0946     -2.0000    639.5369      4.6559
   171.5000    101.9684      0.0000    637.0776      4.8599
   171.7500    106.8487      0.0000    627.5166      5.1617
   172.0000    112.9446      0.0000    606.6788      5.5112
   172.2500    117.8331      0.0000    575.8053      5.8095
   172.5000    119.6435      0.0000    540.3063      5.9928
   172.7500    118.5043      0.0000    508.2793      6.0902
   173.0000    115.8986      0.0000    488.4069      6.1720
   173.2500    113.0050      0.0000    486.0591      6.2626
   173.5000    109.8162      0.0000    500.2071      6.3294
   173.7500    105.5675      0.0000    524.3930      6.3344
   174.0000     99.6709      0.0000    551.6040      6.2701
   174.2500     92.2058      0.0000    578.8123      6.1586
   174.5000     83.7295      0.0000    607.0145      6.0345
   174.7500     74.9710      0.0000    637.6102      5.9284
   175.0000     66.8766      0.0000    669.9141      5.8583
   175.2500     60.6283      0.0000    701.7757      5.8279
   175.5000     57.1534      0.0000    730.7814      5.8307
   175.7500     56.5418      0.0000    754.4739      5.8537
   176.0000     58.0481      0.0000    770.8896      5.8821
   176.2500     60.6805      0.0000    779.8110      5.9034
   176.5000     63.7682      0.0000    783.2629      5.9120
   176.7500     66.8945      0.0000    784.2339      5.9126
   177.0000     69.4367      0.0000    784.2750      5.9193
   177.2500     70.7608      0.0000    781.7549      5.9448
   177.5000     71.1978      0.0000    772.3351      5.9897
   177.7500     72.1726      0.0000    751.7656      6.0437
   178.0000     74.7499      0.0000    719.4473      6.0969
   178.2500     78.4634      0.0000    679.5666      6.1514
   178.5000     81.9562      0.0000    638.1115      6.2233
   178.7500     84.5092      0.0000    599.2619      6.3337
   179.0000     86.7369      0.0000    566.0422      6.4905
   179.2500     89.8790      0.0000    542.9948      6.6782
   179.5000     94.4787      0.0000    534.4786      6.8641
   179.7500     99.9390      0.0000    539.4984      7.0161
   180.0000    105.3222      0.0000    550.7678      7.1194
   180.2500    110.0258      0.0000    559.8690      7.1843
   180.5000    113.5319      0.0000    562.4932      7.2388
   180.7500    115.3112      0.0000    559.5656      7.3068
   181.0000    115.4208      0.0000    555.2727      7.3925
   181.2500    114.6154      0.0000    553.4798      7.4816
   181.5000    113.7159      0.0000    553.9296      7.5559
   181.7500    113.3567      0.0000    551.6205      7.6141
   182.0000    114.0002      0.0000    541.1513      7.6841
   182.2500    115.3889      0.0000    522.3981      7.8054
   182.5000    116.3420      0.0000    501.9946      7.9911
   182.7500    115.9325      0.0000    488.9960      8.2148
   183.0000    114.5377      0.0000    488.4427      8.4318
   183.2500    113.2374      0.0000    498.4030      8.6009
   183.5000    112.5202      0.0000    511.9970      8.6968
   183.7500    111.8659      0.0000    521.0757      8.7297
   184.0000    110.2483      0.0000    519.0701      8.7562
   184.2500    107.0044      0.0000    503.5429      8.8489
   184.5000    102.6213      0.0000    477.8755      9.0394
   184.7500     98.7470      0.0000    449.5601      9.2900
   185.0000     97.1303      0.0000    425.6427      9.5232
   185.2500     98.4081      0.0000    409.3474      9.6803
   185.5000    101.8159      0.0000    400.1176      9.7573
   185.7500    105.8026      0.0000    395.6599      9.7894
   186.0000    108.8973      0.0000    393.7411      9.8059
   186.2500    110.2763      0.0000    392.9232      9.8050
   186.5000    109.7829      0.0000    392.5032      9.7714
   186.7500    107.5752      0.0000    392.2000      9.7064
   187.0000    103.9862      0.0000    391.9034      9.6314
   187.2500     99.7773      0.0000    391.5606      9.5709
   187.5000     96.0904      0.0000    391.1299      9.5366
   187.7500     93.6736      0.0000    390.5766      9.5255
   188.0000     92.2657      0.0000    389.8601      9.5268
   188.2500     91.0881      0.0000    388.9057      9.5319
   188.5000     89.7278      0.0000    387.5700      9.5378
   188.7500     88.3132      0.0000    385.8142      9.5381
   189.0000     87.2989      0.0000    384.3203      9.5089
   189.2500     87.3924      0.0000    385.2119      9.4084
   189.5000     89.1645      0.0000    391.6080      9.1939
   189.7500     92.3862      0.0000    405.0462      8.8480
   190.0000     95.9983      0.0000    422.4138      8.4039
   190.2500     98.7585      0.0000    436.2670      7.9466
   190.5000     99.8427      0.0000    439.9765      7.5697
   190.7500     99.3021      0.0000    433.1533      7.3188
   191.0000     98.3680      0.0000    421.4547      7.1799
   191.2500     98.8051      0.0000    411.3687      7.1177
   191.5000    101.4421      0.0000    405.9881      7.1101
   191.7500    105.5604      0.0000    404.8484      7.1473
   192.0000    109.8862      0.0000    405.6640      7.2247
   192.2500    113.7411      0.0000    405.5674      7.3468
   192.5000    117.0269      0.0000    402.0353      7.5231
   192.7500    119.5577      0.0000    394.1300      7.7434
   193.0000    120.9659      0.0000    383.1905      7.9648
   193.2500    121.3318      0.0000    372.0148      8.1361
   193.5000    121.4891      0.0000    363.1367      8.2286
   193.7500    122.1993      0.0000    357.7018      8.2399
   194.0000    123.0394      0.0000    355.6825      8.1847
   194.2500    122.7006      0.0000    356.7739      8.0975
   194.5000    120.5258      0.0000    360.7852      8.0277
   194.7500    117.1467      0.0000    367.1583      8.0096
   195.0000    113.4224      0.0000    374.4843      8.0352
   195.2500    109.4828      0.0000    380.9536      8.0686
   195.5000    105.2762      0.0000    385.4066      8.0836
   195.7500    101.4237      0.0000    387.8225      8.0826
