~Version Information
VERS.                      2.0: CWLS Log ASCII Standard - VERSION 2.0
WRAP.                       NO: One line per depth step
~Well Information Block
STRT.FT                -7.5000: 
STOP.FT              2228.7500: 
STEP.FT                 0.2500: 
NULL.                -999.2500: 
COMP.          Pioneer Natural Resources: COMPANY
WELL.          McDonald 33-31 R: WELL
FLD.           Purgatorie River: FIELD
LOC.           1386' FSL & 1926' FEL: LOCATION
STAT.                       CO: State
CNTY.               Las Animas: COUNTY
CTRY.                      USA: Country
SECT.                       31: Section
TOWN.                      32S: Township
RANG.                      66W: Range
SRVC.          Patterson Wireline: SERVICE COMPANY
DATE.          Wed Sep 28 13:29:18 2005: LOG DATE
API.           05 071 08533 00: API#
~Curve Information Block
DEPT.FT            0 000 00 00: Depth
CCL.                          : Casing Collar Locator
TT3.usec                      : CBL 3' Travel Time
AMP3.mV                       : CBL 3' Amplitude
GR.GAPI                       : Gamma Ray
~Parameter Information Block
~A  Depth       CCL         TT3         AMP3         GR     
# ...
   729.5000      0.0000    368.0746     11.6922     45.6785
   729.7500      0.0000    367.9171     11.6135     44.8891
   730.0000      0.0000    367.3163     11.5645     44.6168
   730.2500      0.0000    366.4530     11.5646     44.9597
   730.5000      0.0000    365.5506     11.6155     45.8229
   730.7500      0.0000    364.7738     11.6976     47.0563
   731.0000      0.0000    364.2024     11.7767     48.5362
   731.2500      0.0000    363.8487     11.8221     50.1452
   731.5000      0.0000    363.6880     11.8191     51.8132
   731.7500      0.0000    363.6833     11.7698     53.5962
   732.0000      0.0000    363.7914     11.6873     55.5442
   732.2500      0.0000    363.9603     11.5910     57.3973
   732.5000      0.0000    364.1366     11.4999     58.3925
   732.7500      0.0000    364.2812     11.4253     57.6288
   733.0000      0.0000    364.3771     11.3701     55.0192
   733.2500      0.0000    364.4259     11.3322     51.8173
   733.5000      0.0000    364.4380     11.3071     49.6467
   733.7500      0.0000    364.4174     11.2917     49.0162
   734.0000      0.0000    364.3502     11.2917     49.3780
   734.2500      0.0000    364.2171     11.3220     50.5961
   734.5000      0.0000    364.0248     11.3911     53.4600
   734.7500      0.0000    363.8228     11.4839     58.3412
   735.0000      0.0000    363.6825     11.5621     63.8947
   735.2500      0.0000    363.6508     11.5879     67.7087
   735.5000      0.0000    363.7133     11.5500     68.1401
   735.7500      0.0000    363.7985     11.4725     65.2282
   736.0000      0.0000    363.8274     11.4013     60.1999
   736.2500      0.0000    363.7740     11.3754     54.7610
   736.5000      0.0000    363.6929     11.4029     50.7819
   736.7500      0.0000    363.7028     11.4634     49.8246
   737.0000      0.0000    364.0407     11.5339     52.3518
   737.2500      0.0000    365.3360     11.6127     57.3486
   737.5000      0.0000    369.1035     11.7150     62.8059
   737.7500      0.0000    377.9377     11.8472     66.7007
   738.0000      0.0000    394.4562     11.9863     67.7970
   738.2500      0.0000    418.9978     12.0896     65.8038
   738.5000      0.0000    448.2012     12.1242     61.0978
   738.7500      0.0000    476.5929     12.0858     54.6107
   739.0000      0.0000    499.8760     11.9947     47.7893
   739.2500      0.0000    516.5912     11.8760     42.1052
   739.5000      0.0000    527.3736     11.7467     38.4131
   739.7500      0.0000    533.6651     11.6195     36.8275
   740.0000      0.0000    536.9681     11.5145     36.9693
   740.2500      0.0000    538.3526     11.4612     38.1923
   740.5000      0.0000    538.0928     11.4854     39.8942
   740.7500      0.0000    535.7462     11.5897     41.8963
   741.0000      0.0000    531.0104     11.7490     44.4682
   741.2500      0.0000    525.2291     11.9230     47.9085
   741.5000      0.0000    522.6471     12.0740     52.1478
   741.7500      0.0000    529.7513     12.1767     56.7294
   742.0000      0.0000    551.5519     12.2122     61.0711
   742.2500      0.0000    586.6161     12.1495     64.7482
   742.5000      0.0000    625.8969     11.9319     67.8407
   742.7500      0.0000    658.4238     11.5085     71.2086
   743.0000      0.0000    679.0968     10.9162     75.9747
   743.2500      0.0000    690.8211     10.3179     82.3281
   743.5000      0.0000    700.3918      9.8976     89.2765
   743.7500      0.0000    713.3241      9.7012     95.7890
   744.0000      0.0000    730.7053      9.6256    101.6191
   744.2500      0.0000    748.5749      9.5553    106.8324
   744.5000      0.0000    760.4832      9.4533    111.2774
   744.7500     -2.0000    762.1069      9.3370    114.9896
   745.0000     -2.0000    754.2376      9.2421    118.6726
   745.2500      2.0000    740.9491      9.2195    123.2199
   745.5000      0.0000    724.0483      9.3331    128.7193
   745.7500      0.0000    700.2816      9.6367    134.1237
   746.0000      0.0000    667.3890     10.1308    137.9612
   746.2500      0.0000    633.4365     10.7234    139.1225
   746.5000      0.0000    615.2062     11.2564    136.8477
   746.7500      0.0000    623.8417     11.6186    130.4984
   747.0000      0.0000    654.1381     11.8188    119.9874
   747.2500      0.0000    689.8539     11.9207    106.4115
   747.5000      0.0000    717.3768     11.9438     92.0784
   747.7500      0.0000    732.9108     11.8745     79.8075
   748.0000      0.0000    739.7720     11.7377     71.7422
   748.2500      0.0000    742.7774     11.6097     68.2883
   748.5000      0.0000    745.2537     11.5583     68.2418
   748.7500      0.0000    748.5771     11.5869     70.0711
   749.0000      0.0000    752.2387     11.6400     72.8086
   749.2500      0.0000    753.7045     11.6601     75.6636
   749.5000      0.0000    748.4304     11.6463     77.5763
   749.7500      0.0000    731.1782     11.6532     77.9227
   750.0000      0.0000    700.2798     11.7336     77.4356
   750.2500      0.0000    662.8873     11.8833     77.6934
   750.5000      0.0000    633.0032     12.0398     79.6688
   750.7500      0.0000    618.8870     12.1255     83.2001
   751.0000      0.0000    613.5021     12.0880     87.5907
   751.2500      0.0000    603.8651     11.9179     92.0946
   751.5000      0.0000    589.6263     11.6502     96.2185
   751.7500      0.0000    585.0643     11.3573    100.3257
   752.0000      0.0000    600.0931     11.1266    105.5502
   752.2500      0.0000    624.2010     11.0241    112.1991
   752.5000      0.0000    633.1954     11.0600    118.4862
   752.7500      0.0000    611.1569     11.1789    121.7373
   753.0000      0.0000    564.0020     11.2975    120.7761
   753.2500      0.0000    512.3610     11.3634    116.5438
   753.5000      0.0000    474.0422     11.3761    110.7685
   753.7500      0.0000    454.2986     11.3488    104.8594
   754.0000      0.0000    449.4134     11.2699    100.0003
   754.2500      0.0000    455.7115     11.1140     97.4330
   754.5000      0.0000    474.8556     10.8795     98.0452
   754.7500      0.0000    511.6749     10.6075    101.5984
   755.0000      0.0000    566.5494     10.3640    106.4281
   755.2500      0.0000    630.1797     10.1922    110.1220
   755.5000      0.0000    687.4579     10.0728    110.8746
   755.7500      0.0000    727.0261      9.9405    108.6606
   756.0000      0.0000    746.5474      9.7563    105.3872
   756.2500      0.0000    750.2418      9.5610    103.7713
   756.5000      0.0000    744.0457      9.4405    105.7386
   756.7500      0.0000    733.3123      9.4445    111.5540
   757.0000      0.0000    722.6760      9.5497    120.0598
   757.2500      0.0000    715.8224      9.6928    129.3055
   757.5000      0.0000    714.6506      9.8184    136.9987
   757.7500      0.0000    718.7068      9.8996    140.9968
   758.0000      0.0000    725.6637      9.9321    140.1091
   758.2500      0.0000    732.8282      9.9208    134.7924
   758.5000      0.0000    738.6431      9.8743    127.1030
   758.7500      0.0000    742.9473      9.8103    119.8103
   759.0000      0.0000    745.7969      9.7563    115.3250
   759.2500      0.0000    746.2532      9.7340    114.9743
   759.5000      0.0000    742.8376      9.7373    118.4382
   759.7500      0.0000    735.5795      9.7338    123.5581
   760.0000      0.0000    727.1845      9.6878    127.4311
   760.2500      0.0000    721.2634      9.5893    128.5283
   760.5000      0.0000    719.1276      9.4689    127.7280
   760.7500      0.0000    718.7482      9.3829    126.8874
   761.0000      0.0000    717.0657      9.3729    126.5013
   761.2500      0.0000    712.9662      9.4349    125.2633
   761.5000      0.0000    707.7953      9.5223    122.0744
   761.7500      0.0000    703.5057      9.5819    118.0345
   762.0000      0.0000    700.9733      9.5939    115.9754
   762.2500      0.0000    699.9244      9.5846    117.9964
   762.5000      0.0000    699.7734      9.5956    123.5601
   762.7500      0.0000    700.2631      9.6400    129.8851
