~Version Information
VERS.                      2.0: CWLS Log ASCII Standard - VERSION 2.0
WRAP.                       NO: One line per depth step
~Well Information Block
STRT.FT               840.0000: 
STOP.FT              1912.0000: 
STEP.FT                 0.1000: 
NULL.                -999.2500: 
COMP.          Petrogulf Corporation: COMPANY
WELL.             Kraft 17-23R: WELL
FLD.           Purgatorie River: FIELD
LOC.           1509' FSL & 1673' FWL: LOCATION
PROV.                 Colorado: PROVINCE
CNTY.               Las Animas: COUNTRY
SRVC.                Patterson: SERVICE COMPANY
DATE.          Wed Oct 12 07:01:14 2005: LOG DATE
UWI.                          : UNIQUE WELL ID
~Curve Information Block
DEPT.FT            0 000 00 00: Depth
DCAL.in                       : CDL Caliper
RHOB.g/cc                     : CDL Bulk Density
RHOC.g/cc                     : CDL Density Correction
DPOR.pu                       : CDL Density Porosity
GR.GAPI                       : Gamma Ray
NPOR.pu                       : Neutron Porosity
~Parameter Information Block
~A  Depth       DCAL        RHOB        RHOC        DPOR         GR         NPOR    
# ...
  1540.8000      7.9098      2.4494      0.0269     12.1554     68.8995     21.5548
  1540.9000      7.9098      2.4413      0.0191     12.6495     69.4470     21.2258
  1541.0000      7.9001      2.4424      0.0452     12.5791     68.0320     20.9277
  1541.1000      7.9001      2.4373      0.0306     12.8910     64.8998     20.7159
  1541.2000      7.9001      2.4260      0.0116     13.5733     63.0491     20.6071
  1541.3000      7.8952      2.4204      0.0424     13.9161     62.0805     20.7549
  1541.4000      7.8952      2.4185      0.0467     14.0295     60.3222     21.1712
  1541.5000      7.9043      2.4143      0.0245     14.2822     59.2648     21.6871
  1541.6000      7.9043      2.4087      0.0361     14.6216     59.7473     22.2131
  1541.7000      7.9043      2.4050      0.0148     14.8512     60.5535     22.5606
  1541.8000      7.9011      2.4081     -0.0224     14.6588     61.3062     22.7050
  1541.9000      7.9011      2.4170      0.0378     14.1219     60.4872     22.7783
  1542.0000      7.8993      2.4267      0.0191     13.5336     58.2257     22.6541
  1542.1000      7.8993      2.4394      0.0456     12.7653     56.9754     22.1885
  1542.2000      7.8993      2.4537      0.0610     11.8992     57.2077     21.5855
  1542.3000      7.9118      2.4615      0.0708     11.4246     58.7126     21.1116
  1542.4000      7.9118      2.4632      0.0420     11.3237     60.1155     20.8896
  1542.5000      7.9100      2.4691      0.0729     10.9664     59.7547     20.9930
  1542.6000      7.9100      2.4811      0.0900     10.2386     58.5857     21.1979
  1542.7000      7.9100      2.4884      0.0885      9.7933     57.6802     21.2479
  1542.8000      7.9126      2.4860      0.0596      9.9421     57.1632     21.3779
  1542.9000      7.9126      2.4828      0.0731     10.1363     57.4660     21.7506
  1543.0000      7.9034      2.4873      0.0915      9.8581     58.8458     22.0391
  1543.1000      7.9034      2.4955      0.0910      9.3630     60.5884     21.9930
  1543.2000      7.9034      2.4963      0.0577      9.3177     60.4649     21.8526
  1543.3000      7.8837      2.4853      0.0757      9.9821     58.7697     21.8569
  1543.4000      7.8837      2.4678      0.0810     11.0432     57.9181     21.8162
  1543.5000      7.8797      2.4531      0.0590     11.9362     57.9862     21.6293
  1543.6000      7.8797      2.4462      0.0591     12.3499     58.5896     21.5373
  1543.7000      7.8797      2.4424      0.0684     12.5842     59.7951     21.5535
  1543.8000      7.8762      2.4342      0.0655     13.0763     60.5289     21.3537
  1543.9000      7.8762      2.4279      0.0114     13.4614     60.5073     20.8680
  1544.0000      7.8754      2.4331      0.0510     13.1480     60.9735     20.5147
  1544.1000      7.8754      2.4422      0.0757     12.5940     61.9938     20.4845
  1544.2000      7.8754      2.4474      0.0649     12.2760     61.4098     20.5746
  1544.3000      7.8875      2.4526      0.1076     11.9637     58.9793     20.5837
  1544.4000      7.8875      2.4683      0.0513     11.0117     58.5506     20.4962
  1544.5000      7.8880      2.4963      0.1165      9.3150     61.4480     20.3749
  1544.6000      7.8880      2.5109      0.1329      8.4327     64.9432     20.2570
  1544.7000      7.8880      2.4978      0.1033      9.2234     67.5693     20.3601
  1544.8000      7.8822      2.4766      0.0634     10.5068     69.9997     20.8282
  1544.9000      7.8822      2.4659      0.0322     11.1602     72.5962     21.4178
  1545.0000      7.8999      2.4623      0.0435     11.3733     74.9615     22.0724
  1545.1000      7.8999      2.4561      0.0412     11.7534     75.5207     22.9088
  1545.2000      7.8999      2.4516     -0.0143     12.0236     74.8368     23.5792
  1545.3000      7.9116      2.4562      0.0361     11.7426     77.0937     23.6902
  1545.4000      7.9116      2.4631      0.0224     11.3243     82.2891     23.4106
  1545.5000      7.9138      2.4654      0.0344     11.1884     84.7388     23.1032
  1545.6000      7.9138      2.4617      0.0563     11.4121     82.4744     22.8239
  1545.7000      7.9138      2.4559      0.0285     11.7633     80.5497     22.6688
  1545.8000      7.9177      2.4530      0.0556     11.9397     82.7156     22.7363
  1545.9000      7.9177      2.4471      0.0703     12.2990     87.2892     23.0486
  1546.0000      7.8847      2.4319      0.0741     13.2189     89.8065     23.7304
  1546.1000      7.8847      2.4151      0.0643     14.2351     87.7427     24.5435
  1546.2000      7.8847      2.4095      0.0752     14.5748     83.2608     24.9279
  1546.3000      7.8126      2.4178      0.1246     14.0736     79.2436     24.8313
  1546.4000      7.8126      2.4377      0.1266     12.8644     76.2184     24.5605
  1546.5000      7.7997      2.4745      0.1324     10.6343     74.2432     24.2475
  1546.6000      7.7997      2.5223      0.2010      7.7379     73.7724     23.8216
  1546.7000      7.7997      2.5568      0.2215      5.6460     74.5899     23.2952
  1546.8000      7.8611      2.5671      0.2253      5.0222     76.5503     23.0570
  1546.9000      7.8611      2.5655      0.2153      5.1233     79.0773     23.2547
  1547.0000      7.9251      2.5660      0.1672      5.0935     79.8271     23.3755
  1547.1000      7.9251      2.5673      0.1921      5.0115     78.1815     23.2144
  1547.2000      7.9251      2.5556      0.1569      5.7216     76.9448     23.2113
  1547.3000      7.9431      2.5298      0.1000      7.2849     78.0816     23.4981
  1547.4000      7.9431      2.5036      0.1003      8.8723     80.4945     23.7138
  1547.5000      7.8255      2.4852      0.0674      9.9870     81.0451     23.5338
  1547.6000      7.8255      2.4753      0.0903     10.5852     79.9970     22.7245
  1547.7000      7.8255      2.4718      0.0934     10.7974     80.2886     21.4528
  1547.8000      7.7808      2.4751      0.1123     10.6002     81.2178     20.4427
  1547.9000      7.7808      2.4852      0.1066      9.9896     81.6667     20.3254
  1548.0000      7.7503      2.4907      0.1322      9.6528     81.7863     20.9917
  1548.1000      7.7503      2.4795      0.0876     10.3342     79.7706     21.7219
  1548.2000      7.7503      2.4601      0.0927     11.5102     75.8323     21.9576
  1548.3000      7.7596      2.4487      0.0568     12.1975     72.4745     22.0129
  1548.4000      7.7596      2.4483      0.0897     12.2234     70.7259     22.5192
  1548.5000      7.7610      2.4572      0.0382     11.6827     70.7426     23.1782
  1548.6000      7.7610      2.4762      0.0741     10.5354     71.7258     23.3687
  1548.7000      7.7610      2.4897      0.1156      9.7161     72.5207     23.1807
  1548.8000      7.7667      2.4911      0.0542      9.6318     74.2830     22.9216
  1548.9000      7.7667      2.4975      0.0971      9.2419     77.8633     22.6146
  1549.0000      7.7811      2.5094      0.0906      8.5217     81.3514     22.2460
  1549.1000      7.7811      2.5134      0.1016      8.2788     82.5427     21.9697
  1549.2000      7.7811      2.5057      0.1050      8.7424     80.6455     22.0146
  1549.3000      7.7969      2.4925      0.0621      9.5469     78.4420     22.2571
  1549.4000      7.7969      2.4873      0.0493      9.8583     78.1683     22.4319
  1549.5000      7.8329      2.4961      0.0827      9.3259     77.2373     22.4544
  1549.6000      7.8329      2.5098      0.0814      8.4957     75.8828     22.2527
  1549.7000      7.8329      2.5223      0.0799      7.7420     76.9430     22.0442
  1549.8000      7.8843      2.5370      0.0684      6.8494     78.2356     21.9733
  1549.9000      7.8843      2.5525      0.0940      5.9101     77.8329     21.8800
  1550.0000      7.8717      2.5561      0.1075      5.6884     77.5383     21.7454
  1550.1000      7.8717      2.5446      0.0888      6.3895     78.9872     21.5762
  1550.2000      7.8717      2.5281      0.0795      7.3875     81.1637     21.3451
  1550.3000      7.8418      2.5144      0.0642      8.2165     82.2167     21.1412
