~Version Information
VERS.                      2.0: CWLS Log ASCII Standard - VERSION 2.0
WRAP.                       NO: One line per depth step
~Well Information Block
STRT.FT                -9.5000: 
STOP.FT              2305.7500: 
STEP.FT                 0.2500: 
NULL.                -999.2500: 
COMP.          Pioneer Natural Resources: COMPANY
WELL.          Fittipaldi 21-12: WELL
FLD.           Purgatorie River: FIELD
LOC.           207' FNL & 2110' FWL--: LOCATION
CNTY.               Las Animas: COUNTY
SRVC.          Patterson Wireline: SERVICE COMPANY
DATE.          Wed Apr 12 10:38:25 2006: LOG DATE
UWI.           05 071 08492 00: UNIQUE WELL ID
STAT.                       CO: STATE
~Curve Information Block
DEPT.FT            0 000 00 00: Depth
CCL.                          : Casing Collar Locator
TT3.usec                      : CBL 3' Travel Time
AMP3.mV                       : CBL 3' Amplitude
GR.GAPI                       : Gamma Ray
~Parameter Information Block
~A  Depth       CCL         TT3         AMP3         GR     
# ...
   593.5000      0.0000    689.6823      3.3312    153.1038
   593.7500      0.0000    689.8576      3.4048    156.5798
   594.0000      0.0000    689.9067      3.4819    157.1367
   594.2500      0.0000    689.8976      3.5454    156.2791
   594.5000      0.0000    689.9028      3.5797    154.5499
   594.7500      0.0000    689.9442      3.5796    152.0156
   595.0000      0.0000    690.0255      3.5532    149.1302
   595.2500      0.0000    690.1755      3.5171    146.4030
   595.5000      0.0000    690.4257      3.4850    143.8205
   595.7500      0.0000    690.7499      3.4621    141.3370
   596.0000      0.0000    691.0520      3.4505    139.5182
   596.2500      0.0000    691.2298      3.4553    139.0020
   596.5000      0.0000    691.2473      3.4836    139.5275
   596.7500      0.0000    691.1432      3.5343    140.0267
   597.0000      0.0000    690.9563      3.5941    139.6128
   597.2500      0.0000    690.5732      3.6425    138.0305
   597.5000      0.0000    689.5285      3.6622    135.1107
   597.7500      0.0000    686.9756      3.6482    130.2381
   598.0000      0.0000    682.1786      3.6112    122.8415
   598.2500      0.0000    675.4803      3.5699    113.3565
   598.5000      0.0000    668.7577      3.5397    103.2841
   598.7500      0.0000    664.1956      3.5265     94.2585
   599.0000      0.0000    661.7767      3.5289     87.2735
   599.2500      0.0000    657.7748      3.5445     82.6763
   599.5000      0.0000    646.2904      3.5714     80.5514
   599.7500      0.0000    622.9895      3.6054     80.8938
   600.0000      0.0000    587.9385      3.6389     83.2094
   600.2500      0.0000    545.5743      3.6656     86.0853
   600.5000      0.0000    503.0616      3.6847     87.8226
   600.7500      0.0000    468.4052      3.6999     87.8241
   601.0000      0.0000    447.3735      3.7150     86.8634
   601.2500      0.0000    439.7169      3.7306     85.7621
   601.5000      0.0000    438.8658      3.7434     84.3285
   601.7500      0.0000    436.9183      3.7491     81.8479
   602.0000      0.0000    430.0979      3.7470     78.2214
   602.2500      0.0000    419.6049      3.7389     74.2842
   602.5000      0.0000    408.8958      3.7237     71.1787
   602.7500      0.0000    401.2873      3.6956     69.7814
   603.0000      0.0000    399.4179      3.6527     70.8369
   603.2500      0.0000    405.5902      3.6044     75.0850
   603.5000      0.0000    421.3459      3.5706     82.4081
   603.7500      0.0000    445.6437      3.5677     90.7245
   604.0000      0.0000    473.6465      3.5950     96.5432
   604.2500      0.0000    498.6800      3.6352     97.4854
   604.5000      0.0000    516.2621      3.6702     94.3178
   604.7500      0.0000    526.1083      3.6957     90.0723
   605.0000      0.0000    530.6400      3.7168     87.2472
   605.2500      0.0000    532.4517      3.7322     86.2024
   605.5000      0.0000    533.2042      3.7299     85.8425
   605.7500      0.0000    534.0433      3.7008     84.9518
   606.0000      0.0000    536.4687      3.6494     82.7714
   606.2500      0.0000    542.6651      3.5962     79.1368
   606.5000      0.0000    554.6796      3.5689     74.6191
   606.7500      0.0000    572.6913      3.5857     70.2125
   607.0000      0.0000    594.1632      3.6370     66.6373
   607.2500      0.0000    615.3171      3.6922     64.1085
   607.5000      0.0000    633.4387      3.7307     62.6409
   607.7500      0.0000    647.2915      3.7572     62.0630
   608.0000      0.0000    656.1426      3.7833     61.8144
   608.2500      0.0000    660.0025      3.8099     61.3750
   608.5000      0.0000    660.5588      3.8346     60.9783
   608.7500      2.0000    660.0903      3.8594     61.3786
   609.0000      0.0000    659.2372      3.8797     62.7197
   609.2500      0.0000    657.1956      3.8728     63.9397
   609.5000      0.0000    654.1063      3.8067     63.7158
   609.7500      0.0000    651.5264      3.6619     61.9741
   610.0000      0.0000    650.1226      3.4519     60.0525
   610.2500      0.0000    648.5628      3.2304     59.4869
   610.5000      0.0000    645.5143      3.0669     61.3529
   610.7500      0.0000    641.3110      2.9985     66.6974
   611.0000      0.0000    636.8964      3.0100     76.3843
   611.2500      0.0000    632.9116      3.0627     89.8207
   611.5000      0.0000    630.8623      3.1313    104.5023
   611.7500      0.0000    633.3380      3.2072    117.4469
   612.0000      0.0000    641.7737      3.2835    126.8646
   612.2500      0.0000    654.8148      3.3499    132.3834
   612.5000      0.0000    669.1931      3.3982    134.2315
   612.7500      0.0000    681.6009      3.4233    132.6251
   613.0000      0.0000    689.7252      3.4216    127.9052
   613.2500      0.0000    692.2161      3.3970    121.1301
   613.5000      0.0000    688.1783      3.3669    114.2883
   613.7500      0.0000    677.2488      3.3533    109.5490
   614.0000      0.0000    661.2049      3.3651    108.2109
   614.2500      0.0000    645.6410      3.3919    110.5756
   614.5000      0.0000    637.8303      3.4160    116.6740
   614.7500      0.0000    640.4808      3.4272    126.1267
   615.0000      0.0000    648.6125      3.4258    136.7528
   615.2500      0.0000    654.8785      3.4169    144.5273
   615.5000      0.0000    657.2189      3.4045    146.5301
   615.7500      0.0000    659.2212      3.3910    143.8130
   616.0000      0.0000    663.8093      3.3791    140.3486
   616.2500      0.0000    669.3534      3.3731    139.3129
   616.5000      0.0000    672.3991      3.3761    141.0802
   616.7500      0.0000    671.9061      3.3856    144.3221
   617.0000      0.0000    669.6688      3.3945    147.5621
   617.2500      0.0000    667.9080      3.3977    149.1884
   617.5000      0.0000    667.0349      3.3961    147.3091
   617.7500      0.0000    664.8538      3.3952    140.8527
   618.0000      0.0000    657.0121      3.3984    130.5795
   618.2500      0.0000    638.2821      3.4040    118.7071
   618.5000      0.0000    604.7556      3.4076    108.0233
   618.7500      0.0000    557.4825      3.4069    101.2813
   619.0000      0.0000    505.2956      3.4048    100.3018
   619.2500      0.0000    462.2794      3.4066    104.6766
   619.5000      0.0000    440.1675      3.4166    111.4488
   619.7500      0.0000    442.3106      3.4357    117.0399
   620.0000      0.0000    463.8996      3.4612    119.9500
   620.2500      0.0000    496.6198      3.4872    121.0817
   620.5000      0.0000    532.9445      3.5056    121.5309
   620.7500      0.0000    566.6432      3.5112    121.4935
   621.0000      0.0000    591.0159      3.5066    121.5718
   621.2500      0.0000    599.5654      3.5004    123.0752
   621.5000      0.0000    590.3796      3.4993    126.1092
   621.7500      0.0000    570.2819      3.5011    129.0244
   622.0000      0.0000    553.6873      3.4967    130.4747
   622.2500      0.0000    554.6998      3.4775    130.6585
   622.5000      0.0000    577.3499      3.4435    130.2536
   622.7500      0.0000    612.8381      3.4043    129.3644
   623.0000      0.0000    646.9937      3.3720    127.7930
   623.2500      0.0000    670.5212      3.3556    125.6214
   623.5000      0.0000    682.5587      3.3592    123.3469
   623.7500      0.0000    687.0787      3.3834    121.7758
   624.0000      0.0000    688.1676      3.4261    121.5378
   624.2500      0.0000    688.1302      3.4833    122.3188
   624.5000      0.0000    687.8831      3.5494    122.7683
   624.7500      0.0000    687.7446      3.6173    121.6385
   625.0000      0.0000    687.8315      3.6811    119.1219
   625.2500      0.0000    688.1210      3.7393    117.0272
   625.5000      0.0000    688.4770      3.7901    117.6106
   625.7500      0.0000    688.7347      3.8262    121.9410
   626.0000      0.0000    688.7807      3.8387    128.8782
   626.2500      0.0000    688.5959      3.8270    135.2657
   626.5000      0.0000    688.2556      3.7977    137.5144
   626.7500      0.0000    687.8383      3.7570    133.9842
