~Version Information
VERS.                      2.0: CWLS Log ASCII Standard - VERSION 2.0
WRAP.                       NO: One line per depth step
~Well Information Block
STRT.FT                -4.0000: 
STOP.FT               675.2500: 
STEP.FT                 0.2500: 
NULL.                -999.2500: 
COMP.          Pioneer Natural Resources: COMPANY
WELL.          Razor Clam 23-27: WELL
FLD.           Purgatoire River: FIELD
LOC.           2499' FSL & 2636' FWL: LOCATION
CNTY.               Las Animas: COUNTY
SRVC.                         : SERVICE COMPANY
DATE.          Thu Mar 09 13:15:19 2006: LOG DATE
UWI.           05 071 08667 00: UNIQUE WELL ID
STAT.                       CO: STATE
~Curve Information Block
DEPT.FT            0 000 00 00: Depth
GR.GAPI                       : Gamma Ray
CCL.                          : Casing Collar Locator
TT3.usec                      : CBL 3' Travel Time
AMP3.mV                       : CBL 3' Amplitude
~Parameter Information Block
~A  Depth        GR         CCL         TT3         AMP3    
# ...
   498.5000     87.4635      0.0000    722.8642     14.2710
   498.7500     88.6593      0.0000    722.7626     14.2849
   499.0000     90.2203      0.0000    722.7000     14.3272
   499.2500     91.1415      0.0000    722.6849     14.3959
   499.5000     91.2866      0.0000    722.7319     14.4764
   499.7500     91.0228      0.0000    722.8581     14.5572
   500.0000     90.4056      0.0000    723.0648     14.6373
   500.2500     89.0933      0.0000    723.3370     14.7221
   500.5000     87.0051      0.0000    723.6480     14.8294
   500.7500     84.8293      0.0000    723.9473     14.9760
   501.0000     83.6997      0.0000    724.1546     15.1365
   501.2500     84.2567      0.0000    724.1995     15.2315
   501.5000     85.9647      0.0000    724.0803     15.1915
   501.7500     87.3884      0.0000    723.8740     15.0372
   502.0000     87.3396      0.0000    723.6819     14.8783
   502.2500     85.7954      0.0000    723.5632     14.8160
   502.5000     83.6779      0.0000    723.5146     14.8521
   502.7500     82.0200      0.0000    723.4957     14.9046
   503.0000     81.6182      0.0000    723.4600     14.9042
   503.2500     83.0630      0.0000    723.3710     14.8531
   503.5000     86.3713      0.0000    723.2220     14.7894
   503.7500     90.3705      0.0000    723.0517     14.7213
   504.0000     92.8690      0.0000    722.9199     14.6227
   504.2500     92.1431      0.0000    722.8547     14.4850
   504.5000     88.6173      0.0000    722.8388     14.3488
   504.7500     84.7899      0.0000    722.8468     14.2827
   505.0000     83.1484      0.0000    722.8707     14.3459
   505.2500     84.3355      0.0000    722.9095     14.5645
   505.5000     87.4404      0.0000    722.9418     14.9098
   505.7500     91.3207      0.0000    722.8991     15.2840
   506.0000     94.8515      0.0000    722.4907     15.5549
   506.2500     96.5236      0.0000    720.8727     15.6491
   506.5000     95.2110      0.0000    716.3579     15.6132
   506.7500     91.4511      0.0000    707.0401     15.5636
   507.0000     87.1078      0.0000    693.0582     15.5720
   507.2500     83.6063      0.0000    678.7464     15.6170
   507.5000     80.8813      0.0000    670.7745     15.6403
   507.7500     77.9320      0.0000    672.4617     15.6165
   508.0000     73.9909      0.0000    680.9651     15.5551
   508.2500     69.1462      0.0000    691.0806     15.4666
   508.5000     64.2005      0.0000    699.9656     15.3715
   508.7500     60.1551      0.0000    707.0960     15.3349
   509.0000     57.7035      0.0000    711.8087     15.4384
   509.2500     56.9587      0.0000    712.8860     15.6905
   509.5000     57.5174      0.0000    710.1779     15.9999
   509.7500     58.6965      0.0000    705.6683     16.2551
   510.0000     59.6364      0.0000    702.4224     16.4048
   510.2500     59.4566      0.0000    702.3000     16.4608
   510.5000     57.7794      0.0000    704.8804     16.4706
   510.7500     55.2204      0.0000    708.5522     16.4983
   511.0000     53.1282      0.0000    711.7630     16.5851
   511.2500     52.5741      0.0000    713.1796     16.7014
   511.5000     53.4630      0.0000    711.9780     16.7646
   511.7500     54.6187      0.0000    708.8530     16.7211
   512.0000     54.8532      0.0000    706.0932     16.5992
   512.2500     54.0344      0.0000    705.6574     16.4661
   512.5000     53.0282      0.0000    706.8785     16.3148
   512.7500     52.6135      0.0000    706.7104     15.9873
   513.0000     52.7401      0.0000    702.9579     15.2475
   513.2500     52.9538      0.0000    697.4272     14.0086
   513.5000     53.1498      0.0000    695.2193     12.5231
   513.7500     53.4834      0.0000    699.8891     11.2871
   514.0000     53.7146      0.0000    709.0629     10.6905
   514.2500     53.1697      0.0000    715.5230     10.7418
   514.5000     51.5461      0.0000    713.5284     11.1182
   514.7500     49.5878      0.0000    704.3703     11.4539
   515.0000     48.7061      1.3718    695.6084     11.5849
   515.2500     49.8482      2.0000    694.9542     11.5740
   515.5000     52.7175      0.0000    704.7820     11.5752
   515.7500     55.9722      0.0000    721.2944     11.6881
   516.0000     58.1541      0.0000    737.6383     11.8672
   516.2500     58.6852      0.0000    748.3708     11.9085
   516.5000     58.2690      0.0000    752.4788     11.5597
   516.7500     58.5560      0.0000    752.6888     10.7275
   517.0000     61.3693      0.0000    751.7410      9.5885
   517.2500     67.5228      0.0000    749.8601      8.4601
   517.5000     75.5442      0.0000    746.2394      7.5711
   517.7500     81.8757      0.0000    741.8102      6.9650
   518.0000     83.4291      0.0000    739.0963      6.5683
   518.2500     80.1830      0.0000    739.6017      6.2979
   518.5000     74.8797      0.0000    742.3719      6.1111
   518.7500     70.4186      0.0000    744.7515      6.0004
   519.0000     67.9871      0.0000    744.0038      5.9773
   519.2500     67.3705      0.0000    739.3175      6.0673
   519.5000     68.1469      0.0000    733.1898      6.3145
   519.7500     70.1263      0.0000    729.5561      6.7789
   520.0000     72.9276      0.0000    729.6450      7.5041
   520.2500     75.5339      0.0000    730.8295      8.4582
   520.5000     76.5299      0.0000    729.8063      9.5003
   520.7500     75.1684      0.0000    725.4617     10.4296
   521.0000     72.2335      0.0000    718.5463     11.0944
   521.2500     69.4255      0.0000    710.2707     11.4672
   521.5000     67.8001      0.0000    701.9538     11.6291
   521.7500     67.1920      0.0000    694.9935     11.6944
   522.0000     66.9900      0.0000    690.3171     11.7447
   522.2500     66.7529      0.0000    687.9317     11.8073
   522.5000     66.0662      0.0000    687.2014     11.8737
   522.7500     64.6702      0.0000    687.5027     11.9283
   523.0000     63.0849      0.0000    688.7114     11.9636
   523.2500     62.4938      0.0000    691.3039     11.9829
   523.5000     63.5508      0.0000    695.9358     11.9976
   523.7500     65.6400      0.0000    702.6439     12.0245
   524.0000     67.6031      0.0000    710.4108     12.0737
   524.2500     68.7832      0.0000    717.7495     12.1302
   524.5000     69.0226      0.0000    723.6655     12.1531
   524.7500     68.2748      0.0000    727.7102     12.1088
   525.0000     67.0104      0.0000    729.1920     12.0070
   525.2500     66.6645      0.0000    727.1465     11.8981
   525.5000     68.7775      0.0000    721.6106     11.8294
   525.7500     73.4816      0.0000    714.3578     11.8089
   526.0000     79.0332      0.0000    707.6572     11.8101
   526.2500     82.9532      0.0000    702.6523     11.8045
   526.5000     83.8314      0.0000    699.5677     11.7840
   526.7500     82.1974      0.0000    698.9184     11.7590
   527.0000     79.6358      0.0000    701.2846     11.7458
   527.2500     77.3372      0.0000    705.2795     11.7573
   527.5000     75.6981      0.0000    706.2199     11.7967
   527.7500     74.7694      0.0000    698.1919     11.8539
   528.0000     74.4386      0.0000    678.8212     11.9088
   528.2500     74.4007      0.0000    652.1952     11.9394
   528.5000     74.4650      0.0000    626.8876     11.9296
   528.7500     74.7794      0.0000    611.2737     11.8735
   529.0000     75.4650      0.0000    609.7485     11.7752
   529.2500     76.1684      0.0000    620.9297     11.6507
   529.5000     76.2931      0.0000    638.5663     11.5260
   529.7500     75.7639      0.0000    655.7023     11.4279
   530.0000     75.3224      0.0000    669.1647     11.3723
   530.2500     75.7476      0.0000    680.1243     11.3584
   530.5000     76.9122      0.0000    690.7795     11.3732
   530.7500     78.0589      0.0000    701.2151     11.4040
   531.0000     78.8063      0.0000    709.3663     11.4532
   531.2500     79.1114      0.0000    712.9894     11.5401
   531.5000     78.3868      0.0000    711.3028     11.6790
   531.7500     75.9020      0.0000    705.9074     11.8502
