~Version Information
VERS.                      2.0: CWLS Log ASCII Standard - VERSION 2.0
WRAP.                       NO: One line per depth step
~Well Information Block
STRT.FT               310.0000: 
STOP.FT              2295.5000: 
STEP.FT                 0.1000: 
NULL.                -999.2500: 
COMP.          Pioneer Natural Resources: COMPANY
WELL.               Relay 12-7: WELL
FLD.           Purgatoire River: FIELD
LOC.           1999' FNL & 848' FWL: LOCATION
PROV.                 Colorado: PROVINCE
CNTY.               Las Animas: COUNTRY
SRVC.                Patterson: SERVICE COMPANY
DATE.          Mon Dec 19 07:37:11 2005: LOG DATE
UWI.           05 071 08453 00: UNIQUE WELL ID
~Curve Information Block
DEPT.FT            0 000 00 00: Depth
DCAL.in                       : CDL Caliper
RHOB.g/cc                     : CDL Bulk Density
RHOC.g/cc                     : CDL Density Correction
DPOR.pu                       : CDL Density Porosity
GR.GAPI                       : Gamma Ray
NPOR.pu                       : Neutron Porosity
~Parameter Information Block
~A  Depth       DCAL        RHOB        RHOC        DPOR         GR         NPOR    
# ...
  1097.2000      8.1171      2.4724      0.0677     10.7634     80.1087     25.9500
  1097.3000      8.1198      2.4715      0.0317     10.8201     85.5701     26.1628
  1097.4000      8.1198      2.4684      0.0247     11.0052     97.0036     26.4800
  1097.5000      8.1238      2.4782      0.0652     10.4103    110.8801     26.9430
  1097.6000      8.1238      2.5014      0.0797      9.0049    122.9308     27.1755
  1097.7000      8.1238      2.5306      0.0907      7.2388    130.0597     27.0473
  1097.8000      8.1285      2.5620      0.1063      5.3305    130.5121     26.9904
  1097.9000      8.1285      2.5920      0.1406      3.5133    127.7705     27.1403
  1098.0000      8.1391      2.6193      0.0975      1.8588    123.5088     27.3146
  1098.1000      8.1391      2.6422      0.1155      0.4714    118.0901     27.5569
  1098.2000      8.1391      2.6551      0.1313     -0.3115    115.7523     27.9569
  1098.3000      8.1412      2.6630      0.1175     -0.7849    116.6674     28.2313
  1098.4000      8.1412      2.6708      0.1407     -1.2613    121.0919     27.7698
  1098.5000      8.1419      2.6647      0.1771     -0.8902    127.8641     26.8871
  1098.6000      8.1419      2.6385      0.0407      0.6949    128.3345     26.3559
  1098.7000      8.1419      2.6037      0.0572      2.8055    121.3951     25.9968
  1098.8000      8.1764      2.5660      0.0121      5.0912    117.5525     25.7033
  1098.9000      8.1764      2.5420     -0.0588      6.5483    121.0588     26.2374
  1099.0000      8.1528      2.5437      0.0446      6.4412    126.6962     27.8405
  1099.1000      8.1528      2.5444      0.0257      6.4000    129.1858     28.9358
  1099.2000      8.1528      2.5194      0.0084      7.9148    133.0497     28.4521
  1099.3000      8.1533      2.4865     -0.0180      9.9112    140.5503     27.7819
  1099.4000      8.1533      2.4741     -0.0653     10.6617    142.1270     28.3332
  1099.5000      8.1496      2.4879      0.0046      9.8213    137.6458     29.4144
  1099.6000      8.1496      2.5110      0.0078      8.4260    134.3144     29.5066
  1099.7000      8.1496      2.5205      0.0469      7.8510    132.6407     28.5150
  1099.8000      8.1556      2.5136     -0.0339      8.2653    133.4530     27.8042
  1099.9000      8.1556      2.5108      0.0490      8.4363    137.3788     28.1910
  1100.0000      8.1637      2.5156      0.0431      8.1475    141.1758     29.2231
  1100.1000      8.1637      2.5132      0.0345      8.2879    142.4184     30.4540
  1100.2000      8.1637      2.5028      0.0531      8.9232    141.6392     31.6555
  1100.3000      8.1663      2.5015     -0.0474      8.9986    139.2208     32.2065
  1100.4000      8.1663      2.5200      0.0002      7.8807    133.6251     31.6035
  1100.5000      8.1680      2.5395      0.0425      6.6945    126.6522     30.1344
  1100.6000      8.1680      2.5403      0.0321      6.6506    125.2024     28.6097
  1100.7000      8.1680      2.5199      0.0398      7.8824    131.3225     27.5342
  1100.8000      8.1703      2.4842      0.0433     10.0513    135.7386     26.9244
  1100.9000      8.1703      2.4520     -0.0131     12.0008    133.7251     27.1169
  1101.0000      8.1780      2.4420      0.0400     12.6042    131.8596     28.4003
  1101.1000      8.1780      2.4542     -0.0084     11.8673    133.7380     29.4785
  1101.2000      8.1780      2.4832      0.0288     10.1099    141.1589     29.1949
  1101.3000      8.1730      2.5199      0.0557      7.8821    152.2880     28.2054
  1101.4000      8.1730      2.5516      0.0833      5.9616    155.3746     27.2432
  1101.5000      8.1822      2.5774      0.0539      4.3990    147.4931     26.9022
  1101.6000      8.1822      2.6029      0.0747      2.8562    139.7586     27.5606
  1101.7000      8.1822      2.6145      0.0825      2.1518    139.4068     28.3471
  1101.8000      8.1827      2.5976      0.0695      3.1729    143.5845     28.2076
  1101.9000      8.1827      2.5659     -0.0015      5.0948    144.6050     27.5582
  1102.0000      8.1859      2.5389      0.0513      6.7335    141.3709     27.2751
  1102.1000      8.1859      2.5191      0.0126      7.9334    140.6363     27.4349
  1102.2000      8.1859      2.5088     -0.0205      8.5557    145.3556     27.9546
  1102.3000      8.1878      2.5064     -0.0300      8.7007    150.8467     28.9798
  1102.4000      8.1878      2.5008     -0.0012      9.0445    153.1077     30.1270
  1102.5000      8.1904      2.4938     -0.0400      9.4643    154.0090     31.0151
  1102.6000      8.1904      2.4929      0.0694      9.5232    154.2052     31.6841
  1102.7000      8.1904      2.4917     -0.0065      9.5956    152.0555     31.7345
  1102.8000      8.1851      2.4912      0.0185      9.6257    150.6656     31.0302
  1102.9000      8.1851      2.4963      0.0344      9.3161    151.7058     30.3504
  1103.0000      8.1877      2.5069      0.0653      8.6719    151.8440     30.3740
  1103.1000      8.1877      2.5249      0.0706      7.5794    152.3534     30.5430
  1103.2000      8.1877      2.5409      0.0980      6.6128    157.0788     30.2267
  1103.3000      8.1884      2.5435      0.1075      6.4518    161.8828     29.9625
  1103.4000      8.1884      2.5450      0.0600      6.3661    161.8776     30.1053
  1103.5000      8.1870      2.5577      0.0811      5.5926    160.8136     29.9434
  1103.6000      8.1870      2.5663      0.1025      5.0738    160.8631     29.3388
  1103.7000      8.1870      2.5487      0.0866      6.1411    158.2343     29.0368
  1103.8000      8.1898      2.5091      0.0636      8.5408    151.9556     29.3087
  1103.9000      8.1898      2.4771      0.0509     10.4769    142.7741     29.7951
  1104.0000      8.1848      2.4748      0.0316     10.6156    135.2306     30.2334
  1104.1000      8.1848      2.4936      0.0411      9.4786    136.1137     30.2557
  1104.2000      8.1848      2.5147      0.0333      8.2015    141.5554     29.8216
  1104.3000      8.1854      2.5254      0.1540      7.5486    145.6900     29.5684
  1104.4000      8.1854      2.5191      0.0842      7.9360    150.8248     29.9952
  1104.5000      8.1848      2.5090      0.0565      8.5462    156.9127     30.9684
  1104.6000      8.1848      2.5053      0.0887      8.7695    157.1169     31.5702
  1104.7000      8.1848      2.4975      0.0623      9.2441    151.2315     30.9278
  1104.8000      8.1828      2.4863      0.0117      9.9207    148.4076     29.3926
  1104.9000      8.1828      2.4769      0.0867     10.4902    151.3623     28.1686
  1105.0000      8.1856      2.4615      0.0535     11.4221    155.3070     28.2903
  1105.1000      8.1856      2.4444      0.0497     12.4612    158.8518     29.1580
  1105.2000      8.1856      2.4495     -0.0178     12.1543    158.5197     29.5579
  1105.3000      8.1841      2.5007      0.0390      9.0514    150.4425     29.6816
  1105.4000      8.1841      2.5867      0.1092      3.8393    141.2603     29.9087
  1105.5000      8.1796      2.6631      0.1669     -0.7935    138.0909     30.0541
  1105.6000      8.1796      2.7080      0.1749     -3.5150    139.6892     29.8150
  1105.7000      8.1796      2.7350      0.1283     -5.1502    140.5540     29.2658
  1105.8000      8.1746      2.7489      0.1919     -5.9934    137.8856     29.2956
  1105.9000      8.1746      2.7346      0.1724     -5.1265    135.2150     29.9424
  1106.0000      8.1693      2.6917      0.0856     -2.5299    135.1130     30.0829
  1106.1000      8.1693      2.6363      0.0055      0.8311    136.3937     29.3205
  1106.2000      8.1693      2.5786     -0.0601      4.3291    141.5273     28.5007
  1106.3000      8.1724      2.5229     -0.0713      7.7018    151.6853     28.4345
  1106.4000      8.1724      2.4758     -0.0685     10.5582    157.6291     28.9186
  1106.5000      8.1763      2.4450     -0.0099     12.4224    155.6932     29.4175
  1106.6000      8.1763      2.4375     -0.0121     12.8815    155.5860     29.8799
  1106.7000      8.1763      2.4516      0.0174     12.0262    157.7856     30.0890
