~Version Information
VERS.                      2.0: CWLS Log ASCII Standard - VERSION 2.0
WRAP.                       NO: One line per depth step
~Well Information Block
STRT.FT               245.0000: 
STOP.FT              1102.5000: 
STEP.FT                 0.1000: 
NULL.                -999.2500: 
COMP.          Pioneer Natural Resources: COMPANY
WELL.           Pavilion 44-25: WELL
FLD.           Purgatoire River: FIELD
LOC.           719' FSL & 650' FEL: LOCATION
PROV.                 Colorado: PROVINCE
CNTY.               Las Animas: COUNTRY
SRVC.                Patterson: SERVICE COMPANY
DATE.          Wed Dec 14 09:57:07 2005: LOG DATE
UWI.           05 071 08624 00: UNIQUE WELL ID
~Curve Information Block
DEPT.FT            0 000 00 00: Depth
DCAL.in                       : CDL Caliper
RHOB.g/cc                     : CDL Bulk Density
RHOC.g/cc                     : CDL Density Correction
DPOR.pu                       : CDL Density Porosity
GR.GAPI                       : Gamma Ray
NPOR.pu                       : Neutron Porosity
~Parameter Information Block
~A  Depth       DCAL        RHOB        RHOC        DPOR         GR         NPOR    
# ...
   811.4000      8.0820      2.2615      0.1388     23.5427     88.9488     21.7047
   811.5000      8.0814      2.2791      0.1016     22.4767     92.1093     22.5429
   811.6000      8.0814      2.3015      0.0582     21.1207     97.6202     23.0425
   811.7000      8.0814      2.3289      0.0537     19.4583    106.4871     23.7099
   811.8000      8.0825      2.3569      0.0581     17.7667    114.0920     24.6192
   811.9000      8.0825      2.3909      0.0693     15.7060    109.7238     25.1609
   812.0000      8.0820      2.4363      0.0878     12.9485     97.1769     25.1643
   812.1000      8.0820      2.4822      0.1321     10.1721     91.8757     25.4358
   812.2000      8.0820      2.5115      0.0994      8.3915     97.1471     26.1185
   812.3000      8.0839      2.5261      0.0611      7.5094    101.2265     26.1197
   812.4000      8.0839      2.5357      0.0715      6.9249     97.7625     25.2600
   812.5000      8.0826      2.5401      0.0512      6.6632     94.9435     24.6941
   812.6000      8.0826      2.5440      0.0099      6.4272     95.0988     24.8022
   812.7000      8.0826      2.5601      0.0467      5.4476     92.4749     24.7752
   812.8000      8.0799      2.5832      0.0412      4.0471     88.8999     24.0385
   812.9000      8.0799      2.5938      0.0746      3.4053     89.1346     22.9003
   813.0000      8.0779      2.5872      0.0373      3.8051     90.2537     21.9758
   813.1000      8.0779      2.5712      0.0492      4.7744     88.2109     21.5262
   813.2000      8.0779      2.5490      0.0012      6.1203     86.7985     21.1943
   813.3000      8.0830      2.5246      0.0021      7.5983     88.1104     20.7120
   813.4000      8.0830      2.5078     -0.0344      8.6185     89.8543     20.0265
   813.5000      8.0819      2.5072     -0.0035      8.6555     93.6051     19.2052
   813.6000      8.0819      2.5142      0.0233      8.2304     99.3204     18.9266
   813.7000      8.0819      2.5144      0.0002      8.2212    101.8627     19.5376
   813.8000      8.0774      2.5065      0.0245      8.6982     99.8746     20.2775
   813.9000      8.0774      2.4940     -0.0117      9.4547     94.7040     20.5663
   814.0000      8.0799      2.4815     -0.0393     10.2094     86.3423     20.6277
   814.1000      8.0799      2.4745     -0.0013     10.6358     78.9373     20.5149
   814.2000      8.0799      2.4715     -0.0445     10.8174     78.1495     20.3654
   814.3000      8.0804      2.4711     -0.0178     10.8414     82.2636     20.6957
   814.4000      8.0804      2.4776     -0.0209     10.4482     86.5842     21.4052
   814.5000      8.0803      2.4962     -0.0224      9.3222     89.6071     21.5867
   814.6000      8.0803      2.5290     -0.0055      7.3326     88.8522     20.9037
   814.7000      8.0803      2.5711     -0.0171      4.7828     84.1694     20.2976
   814.8000      8.0797      2.6075      0.0642      2.5780     82.3488     20.2349
   814.9000      8.0797      2.6220      0.0536      1.6985     86.4227     19.9301
   815.0000      8.0797      2.6137      0.0374      2.1977     91.3300     19.2031
   815.1000      8.0797      2.5980     -0.0069      3.1542     90.9030     18.6938
   815.2000      8.0797      2.5914      0.0414      3.5514     84.0610     18.5013
   815.3000      8.0779      2.5968     -0.0115      3.2251     75.6539     18.1594
   815.4000      8.0779      2.6015      0.0768      2.9408     70.4963     17.2118
   815.5000      8.0786      2.5899      0.0158      3.6454     69.3546     16.1283
   815.6000      8.0786      2.5617      0.0008      5.3515     71.0049     15.7151
   815.7000      8.0786      2.5256     -0.0281      7.5383     75.4070     15.6813
   815.8000      8.0787      2.4898     -0.0049      9.7076     81.5604     15.4935
   815.9000      8.0787      2.4608     -0.0495     11.4640     86.5629     15.4369
   816.0000      8.0779      2.4376     -0.0354     12.8720     89.6439     15.6844
   816.1000      8.0779      2.4090      0.0108     14.6079     90.7279     15.9271
   816.2000      8.0779      2.3716     -0.0281     16.8738     90.4416     16.0752
   816.3000      8.0786      2.3418     -0.0694     18.6807     92.8096     16.1975
   816.4000      8.0786      2.3332     -0.0436     19.2030     98.9543     16.5856
   816.5000      8.0897      2.3401      0.0309     18.7805    104.1251     17.5870
   816.6000      8.0897      2.3540      0.0787     17.9364    104.7440     18.8311
   816.7000      8.0897      2.3672      0.1220     17.1387    102.8314     20.2423
   816.8000      8.0784      2.3715      0.0558     16.8766    102.9119     21.8544
   816.9000      8.0784      2.3707      0.0402     16.9287    104.3180     23.0730
   817.0000      8.0778      2.3753      0.0213     16.6478    103.9005     23.7741
   817.1000      8.0778      2.3908      0.0129     15.7092    105.6776     24.2077
   817.2000      8.0778      2.4140      0.0066     14.3001    112.2976     24.2765
   817.3000      8.0721      2.4391      0.0455     12.7830    119.1227     23.6990
   817.4000      8.0721      2.4593      0.0401     11.5575    123.5496     22.8280
   817.5000      8.0673      2.4647      0.0503     11.2328    124.0685     22.5274
   817.6000      8.0673      2.4530      0.0273     11.9402    119.6014     22.9692
   817.7000      8.0673      2.4426      0.0003     12.5726    116.0884     23.4722
   817.8000      8.0651      2.4490      0.0114     12.1847    118.8471     23.5351
   817.9000      8.0651      2.4652      0.0150     11.1982    123.6903     23.4999
   818.0000      8.0680      2.4800      0.0063     10.3022    123.5258     23.7964
   818.1000      8.0680      2.4906      0.0377      9.6583    119.3552     24.0984
   818.2000      8.0680      2.5016      0.0202      8.9946    117.2477     23.7648
   818.3000      8.0667      2.5172      0.0556      8.0481    117.4238     22.9044
   818.4000      8.0667      2.5285      0.0679      7.3639    119.5899     22.5117
   818.5000      8.0635      2.5277      0.0473      7.4141    126.2149     23.1749
   818.6000      8.0635      2.5211      0.0269      7.8109    133.2433     24.2698
   818.7000      8.0635      2.5155      0.0281      8.1525    133.5896     25.0808
   818.8000      8.0521      2.5098      0.0458      8.4971    129.1632     25.4595
   818.9000      8.0521      2.5004      0.0077      9.0695    126.3366     25.2846
   819.0000      8.0660      2.4863      0.0087      9.9204    126.5242     24.7307
   819.1000      8.0660      2.4739      0.0091     10.6734    129.6132     24.4185
   819.2000      8.0660      2.4733     -0.0036     10.7066    133.3717     24.4584
   819.3000      8.0698      2.4871     -0.0197      9.8730    132.6968     24.4333
   819.4000      8.0698      2.5065      0.0313      8.6985    126.4605     24.0313
   819.5000      8.0759      2.5114      0.0190      8.3973    122.2632     23.2838
   819.6000      8.0759      2.4908     -0.0037      9.6497    127.2926     22.6130
   819.7000      8.0759      2.4670     -0.0892     11.0909    132.7450     22.2202
   819.8000      8.0793      2.4594      0.0040     11.5499    130.4048     21.7483
   819.9000      8.0793      2.4508     -0.0008     12.0756    126.4948     20.8364
   820.0000      8.0791      2.4287     -0.0164     13.4093    124.8406     19.4851
   820.1000      8.0791      2.4110     -0.0441     14.4822    127.4962     18.1742
   820.2000      8.0791      2.4108     -0.0237     14.4975    136.5358     17.3330
   820.3000      8.0735      2.4120      0.0178     14.4262    146.0328     16.7027
   820.4000      8.0735      2.3912      0.0259     15.6864    148.9361     15.8127
   820.5000      8.0715      2.3386      0.0191     18.8723    146.4699     14.7604
   820.6000      8.0715      2.2557     -0.0242     23.8946    142.3423     13.7344
   820.7000      8.0715      2.1573     -0.0917     29.8624    137.0429     12.8434
   820.8000      8.0651      2.0604     -0.1007     35.7305    132.5644     12.7101
   820.9000      8.0651      1.9667     -0.0949     41.4134    126.9821     13.4661
