~Version Information
VERS.                      2.0: CWLS Log ASCII Standard - VERSION 2.0
WRAP.                       NO: One line per depth step
~Well Information Block
STRT.FT               410.0000: 
STOP.FT              1253.0000: 
STEP.FT                 0.1000: 
NULL.                -999.2500: 
COMP.          Petrogulf Corporation: COMPANY
WELL.           Parsons 15-23R: WELL
FLD.           Purgatorie River: FIELD
LOC.           2244' FSL & 1932' FWL: LOCATION
PROV.                 Colorado: PROVINCE
CNTY.               Las Animas: COUNTRY
SRVC.                Patterson: SERVICE COMPANY
DATE.          Mon Sep 12 10:28:25 2005: LOG DATE
UWI.                          : UNIQUE WELL ID
~Curve Information Block
DEPT.FT            0 000 00 00: Depth
DCAL.in                       : CDL Caliper
RHOB.g/cc                     : CDL Bulk Density
RHOC.g/cc                     : CDL Density Correction
DPOR.pu                       : CDL Density Porosity
GR.GAPI                       : Gamma Ray
NPOR.pu                       : Neutron Porosity
~Parameter Information Block
~A  Depth       DCAL        RHOB        RHOC        DPOR         GR         NPOR    
# ...
  1072.4000      7.9221      2.6122      0.0792      2.2916    112.5334     24.7550
  1072.5000      7.8970      2.5989      0.0883      3.0970    112.0781     24.5566
  1072.6000      7.8970      2.5835      0.0609      4.0306    115.3997     23.5668
  1072.7000      7.8970      2.5680      0.0575      4.9717    118.6899     22.2792
  1072.8000      7.8538      2.5530      0.0299      5.8816    122.1120     21.5462
  1072.9000      7.8538      2.5459     -0.0047      6.3118    126.0357     21.8854
  1073.0000      7.8628      2.5461      0.0704      6.2989    130.8255     23.1330
  1073.1000      7.8628      2.5455     -0.0037      6.3316    138.3385     24.4813
  1073.2000      7.8628      2.5475      0.0348      6.2145    147.1135     25.5027
  1073.3000      7.9119      2.5580      0.0453      5.5752    153.7706     26.4095
  1073.4000      7.9119      2.5712      0.0699      4.7780    157.6905     27.1322
  1073.5000      7.9261      2.5744      0.0719      4.5845    158.2743     27.4868
  1073.6000      7.9261      2.5710      0.0649      4.7872    156.5877     27.5487
  1073.7000      7.9261      2.5677      0.1123      4.9855    157.7222     27.4344
  1073.8000      7.9139      2.5553      0.0901      5.7404    162.0173     27.3520
  1073.9000      7.9139      2.5339      0.0711      7.0374    165.4568     27.5129
  1074.0000      7.9426      2.5203      0.0571      7.8600    167.2872     27.8603
  1074.1000      7.9426      2.5227      0.0696      7.7168    168.3320     28.1215
  1074.2000      7.9426      2.5331      0.0809      7.0834    168.1691     28.2015
  1074.3000      7.9592      2.5487      0.0339      6.1388    164.7918     27.9883
  1074.4000      7.9592      2.5694      0.0950      4.8850    158.6287     27.3577
  1074.5000      7.9358      2.5822      0.1063      4.1115    151.4342     26.7206
  1074.6000      7.9358      2.5825      0.1246      4.0887    143.9061     26.3965
  1074.7000      7.9358      2.5828      0.1293      4.0739    138.0218     26.0235
  1074.8000      7.8865      2.5901      0.1399      3.6321    134.5244     25.4677
  1074.9000      7.8865      2.6009      0.1705      2.9776    130.0145     25.0571
  1075.0000      7.7994      2.6148      0.1643      2.1321    120.7177     24.7250
  1075.1000      7.7994      2.6362      0.1439      0.8377    109.4270     24.3339
  1075.2000      7.7994      2.6626      0.1288     -0.7629    102.5207     24.1154
  1075.3000      7.8012      2.6873      0.1298     -2.2617    100.7281     24.0188
  1075.4000      7.8012      2.7045      0.1522     -3.3034     99.6890     23.6737
  1075.5000      7.8218      2.7106      0.1338     -3.6707     98.2543     23.0901
  1075.6000      7.8218      2.7072      0.1064     -3.4657     98.3593     22.4741
  1075.7000      7.8218      2.6975      0.1241     -2.8794     99.6411     21.8631
  1075.8000      7.8163      2.6846      0.0545     -2.0996    101.5686     21.4785
  1075.9000      7.8163      2.6715      0.0802     -1.3047    103.4131     21.6072
  1076.0000      7.8296      2.6620      0.0502     -0.7264    104.4062     22.0726
  1076.1000      7.8296      2.6644      0.0487     -0.8705    107.4181     22.2934
  1076.2000      7.8296      2.6721      0.0695     -1.3417    112.4864     22.0395
  1076.3000      7.8392      2.6674      0.0821     -1.0524    116.1095     21.6652
  1076.4000      7.8392      2.6539      0.0378     -0.2375    117.0615     21.5229
  1076.5000      7.8739      2.6456      0.0596      0.2686    117.2511     21.6910
  1076.6000      7.8739      2.6400      0.0164      0.6087    120.5908     22.0428
  1076.7000      7.8739      2.6309      0.0776      1.1549    126.2719     22.5285
  1076.8000      7.8280      2.6168      0.0327      2.0093    129.7366     23.1238
  1076.9000      7.8280      2.6028      0.0205      2.8636    130.9719     23.6059
  1077.0000      7.8364      2.5905      0.0438      3.6076    134.1581     23.8625
  1077.1000      7.8364      2.5766      0.0160      4.4504    140.3969     24.1576
  1077.2000      7.8364      2.5650     -0.0018      5.1485    145.4365     24.6237
  1077.3000      7.9414      2.5603     -0.0043      5.4379    148.5407     24.9873
  1077.4000      7.9414      2.5571      0.0402      5.6275    154.0411     25.0817
  1077.5000      7.9431      2.5496      0.0144      6.0831    160.9543     24.9189
  1077.6000      7.9431      2.5466     -0.0039      6.2690    165.1160     24.7080
  1077.7000      7.9431      2.5571      0.0026      5.6298    166.8179     24.7403
  1077.8000      7.9390      2.5697      0.0621      4.8693    168.5199     24.8418
  1077.9000      7.9390      2.5667      0.0651      5.0491    171.1228     24.5919
  1078.0000      7.9338      2.5512      0.0664      5.9884    174.9322     24.0840
  1078.1000      7.9338      2.5438      0.0241      6.4382    179.3068     23.8465
  1078.2000      7.9338      2.5523      0.0551      5.9199    180.9427     24.2088
  1078.3000      7.9215      2.5589      0.0693      5.5188    178.8525     25.0186
  1078.4000      7.9215      2.5540      0.0534      5.8195    176.8876     25.9818
  1078.5000      7.9336      2.5519      0.0449      5.9454    178.8854     26.8193
  1078.6000      7.9336      2.5589      0.0736      5.5225    184.0172     27.3697
  1078.7000      7.9336      2.5698      0.0443      4.8577    187.7151     27.6986
  1078.8000      7.9548      2.5848      0.0787      3.9507    186.4445     27.7571
  1078.9000      7.9548      2.5914      0.1166      3.5514    180.6371     27.4949
  1079.0000      7.9710      2.5761      0.0454      4.4807    172.3504     27.0481
  1079.1000      7.9710      2.5527      0.0765      5.8983    162.5686     26.5677
  1079.2000      7.9710      2.5384      0.0357      6.7637    153.8250     26.2421
  1079.3000      8.0052      2.5365      0.0249      6.8776    150.5264     26.2900
  1079.4000      8.0052      2.5430      0.0737      6.4834    150.2017     26.7647
  1079.5000      7.9642      2.5508      0.0724      6.0144    147.6304     27.3443
  1079.6000      7.9642      2.5599      0.0145      5.4618    144.6386     27.3701
  1079.7000      7.9642      2.5718      0.0590      4.7406    143.3985     26.7619
  1079.8000      7.9503      2.5726      0.0549      4.6924    142.2754     26.1616
  1079.9000      7.9503      2.5613      0.0412      5.3755    139.4387     25.8580
  1080.0000      7.9385      2.5609      0.0052      5.3990    135.3158     25.4539
  1080.1000      7.9385      2.5849      0.0414      3.9483    131.6830     24.8199
  1080.2000      7.9385      2.6201      0.0404      1.8134    128.4248     24.3711
  1080.3000      7.9379      2.6459      0.0655      0.2476    126.0228     24.3195
  1080.4000      7.9379      2.6517      0.0609     -0.1010    126.6347     24.5916
  1080.5000      7.9074      2.6385      0.0588      0.6996    129.1125     24.9371
  1080.6000      7.9074      2.6192      0.0694      1.8669    129.2827     25.1223
  1080.7000      7.9074      2.6079      0.0807      2.5527    127.1463     25.1190
  1080.8000      7.7950      2.6069      0.0905      2.6130    126.5493     24.9903
  1080.9000      7.7950      2.6059      0.0575      2.6737    127.6490     24.6836
  1081.0000      7.8163      2.5938      0.0414      3.4061    128.7135     24.1644
  1081.1000      7.8163      2.5702      0.0568      4.8376    130.6000     23.2663
  1081.2000      7.8163      2.5457     -0.0254      6.3216    133.4809     22.0274
  1081.3000      7.8976      2.5317      0.0356      7.1688    133.6292     21.1451
  1081.4000      7.8976      2.5252      0.0149      7.5630    129.0298     21.0492
  1081.5000      7.8863      2.5213      0.0195      7.8016    123.0931     21.5695
  1081.6000      7.8863      2.5250      0.0163      7.5782    120.2426     22.4697
  1081.7000      7.8863      2.5410      0.0166      6.6073    120.5740     23.3547
  1081.8000      7.8202      2.5654      0.0825      5.1260    122.3198     23.9126
  1081.9000      7.8202      2.5876      0.1115      3.7824    123.5305     24.0077
