~Version Information
VERS.                      2.0: CWLS Log ASCII Standard - VERSION 2.0
WRAP.                       NO: One line per depth step
~Well Information Block
STRT.FT               460.0000: 
STOP.FT              1498.0000: 
STEP.FT                 0.1000: 
NULL.                -999.2500: 
COMP.          Pioneer Natural Resources: COMPANY
WELL.           Amore 32-09 Tr: WELL
FLD.           Purgatoire River: FIELD
LOC.           1941' FNL & 2297' FEL: LOCATION
PROV.                 Colorado: PROVINCE
CNTY.               Las Animas: COUNTRY
SRVC.                Patterson: SERVICE COMPANY
DATE.          Mon Nov 14 13:24:57 2005: LOG DATE
UWI.           05 071 08584 00: UNIQUE WELL ID
~Curve Information Block
DEPT.FT            0 000 00 00: Depth
DCAL.in                       : CDL Caliper
RHOB.g/cc                     : CDL Bulk Density
RHOC.g/cc                     : CDL Density Correction
DPOR.pu                       : CDL Density Porosity
GR.GAPI                       : Gamma Ray
NPOR.pu                       : Neutron Porosity
~Parameter Information Block
~A  Depth       DCAL        RHOB        RHOC        DPOR         GR         NPOR    
# ...
   738.4000      8.0125      2.5950      0.0746      3.3303     81.9418     18.6814
   738.5000      8.0160      2.5937      0.0388      3.4131     84.0942     19.2164
   738.6000      8.0160      2.5771      0.0489      4.4173     82.6251     19.8497
   738.7000      8.0160      2.5629      0.0234      5.2807     82.6817     20.5915
   738.8000      8.0182      2.5618      0.0333      5.3467     84.3117     21.0356
   738.9000      8.0182      2.5712      0.0660      4.7776     83.0218     21.1072
   739.0000      8.0186      2.5836      0.0359      4.0272     79.8971     21.1288
   739.1000      8.0186      2.6010      0.0285      2.9667     77.3273     21.2222
   739.2000      8.0186      2.6238      0.0445      1.5863     75.5132     21.4913
   739.3000      8.0119      2.6442      0.0772      0.3504     77.8071     21.7734
   739.4000      8.0119      2.6586      0.0610     -0.5183     84.7290     22.0138
   739.5000      7.9916      2.6707      0.0806     -1.2546     91.0166     22.3106
   739.6000      7.9916      2.6854      0.1270     -2.1439     94.2681     22.3900
   739.7000      7.9916      2.6967      0.1581     -2.8317     93.4309     22.3270
   739.8000      7.9644      2.6908      0.1528     -2.4702     88.4006     22.4527
   739.9000      7.9644      2.6639      0.1331     -0.8452     84.2139     22.5499
   740.0000      7.9571      2.6252      0.0779      1.5033     86.3263     22.3601
   740.1000      7.9571      2.5842      0.0638      3.9871     94.2467     21.8985
   740.2000      7.9571      2.5459      0.0618      6.3111    101.9191     21.3840
   740.3000      7.9731      2.5161      0.0246      8.1130    107.4369     21.0490
   740.4000      7.9731      2.5079     -0.0186      8.6113    115.4420     21.2470
   740.5000      7.9915      2.5291      0.0067      7.3288    126.7342     22.3141
   740.6000      7.9915      2.5675      0.0722      4.9975    135.9386     23.5752
   740.7000      7.9915      2.5992      0.1542      3.0812    139.6357     23.8691
   740.8000      7.9944      2.6177      0.1130      1.9574    139.8409     23.3672
   740.9000      7.9944      2.6330      0.1715      1.0287    139.6377     22.9844
   741.0000      7.9964      2.6435      0.1975      0.3944    138.6910     23.0464
   741.1000      7.9964      2.6480      0.1280      0.1237    136.3819     23.4155
   741.2000      7.9964      2.6523      0.1266     -0.1395    134.1976     23.9732
   741.3000      8.0099      2.6501      0.0920     -0.0067    136.0189     24.7394
   741.4000      8.0099      2.6287      0.1126      1.2928    142.3930     25.4663
   741.5000      8.0227      2.5966      0.0397      3.2372    147.8337     25.6476
   741.6000      8.0227      2.5814      0.0567      4.1548    145.8319     25.4288
   741.7000      8.0227      2.5825      0.0738      4.0909    140.1864     25.4379
   741.8000      8.0272      2.5808      0.0197      4.1917    139.8212     25.7222
   741.9000      8.0272      2.5735      0.0360      4.6364    147.9731     25.7957
   742.0000      8.0271      2.5587      0.0714      5.5324    160.2536     25.4381
   742.1000      8.0271      2.5447     -0.0222      6.3788    168.4029     24.9407
   742.2000      8.0271      2.5508      0.0591      6.0134    168.7386     25.0355
   742.3000      8.0268      2.5683      0.0685      4.9527    164.0753     25.8240
   742.4000      8.0268      2.5771      0.0256      4.4167    161.4042     26.5581
   742.5000      8.0269      2.5757      0.0574      4.5047    162.1561     26.8742
   742.6000      8.0269      2.5677      0.0609      4.9904    160.4769     27.0209
   742.7000      8.0269      2.5583      0.0473      5.5593    154.9926     27.0299
   742.8000      8.0268      2.5581      0.0329      5.5705    149.0099     26.5968
   742.9000      8.0268      2.5659      0.0772      5.0949    144.8427     25.9246
   743.0000      8.0267      2.5701      0.0518      4.8445    140.5713     25.6661
   743.1000      8.0267      2.5753      0.0389      4.5263    136.7059     25.7837
   743.2000      8.0267      2.5902      0.0752      3.6239    137.4875     25.5262
   743.3000      8.0272      2.6026      0.0880      2.8730    141.1536     25.1115
   743.4000      8.0272      2.5914      0.0967      3.5489    144.0874     25.1019
   743.5000      8.0273      2.5563      0.0684      5.6809    146.7472     25.1226
   743.6000      8.0273      2.5274      0.0265      7.4295    145.5176     24.8708
   743.7000      8.0273      2.5332      0.0459      7.0788    137.6525     24.6508
   743.8000      8.0267      2.5678      0.0453      4.9834    130.1305     24.5917
   743.9000      8.0267      2.6094      0.0742      2.4623    128.8482     24.4356
   744.0000      8.0259      2.6482      0.0986      0.1119    127.3323     24.4595
   744.1000      8.0259      2.6779      0.1334     -1.6939    119.5046     25.1724
   744.2000      8.0259      2.6876      0.1240     -2.2801    112.3374     26.2107
   744.3000      8.0250      2.6782      0.0799     -1.7061    111.0581     26.7061
   744.4000      8.0250      2.6613      0.0872     -0.6868    111.3435     26.2556
   744.5000      8.0237      2.6425      0.1063      0.4560    109.5087     25.2742
   744.6000      8.0237      2.6243      0.0786      1.5564    109.0089     24.4517
   744.7000      8.0237      2.6103      0.0423      2.4089    113.2038     24.1623
   744.8000      8.0226      2.5978      0.0549      3.1629    118.0388     24.4881
   744.9000      8.0226      2.5805      0.0369      4.2124    117.9947     25.1524
   745.0000      8.0217      2.5573      0.0126      5.6209    114.6490     25.6011
   745.1000      8.0217      2.5418     -0.0401      6.5583    112.0636     25.5268
   745.2000      8.0217      2.5514     -0.0028      5.9769    111.3321     25.2558
   745.3000      8.0209      2.5805      0.0216      4.2117    109.5150     25.2574
   745.4000      8.0209      2.6081      0.0255      2.5370    105.1911     25.3459
   745.5000      8.0200      2.6211      0.0989      1.7534    102.3363     25.2671
   745.6000      8.0200      2.6188      0.0988      1.8906    103.1347     25.1760
   745.7000      8.0200      2.6182      0.0940      1.9292    105.0287     24.8913
   745.8000      8.0193      2.6331      0.1082      1.0265    105.3401     24.4365
   745.9000      8.0193      2.6492      0.1201      0.0478    103.4071     24.3253
   746.0000      8.0158      2.6478      0.0883      0.1348    102.3017     24.5245
   746.1000      8.0158      2.6360      0.0474      0.8498    105.1545     24.6362
   746.2000      8.0158      2.6283      0.0563      1.3122    109.3289     24.4869
   746.3000      8.0069      2.6254      0.0757      1.4908    111.3449     23.8920
   746.4000      8.0069      2.6261      0.0701      1.4455    111.2341     23.2273
   746.5000      8.0020      2.6297      0.0764      1.2321    108.1551     23.0226
   746.6000      8.0020      2.6294      0.0763      1.2487    103.1821     23.1597
   746.7000      8.0020      2.6161      0.0778      2.0565    102.1347     23.2477
   746.8000      8.0107      2.5855      0.0578      3.9065    109.0359     23.1483
   746.9000      8.0107      2.5534      0.0332      5.8526    120.4005     23.1869
   747.0000      8.0219      2.5437      0.0178      6.4430    128.4237     23.4059
   747.1000      8.0219      2.5560      0.0529      5.6979    126.9881     23.3785
   747.2000      8.0219      2.5670      0.1187      5.0301    120.0158     23.1763
   747.3000      8.0265      2.5664      0.0766      5.0677    117.2954     23.2389
   747.4000      8.0265      2.5661      0.1048      5.0846    120.0464     23.5080
   747.5000      8.0274      2.5769      0.0701      4.4297    120.8473     23.7404
   747.6000      8.0274      2.5977      0.1055      3.1676    116.3562     24.0159
   747.7000      8.0274      2.6123      0.1309      2.2869    112.4294     24.6164
   747.8000      8.0282      2.6000      0.1139      3.0281    115.9709     25.3728
   747.9000      8.0282      2.5647      0.0965      5.1699    124.5771     25.6256
