~Version Information
VERS.                      2.0: CWLS Log ASCII Standard - VERSION 2.0
WRAP.                       NO: One line per depth step
~Well Information Block
STRT.FT               245.0000: 
STOP.FT              1006.0000: 
STEP.FT                 0.1000: 
NULL.                -999.2500: 
COMP.          Pioneer Natural Resources: COMPANY
WELL.              Atlas 32-18: WELL
FLD.           Purgatoire River: FIELD
LOC.           1892' FNL & 1456' FEL: LOCATION
PROV.                 Colorado: PROVINCE
CNTY.               Las Animas: COUNTRY
SRVC.                Patterson: SERVICE COMPANY
DATE.          Mon Nov 21 08:58:56 2005: LOG DATE
UWI.           05 071 08556 00: UNIQUE WELL ID
~Curve Information Block
DEPT.FT            0 000 00 00: Depth
DCAL.in                       : CDL Caliper
RHOB.g/cc                     : CDL Bulk Density
RHOC.g/cc                     : CDL Density Correction
DPOR.pu                       : CDL Density Porosity
GR.GAPI                       : Gamma Ray
NPOR.pu                       : Neutron Porosity
~Parameter Information Block
~A  Depth       DCAL        RHOB        RHOC        DPOR         GR         NPOR    
# ...
   792.2000      8.1001      2.4655      0.1085     11.1827    104.3569     28.5731
   792.3000      8.0584      2.4833      0.0481     10.1046    102.2219     29.1161
   792.4000      8.0584      2.4972      0.1002      9.2612     98.3219     29.4169
   792.5000      8.0344      2.4996      0.1081      9.1149     97.1724     29.0834
   792.6000      8.0344      2.4861      0.0807      9.9312    100.7742     28.2904
   792.7000      8.0344      2.4650      0.0529     11.2103    104.5109     28.1155
   792.8000      8.0128      2.4431      0.0236     12.5383    105.0206     28.7234
   792.9000      8.0128      2.4330      0.0034     13.1534    103.4534     29.0823
   793.0000      8.0053      2.4412      0.0250     12.6553    104.9537     28.7089
   793.1000      8.0053      2.4473      0.0555     12.2877    112.1142     28.4817
   793.2000      8.0053      2.4353      0.0261     13.0108    118.9140     29.0675
   793.3000      7.9898      2.4129      0.0737     14.3727    117.0201     29.5136
   793.4000      7.9898      2.3885     -0.0003     15.8461    105.3328     29.3223
   793.5000      7.9909      2.3646      0.0311     17.2959     94.8185     29.4523
   793.6000      7.9909      2.3400      0.0101     18.7902     93.7077     30.0766
   793.7000      7.9909      2.3221      0.0025     19.8719     95.7088     30.2686
   793.8000      8.0036      2.3171      0.0616     20.1767     94.9243     29.6032
   793.9000      8.0036      2.3172      0.0644     20.1704     92.9482     28.7701
   794.0000      8.0067      2.3153      0.0777     20.2834     89.3552     28.5083
   794.1000      8.0067      2.3124      0.0605     20.4628     82.1555     28.9871
   794.2000      8.0067      2.3191      0.0613     20.0575     73.7615     29.7041
   794.3000      8.0124      2.3462      0.1287     18.4123     68.0610     29.6457
   794.4000      8.0124      2.3912      0.1134     15.6870     67.3176     28.5734
   794.5000      8.0220      2.4401      0.1595     12.7217     69.1724     27.2534
   794.6000      8.0220      2.4807      0.1161     10.2579     69.3829     26.2097
   794.7000      8.0220      2.5100      0.0912      8.4858     67.5941     25.4904
   794.8000      7.9678      2.5192      0.1143      7.9261     66.2171     25.1634
   794.9000      7.9678      2.4947      0.0868      9.4124     63.5603     25.0765
   795.0000      7.9457      2.4406      0.0788     12.6937     56.9122     25.0094
   795.1000      7.9457      2.3822      0.0273     16.2318     48.2835     25.2244
   795.2000      7.9457      2.3378      0.0395     18.9219     43.7571     25.9225
   795.3000      7.9037      2.3064      0.0094     20.8240     48.6722     26.7743
   795.4000      7.9037      2.2903     -0.0450     21.8027     60.4391     27.2207
   795.5000      7.9028      2.2959     -0.0107     21.4598     69.6356     27.2365
   795.6000      7.9028      2.3138      0.0644     20.3734     72.3046     27.2313
   795.7000      7.9028      2.3306      0.0931     19.3568     70.6710     26.9531
   795.8000      7.9489      2.3532      0.1145     17.9899     66.6655     26.0771
   795.9000      7.9489      2.3938      0.1456     15.5263     62.3782     25.5042
   796.0000      7.9161      2.4487      0.1180     12.1972     61.2563     26.1429
   796.1000      7.9161      2.5053      0.1260      8.7703     66.1330     27.4299
   796.2000      7.9161      2.5488      0.1533      6.1315     73.8872     27.9282
   796.3000      7.8969      2.5633      0.1283      5.2541     76.3303     27.3442
   796.4000      7.8969      2.5430      0.0895      6.4851     69.7696     26.8149
   796.5000      7.9313      2.4968      0.0583      9.2821     60.8312     27.0638
   796.6000      7.9313      2.4405      0.0025     12.6978     57.7384     28.1650
   796.7000      7.9313      2.3826      0.0133     16.2059     59.9147     29.5717
   796.8000      7.9401      2.3231     -0.0369     19.8149     60.6914     29.9499
   796.9000      7.9401      2.2710     -0.0597     22.9718     58.6283     28.8924
   797.0000      7.9282      2.2337     -0.0314     25.2297     59.0607     27.4989
   797.1000      7.9282      2.2081     -0.0025     26.7848     64.1066     26.9205
   797.2000      7.9282      2.1974      0.0017     27.4326     71.7655     27.3749
   797.3000      7.9320      2.2093      0.0424     26.7092     79.5489     28.0510
   797.4000      7.9320      2.2368      0.0925     25.0407     83.3458     28.3067
   797.5000      7.9380      2.2617      0.1311     23.5317     81.6713     28.2728
   797.6000      7.9380      2.2816      0.1025     22.3263     79.9140     28.4847
   797.7000      7.9380      2.3153      0.0823     20.2844     82.0110     29.2914
   797.8000      7.9049      2.3692      0.0748     17.0184     88.9309     30.1202
   797.9000      7.9049      2.4227      0.1180     13.7737     99.7868     30.3067
   798.0000      7.9220      2.4532      0.1327     11.9258    107.1625     30.4508
   798.1000      7.9220      2.4585      0.1210     11.6033    108.9465     31.0596
   798.2000      7.9220      2.4524      0.1177     11.9750    111.2986     31.4658
   798.3000      7.9216      2.4495      0.0836     12.1506    113.5622     30.9820
   798.4000      7.9216      2.4579      0.0684     11.6408    113.3141     29.6438
   798.5000      7.9279      2.4729      0.1034     10.7313    112.8222     28.3054
   798.6000      7.9279      2.4857      0.0624      9.9586    113.3186     27.7446
   798.7000      7.9279      2.4960      0.0756      9.3314    112.6215     28.0182
   798.8000      7.9244      2.5027      0.1146      8.9301    109.2637     28.9016
   798.9000      7.9244      2.4988      0.0886      9.1647    105.0943     29.8519
   799.0000      8.0234      2.4797      0.1149     10.3229    100.6830     30.4117
   799.1000      8.0234      2.4488      0.0773     12.1943     97.6944     30.6040
   799.2000      8.0234      2.4255      0.0277     13.6042     99.1405     30.5154
   799.3000      7.9824      2.4256      0.0387     13.6021    104.6911     30.5052
   799.4000      7.9824      2.4377      0.0647     12.8694    112.6529     30.7171
   799.5000      7.9782      2.4361      0.0891     12.9655    119.1298     30.3792
   799.6000      7.9782      2.4078      0.0573     14.6802    119.2391     29.1318
   799.7000      7.9782      2.3610      0.0297     17.5141    112.7647     27.8628
   799.8000      7.9972      2.3046      0.0400     20.9363    103.9700     27.4382
   799.9000      7.9972      2.2300      0.0349     25.4567     96.3162     27.7763
   800.0000      7.9897      2.1267      0.0238     31.7152     91.5678     28.5094
   800.1000      7.9897      2.0053     -0.0318     39.0699     90.3049     29.3082
   800.2000      7.9897      1.8876     -0.0849     46.2051     89.1390     30.0859
   800.3000      7.9933      1.7760     -0.0558     52.9690     85.0143     30.9773
   800.4000      7.9933      1.6635     -0.0779     59.7857     79.8576     31.4787
   800.5000      8.0059      1.5644     -0.1293     65.7911     76.1219     31.0093
   800.6000      8.0059      1.4959     -0.0543     69.9477     73.3072     30.4453
   800.7000      8.0059      1.4512     -0.0078     72.6516     68.1048     30.7826
   800.8000      8.1074      1.4177     -0.0024     74.6851     58.9485     31.5423
   800.9000      8.1074      1.3961     -0.0250     75.9935     49.2240     32.1571
   801.0000      8.1174      1.3947      0.0054     76.0764     44.6486     32.6971
   801.1000      8.1174      1.4140      0.0271     74.9097     46.0318     32.9071
   801.2000      8.1174      1.4456      0.0597     72.9924     50.7818     32.6791
   801.3000      8.0963      1.4825      0.0631     70.7591     57.0115     32.8080
   801.4000      8.0963      1.5266      0.0182     68.0851     60.3974     33.3856
   801.5000      8.0734      1.5781      0.0382     64.9662     60.0454     33.2174
   801.6000      8.0734      1.6196      0.0867     62.4475     60.4261     32.2062
   801.7000      8.0734      1.6362      0.0983     61.4420     63.4173     31.6129
