~Version Information
VERS.                      2.0: CWLS Log ASCII Standard - VERSION 2.0
WRAP.                       NO: One line per depth step
~Well Information Block
STRT.FT               880.0000: 
STOP.FT              1996.5000: 
STEP.FT                 0.1000: 
NULL.                -999.2500: 
COMP.          Petrogulf Corporation: COMPANY
WELL.          Collister 17-31R: WELL
FLD.           Purgatorie River: FIELD
LOC.           962' FNL & 1520' FEL: LOCATION
PROV.                 Colorado: PROVINCE
CNTY.               Las Animas: COUNTRY
SRVC.                Patterson: SERVICE COMPANY
DATE.          Mon Sep 26 09:28:52 2005: LOG DATE
UWI.                          : UNIQUE WELL ID
~Curve Information Block
DEPT.FT            0 000 00 00: Depth
DCAL.in                       : CDL Caliper
RHOB.g/cc                     : CDL Bulk Density
RHOC.g/cc                     : CDL Density Correction
DPOR.pu                       : CDL Density Porosity
GR.GAPI                       : Gamma Ray
NPOR.pu                       : Neutron Porosity
~Parameter Information Block
~A  Depth       DCAL        RHOB        RHOC        DPOR         GR         NPOR    
# ...
  1763.2000      7.7972      2.6076      0.0594      2.5691     99.8539     24.4829
  1763.3000      7.7880      2.5905      0.0704      3.6059    107.5171     25.1575
  1763.4000      7.7880      2.5668      0.0445      5.0401    111.9623     25.5483
  1763.5000      7.7713      2.5586      0.0749      5.5365    112.1631     25.6084
  1763.6000      7.7713      2.5674      0.1044      5.0048    113.6158     25.7944
  1763.7000      7.7713      2.5779      0.1299      4.3718    118.7069     26.0235
  1763.8000      7.7768      2.5840      0.0884      4.0002    122.6778     25.7803
  1763.9000      7.7768      2.5925      0.0873      3.4828    124.9876     25.2437
  1764.0000      7.7893      2.6055      0.1095      2.6960    127.0555     25.0022
  1764.1000      7.7893      2.6219      0.1028      1.7012    127.1823     25.0236
  1764.2000      7.7893      2.6449      0.1369      0.3073    124.7461     25.1400
  1764.3000      7.7929      2.6616      0.1744     -0.7051    119.9590     25.3740
  1764.4000      7.7929      2.6523      0.1177     -0.1389    111.9470     25.5396
  1764.5000      7.7940      2.6244      0.0584      1.5535    102.5893     25.5343
  1764.6000      7.7940      2.5988      0.0296      3.1040     97.1057     25.4617
  1764.7000      7.7940      2.5859     -0.0029      3.8865     97.0378     25.3187
  1764.8000      7.7999      2.5849     -0.0006      3.9466     99.7029     24.9867
  1764.9000      7.7999      2.5891      0.0298      3.6928    103.6141     24.5658
  1765.0000      7.7981      2.5939      0.0267      3.4018    106.8041     24.5067
  1765.1000      7.7981      2.5958      0.0696      3.2864    105.6201     24.8016
  1765.2000      7.7981      2.5897      0.0535      3.6561    101.0968     24.9122
  1765.3000      7.7940      2.5752      0.0491      4.5345     98.6699     24.9258
  1765.4000      7.7940      2.5583      0.0017      5.5570     99.8880     25.2747
  1765.5000      7.7957      2.5521     -0.0041      5.9330    100.8361     25.6817
  1765.6000      7.7957      2.5648      0.0311      5.1659    100.3448     25.8210
  1765.7000      7.7957      2.5933      0.0625      3.4376     99.5915     25.8403
  1765.8000      7.7973      2.6285      0.0674      1.3025     97.7033     25.8162
  1765.9000      7.7973      2.6575      0.1005     -0.4561     97.0377     25.6351
  1766.0000      7.7996      2.6696      0.1220     -1.1863    100.5850     25.3062
  1766.1000      7.7996      2.6639      0.1158     -0.8417    105.3002     24.9428
  1766.2000      7.7996      2.6496      0.0941      0.0217    107.2799     24.5211
  1766.3000      7.8013      2.6338      0.1187      0.9796    107.8871     24.0791
  1766.4000      7.8013      2.6193      0.0700      1.8613    108.5331     23.8062
  1766.5000      7.8043      2.6091      0.0552      2.4804    107.6721     23.9295
  1766.6000      7.8043      2.5983      0.1054      3.1320    106.9980     24.4310
  1766.7000      7.8043      2.5827      0.0183      4.0817    109.6949     24.8947
  1766.8000      7.8031      2.5760      0.0219      4.4826    113.9804     25.0447
  1766.9000      7.8031      2.5924      0.0259      3.4928    118.0740     24.9963
  1767.0000      7.8053      2.6213      0.0732      1.7372    119.6779     24.7270
  1767.1000      7.8053      2.6394      0.0825      0.6412    116.4557     24.3357
  1767.2000      7.8053      2.6390      0.1099      0.6670    112.8620     24.3984
  1767.3000      7.8018      2.6301      0.0583      1.2044    112.2759     24.9286
  1767.4000      7.8018      2.6225      0.0685      1.6641    112.3512     25.2680
  1767.5000      7.8018      2.6181      0.0386      1.9358    110.9928     25.4042
  1767.6000      7.8018      2.6123      0.0714      2.2874    108.1207     25.5772
  1767.7000      7.8018      2.5945      0.0622      3.3658    105.2382     25.6064
  1767.8000      7.8002      2.5698     -0.0056      4.8619    102.1043     25.5948
  1767.9000      7.8002      2.5643     -0.0169      5.1916    100.1349     25.6512
  1768.0000      7.8095      2.5871      0.0330      3.8110    101.1825     25.6306
  1768.1000      7.8095      2.6163      0.0687      2.0401    103.1254     25.4993
  1768.2000      7.8095      2.6293      0.0721      1.2573    104.5706     25.3607
  1768.3000      7.8057      2.6229      0.0562      1.6408    105.5059     25.3042
  1768.4000      7.8057      2.6041      0.0804      2.7847    104.6750     25.3401
  1768.5000      7.8040      2.5865      0.0315      3.8502    102.0122     25.5212
  1768.6000      7.8040      2.5889      0.0287      3.7001    101.6656     25.7622
  1768.7000      7.8040      2.6107      0.0641      2.3833    105.4897     25.9261
  1768.8000      7.7962      2.6299      0.1160      1.2193    109.1921     25.9415
  1768.9000      7.7962      2.6333      0.0985      1.0110    109.4151     25.6889
  1769.0000      7.7914      2.6266      0.0975      1.4206    109.1248     25.2817
  1769.1000      7.7914      2.6169      0.0733      2.0047    111.1952     24.9737
  1769.2000      7.7914      2.6041      0.0958      2.7845    111.0948     24.7041
  1769.3000      7.7925      2.5831      0.0659      4.0557    104.1326     24.2700
  1769.4000      7.7925      2.5616     -0.0065      5.3596     94.3134     23.6841
  1769.5000      7.7903      2.5575     -0.0181      5.6082     87.0593     23.2820
  1769.6000      7.7903      2.5665      0.0248      5.0611     83.1035     23.2382
  1769.7000      7.7903      2.5648      0.0522      5.1650     79.7603     23.1742
  1769.8000      7.7948      2.5465      0.0136      6.2741     75.2014     22.7923
  1769.9000      7.7948      2.5298     -0.0066      7.2821     71.8107     22.2724
  1770.0000      7.7930      2.5301      0.0154      7.2684     72.8194     22.0374
  1770.1000      7.7930      2.5498     -0.0061      6.0724     76.9018     22.3149
  1770.2000      7.7930      2.5807      0.0625      4.2009     80.8411     22.7829
  1770.3000      7.7898      2.5966      0.0834      3.2360     83.0021     23.2093
  1770.4000      7.7898      2.5799      0.0396      4.2471     83.3849     23.5661
  1770.5000      7.7898      2.5475     -0.0044      6.2136     83.8890     23.6256
  1770.6000      7.7898      2.5280     -0.0038      7.3927     85.0501     23.4261
  1770.7000      7.7898      2.5300      0.0288      7.2743     86.4166     23.2001
  1770.8000      7.7850      2.5406      0.0223      6.6328     89.0916     22.8935
  1770.9000      7.7850      2.5488      0.0198      6.1320     91.6174     22.5919
  1771.0000      7.7784      2.5578     -0.0051      5.5898     91.7625     22.6194
  1771.1000      7.7784      2.5752      0.0269      4.5309     90.9053     22.7740
  1771.2000      7.7784      2.5961      0.0630      3.2692     90.9312     22.5354
  1771.3000      7.7788      2.6044      0.0766      2.7653     90.9780     22.2933
  1771.4000      7.7788      2.5994      0.0695      3.0650     89.4284     22.4729
  1771.5000      7.7818      2.5997      0.0154      3.0473     87.5758     22.7417
  1771.6000      7.7818      2.6103      0.0859      2.4072     87.7277     22.8740
  1771.7000      7.7818      2.6083      0.1087      2.5258     88.1971     22.8218
  1771.8000      7.7869      2.5899      0.0145      3.6450     86.4863     22.6327
  1771.9000      7.7869      2.5770      0.0569      4.4227     84.1554     22.5312
  1772.0000      7.7858      2.5726      0.0409      4.6927     83.4178     22.4815
  1772.1000      7.7858      2.5728      0.0115      4.6759     83.0551     22.2592
  1772.2000      7.7858      2.5806      0.0579      4.2061     81.5798     21.9841
  1772.3000      7.7861      2.5922      0.0174      3.5005     78.8935     22.0821
  1772.4000      7.7861      2.6081      0.0469      2.5398     74.4558     22.3780
  1772.5000      7.7758      2.6235      0.0753      1.6049     69.5053     22.3347
  1772.6000      7.7758      2.6255      0.0647      1.4852     67.5680     21.9320
  1772.7000      7.7758      2.6137      0.0663      2.2002     69.7230     21.6160
