~Version Information
VERS.                      2.0: CWLS Log ASCII Standard - VERSION 2.0
WRAP.                       NO: One line per depth step
~Well Information Block
STRT.FT                -6.5000: 
STOP.FT              1564.2500: 
STEP.FT                 0.2500: 
NULL.                -999.2500: 
COMP.          Pioneer Natural Resources: COMPANY
WELL.            Bluesky 44-17: WELL
FLD.           Purgatorie River: FIELD
LOC.           --39' FSL & 288' FEL------: LOCATION
STAT.                       CO: State
CNTY.               Las Animas: COUNTY
CTRY. USA : Country
SECT. 17 : Section
TOWN. 33S : Township
RANG. 66W : Range
SRVC.          Patterson Wireline: SERVICE COMPANY
DATE.          Tue Sep 13 13:24:14 2005: LOG DATE
API.           05 071 08511 00: UNIQUE WELL ID
~Curve Information Block
DEPT.FT            0 000 00 00: Depth
CCL.                          : Casing Collar Locator
TT3.usec                      : CBL 3' Travel Time
AMP3.mV                       : CBL 3' Amplitude
GR.GAPI                       : Gamma Ray
~Parameter Information Block
~A  Depth       CCL         TT3         AMP3         GR     
# ...
   395.5000      0.0000    853.0234     10.2426     50.8395
   395.7500      0.0000    893.0219     10.3088     48.7419
   396.0000      0.0000    928.3116     10.3786     47.7013
   396.2500      0.0000    947.0762     10.4480     47.3939
   396.5000      0.0000    941.7833     10.5145     47.0553
   396.7500      0.0000    914.3579     10.5763     46.2252
   397.0000      0.0000    876.5205     10.6343     44.9971
   397.2500      0.0000    842.2937     10.6863     43.8232
   397.5000      0.0000    818.7508     10.7214     43.1876
   397.7500      0.0000    804.3470     10.7251     43.2080
   398.0000      0.0000    794.6376     10.6939     43.5122
   398.2500      0.0000    787.2833     10.6412     43.7322
   398.5000      0.0000    782.2747     10.5875     43.9759
   398.7500      0.0000    780.1593     10.5481     44.5749
   399.0000      0.0000    781.3512     10.5285     45.5157
   399.2500      0.0000    786.1068     10.5283     46.3254
   399.5000      0.0000    793.6767     10.5468     46.3562
   399.7500      0.0000    801.1912     10.5850     45.1266
   400.0000      0.0000    804.7785     10.6409     42.6073
   400.2500      0.0000    803.2779     10.7018     39.3308
   400.5000      0.0000    800.8173     10.7438     36.1433
   400.7500      0.0000    804.9099     10.7456     33.7291
   401.0000      0.0000    821.3347     10.7051     32.3302
   401.2500      0.0000    849.5034     10.6435     31.8699
   401.5000      0.0000    881.3208     10.5943     32.2222
   401.7500      0.0000    904.8364     10.5869     33.2945
   402.0000      0.0000    910.8608     10.6342     34.9500
   402.2500      0.0000    898.4030     10.7275     37.0072
   402.5000      0.0000    876.2231     10.8454     39.2499
   402.7500      0.0000    859.8945     10.9686     41.2331
   403.0000      0.0000    864.6071     11.0872     42.1709
   403.2500      0.0000    896.0305     11.1958     41.4573
   403.5000      0.0000    945.0101     11.2900     39.4131
   403.7500      0.0000    991.2372     11.3717     37.3339
   404.0000      0.0000   1014.8823     11.4513     36.7329
   404.2500      0.0000   1008.3331     11.5426     38.4125
   404.5000      0.0000    979.4949     11.6571     41.8700
   404.7500      0.0000    944.3613     11.8010     45.4629
   405.0000      0.0000    915.5247     11.9729     47.4382
   405.2500      0.0000    896.7516     12.1622     47.1265
   405.5000      0.0000    886.0865     12.3512     45.2616
   405.7500      0.0000    880.4678     12.5197     43.2282
   406.0000      0.0000    876.8376     12.6500     42.0111
   406.2500      0.0000    872.1476     12.7315     41.7673
   406.5000      0.0000    864.5720     12.7632     42.2123
   406.7500      0.0000    854.1168     12.7496     43.2157
   407.0000      0.0000    841.7764     12.6947     44.8981
   407.2500      0.0000    829.0201     12.6013     47.2420
   407.5000      0.0000    817.8652     12.4761     49.7899
   407.7500      0.0000    810.0093     12.3324     51.7604
   408.0000      0.0000    805.5793     12.1854     52.4320
   408.2500      0.0000    803.2490     12.0464     51.5378
   408.5000      0.0000    801.3563     11.9218     49.4551
   408.7500      0.0000    798.7822     11.8169     46.9880
   409.0000      0.0000    795.8396     11.7380     44.7618
   409.2500      0.0000    794.7997     11.6879     42.7230
   409.5000      0.0000    798.4977     11.6603     40.3364
   409.7500      0.0000    807.5474     11.6436     37.4073
   410.0000      0.0000    819.1673     11.6324     34.5369
   410.2500      0.0000    829.2803     11.6321     32.5662
   410.5000      0.0000    835.7977     11.6441     31.7563
   410.7500      0.0000    839.5829     11.6495     31.8737
   411.0000      0.0000    842.4914     11.6195     32.9032
   411.2500      0.0000    845.2751     11.5484     35.1217
   411.5000      0.0000    847.5449     11.4686     38.2575
   411.7500      0.0000    848.9109     11.4248     41.0114
   412.0000      0.0000    849.4987     11.4398     41.9211
   412.2500      0.0000    849.6494     11.5073     40.6178
   412.5000      0.0000    849.6244     11.6072     37.9382
   412.7500      0.0000    849.6169     11.7199     34.9798
   413.0000      0.0000    849.9290     11.8292     32.4483
   413.2500      0.0000    851.0861     11.9185     30.8510
   413.5000      0.0000    853.9883     11.9696     30.8243
   413.7500      0.0000    859.6603     11.9733     32.9971
   414.0000      0.0000    868.3948     11.9426     37.6872
   414.2500      0.0000    879.1818     11.9077     44.8221
   414.5000      0.0000    891.1501     11.8920     53.9420
   414.7500      0.0000    906.2709     11.8986     64.1363
   415.0000      0.0000    929.0518     11.9233     74.2271
   415.2500      0.0000    961.0428     11.9710     83.3049
   415.5000      0.0000    994.8237     12.0466     90.9381
   415.7500      0.0000   1015.5956     12.1327     96.6647
   416.0000      0.0000   1012.3319     12.1875     99.7040
   416.2500      0.0000    989.2260     12.1719     99.6361
   416.5000      0.0000    964.2960     12.0811     97.1792
   416.7500      0.0000    952.9449     11.9477     93.9576
   417.0000      0.0000    952.5458     11.8165     91.5724
   417.2500      0.0000    946.2470     11.7185     90.8852
   417.5000      0.0000    922.7926     11.6611     91.8211
   417.7500      0.0000    888.6553     11.6374     93.4517
   418.0000      0.0000    858.7721     11.6383     94.3574
   418.2500      0.0000    838.2728     11.6569     93.4097
   418.5000      0.0000    817.4241     11.6743     90.5755
   418.7500      0.0000    784.9996     11.6372     87.0571
   419.0000      0.0000    744.3824     11.4665     84.5855
   419.2500      0.0000    714.1716     11.1127     84.2925
   419.5000      0.0000    713.2009     10.6034     85.8491
   419.7500      0.0000    746.9421     10.0191     87.6356
   420.0000      0.0000    807.3869      9.4367     87.9842
   420.2500      0.0000    879.9169      8.9149     86.2561
   420.5000      0.0000    947.4438      8.5026     82.9370
   420.7500      0.0000    994.9495      8.2275     79.3209
   421.0000      0.0000   1017.3914      8.0921     77.1169
   421.2500      0.0000   1021.2987      8.0996     77.4974
   421.5000      0.0000   1015.1368      8.2744     80.1251
   421.7500      0.0000   1000.4070      8.6569     83.3242
   422.0000      0.0000    973.9812      9.2888     85.3171
   422.2500      0.0000    935.6287     10.1871     85.3304
   422.5000      0.0000    891.6630     11.2920     83.8433
   422.7500      0.0000    853.1784     12.4225     82.2361
   423.0000      0.0000    830.9046     13.3257     82.2180
   423.2500      0.0000    828.7294     13.8174     84.9769
   423.5000      0.0000    840.3141     13.8905     90.1468
   423.7500      0.0000    853.8869     13.6943     95.5358
   424.0000      0.0000    863.6760     13.4216     98.4815
   424.2500      0.0000    876.0778     13.2065     97.9767
   424.5000      0.0000    902.4499     13.0915     95.3891
   424.7500      0.0000    946.3226     13.0549     92.8044
   425.0000      0.0000    998.7715     13.0547     90.8732
   425.2500      0.0000   1045.4996     13.0570     88.6582
   425.5000      0.0000   1077.0533     13.0356     85.3014
   425.7500      0.0000   1092.8184     12.9615     81.2104
   426.0000      0.0000   1097.8156     12.8108     77.7504
   426.2500      0.0000   1097.7638     12.5934     76.3028
   426.5000      0.0000   1096.1711     12.3624     77.5244
   426.7500      0.0000   1093.3978     12.1861     80.8840
   427.0000      0.0000   1087.1830     12.1102     84.6615
   427.2500      0.0000   1074.9263     12.1400     86.7824
   427.5000      0.0000   1056.6252     12.2466     86.0999
   427.7500      0.0000   1035.6060     12.3879     83.0014
   428.0000      0.0000   1015.4556     12.5284     78.8749
   428.2500      0.0000    996.0348     12.6461     75.1039
   428.5000      0.0000    973.9092     12.7258     72.4077
   428.7500      0.0000    947.0721     12.7573     70.8177
