~Version Information
VERS.                      2.0: CWLS Log ASCII Standard - VERSION 2.0
WRAP.                       NO: One line per depth step
~Well Information Block
STRT.FT                -5.5000: 
STOP.FT               791.0000: 
STEP.FT                 0.2500: 
NULL.                -999.2500: 
COMP.          Pioneer Natural Resources: COMPANY
WELL.           Beringer 33-18: WELL
FLD.           Purgatoire River: FIELD
LOC.           2356' FSL & 2338' FEL--: LOCATION
CNTY.               Las Animas: COUNTY
SRVC.                Patterson: SERVICE COMPANY
DATE.          Mon Apr 03 11:39:01 2006: LOG DATE
UWI.           05 071 08725 00: UNIQUE WELL ID
STAT.                 Colorado: STATE
~Curve Information Block
DEPT.FT            0 000 00 00: Depth
CCL.                          : Casing Collar Locator
TT3.usec                      : CBL 3' Travel Time
AMP3.mV                       : CBL 3' Amplitude
GR.GAPI                       : Gamma Ray
~Parameter Information Block
~A  Depth       CCL         TT3         AMP3         GR     
# ...
   497.0000     -2.0000    865.8907      3.8647    122.2908
   497.2500      0.0000    867.2191      3.8691    127.8863
   497.5000      0.0000    869.2261      3.9237    134.3763
   497.7500      0.0000    869.9269      4.0322    136.7141
   498.0000      0.0000    867.2172      4.3190    137.9862
   498.2500      0.0000    860.6654      4.5538    138.3341
   498.5000      0.0000    840.4421      4.8768    139.3930
   498.7500      0.0000    819.9678      5.0488    140.6001
   499.0000      0.0000    784.2766      5.2596    142.5390
   499.2500      0.0000    762.7493      5.3778    143.3624
   499.5000      0.0000    741.4165      5.5082    143.2047
   499.7500      0.0000    735.0306      5.5565    142.3316
   500.0000      0.0000    732.5554      5.5826    141.2967
   500.2500      0.0000    732.0248      5.5814    141.6185
   500.5000      0.0000    728.0805      5.5648    143.3986
   500.7500      0.0000    721.9296      5.5506    144.3242
   501.0000      0.0000    708.2902      5.5459    143.3408
   501.2500      0.0000    698.6360      5.5651    140.8619
   501.5000      0.0000    687.9277      5.6222    135.7305
   501.7500      0.0000    684.6332      5.6603    132.4774
   502.0000      0.0000    684.7906      5.6851    129.2719
   502.2500      0.0000    687.1737      5.6766    128.7953
   502.5000      0.0000    692.7946      5.6495    131.0605
   502.7500      0.0000    697.5060      5.6417    134.3752
   503.0000      0.0000    704.8556      5.6635    140.8625
   503.2500      0.0000    708.5638      5.6943    145.2507
   503.5000      0.0000    710.2427      5.7350    150.3575
   503.7500      0.0000    709.0345      5.7437    152.1565
   504.0000      0.0000    706.5935      5.7274    152.2263
   504.2500      0.0000    706.1563      5.7070    150.7539
   504.5000      0.0000    707.7225      5.6780    146.9491
   504.7500      0.0000    709.2728      5.6619    144.0211
   505.0000      0.0000    710.5206      5.6377    140.5103
   505.2500      0.0000    710.3353      5.6191    139.1170
   505.5000      0.0000    709.2784      5.5897    137.2480
   505.7500      0.0000    708.5092      5.5729    135.0715
   506.0000      0.0000    707.3449      5.5567    130.4639
   506.2500      0.0000    706.3831      5.5535    127.9300
   506.5000      0.0000    704.5404      5.5664    127.4431
   506.7500      0.0000    703.2008      5.5906    129.3904
   507.0000      0.0000    701.5628      5.6472    133.2814
   507.2500      0.0000    701.1117      5.6906    134.7965
   507.5000      0.0000    702.0302      5.7531    134.3735
   507.7500      0.0000    703.8435      5.7899    133.1348
   508.0000      0.0000    707.8724      5.8334    132.2569
   508.2500      0.0000    710.9816      5.8516    133.1128
   508.5000      0.0000    716.0901      5.8629    135.8892
   508.7500      0.0000    719.9403      5.8644    137.5192
   509.0000      0.0000    725.9881      5.8634    137.6021
   509.2500      0.0000    729.4467      5.8588    135.6822
   509.5000      0.0000    732.5426      5.8389    130.9444
   509.7500      0.0000    732.9164      5.8182    127.6819
   510.0000      0.0000    730.8790      5.7933    123.7962
   510.2500      0.0000    727.8931      5.7921    121.7186
   510.5000      0.0000    722.1213      5.8187    118.3399
   510.7500      0.0000    718.9281      5.8537    115.4903
   511.0000      0.0000    717.7444      5.9334    110.6139
   511.2500      0.0000    719.4462      6.0045    107.5629
   511.5000      0.0000    721.9669      6.1219    103.7295
   511.7500      0.0000    719.5461      6.1898    101.0489
   512.0000      0.0000    701.7610      6.2534     95.3262
   512.2500      0.0000    677.6979      6.2663     90.3500
   512.5000      0.0000    629.4896      6.2466     83.1387
   512.7500      0.0000    601.2362      6.2169     80.0624
   513.0000      0.0000    588.5372      6.1735     79.5246
   513.2500      0.0000    604.7382      6.1624     81.6799
   513.5000      0.0000    651.1659      6.1859     87.2525
   513.7500      0.0000    682.2161      6.2204     91.6673
   514.0000      0.0000    712.1787      6.2674     97.7517
   514.2500      0.0000    718.5001      6.2764    100.0519
   514.5000      0.0000    707.4900      6.2417     98.1792
   514.7500      0.0000    685.9926      6.1899     92.8221
   515.0000      0.0000    635.2341      6.0929     81.1172
   515.2500      0.0000    597.3125      6.0374     73.8912
   515.5000      0.0000    558.9957      6.0081     68.7131
   515.7500      0.0000    557.5711      6.0372     70.0595
   516.0000      0.0000    588.1964      6.1388     77.4799
   516.2500      0.0000    613.8126      6.2182     83.8180
   516.5000      0.0000    626.6441      6.3042     91.8316
   516.7500      0.0000    609.6349      6.3238     95.0485
   517.0000      0.0000    560.6230      6.2985     96.9921
   517.2500      0.0000    531.9598      6.2567     97.5908
   517.5000      0.0000    522.7197      6.1837    100.0222
   517.7500      0.0000    540.8312      6.1471    103.6819
   518.0000      0.0000    582.6172      6.1369    112.1244
   518.2500      0.0000    602.8243      6.1597    118.3967
   518.5000      0.0000    604.1611      6.2016    125.3535
   518.7500      0.0000    587.3381      6.2060    126.9152
   519.0000      0.0000    552.7167      6.1562    124.7452
   519.2500      0.0000    534.9575      6.0980    121.6230
   519.5000      0.0000    529.1458      6.0159    117.3125
   519.7500      0.0000    540.7253      5.9816    115.9538
   520.0000      0.0000    574.1109      5.9615    116.7001
   520.2500      0.0000    599.0063      5.9634    118.2588
   520.5000      0.0000    627.1114      5.9901    120.0815
   520.7500      0.0000    636.1578      6.0262    120.2288
   521.0000      0.0000    637.7640      6.0942    118.8845
   521.2500      0.0000    635.5373      6.1321    117.1186
   521.5000      0.0000    636.0831      6.1601    112.9904
   521.7500      0.0000    641.8456      6.1601    109.0759
   522.0000      0.0000    654.2944      6.1308    101.7307
   522.2500      0.0000    657.3809      6.0847     96.5612
   522.5000      0.0000    641.7202      5.9761     90.4310
   522.7500      0.0000    618.6771      5.8967     88.4425
   523.0000      0.0000    584.1813      5.8172     88.4001
   523.2500      0.0000    574.1180      5.8082     88.9219
   523.5000      0.0000    583.1591      5.8525     87.6287
   523.7500      0.0000    596.5976      5.8987     84.6657
   524.0000      0.0000    611.2214      5.9530     78.6652
   524.2500      0.0000    614.6988      5.9679     75.7006
   524.5000      0.0000    613.4415      5.9636     75.6375
   524.7500      0.0000    607.3923      5.9510     78.5688
   525.0000      0.0000    586.2274      5.9198     85.3764
   525.2500      0.0000    567.5255      5.8846     90.4137
   525.5000      0.0000    551.0477      5.8027     98.0093
   525.7500      0.0000    556.8330      5.7355    102.7351
   526.0000      0.0000    588.2298      5.6449    107.4355
   526.2500      0.0000    614.1303      5.6054    107.3953
   526.5000      0.0000    641.6713      5.5743    100.9464
   526.7500      0.0000    646.5936      5.5566     92.8299
   527.0000      0.0000    637.9460      5.5102     77.7263
   527.2500      0.0000    631.4534      5.4629     67.8276
   527.5000      0.0000    638.1511      5.3765     56.7511
   527.7500      0.0000    655.5834      5.3139     53.3405
   528.0000      0.0000    689.1190      5.2195     54.1993
   528.2500      0.0000    707.7409      5.1643     56.9877
   528.5000      0.0000    724.0356      5.1118     60.2745
   528.7500      0.0000    728.5722      5.1013     60.3052
   529.0000      0.0000    730.5951      5.1122     57.1483
   529.2500      0.0000    730.6545      5.1290     53.8732
   529.5000      0.0000    730.2726      5.1669     48.9221
   529.7500      0.0000    729.9790      5.2046     46.3283
   530.0000      0.0000    729.6292      5.2717     44.5232
   530.2500      0.0000    729.4475      5.2996     45.2403
