~Version Information
VERS.                      2.0: CWLS Log ASCII Standard - VERSION 2.0
WRAP.                       NO: One line per depth step
~Well Information Block
STRT.FT               196.3000: 
STOP.FT              1631.0000: 
STEP.FT                 0.1000: 
NULL.                -999.2500: 
COMP.          Petrogulf Corporation: COMPANY
WELL.             State 16-44R: WELL
FLD.           Purgatoire River: FIELD
LOC.           632' FSL & 223' FEL--: LOCATION
PROV.                 Colorado: PROVINCE
CNTY.               Las Animas: COUNTRY
SRVC.                Patterson: SERVICE COMPANY
DATE.          Fri Oct 21 14:20:18 2005: LOG DATE
UWI.           05 071 08457 00: UNIQUE WELL ID
~Curve Information Block
DEPT.FT            0 000 00 00: Depth
DCAL.in                       : CDL Caliper
RHOB.g/cc                     : CDL Bulk Density
RHOC.g/cc                     : CDL Density Correction
DPOR.pu                       : CDL Density Porosity
NPOR.pu                       : Neutron Porosity
GR.GAPI                       : Gamma Ray
~Parameter Information Block
~A  Depth       DCAL        RHOB        RHOC        DPOR        NPOR         GR     
# ...
  1223.5000      7.9493      2.4803      0.0505     10.2829     20.4314     81.8548
  1223.6000      7.9493      2.4746      0.0774     10.6290     20.6083     83.2554
  1223.7000      7.9493      2.4626      0.0538     11.3578     20.5976     85.5409
  1223.8000      7.9516      2.4495      0.0753     12.1488     20.0119     85.3610
  1223.9000      7.9516      2.4436      0.0196     12.5084     19.3390     86.0539
  1224.0000      7.9547      2.4462      0.0709     12.3514     19.2692     88.0144
  1224.1000      7.9547      2.4547      0.0612     11.8369     19.7445     85.2563
  1224.2000      7.9547      2.4713      0.0671     10.8286     20.1475     77.3692
  1224.3000      7.9533      2.4893      0.1055      9.7397     20.1763     70.6075
  1224.4000      7.9533      2.4900      0.0924      9.6942     20.0322     66.8219
  1224.5000      7.9471      2.4719      0.0640     10.7941     20.1708     65.4345
  1224.6000      7.9471      2.4524      0.0580     11.9777     20.6462     68.3929
  1224.7000      7.9471      2.4468      0.0404     12.3159     21.0789     73.6339
  1224.8000      7.9423      2.4578      0.0421     11.6473     21.2229     76.5872
  1224.9000      7.9423      2.4724      0.0902     10.7644     20.9734     77.5936
  1225.0000      7.9409      2.4767      0.0657     10.5013     20.6367     79.2096
  1225.1000      7.9409      2.4774      0.0654     10.4592     20.6524     81.1783
  1225.2000      7.9409      2.4829      0.0661     10.1276     20.7069     82.4173
  1225.3000      7.9416      2.4858      0.0566      9.9519     20.5938     83.1033
  1225.4000      7.9416      2.4829      0.0551     10.1250     20.6877     82.5548
  1225.5000      7.9452      2.4788      0.0548     10.3788     21.0517     78.4086
  1225.6000      7.9452      2.4720      0.0719     10.7893     20.9744     72.2068
  1225.7000      7.9452      2.4628      0.0264     11.3472     20.1552     68.9061
  1225.8000      7.9479      2.4562      0.0571     11.7480     19.3993     69.7548
  1225.9000      7.9479      2.4507      0.0450     12.0806     19.0686     71.3663
  1226.0000      7.9490      2.4462      0.0506     12.3519     18.8206     71.6351
  1226.1000      7.9490      2.4559      0.0152     11.7642     18.7755     71.6932
  1226.2000      7.9490      2.4816      0.0651     10.2068     18.8309     71.7745
  1226.3000      7.9507      2.5001      0.0744      9.0848     18.7088     70.8247
  1226.4000      7.9507      2.5019      0.0720      8.9747     18.8913     67.3754
  1226.5000      7.9531      2.5005      0.0673      9.0611     19.6137     59.4162
  1226.6000      7.9531      2.5022      0.0587      8.9577     20.1436     49.4364
  1226.7000      7.9531      2.4990      0.0710      9.1541     19.9601     45.0890
  1226.8000      7.9537      2.4830      0.0597     10.1228     19.2203     49.3946
  1226.9000      7.9537      2.4629      0.0109     11.3418     18.5730     57.2668
  1227.0000      7.9513      2.4545      0.0364     11.8477     18.5838     62.0331
  1227.1000      7.9513      2.4577      0.0673     11.6531     19.1225     61.4195
  1227.2000      7.9513      2.4615      0.0685     11.4244     19.5194     58.1815
  1227.3000      7.9487      2.4621      0.0530     11.3896     19.6039     56.5617
  1227.4000      7.9487      2.4622      0.0498     11.3817     20.0025     58.8625
  1227.5000      7.9488      2.4578      0.1123     11.6479     20.6814     63.8793
  1227.6000      7.9488      2.4441      0.0911     12.4778     20.8803     69.6383
  1227.7000      7.9488      2.4332      0.0522     13.1370     20.3328     73.6572
  1227.8000      7.9498      2.4374      0.0486     12.8879     19.5525     72.8190
  1227.9000      7.9498      2.4463      0.0610     12.3436     19.0684     68.7380
  1228.0000      7.9481      2.4450      0.0436     12.4219     19.1937     64.8620
  1228.1000      7.9481      2.4357      0.0759     12.9876     19.7042     62.2623
  1228.2000      7.9481      2.4330      0.0437     13.1537     20.0825     63.7112
  1228.3000      7.9457      2.4452      0.0562     12.4104     20.4197     71.3921
  1228.4000      7.9457      2.4648      0.0872     11.2247     20.8171     80.6042
  1228.5000      7.9452      2.4761      0.1035     10.5380     21.0146     82.1282
  1228.6000      7.9452      2.4718      0.0596     10.7973     21.0874     74.6443
  1228.7000      7.9452      2.4627      0.0460     11.3501     21.2944     68.2558
  1228.8000      7.9474      2.4591      0.0708     11.5680     21.7227     67.2410
  1228.9000      7.9474      2.4576      0.0474     11.6616     22.1962     66.1964
  1229.0000      7.9518      2.4582      0.0281     11.6269     22.2132     67.2729
  1229.1000      7.9518      2.4632      0.0517     11.3206     21.7429     76.2846
  1229.2000      7.9518      2.4691      0.0487     10.9637     21.4643     87.6762
  1229.3000      7.9557      2.4753      0.0593     10.5895     21.5117     93.6653
  1229.4000      7.9557      2.4820      0.0691     10.1831     21.6083     93.0795
  1229.5000      7.9570      2.4895      0.0486      9.7290     21.9004     87.9685
  1229.6000      7.9570      2.4936      0.0879      9.4775     22.1493     82.4799
  1229.7000      7.9570      2.4851      0.0718      9.9950     22.0179     78.9875
  1229.8000      7.9567      2.4703      0.0051     10.8935     21.8944     77.1953
  1229.9000      7.9567      2.4620      0.0551     11.3911     22.0856     77.6029
  1230.0000      7.9558      2.4515      0.0584     12.0312     22.4218     79.3323
  1230.1000      7.9558      2.4320      0.0058     13.2139     22.6266     81.6243
  1230.2000      7.9558      2.4234     -0.0077     13.7348     22.6533     86.8843
  1230.3000      7.9550      2.4370      0.0129     12.9080     22.3980     95.4452
  1230.4000      7.9550      2.4570      0.0243     11.6977     21.7169    101.7893
  1230.5000      7.9547      2.4695      0.0244     10.9378     20.8456    101.7821
  1230.6000      7.9547      2.4741      0.0293     10.6582     20.1592     97.7699
  1230.7000      7.9547      2.4744      0.0298     10.6406     19.7741     92.6979
  1230.8000      7.9536      2.4733      0.0544     10.7112     19.7012     88.4438
  1230.9000      7.9536      2.4684      0.0488     11.0070     19.7577     85.2901
  1231.0000      7.9505      2.4600      0.0532     11.5147     19.6894     82.6448
  1231.1000      7.9505      2.4512      0.0517     12.0514     19.5000     80.6647
  1231.2000      7.9505      2.4392      0.0529     12.7739     19.3986     78.2117
  1231.3000      7.9476      2.4291      0.0241     13.3887     19.7153     75.9097
  1231.4000      7.9476      2.4346      0.0723     13.0568     20.5577     73.6218
  1231.5000      7.9482      2.4500      0.0800     12.1220     21.2070     71.7999
  1231.6000      7.9482      2.4584      0.0743     11.6116     20.7917     70.4314
  1231.7000      7.9482      2.4534      0.0924     11.9125     19.6823     66.8236
  1231.8000      7.9508      2.4377      0.0656     12.8643     18.9106     63.1388
  1231.9000      7.9508      2.4254      0.0154     13.6117     18.9719     63.7525
  1232.0000      7.9523      2.4274      0.0734     13.4935     19.7195     66.6156
  1232.1000      7.9523      2.4361      0.0357     12.9619     20.7337     67.7769
  1232.2000      7.9523      2.4460      0.0258     12.3652     21.4325     68.3940
  1232.3000      7.9525      2.4519      0.0598     12.0037     21.4437     68.8009
  1232.4000      7.9525      2.4502      0.0438     12.1100     21.0898     68.1837
  1232.5000      7.9519      2.4537      0.0354     11.8987     20.9184     69.0399
  1232.6000      7.9519      2.4690      0.0631     10.9704     20.9752     74.0089
  1232.7000      7.9519      2.4808      0.0762     10.2544     21.1529     81.8223
  1232.8000      7.9520      2.4801      0.0758     10.2988     21.4916     88.9477
  1232.9000      7.9520      2.4758      0.0836     10.5585     22.0557     93.2090
  1233.0000      7.9526      2.4776      0.0323     10.4486     22.4828     95.9744
