~Version Information
VERS.                      2.0: CWLS Log ASCII Standard - VERSION 2.0
WRAP.                       NO: One line per depth step
~Well Information Block
STRT.FT                -9.5000: 
STOP.FT              1304.7500: 
STEP.FT                 0.2500: 
NULL.                -999.2500: 
COMP.          Pioneer Natural Resources: COMPANY
WELL.            Hamburg 43-35: WELL
FLD.           Purgatorie River: FIELD
LOC.           2444' FSL & 950' FEL--: LOCATION
PROV.                       CO: PROVINCE
CNTY.               Las Animas: COUNTRY
SRVC.          Patterson Wireline: SERVICE COMPANY
DATE.          Thu Dec 08 14:29:45 2005: LOG DATE
UWI.           08 071 08607 00: UNIQUE WELL ID
~Curve Information Block
DEPT.FT            0 000 00 00: Depth
CCL.                          : Casing Collar Locator
TT3.usec                      : CBL 3' Travel Time
AMP3.mV                       : CBL 3' Amplitude
GR.GAPI                       : Gamma Ray
~Parameter Information Block
~A  Depth       CCL         TT3         AMP3         GR     
# ...
   593.5000      0.0000    724.2457     10.8627    154.2367
   593.7500      0.0000    728.3493     10.8941    150.7402
   594.0000      0.0000    732.2503     10.8349    148.7614
   594.2500      0.0000    734.6857     10.6978    149.3037
   594.5000      0.0000    736.4198     10.5416    153.7081
   594.7500      0.0000    738.6859     10.4174    162.7142
   595.0000      0.0000    741.6530     10.3234    174.9044
   595.2500      0.0000    744.6382     10.2076    186.7521
   595.5000      0.0000    747.2365     10.0147    194.5546
   595.7500      0.0000    749.7192      9.7393    196.1049
   596.0000      0.0000    752.3707      9.4389    190.9522
   596.2500      0.0000    754.7090      9.1898    180.1727
   596.5000      0.0000    755.6564      9.0261    166.1615
   596.7500      0.0000    754.6481      8.9303    151.8032
   597.0000      0.0000    752.3368      8.8837    139.1448
   597.2500      0.0000    749.9683      8.9122    128.9210
   597.5000      0.0000    748.2663      9.0697    121.4163
   597.7500      0.0000    747.0945      9.3853    117.2014
   598.0000      0.0000    745.6051      9.8339    116.5890
   598.2500      0.0000    741.8089     10.3574    118.8432
   598.5000      0.0000    731.2993     10.9048    122.6260
   598.7500      0.0000    706.8174     11.4558    127.0843
   599.0000      0.0000    661.8275     12.0156    131.8785
   599.2500      0.0000    598.0867     12.5812    136.2717
   599.5000      0.0000    530.5662     13.1024    139.1299
   599.7500      0.0000    481.6450     13.4891    140.1540
   600.0000      0.0000    467.2531     13.6725    140.3308
   600.2500      0.0000    487.8401     13.6567    140.7095
   600.5000      0.0000    531.9617     13.5070    141.2407
   600.7500      0.0000    586.0483     13.3000    141.2298
   601.0000      0.0000    639.5308     13.0920    140.5229
   601.2500      0.0000    684.4313     12.9180    139.8357
   601.5000      0.0000    715.6943     12.8003    139.8709
   601.7500      0.0000    732.9808     12.7476    140.2331
   602.0000      0.0000    739.7596     12.7488    139.4389
   602.2500      0.0000    739.9827     12.7720    136.0431
   602.5000      0.0000    736.1766     12.7794    129.7890
   602.7500      0.0000    730.1935     12.7510    122.0970
   603.0000      0.0000    724.4270     12.6856    115.5338
   603.2500      0.0000    721.3185     12.5723    112.1791
   603.5000      0.0000    721.8181     12.3842    112.1079
   603.7500      0.0000    725.1615     12.1290    113.7618
   604.0000      0.0000    730.9858     11.8787    115.8743
   604.2500      0.0000    740.8079     11.6932    118.4673
   604.5000      0.0000    755.7770     11.5415    121.8606
   604.7500      0.0000    772.8696     11.3619    125.5411
   605.0000      0.0000    785.6525     11.1672    128.4490
   605.2500      0.0000    790.4072     11.0245    129.8589
   605.5000      2.0000    790.1326     10.9687    129.5631
   605.7500      0.0000    790.4924     10.9971    127.5541
   606.0000      0.0000    792.6090     11.1084    123.9689
   606.2500      0.0000    791.0056     11.3088    119.2353
   606.5000      0.0000    777.9116     11.5968    113.9674
   606.7500      0.0000    750.1373     11.9524    108.7917
   607.0000      0.0000    714.4348     12.3157    104.6348
   607.2500      0.0000    685.3793     12.5967    102.9305
   607.5000      0.0000    674.3738     12.7557    104.6438
   607.7500      0.0000    680.8856     12.8422    108.9285
   608.0000      0.0000    695.9473     12.9120    113.4953
   608.2500      0.0000    711.4523     12.9592    116.5000
   608.5000      0.0000    723.9543     12.9695    117.7839
   608.7500      0.0000    732.7736     12.9774    118.5897
   609.0000      0.0000    738.1391     13.0260    120.5885
   609.2500      0.0000    740.8327     13.1071    124.9346
   609.5000      0.0000    741.9396     13.1728    131.4496
   609.7500      0.0000    742.3235     13.1896    138.1479
   610.0000      0.0000    742.4420     13.1624    141.9567
   610.2500      0.0000    742.4494     13.1200    141.0528
   610.5000      0.0000    742.4067     13.0867    136.7606
   610.7500      0.0000    742.3641     13.0627    132.2232
   611.0000      0.0000    742.3627     13.0224    129.1099
   611.2500      0.0000    742.4094     12.9372    126.6112
   611.5000      0.0000    742.4705     12.8049    123.4193
   611.7500      0.0000    742.4947     12.6550    119.3376
   612.0000      0.0000    742.4536     12.5240    114.8411
   612.2500      0.0000    742.3643     12.4291    110.1293
   612.5000      0.0000    742.2795     12.3616    105.3214
   612.7500      0.0000    742.2484     12.3029    101.3171
   613.0000      0.0000    742.2756     12.2419     99.6540
   613.2500      0.0000    742.3162     12.1806    100.9871
   613.5000      0.0000    742.3180     12.1269    104.2531
   613.7500      0.0000    742.2727     12.0847    107.9156
   614.0000      0.0000    742.2185     12.0491    111.5856
   614.2500      0.0000    742.2005     12.0085    115.8293
   614.5000      0.0000    742.2382     11.9518    120.6622
   614.7500      0.0000    742.3266     11.8774    124.7307
   615.0000      0.0000    742.4464     11.7945    126.1214
   615.2500      0.0000    742.5597     11.7182    123.9540
   615.5000      0.0000    742.6080     11.6591    119.0698
   615.7500      0.0000    742.5488     11.6161    113.3494
   616.0000      0.0000    742.4030     11.5775    108.8122
   616.2500      0.0000    742.2465     11.5284    107.1168
   616.5000      0.0000    742.1168     11.4593    108.9601
   616.7500      0.0000    741.9004     11.3705    113.5017
   617.0000      0.0000    741.2787     11.2704    118.6720
   617.2500      0.0000    739.8372     11.1738    122.3096
   617.5000      0.0000    737.4401     11.0968    123.2335
   617.7500      0.0000    734.5898     11.0422    121.4441
   618.0000      0.0000    732.2132     10.9882    117.4713
   618.2500      0.0000    730.9822     10.9068    111.8794
   618.5000      0.0000    731.0779     10.7966    105.6042
   618.7500      0.0000    732.5091     10.6908    100.0933
   619.0000      0.0000    735.0930     10.6272     96.3619
   619.2500      0.0000    738.0890     10.6194     94.2175
   619.5000      0.0000    740.3553     10.6561     93.0470
   619.7500      0.0000    740.9271     10.7184     93.1088
   620.0000      0.0000    739.2914     10.7924     95.3594
   620.2500      0.0000    735.5161     10.8727    100.1454
   620.5000      0.0000    730.5969     10.9595    106.6647
   620.7500      0.0000    726.2834     11.0518    113.5907
   621.0000      0.0000    723.6930     11.1399    119.6993
   621.2500      0.0000    722.0857     11.2082    124.1417
   621.5000      0.0000    719.7904     11.2484    126.7100
   621.7500      0.0000    716.5175     11.2681    127.7065
   622.0000      0.0000    714.1591     11.2849    127.2429
   622.2500      0.0000    715.0906     11.3106    124.9669
   622.5000      0.0000    719.9741     11.3451    120.6685
   622.7500      0.0000    727.2049     11.3855    114.7665
   623.0000      0.0000    734.2078     11.4341    108.0722
   623.2500      0.0000    739.1968     11.4949    101.2481
   623.5000      0.0000    741.9113     11.5651     94.6973
   623.7500      0.0000    743.0790     11.6310     89.1513
   624.0000      0.0000    743.5223     11.6727     85.8722
   624.2500      0.0000    743.7122     11.6734     85.7000
   624.5000      0.0000    743.8083     11.6303     88.2165
   624.7500      0.0000    743.8383     11.5549     92.3038
   625.0000      0.0000    743.8013     11.4620     97.1026
   625.2500      0.0000    743.6650     11.3642    102.2486
   625.5000      0.0000    743.2844     11.2765    107.6913
   625.7500      0.0000    742.2895     11.2160    113.6535
   626.0000      0.0000    740.1112     11.1901    120.6961
   626.2500      0.0000    736.4611     11.1889    129.4516
   626.5000      0.0000    732.1382     11.1933    139.7218
   626.7500      0.0000    729.1415     11.1887    149.6920
