~Version Information
VERS.                      2.0: CWLS Log ASCII Standard - VERSION 2.0
WRAP.                       NO: One line per depth step
~Well Information Block
STRT.FT               890.0000: 
STOP.FT              2097.0000: 
STEP.FT                 0.2500: 
NULL.                -999.2500: 
COMP.          Pioneer Natural Resources: COMPANY
WELL.          Greenwood 43-29 Tr: WELL
FLD.           Purgatoire River: FIELD
LOC.           1478' FSL & 744' FEL: LOCATION
STAT.                 Colorado: State
CNTY.               Las Animas: COUNTY
CTRY. USA : Country
SECT. 29 : Section
TOWN. 32S : Township
RANG. 67W : Range
SRVC.                Patterson: SERVICE COMPANY
DATE.          Wed Aug 31 08:07:28 2005: LOG DATE
API.           05 071 08478 00: UNIQUE WELL ID
~Curve Information Block
DEPT.FT            0 000 00 00: Depth
SN.Ohm-m                      : IEL Short Normal
SP.mV                         : IEL Spontaneous Potential
DIR.Ohm-m                     : IEL Induction Resistivity
GR.GAPI                       : Gamma Ray
~Parameter Information Block
~A  Depth        SN          SP         DIR          GR     
# ...
  1761.0000      7.8589   -201.5072      5.8498    128.1875
  1761.2500      7.9626   -201.7747      5.8610    126.8037
  1761.5000      7.9604   -201.9632      5.8772    126.8652
  1761.7500      7.9500   -202.0913      5.8991    128.1329
  1762.0000      7.9635   -202.1767      5.9244    130.6882
  1762.2500      7.9645   -202.2164      5.9492    132.0175
  1762.5000      7.8914   -202.1915      5.9689    132.4740
  1762.7500      7.7268   -202.0988      5.9797    131.5956
  1763.0000      7.5243   -201.9744      5.9791    128.9379
  1763.2500      7.3531   -201.8811      5.9659    126.8907
  1763.5000      7.2534   -201.8739      5.9409    124.8327
  1763.7500      7.2497   -201.9769      5.9074    124.7686
  1764.0000      7.3189   -202.1815      5.8717    126.5066
  1764.2500      7.3776   -202.4537      5.8442    128.1590
  1764.5000      7.3973   -202.7426      5.8384    130.2636
  1764.7500      7.4732   -202.9935      5.8683    131.3358
  1765.0000      7.7393   -203.1645      5.9440    132.6818
  1765.2500      8.2242   -203.2373      6.0692    133.2132
  1765.5000      8.7399   -203.2129      6.2386    132.8507
  1765.7500      9.0041   -203.0947      6.4392    131.8775
  1766.0000      8.9719   -202.8761      6.6521    129.9532
  1766.2500      8.8740   -202.5441      6.8569    128.3341
  1766.5000      8.8745   -202.0946      7.0364    124.1115
  1766.7500      8.9515   -201.5466      7.1798    119.3367
  1767.0000      9.0664   -200.9458      7.2830    109.7590
  1767.2500      9.2329   -200.3511      7.3484    103.2935
  1767.5000      9.4981   -199.8127      7.3838     96.5737
  1767.7500      9.9070   -199.3566      7.4018     95.0463
  1768.0000     10.4077   -198.9858      7.4169     96.5654
  1768.2500     10.7990   -198.6923      7.4412     98.9199
  1768.5000     10.8800   -198.4688      7.4791    102.7936
  1768.7500     10.6694   -198.3143      7.5255    105.4245
  1769.0000     10.3564   -198.2337      7.5684    109.8904
  1769.2500     10.0901   -198.2335      7.5943    113.2136
  1769.5000      9.8912   -198.3172      7.5927    117.8853
  1769.7500      9.7202   -198.4825      7.5578    120.1884
  1770.0000      9.5672   -198.7173      7.4867    121.9306
  1770.2500      9.4193   -198.9961      7.3800    122.0602
  1770.5000      9.2350   -199.2809      7.2443    121.2730
  1770.7500      9.0224   -199.5305      7.0946    120.4601
  1771.0000      8.8246   -199.7106      6.9525    119.4408
  1771.2500      8.6496   -199.7981      6.8394    119.2714
  1771.5000      8.5351   -199.7822      6.7696    120.1329
  1771.7500      8.5851   -199.6721      6.7474    121.2828
  1772.0000      8.8264   -199.5038      6.7684    123.1206
  1772.2500      9.1328   -199.3340      6.8226    124.1215
  1772.5000      9.3543   -199.2185      6.8983    125.4498
  1772.7500      9.4606   -199.1914      6.9821    126.4566
  1773.0000      9.5124   -199.2576      7.0591    128.0087
  1773.2500      9.5153   -199.3998      7.1128    128.6616
  1773.5000      9.4254   -199.5893      7.1286    128.5025
  1773.7500      9.2799   -199.7917      7.0981    127.6231
  1774.0000      9.1668   -199.9715      7.0218    125.6856
  1774.2500      9.0954   -200.0990      6.9077    124.5745
  1774.5000      8.9740   -200.1577      6.7683    124.3286
  1774.7500      8.7152   -200.1445      6.6173    125.4866
  1775.0000      8.3732   -200.0646      6.4688    128.9847
  1775.2500      8.1054   -199.9263      6.3370    132.0204
  1775.5000      7.9577   -199.7399      6.2348    136.6600
  1775.7500      7.8598   -199.5169      6.1717    139.1540
  1776.0000      7.7932   -199.2704      6.1521    140.6575
  1776.2500      7.7700   -199.0152      6.1753    139.5685
  1776.5000      7.7562   -198.7679      6.2372    134.9938
  1776.7500      7.7372   -198.5434      6.3334    130.8666
  1777.0000      7.7507   -198.3508      6.4617    124.9063
  1777.2500      7.8261   -198.1962      6.6235    121.8423
  1777.5000      7.9838   -198.0926      6.8232    119.3522
  1777.7500      8.2930   -198.0617      7.0672    119.3234
  1778.0000      8.8243   -198.1205      7.3614    121.3120
  1778.2500      9.5495   -198.2695      7.7104    123.0290
  1778.5000     10.3734   -198.4941      8.1173    123.8961
  1778.7500     11.2667   -198.7718      8.5828    122.2984
  1779.0000     12.3219   -199.0709      9.1046    115.9592
  1779.2500     13.6398   -199.3484      9.6766    109.2184
  1779.5000     15.2317   -199.5565     10.2907     96.2943
  1779.7500     17.0917   -199.6589     10.9369     86.9021
  1780.0000     19.2814   -199.6443     11.6013     74.1007
  1780.2500     21.8408   -199.5256     12.2622     67.6065
  1780.5000     24.5443   -199.3305     12.8888     61.7552
  1780.7500     26.7903   -199.0905     13.4420     60.4369
  1781.0000     27.9101   -198.8363     13.8754     62.3559
  1781.2500     27.6653   -198.5944     14.1379     66.4173
  1781.5000     26.3745   -198.3853     14.1851     76.7171
  1781.7500     24.5643   -198.2249     14.0003     85.8568
  1782.0000     22.6287   -198.1242     13.6088    100.8314
  1782.2500     20.8025   -198.0866     13.0681    109.7735
  1782.5000     19.2172   -198.1056     12.4414    118.1526
  1782.7500     17.8101   -198.1684     11.7773    119.1218
  1783.0000     16.3055   -198.2651     11.1083    114.3460
  1783.2500     14.5064   -198.3940     10.4602    109.0525
  1783.5000     12.5835   -198.5592      9.8581    102.3330
  1783.7500     10.9357   -198.7644      9.3245    100.4616
  1784.0000      9.8094   -199.0060      8.8738    102.1383
  1784.2500      9.1496   -199.2695      8.5101    105.3301
  1784.5000      8.7674   -199.5335      8.2288    110.9238
  1784.7500      8.5514   -199.7786      8.0181    114.2188
  1785.0000      8.4876   -199.9964      7.8606    118.2735
  1785.2500      8.5454   -200.1909      7.7362    120.8428
  1785.5000      8.6298   -200.3741      7.6258    124.8755
  1785.7500      8.6559   -200.5575      7.5161    127.1065
  1786.0000      8.6379   -200.7442      7.4017    128.0754
  1786.2500      8.6431   -200.9263      7.2854    126.6388
  1786.5000      8.6811   -201.0890      7.1753    121.9711
  1786.7500      8.6975   -201.2177      7.0815    117.9691
  1787.0000      8.6478   -201.3034      7.0139    112.0320
  1787.2500      8.5687   -201.3444      6.9795    108.9847
  1787.5000      8.5527   -201.3448      6.9814    107.1971
  1787.7500      8.6142   -201.3113      7.0169    108.2560
  1788.0000      8.6392   -201.2482      7.0772    112.5984
  1788.2500      8.5415   -201.1538      7.1487    116.2591
  1788.5000      8.3743   -201.0216      7.2170    120.6512
  1788.7500      8.2341   -200.8498      7.2700    122.0474
  1789.0000      8.1783   -200.6495      7.2999    122.4627
  1789.2500      8.2080   -200.4448      7.3029    122.8759
  1789.5000      8.2665   -200.2620      7.2787    125.3035
  1789.7500      8.3077   -200.1171      7.2309    127.8826
  1790.0000      8.3083   -200.0133      7.1674    131.4077
  1790.2500      8.2214   -199.9493      7.0998    132.6833
  1790.5000      8.0178   -199.9281      7.0406    132.7000
  1790.7500      7.7572   -199.9570      6.9993    131.7114
  1791.0000      7.5840   -200.0363      6.9797    129.3968
  1791.2500      7.6245   -200.1513      6.9796    127.7591
  1791.5000      7.8427   -200.2744      6.9934    125.9969
  1791.7500      8.0386   -200.3747      7.0150    125.5920
  1792.0000      8.0518   -200.4288      7.0406    125.9562
  1792.2500      7.9377   -200.4301      7.0678    126.4473
  1792.5000      7.8519   -200.3860      7.0942    127.0635
  1792.7500      7.8422   -200.2997      7.1163    127.2712
  1793.0000      7.8713   -200.1590      7.1303    126.7721
  1793.2500      7.9240   -199.9451      7.1346    125.4954
  1793.5000      8.0133   -199.6535      7.1312    122.3982
  1793.7500      8.1493   -199.3051      7.1256    120.4265
  1794.0000      8.3203   -198.9403      7.1248    119.1232
  1794.2500      8.4551   -198.6020      7.1337    119.4469
