~Version Information
VERS.                      2.0: CWLS Log ASCII Standard - VERSION 2.0
WRAP.                       NO: One line per depth step
~Well Information Block
STRT.FT               830.0000: 
STOP.FT              2368.5000: 
STEP.FT                 0.1000: 
NULL.                -999.2500: 
COMP.          Pioneer Natural Resources: COMPANY
WELL.              Rolls 14-14: WELL
FLD.           Purgatoire River: FIELD
LOC.           572' FSL & 856' FWL: LOCATION
PROV.                 Colorado: PROVINCE
CNTY.               Las Animas: COUNTRY
SRVC.                Patterson: SERVICE COMPANY
DATE.          Mon Aug 01 05:48:31 2005: LOG DATE
UWI.           05 071 08455 00: UNIQUE WELL ID
~Curve Information Block
DEPT.FT            0 000 00 00: Depth
DCAL.in                       : CDL Caliper
RHOB.g/cc                     : CDL Bulk Density
RHOC.g/cc                     : CDL Density Correction
DPOR.pu                       : CDL Density Porosity
GR.GAPI                       : Gamma Ray
NPOR.pu                       : Neutron Porosity
~Parameter Information Block
~A  Depth       DCAL        RHOB        RHOC        DPOR         GR         NPOR    
# ...
  2250.8000      7.9249      2.4053     -0.0045     14.8288     54.2309     18.7739
  2250.9000      7.9249      2.4297      0.0058     13.3542     51.6412     19.3107
  2251.0000      7.9291      2.4563      0.0903     11.7414     54.6645     18.7362
  2251.1000      7.9291      2.4576      0.0451     11.6618     59.0015     17.7265
  2251.2000      7.9291      2.4414      0.0418     12.6409     59.8843     17.0726
  2251.3000      7.9263      2.4278      0.0368     13.4642     57.9244     16.9043
  2251.4000      7.9263      2.4224      0.0614     13.7968     57.9396     17.0517
  2251.5000      7.9289      2.4208      0.0472     13.8919     62.4927     17.1988
  2251.6000      7.9289      2.4207      0.0218     13.8949     66.5461     16.7504
  2251.7000      7.9289      2.4210      0.0472     13.8788     64.3515     16.1806
  2251.8000      7.9180      2.4169      0.0637     14.1276     59.1869     16.3750
  2251.9000      7.9180      2.4140      0.0608     14.3036     58.4333     16.8788
  2252.0000      7.9187      2.4229      0.0723     13.7623     65.5305     17.0860
  2252.1000      7.9187      2.4408      0.0405     12.6798     75.8136     17.0667
  2252.2000      7.9187      2.4522      0.0908     11.9879     81.1694     16.4636
  2252.3000      7.9247      2.4364      0.0960     12.9478     82.2373     15.2806
  2252.4000      7.9247      2.3982      0.0273     15.2628     85.4221     14.6629
  2252.5000      7.9244      2.3689      0.0136     17.0376     90.0347     14.9412
  2252.6000      7.9244      2.3584      0.0094     17.6714     90.9994     15.3230
  2252.7000      7.9244      2.3571      0.0215     17.7527     88.5959     15.6825
  2252.8000      7.9288      2.3582      0.0500     17.6835     84.2104     16.4189
  2252.9000      7.9288      2.3594      0.0002     17.6107     79.5589     17.1985
  2253.0000      7.9236      2.3648      0.0603     17.2819     80.8883     17.1814
  2253.1000      7.9236      2.3729     -0.0068     16.7910     89.1485     16.5296
  2253.2000      7.9236      2.3717      0.0444     16.8638     95.8883     16.5069
  2253.3000      7.9298      2.3600     -0.0104     17.5763     94.7533     17.6202
  2253.4000      7.9298      2.3654     -0.0282     17.2476     88.0391     18.8436
  2253.5000      7.9242      2.3998      0.0528     15.1621     81.4624     19.0892
  2253.6000      7.9242      2.4321      0.0924     13.2044     76.5225     18.7983
  2253.7000      7.9242      2.4538      0.0415     11.8909     73.9344     18.6144
  2253.8000      7.9175      2.4877      0.1100      9.8351     76.3639     18.4313
  2253.9000      7.9175      2.5247      0.1468      7.5937     80.6006     18.2401
  2254.0000      7.9065      2.5433      0.1070      6.4641     83.1519     18.2521
  2254.1000      7.9065      2.5538      0.1074      5.8309     84.7013     18.6595
  2254.2000      7.9065      2.5704      0.1224      4.8228     84.7488     19.0830
  2254.3000      7.8926      2.5867      0.1372      3.8358     82.6262     18.9446
  2254.4000      7.8926      2.5912      0.1305      3.5667     81.2383     18.5791
  2254.5000      7.9000      2.5794      0.1183      4.2795     85.3243     18.5159
  2254.6000      7.9000      2.5479      0.1137      6.1871     93.0906     18.5854
  2254.7000      7.9000      2.4958      0.0866      9.3445     98.8218     18.4177
  2254.8000      7.9071      2.4434      0.0011     12.5206    102.1235     17.9439
  2254.9000      7.9071      2.4195     -0.0293     13.9669    103.4782     17.6413
  2255.0000      7.9520      2.4277     -0.0013     13.4747     99.5118     17.7822
  2255.1000      7.9520      2.4531     -0.0474     11.9312     89.2190     17.6634
  2255.2000      7.9520      2.4752      0.0355     10.5954     78.7080     17.0734
  2255.3000      7.9430      2.4702      0.0552     10.8954     78.1625     17.0136
  2255.4000      7.9430      2.4470      0.0085     12.3006     88.1902     17.8713
  2255.5000      7.9361      2.4384      0.0078     12.8229     95.6574     19.1431
  2255.6000      7.9361      2.4446      0.0730     12.4491     93.2049     20.3402
  2255.7000      7.9361      2.4404      0.0100     12.7055     87.5323     20.7317
  2255.8000      7.9171      2.4261      0.0235     13.5713     85.6213     19.9663
  2255.9000      7.9171      2.4169      0.0444     14.1290     85.8762     18.6958
  2256.0000      7.9127      2.4213     -0.0087     13.8588     86.2173     17.2779
  2256.1000      7.9127      2.4343      0.1068     13.0733     88.8103     16.2552
  2256.2000      7.9127      2.4352      0.0557     13.0166     90.5665     16.4059
  2256.3000      7.9231      2.4318     -0.0248     13.2234     89.0186     17.2442
  2256.4000      7.9231      2.4438      0.0514     12.4986     88.3274     17.4629
  2256.5000      7.9276      2.4577      0.0939     11.6528     87.7681     17.2376
  2256.6000      7.9276      2.4639      0.0648     11.2766     83.2018     17.3851
  2256.7000      7.9276      2.4686      0.0891     10.9943     77.8852     17.5763
  2256.8000      7.8915      2.4729      0.0487     10.7326     74.9851     17.5781
  2256.9000      7.8915      2.4810      0.0379     10.2418     72.1049     17.8453
  2257.0000      7.8796      2.4939      0.0754      9.4598     69.5336     18.4502
  2257.1000      7.8796      2.5078      0.0639      8.6195     71.1375     19.0374
  2257.2000      7.8796      2.5209      0.0679      7.8226     75.7621     19.1525
  2257.3000      7.9096      2.5276      0.1138      7.4178     80.2295     18.5518
  2257.4000      7.9096      2.5205      0.1174      7.8490     82.9286     17.4746
  2257.5000      7.9218      2.5032      0.0385      8.8987     81.6491     16.6431
  2257.6000      7.9218      2.4866      0.0804      9.9019     78.9079     16.7174
  2257.7000      7.9218      2.4736      0.0666     10.6910     78.8778     17.2262
  2257.8000      7.9244      2.4590      0.0302     11.5774     80.4196     17.3359
  2257.9000      7.9244      2.4432      0.0140     12.5315     83.1645     17.2857
  2258.0000      7.9293      2.4325      0.0490     13.1831     86.2346     17.4227
  2258.1000      7.9293      2.4231      0.0270     13.7495     82.7479     17.4380
  2258.2000      7.9293      2.4104      0.0401     14.5184     73.0601     17.3175
  2258.3000      7.9348      2.3975      0.0411     15.3054     69.0376     17.3266
  2258.4000      7.9348      2.3877      0.0427     15.8953     74.6340     17.2572
  2258.5000      7.9165      2.3846     -0.0046     16.0866     81.2686     16.7943
  2258.6000      7.9165      2.3827      0.0191     16.1993     82.5055     16.2427
  2258.7000      7.9165      2.3721      0.0204     16.8443     79.6600     16.3518
  2258.8000      7.9355      2.3610     -0.0195     17.5152     76.4537     17.0037
  2258.9000      7.9355      2.3680     -0.0127     17.0924     75.2738     17.1332
  2259.0000      7.9575      2.3964      0.0474     15.3682     75.1558     16.1597
  2259.1000      7.9575      2.4312      0.0556     13.2588     76.3631     14.6066
  2259.2000      7.9575      2.4536      0.0496     11.9014     81.6239     13.6274
  2259.3000      7.9758      2.4582      0.0349     11.6213     86.6341     13.5827
  2259.4000      7.9758      2.4583      0.0564     11.6205     85.0384     13.8980
  2259.5000      7.9637      2.4608      0.1110     11.4645     81.4074     14.0989
  2259.6000      7.9637      2.4585      0.0711     11.6088     79.7878     14.0531
  2259.7000      7.9637      2.4560      0.0463     11.7593     76.8872     14.3080
  2259.8000      7.9519      2.4555      0.0938     11.7866     74.0816     15.2441
  2259.9000      7.9519      2.4420      0.0605     12.6038     74.1102     16.0608
  2260.0000      7.9507      2.4167      0.0379     14.1395     75.3193     16.0625
  2260.1000      7.9507      2.4042     -0.0110     14.8991     75.9920     15.4295
  2260.2000      7.9507      2.4192      0.0552     13.9901     75.7379     14.4199
  2260.3000      7.9380      2.4433      0.0752     12.5291     75.5931     13.5530
