~Version Information
VERS.                      2.0: CWLS Log ASCII Standard - VERSION 2.0
WRAP.                       NO: One line per depth step
~Well Information Block
STRT.FT               390.0000: 
STOP.FT              1434.5000: 
STEP.FT                 0.1000: 
NULL.                -999.2500: 
COMP.          Pioneer Natural Resources: COMPANY
WELL.             John K 12-28: WELL
FLD.           Purgatoire River: FIELD
LOC.           1476' FNL & 465' FWL: LOCATION
CNTY.               Las Animas: COUNTY
SRVC.                Patterson: SERVICE COMPANY
DATE.          Mon Apr 10 06:53:47 2006: LOG DATE
UWI.           05 071 08723 00: UNIQUE WELL ID
STAT.                 Colorado: STATE
~Curve Information Block
DEPT.FT            0 000 00 00: Depth
DCAL.in                       : CDL Caliper
RHOB.g/cc                     : CDL Bulk Density
RHOC.g/cc                     : CDL Density Correction
DPOR.pu                       : CDL Density Porosity
GR.GAPI                       : Gamma Ray
NPOR.pu                       : Neutron Porosity
~Parameter Information Block
~A  Depth       DCAL        RHOB        RHOC        DPOR         GR         NPOR    
# ...
   946.8000      7.8622      2.5520      0.0229      5.9411     98.3494     27.1185
   946.9000      7.8622      2.5667     -0.0145      5.0515     98.0837     26.7133
   947.0000      7.8611      2.5890      0.0479      3.6987     97.5078     26.0692
   947.1000      7.8611      2.6150      0.0506      2.1208     94.9968     25.4676
   947.2000      7.8611      2.6372      0.0334      0.7763     93.3177     25.1453
   947.3000      7.8594      2.6437      0.1064      0.3794     91.6465     24.7388
   947.4000      7.8594      2.6273      0.0641      1.3773     86.1296     24.0512
   947.5000      7.8577      2.6023      0.0469      2.8887     79.5984     23.4105
   947.6000      7.8577      2.5873     -0.0039      3.7990     76.9010     23.0144
   947.7000      7.8577      2.5847     -0.0071      3.9557     76.4840     22.7023
   947.8000      7.8586      2.5867      0.0172      3.8374     75.4694     22.5179
   947.9000      7.8586      2.5871     -0.0108      3.8107     75.2254     22.9253
   948.0000      7.8601      2.5887     -0.0115      3.7157     77.5798     23.6276
   948.1000      7.8601      2.5946     -0.0062      3.3595     80.5483     23.7252
   948.2000      7.8601      2.6019      0.0240      2.9166     82.2330     23.2071
   948.3000      7.8611      2.6044      0.0164      2.7656     83.5833     22.6680
   948.4000      7.8611      2.5935      0.0680      3.4255     85.1573     22.5604
   948.5000      7.8620      2.5699     -0.0290      4.8560     86.4652     22.9280
   948.6000      7.8620      2.5506     -0.0080      6.0248     86.7272     23.3818
   948.7000      7.8620      2.5482     -0.0112      6.1690     85.0908     23.5179
   948.8000      7.8623      2.5595      0.0145      5.4847     83.4160     23.1678
   948.9000      7.8623      2.5745      0.0502      4.5741     82.5691     22.5509
   949.0000      7.8619      2.5852      0.0392      3.9257     82.0481     22.6227
   949.1000      7.8619      2.5894      0.0449      3.6709     84.8845     23.8450
   949.2000      7.8619      2.5930      0.0273      3.4536     89.7475     25.1389
   949.3000      7.8616      2.6033      0.0236      2.8324     90.7166     25.1271
   949.4000      7.8616      2.6105      0.0846      2.3950     87.4857     24.0378
   949.5000      7.8620      2.5971      0.0372      3.2088     84.6383     23.2697
   949.6000      7.8620      2.5728     -0.0103      4.6800     84.5503     22.8827
   949.7000      7.8620      2.5600      0.0137      5.4562     86.3806     22.2905
   949.8000      7.8624      2.5574      0.0226      5.6104     89.2387     21.9581
   949.9000      7.8624      2.5556      0.0334      5.7203     92.8754     22.0299
   950.0000      7.8620      2.5523      0.0403      5.9183     95.1163     21.9978
   950.1000      7.8620      2.5425      0.0335      6.5142     95.7877     21.9101
   950.2000      7.8620      2.5300     -0.0090      7.2700     98.3789     22.3207
   950.3000      7.8619      2.5277      0.0192      7.4106    102.6905     23.3914
   950.4000      7.8619      2.5337      0.0083      7.0465    105.6691     24.7616
   950.5000      7.8619      2.5407     -0.0264      6.6246    105.7231     26.1066
   950.6000      7.8619      2.5429      0.0290      6.4882    102.5238     27.2285
   950.7000      7.8619      2.5360      0.0041      6.9083     99.6305     28.0197
   950.8000      7.8614      2.5324     -0.0088      7.1267    100.3385     28.1122
   950.9000      7.8614      2.5425      0.0260      6.5157    101.2567     27.3363
   951.0000      7.8600      2.5538      0.0655      5.8281     98.1227     26.3420
   951.1000      7.8600      2.5586     -0.0081      5.5406     91.5149     25.6957
   951.2000      7.8600      2.5650      0.0250      5.1494     86.7613     25.3007
   951.3000      7.8562      2.5745      0.0319      4.5735     84.3214     24.9218
   951.4000      7.8562      2.5800      0.0320      4.2398     78.8964     24.5712
   951.5000      7.8538      2.5759      0.0496      4.4909     70.5137     24.1582
   951.6000      7.8538      2.5644     -0.0106      5.1908     63.8196     23.6023
   951.7000      7.8538      2.5546      0.0158      5.7800     61.6406     23.2356
   951.8000      7.8573      2.5479      0.0169      6.1906     62.6484     23.0092
   951.9000      7.8573      2.5396      0.0327      6.6917     62.3511     22.3835
   952.0000      7.8617      2.5357     -0.0197      6.9267     58.6253     21.6371
   952.1000      7.8617      2.5438      0.0168      6.4339     54.9800     21.4651
   952.2000      7.8617      2.5534      0.0539      5.8551     55.5455     21.7937
   952.3000      7.8626      2.5567      0.0241      5.6541     58.5371     21.8520
   952.4000      7.8626      2.5612      0.0030      5.3809     59.5181     21.2039
   952.5000      7.8616      2.5660      0.0133      5.0904     57.8459     20.3237
   952.6000      7.8616      2.5644      0.0055      5.1881     54.4648     19.9583
   952.7000      7.8616      2.5530      0.0384      5.8772     51.8032     20.1926
   952.8000      7.8610      2.5324      0.0258      7.1301     52.7737     20.6852
   952.9000      7.8610      2.5132     -0.0474      8.2903     55.6211     21.0763
   953.0000      7.8609      2.5016     -0.0043      8.9917     57.0204     20.9461
   953.1000      7.8609      2.4894     -0.0317      9.7344     57.7406     20.3302
   953.2000      7.8609      2.4806     -0.0356     10.2671     58.7253     19.8347
   953.3000      7.8605      2.4866      0.0182      9.9035     59.2565     19.9696
   953.4000      7.8605      2.5037     -0.0081      8.8660     60.7767     20.3984
   953.5000      7.8599      2.5254     -0.0024      7.5531     65.2839     20.3130
   953.6000      7.8599      2.5459      0.0260      6.3101     69.0667     20.0564
   953.7000      7.8599      2.5547      0.0482      5.7756     67.6840     20.4048
   953.8000      7.8595      2.5485      0.0305      6.1524     63.8246     20.9234
   953.9000      7.8595      2.5402      0.0104      6.6543     62.1271     20.9230
   954.0000      7.8593      2.5362      0.0353      6.8982     62.6350     20.8365
   954.1000      7.8593      2.5334      0.0316      7.0690     62.8423     21.1716
   954.2000      7.8593      2.5372      0.0039      6.8382     62.6151     21.6630
   954.3000      7.8583      2.5495      0.0340      6.0908     62.2217     22.0286
   954.4000      7.8583      2.5622      0.0310      5.3222     61.0475     22.1322
   954.5000      7.8565      2.5718      0.0317      4.7404     59.9275     22.3698
   954.6000      7.8565      2.5762      0.0676      4.4718     59.8085     22.9269
   954.7000      7.8565      2.5766      0.0049      4.4507     61.5286     23.2152
   954.8000      7.8553      2.5815      0.0299      4.1491     66.2421     23.0804
   954.9000      7.8553      2.5880      0.0564      3.7601     75.2338     22.9399
   955.0000      7.8556      2.5855      0.0424      3.9100     88.8288     22.7420
   955.1000      7.8556      2.5769      0.0400      4.4313    102.5687     22.2654
   955.2000      7.8556      2.5700      0.0209      4.8480    111.6088     22.0056
   955.3000      7.8557      2.5647     -0.0024      5.1717    116.2463     22.2011
   955.4000      7.8557      2.5550      0.0157      5.7548    119.9069     22.4669
   955.5000      7.8552      2.5380      0.0261      6.7874    125.8636     22.4093
   955.6000      7.8552      2.5187     -0.0517      7.9560    133.1898     21.8745
   955.7000      7.8552      2.5022     -0.0257      8.9560    138.4190     21.3513
   955.8000      7.8570      2.4893     -0.0400      9.7379    139.7248     21.5735
   955.9000      7.8570      2.4854      0.0205      9.9758    139.5337     22.7414
   956.0000      7.8671      2.4881      0.0309      9.8147    140.4004     24.0820
   956.1000      7.8671      2.4876      0.0320      9.8395    140.1030     24.5939
   956.2000      7.8671      2.4873      0.0423      9.8593    138.7897     24.4310
   956.3000      7.8802      2.4912      0.0651      9.6239    139.4011     24.5053
