~Version Information
VERS.                      2.0: CWLS Log ASCII Standard - VERSION 2.0
WRAP.                       NO: One line per depth step
~Well Information Block
STRT.FT               460.0000: 
STOP.FT              2311.7000: 
STEP.FT                 0.1000: 
NULL.                -999.2500: 
COMP.          Pioneer Natural Resources: COMPANY
WELL.          McDonald 33-31 R: WELL
FLD.           Purgatoire River: FIELD
LOC.           1386' FSL & 1926' FEL: LOCATION
STAT.                 Colorado: State
CNTY.               Las Animas: COUNTY
CTRY.                      USA: Country
SECT.                       31: Section
TOWN.                      32S: Township
RANG.                      66W: Range
SRVC.                Patterson: SERVICE COMPANY
DATE.          Sat Sep 24 09:00:13 2005: LOG DATE
API.           05 071 08533 00: API
~Curve Information Block
DEPT.FT            0 000 00 00: Depth
DCAL.in                       : CDL Caliper
RHOB.g/cc                     : CDL Bulk Density
RHOC.g/cc                     : CDL Density Correction
DPOR.pu                       : CDL Density Porosity
NPOR.pu                       : Neutron Porosity
GR.GAPI                       : Gamma Ray
~Parameter Information Block
~A  Depth       DCAL        RHOB        RHOC        DPOR        NPOR         GR     
   460.0000      8.1501      2.2053     -0.2893     26.9503     52.3902     73.9455
   460.1000      8.1501      2.2924     -0.2306     21.6721     52.3383     73.4835
   460.2000      8.1501      2.3613     -0.1917     17.4992     52.7420     71.6352
   460.3000      8.1511      2.3860     -0.2736     16.0009     53.2731     70.4919
   460.4000      8.1511      2.3857     -0.2093     16.0198     53.7434     70.9894
   460.5000      8.1504      2.3642     -0.2085     17.3201     54.1447     73.0865
   460.6000      8.1504      2.2805     -0.1749     22.3959     54.2046     76.3654
   460.7000      8.1504      2.1186     -0.3525     32.2065     54.0543     78.0343
   460.8000      8.1488      1.9540     -0.5434     42.1827     54.3590     72.7922
   460.9000      8.1488      1.8758     -0.6150     46.9193     55.0762     63.0244
   461.0000      8.1478      1.8703     -0.4891     47.2529     55.3408     58.4805
   461.1000      8.1478      1.8579     -0.5688     48.0089     54.7075     60.6910
   461.2000      8.1478      1.8205     -0.9352     50.2700     53.2816     62.6718
   461.3000      8.1472      1.7959     -0.8350     51.7644     50.9994     61.9022
   461.4000      8.1472      1.7818     -0.7532     52.6176     47.7303     60.9612
   461.5000      8.1408      1.7546     -0.6226     54.2665     43.4981     60.3148
   461.6000      8.1408      1.7188     -0.5663     56.4355     38.6368     59.1092
   461.7000      8.1408      1.6962     -0.4240     57.8034     34.0119     56.6079
   461.8000      8.1254      1.6941     -0.1940     57.9346     30.4951     54.5231
   461.9000      8.1254      1.7006     -0.1504     57.5391     28.1809     55.5777
   462.0000      8.1091      1.7079     -0.1241     57.0966     26.5335     58.0096
   462.1000      8.1091      1.7175     -0.1378     56.5142     25.2934     59.3084
   462.2000      8.1091      1.7309     -0.1302     55.7035     24.6120     59.0105
   462.3000      8.0996      1.7431     -0.1070     54.9611     24.2371     57.4157
   462.4000      8.0996      1.7495     -0.1168     54.5784     23.6836     56.4933
   462.5000      8.0952      1.7528     -0.1332     54.3775     23.1430     57.9671
   462.6000      8.0952      1.7583     -0.1479     54.0447     23.0172     61.4657
   462.7000      8.0952      1.7641     -0.1188     53.6908     22.8111     66.0030
   462.8000      8.0946      1.7601     -0.0980     53.9356     22.2357     70.0186
   462.9000      8.0946      1.7420     -0.1297     55.0295     21.9854     70.8825
   463.0000      8.1007      1.7166     -0.1160     56.5723     22.2365     67.9851
   463.1000      8.1007      1.6903     -0.1407     58.1609     22.3730     65.0730
   463.2000      8.1007      1.6708     -0.1474     59.3430     22.3618     63.6251
   463.3000      8.1106      1.6631     -0.1462     59.8130     22.4714     59.6295
   463.4000      8.1106      1.6657     -0.1437     59.6568     22.6109     53.5860
   463.5000      8.1156      1.6727     -0.1119     59.2292     22.4773     50.3449
   463.6000      8.1156      1.6753     -0.1397     59.0707     21.7923     49.2166
   463.7000      8.1156      1.6687     -0.1250     59.4709     21.0848     46.6469
   463.8000      8.1172      1.6540     -0.1415     60.3626     21.1506     43.2063
   463.9000      8.1172      1.6358     -0.1637     61.4638     21.7190     43.2073
   464.0000      8.1203      1.6208     -0.1808     62.3766     22.1596     48.8976
   464.1000      8.1203      1.6110     -0.1707     62.9690     22.5011     56.7076
   464.2000      8.1203      1.6042     -0.1884     63.3825     23.2180     61.8345
   464.3000      8.1223      1.5994     -0.1616     63.6747     24.2454     63.9293
   464.4000      8.1223      1.5957     -0.1655     63.8992     24.9546     66.1236
   464.5000      8.1256      1.5898     -0.1676     64.2559     25.3237     71.6789
   464.6000      8.1256      1.5798     -0.1926     64.8610     26.0350     80.0616
   464.7000      8.1256      1.5694     -0.2018     65.4880     27.2678     86.5936
   464.8000      8.1384      1.5560     -0.1900     66.3044     28.2625     88.6341
   464.9000      8.1384      1.5245     -0.1836     68.2091     28.6032     87.1171
   465.0000      8.1662      1.4703     -0.2160     71.4983     28.5478     86.4491
   465.1000      8.1662      1.4038     -0.2231     75.5273     28.1100     91.9830
   465.2000      8.1662      1.3349     -0.2538     79.7033     26.6966    100.8477
   465.3000      8.1987      1.2716     -0.2739     83.5402     24.1091    108.2317
   465.4000      8.1987      1.2241     -0.2559     86.4199     20.8950    114.6073
   465.5000      8.2205      1.2060     -0.2889     87.5125     17.4883    121.5820
   465.6000      8.2205      1.2276     -0.2452     86.2057     14.2669    130.2694
   465.7000      8.2205      1.2794     -0.2040     83.0682     11.4245    137.2118
   465.8000      8.2658      1.3423     -0.1392     79.2561      8.9693    137.6221
   465.9000      8.2658      1.4180     -0.1123     74.6691      7.2410    132.2762
   466.0000      8.4392      1.5323     -0.0126     67.7374      6.4289    126.8378
   466.1000      8.4392      1.6907      0.2471     58.1371      6.2375    126.1796
   466.2000      8.4392      1.8590      0.4477     47.9372      6.4049    127.9888
   466.3000      8.8515      1.9998      0.5717     39.4070      6.9830    126.1762
   466.4000      8.8515      2.0884      0.6233     34.0362      8.0025    123.6382
   466.5000      9.4020      2.1164      0.5557     32.3399      9.1750    125.8622
   466.6000      9.4020      2.1106      0.4283     32.6939     10.1596    129.1745
   466.7000      9.4020      2.1182      0.3766     32.2313     10.9496    129.7888
   466.8000      9.7880      2.1585      0.3833     29.7888     11.8766    129.0559
   466.9000      9.7880      2.2096      0.3947     26.6884     13.1734    128.4746
   467.0000      9.9331      2.2438      0.3821     24.6198     14.4671    129.8409
   467.1000      9.9331      2.2569      0.3611     23.8268     15.3258    132.7818
   467.2000      9.9331      2.2628      0.3316     23.4681     15.8234    132.8148
   467.3000     10.0305      2.2751      0.2994     22.7190     16.7621    129.3482
   467.4000     10.0305      2.3066      0.2714     20.8106     18.6162    125.6626
   467.5000     10.1850      2.3747      0.2357     16.6868     20.6277    125.4497
   467.6000     10.1850      2.4931      0.2697      9.5070     22.0689    130.9816
   467.7000     10.1850      2.6412      0.4069      0.5347     22.8369    137.7698
   467.8000     10.3789      2.7577      0.4584     -6.5263     23.0420    140.1998
   467.9000     10.3789      2.7946      0.4722     -8.7607     23.0456    138.9086
   468.0000     10.5775      2.7586      0.3665     -6.5806     23.1287    136.4488
   468.1000     10.5775      2.6879      0.3663     -2.2948     23.3074    135.1460
   468.2000     10.5775      2.6126      0.2555      2.2690     23.5312    134.0914
   468.3000     10.7157      2.5530      0.1724      5.8789     23.5286    131.3967
   468.4000     10.7157      2.5157      0.1126      8.1368     23.1323    129.6409
   468.5000     10.7697      2.4954      0.0533      9.3692     22.8428    130.4615
   468.6000     10.7697      2.4860      0.0822      9.9410     22.9813    130.8012
   468.7000     10.7697      2.4758      0.0673     10.5557     23.4630    127.8442
   468.8000     10.7713      2.4604      0.0300     11.4927     24.0457    123.1744
   468.9000     10.7713      2.4506      0.0643     12.0857     24.1366    118.9062
   469.0000     10.7445      2.4508      0.0694     12.0710     23.5132    116.1267
   469.1000     10.7445      2.4509      0.0884     12.0677     22.5676    116.2504
   469.2000     10.7445      2.4413      0.0395     12.6483     21.7636    116.9279
   469.3000     10.7143      2.4314      0.0207     13.2499     21.4079    113.6181
   469.4000     10.7143      2.4427     -0.0035     12.5626     21.6046    108.5320
   469.5000     10.7043      2.4815      0.0506     10.2107     22.2782    104.5909
