~Version Information
VERS.                      2.0: CWLS Log ASCII Standard - VERSION 2.0
WRAP.                       NO: One line per depth step
~Well Information Block
STRT.FT               892.0000: 
STOP.FT              2094.0000: 
STEP.FT                 0.1000: 
NULL.                -999.2500: 
COMP.          Pioneer Natural Resources: COMPANY
WELL.          Greenwood 43-29 Tr: WELL
FLD.           Purgatoire River: FIELD
LOC.           1478' FSL & 744' FEL: LOCATION
STAT.                 Colorado: State
CNTY.               Las Animas: COUNTY
CTRY. USA : Country
SECT. 29 : Section
TOWN. 32S : Township
RANG. 67W : Range
SRVC.                Patterson: SERVICE COMPANY
DATE.          Wed Aug 31 10:39:20 2005: LOG DATE
API.           05 071 08478 00: UNIQUE WELL ID
~Curve Information Block
DEPT.FT            0 000 00 00: Depth
DCAL.in                       : CDL Caliper
RHOB.g/cc                     : CDL Bulk Density
RHOC.g/cc                     : CDL Density Correction
DPOR.pu                       : CDL Density Porosity
GR.GAPI                       : Gamma Ray
NPOR.pu                       : Neutron Porosity
~Parameter Information Block
~A  Depth       DCAL        RHOB        RHOC        DPOR         GR         NPOR    
# ...
  1842.4000      8.0913      1.7097      0.1702     56.9865     87.2569     33.0148
  1842.5000      8.2127      1.8216      0.1752     50.2042     97.1197     32.9687
  1842.6000      8.2127      1.9526      0.2053     42.2668    106.9851     32.8354
  1842.7000      8.2127      2.1182      0.2619     32.2296    115.4630     32.2467
  1842.8000      8.8352      2.2897      0.2514     21.8386    120.9628     31.4229
  1842.9000      8.8352      2.4303      0.2163     13.3132    123.9552     31.1256
  1843.0000      8.9080      2.5291      0.2232      7.3289    123.8664     31.1685
  1843.1000      8.9080      2.5966      0.2043      3.2336    120.4082     30.6856
  1843.2000      8.9080      2.6455      0.2188      0.2749    117.3954     29.5914
  1843.3000      8.1486      2.6669      0.2171     -1.0255    113.2057     28.6153
  1843.4000      8.1486      2.6514      0.1034     -0.0840    104.6298     28.0474
  1843.5000      8.0098      2.6189      0.1429      1.8829     97.2289     27.1486
  1843.6000      8.0098      2.5918      0.1282      3.5268     94.6198     25.3703
  1843.7000      8.0098      2.5715      0.0758      4.7572     94.1988     23.4534
  1843.8000      8.0375      2.5616      0.0571      5.3549     91.8954     22.1612
  1843.9000      8.0375      2.5714      0.0601      4.7631     86.7617     21.7226
  1844.0000      8.0367      2.5879      0.0816      3.7633     83.3776     22.3691
  1844.1000      8.0367      2.5842      0.1233      3.9898     84.9118     23.5903
  1844.2000      8.0367      2.5638      0.0547      5.2244     88.6881     24.2293
  1844.3000      7.9709      2.5582      0.0490      5.5631     89.8725     24.0834
  1844.4000      7.9709      2.5750      0.0377      4.5477     85.9674     23.7281
  1844.5000      7.9651      2.5837      0.1219      4.0152     79.3401     23.4789
  1844.6000      7.9651      2.5638      0.0778      5.2217     74.6113     22.9447
  1844.7000      7.9651      2.5387      0.0398      6.7481     72.9743     22.0177
  1844.8000      7.9747      2.5405      0.0284      6.6351     71.2095     21.3491
  1844.9000      7.9747      2.5690      0.0811      4.9073     69.1167     20.9088
  1845.0000      7.9986      2.6038      0.0814      2.7971     68.0868     20.0707
  1845.1000      7.9986      2.6301      0.1272      1.2053     66.5780     19.1418
  1845.2000      7.9986      2.6423      0.1078      0.4646     63.3200     18.7624
  1845.3000      7.9982      2.6473      0.0544      0.1637     60.9297     18.7350
  1845.4000      7.9982      2.6508      0.0863     -0.0455     60.4598     18.9809
  1845.5000      7.9927      2.6456      0.0723      0.2641     59.1467     19.8591
  1845.6000      7.9927      2.6327      0.0784      1.0457     57.1144     20.6151
  1845.7000      7.9927      2.6189      0.1154      1.8830     55.9575     20.2120
  1845.8000      7.9965      2.6063      0.0488      2.6467     54.8191     18.8918
  1845.9000      7.9965      2.6014      0.0510      2.9447     54.5589     17.6766
  1846.0000      8.0027      2.6055      0.0780      2.6969     56.5936     16.9579
  1846.1000      8.0027      2.6073      0.0275      2.5876     59.5644     16.7077
  1846.2000      8.0027      2.5930      0.0922      3.4517     61.8761     17.2379
  1846.3000      7.9981      2.5660      0.0052      5.0883     63.0506     18.0766
  1846.4000      7.9981      2.5484      0.0003      6.1580     64.4102     18.2568
  1846.5000      7.9826      2.5431      0.0637      6.4780     67.2327     17.8096
  1846.6000      7.9826      2.5394     -0.0372      6.7015     70.2946     16.7581
  1846.7000      7.9826      2.5398      0.0460      6.6789     70.3925     15.3348
  1846.8000      8.0052      2.5507     -0.0310      6.0204     66.0993     14.6971
  1846.9000      8.0052      2.5724      0.0387      4.7060     61.9960     15.4908
  1847.0000      7.9700      2.5870      0.0862      3.8155     64.5365     17.2385
  1847.1000      7.9700      2.5809      0.0623      4.1863     74.3952     18.7684
  1847.2000      7.9700      2.5693      0.0226      4.8885     85.8170     19.5883
  1847.3000      7.9614      2.5692      0.0435      4.8987     94.0797     20.4475
  1847.4000      7.9614      2.5717      0.0386      4.7426     98.0765     21.8961
  1847.5000      7.9637      2.5551      0.0972      5.7543    100.5822     23.3826
  1847.6000      7.9637      2.5139      0.0389      8.2476    108.3834     24.2885
  1847.7000      7.9637      2.4692      0.0475     10.9565    121.6045     24.5756
  1847.8000      7.9884      2.4395      0.0494     12.7588    131.5573     24.3965
  1847.9000      7.9884      2.4264      0.0279     13.5536    134.0060     24.1187
  1848.0000      8.0285      2.4222      0.0637     13.8083    135.4430     24.3449
  1848.1000      8.0285      2.4241      0.0814     13.6895    143.5486     25.4879
  1848.2000      8.0285      2.4424      0.0394     12.5803    158.0851     26.9816
  1848.3000      8.0373      2.4789      0.0819     10.3672    169.8059     27.9512
  1848.4000      8.0373      2.5113      0.1644      8.4031    169.7050     28.1689
  1848.5000      8.0699      2.5233      0.1625      7.6806    161.1176     27.2419
  1848.6000      8.0699      2.5336      0.1214      7.0561    152.3515     25.5246
  1848.7000      8.0699      2.5600      0.1548      5.4543    145.8248     24.3615
  1848.8000      8.0368      2.5817      0.2111      4.1408    139.9438     24.2085
  1848.9000      8.0368      2.5768      0.1350      4.4345    133.2283     24.1984
  1849.0000      8.0323      2.5652      0.0892      5.1367    125.6655     23.3811
  1849.1000      8.0323      2.5694      0.1351      4.8836    120.2868     22.2659
  1849.2000      8.0323      2.5814      0.0880      4.1590    120.2752     21.7478
  1849.3000      8.0262      2.5963      0.0539      3.2544    120.6779     21.6448
  1849.4000      8.0262      2.6222      0.1151      1.6825    115.4437     21.5508
  1849.5000      8.0111      2.6542      0.1393     -0.2548    107.9081     21.5903
  1849.6000      8.0111      2.6767      0.1694     -1.6173    102.9418     22.1488
  1849.7000      8.0111      2.6828      0.1388     -1.9866    100.0774     22.8080
  1849.8000      7.9909      2.6770      0.1182     -1.6343     95.7798     22.7897
  1849.9000      7.9909      2.6622      0.0791     -0.7397     88.4186     22.4477
  1850.0000      8.0044      2.6430      0.0250      0.4268     83.5305     22.0427
  1850.1000      8.0044      2.6287      0.0691      1.2887     87.1535     21.1213
  1850.2000      8.0044      2.6181      0.0653      1.9346     95.3264     19.6664
  1850.3000      8.0114      2.6131      0.0438      2.2374     98.3099     18.5894
  1850.4000      8.0114      2.6243      0.0770      1.5568     95.7994     18.8806
  1850.5000      8.0003      2.6398      0.0772      0.6170     97.1415     20.0959
  1850.6000      8.0003      2.6420      0.0387      0.4820    104.9976     20.8213
  1850.7000      8.0003      2.6320      0.0648      1.0914    113.3448     20.8601
  1850.8000      7.9785      2.6154      0.0538      2.0966    117.9052     20.8846
  1850.9000      7.9785      2.5947      0.0911      3.3541    117.9130     21.7591
  1851.0000      7.9639      2.5778      0.0096      4.3752    116.3076     23.8921
  1851.1000      7.9639      2.5712      0.0731      4.7734    120.7594     25.6002
  1851.2000      7.9639      2.5629      0.0638      5.2784    134.6153     25.2046
  1851.3000      7.9881      2.5474      0.0404      6.2175    149.7388     24.0501
  1851.4000      7.9881      2.5367      0.0479      6.8659    153.9848     23.9047
  1851.5000      7.9596      2.5317      0.0602      7.1691    146.5810     24.5348
  1851.6000      7.9596      2.5190      0.0755      7.9421    140.0155     25.0230
  1851.7000      7.9596      2.4938      0.0400      9.4690    143.8834     25.0820
  1851.8000      8.0173      2.4672      0.0224     11.0804    154.5809     24.6054
  1851.9000      8.0173      2.4477      0.0590     12.2616    163.0241     23.8608
