~Version Information
VERS.                      2.0: CWLS Log ASCII Standard - VERSION 2.0
WRAP.                       NO: One line per depth step
~Well Information Block
STRT.FT               240.0000: 
STOP.FT              1043.5000: 
STEP.FT                 0.2500: 
NULL.                -999.2500: 
COMP.          Pioneer Natural Resources: COMPANY
WELL.          Stags Leap 13-30: WELL
FLD.           Purgatorie River: FIELD
LOC.           1813' FSL & 117' FWL: LOCATION
PROV.                 Colorado: PROVINCE
CNTY.               Las Animas: COUNTRY
SRVC.                Patterson: SERVICE COMPANY
DATE.          Thu Dec 08 19:20:57 2005: LOG DATE
UWI.                          : UNIQUE WELL ID
~Curve Information Block
DEPT.FT            0 000 00 00: Depth
DIR.Ohm-m                     : IEL Induction Resistivity
GR.GAPI                       : Gamma Ray
~Parameter Information Block
~A  Depth       DIR          GR     
# ...
   463.0000     20.5424    138.5233
   463.2500     21.5757    135.5705
   463.5000     22.7288    131.9481
   463.7500     23.9101    130.0644
   464.0000     24.9823    126.9921
   464.2500     25.8278    124.0162
   464.5000     26.4099    117.8308
   464.7500     26.7798    113.1565
   465.0000     27.0305    107.0023
   465.2500     27.2467    104.2887
   465.5000     27.4787    102.9377
   465.7500     27.7414    103.8435
   466.0000     28.0209    107.4945
   466.2500     28.2819    110.9570
   466.5000     28.4775    116.3714
   466.7500     28.5648    119.3634
   467.0000     28.5243    122.5017
   467.2500     28.3673    124.1075
   467.5000     28.1225    126.7898
   467.7500     27.8125    128.8270
   468.0000     27.4399    130.9563
   468.2500     26.9947    130.6533
   468.5000     26.4721    126.8388
   468.7500     25.8832    122.7588
   469.0000     25.2500    116.6229
   469.2500     24.5987    113.5847
   469.5000     23.9627    111.3053
   469.7500     23.3878    111.3209
   470.0000     22.9238    113.4936
   470.2500     22.5980    116.1672
   470.5000     22.3906    121.3610
   470.7500     22.2356    125.1130
   471.0000     22.0510    130.2296
   471.2500     21.7801    132.7321
   471.5000     21.4136    134.4424
   471.7500     20.9808    134.3279
   472.0000     20.5220    133.5725
   472.2500     20.0641    133.6763
   472.5000     19.6152    135.3816
   472.7500     19.1792    136.8494
   473.0000     18.7762    137.4702
   473.2500     18.4510    136.1814
   473.5000     18.2572    132.4585
   473.7500     18.2278    129.8799
   474.0000     18.3495    127.4907
   474.2500     18.5593    127.3018
   474.5000     18.7662    129.0577
   474.7500     18.8908    131.3743
   475.0000     18.8991    136.2407
   475.2500     18.8116    140.1775
   475.5000     18.6847    146.1602
   475.7500     18.5840    149.1541
   476.0000     18.5601    150.1069
   476.2500     18.6338    147.8117
   476.5000     18.7898    141.1976
   476.7500     18.9782    136.5010
   477.0000     19.1272    132.3903
   477.2500     19.1654    132.7297
   477.5000     19.0471    137.4927
   477.7500     18.7697    142.0950
   478.0000     18.3734    147.6984
   478.2500     17.9246    148.7756
   478.5000     17.4911    145.1980
   478.7500     17.1227    140.0541
   479.0000     16.8423    131.0140
   479.2500     16.6466    125.8845
   479.5000     16.5123    121.8910
   479.7500     16.4055    122.4924
   480.0000     16.2922    128.2723
   480.2500     16.1500    134.4142
   480.5000     15.9780    144.4126
   480.7500     15.8001    150.1726
   481.0000     15.6587    156.0269
   481.2500     15.6008    157.8564
   481.5000     15.6628    157.8950
   481.7500     15.8596    156.6094
   482.0000     16.1824    153.6613
   482.2500     16.6046    151.5307
   482.5000     17.0941    148.7516
   482.7500     17.6312    147.2462
   483.0000     18.2267    144.8899
   483.2500     18.9261    142.7382
   483.5000     19.7895    138.4060
   483.7500     20.8530    135.2062
   484.0000     22.0921    130.9833
   484.2500     23.4141    128.9144
   484.5000     24.6905    127.0334
   484.7500     25.8123    126.4774
   485.0000     26.7238    126.0613
   485.2500     27.4113    125.3550
   485.5000     27.8740    122.3575
   485.7500     28.1156    118.7702
   486.0000     28.1599    111.7199
   486.2500     28.0609    106.7588
   486.5000     27.8876    100.2747
   486.7500     27.6985     97.1314
   487.0000     27.5239     95.0026
   487.2500     27.3663     95.8855
   487.5000     27.2138    101.5230
   487.7500     27.0638    108.1101
   488.0000     26.9420    120.4534
   488.2500     26.9003    128.4187
   488.5000     26.9858    136.5455
   488.7500     27.1975    138.1465
   489.0000     27.4660    134.6801
   489.2500     27.6783    129.4447
   489.5000     27.7387    119.6688
   489.7500     27.6229    113.0697
   490.0000     27.3846    104.1652
   490.2500     27.1164     99.2107
   490.5000     26.8990     93.6881
   490.7500     26.7710     91.4505
   491.0000     26.7259     90.3120
   491.2500     26.7259     91.0645
   491.5000     26.7208     94.8391
   491.7500     26.6594     99.4343
   492.0000     26.4925    109.4629
   492.2500     26.1789    117.6388
   492.5000     25.7016    130.2533
   492.7500     25.0852    137.7128
   493.0000     24.3947    145.8967
   493.2500     23.7053    148.7268
   493.5000     23.0667    148.4739
   493.7500     22.4887    145.4861
   494.0000     21.9544    138.4006
   494.2500     21.4457    133.4770
   494.5000     20.9602    128.2028
   494.7500     20.5099    126.8224
   495.0000     20.1076    128.0939
   495.2500     19.7514    130.8954
   495.5000     19.4165    137.0978
   495.7500     19.0615    141.6979
   496.0000     18.6481    147.5231
   496.2500     18.1620    149.8910
   496.5000     17.6214    150.9112
   496.7500     17.0658    150.4749
   497.0000     16.5366    149.7070
   497.2500     16.0632    149.7978
   497.5000     15.6586    150.9834
   497.7500     15.3243    152.1299
   498.0000     15.0562    153.9004
   498.2500     14.8499    155.1388
   498.5000     14.7005    157.3615
   498.7500     14.6011    159.1588
   499.0000     14.5397    162.2732
   499.2500     14.4995    164.4978
   499.5000     14.4626    167.4448
   499.7500     14.4182    168.5856
   500.0000     14.3697    168.4301
   500.2500     14.3359    167.2641
   500.5000     14.3420    164.9621
   500.7500     14.4069    163.5997
   501.0000     14.5327    162.0328
   501.2500     14.7041    161.1443
   501.5000     14.8962    159.8985
   501.7500     15.0832    159.2577
   502.0000     15.2453    158.9623
   502.2500     15.3707    159.4131
   502.5000     15.4587    161.4161
   502.7500     15.5205    163.7839
   503.0000     15.5793    168.6129
   503.2500     15.6649    172.1194
   503.5000     15.8064    176.5878
   503.7500     16.0245    178.5362
   504.0000     16.3268    179.7004
   504.2500     16.7084    179.5224
   504.5000     17.1564    178.5595
   504.7500     17.6554    177.8938
   505.0000     18.1894    177.2619
   505.2500     18.7426    177.0620
   505.5000     19.3004    176.6047
   505.7500     19.8534    175.6025
   506.0000     20.4025    171.6971
   506.2500     20.9587    166.8650
   506.5000     21.5366    156.1434
   506.7500     22.1452    147.2554
   507.0000     22.7825    133.1667
   507.2500     23.4384    124.5704
   507.5000     24.1043    114.7255
   507.7500     24.7801    110.7528
   508.0000     25.4700    108.7634
   508.2500     26.1671    109.9242
   508.5000     26.8424    115.1481
   508.7500     27.4469    120.6043
   509.0000     27.9288    129.9540
   509.2500     28.2543    135.1637
   509.5000     28.4202    138.3662
   509.7500     28.4546    136.5596
   510.0000     28.4059    128.7206
   510.2500     28.3215    121.5139
   510.5000     28.2227    110.6224
   510.7500     28.0864    104.6001
   511.0000     27.8474     98.3602
   511.2500     27.4238     95.9772
   511.5000     26.7569     94.6022
   511.7500     25.8414     95.0275
   512.0000     24.7269     97.7379
   512.2500     23.4951    100.9700
   512.5000     22.2319    107.9655
   512.7500     21.0110    114.0664
   513.0000     19.8887    125.1429
   513.2500     18.9041    133.2767
   513.5000     18.0794    144.9563
   513.7500     17.4195    151.4694
   514.0000     16.9161    158.8967
   514.2500     16.5528    162.8308
   514.5000     16.3120    168.5074
   514.7500     16.1784    172.3838
   515.0000     16.1391    177.4612
   515.2500     16.1834    179.6051
   515.5000     16.3045    180.4974
   515.7500     16.5044    179.8315
   516.0000     16.7957    177.4676
   516.2500     17.1985    174.9122
   516.5000     17.7333    169.1129
   516.7500     18.4140    163.8462
   517.0000     19.2461    154.4688
   517.2500     20.2256    147.9667
   517.5000     21.3360    139.2726
   517.7500     22.5411    134.8449
   518.0000     23.7834    130.6289
   518.2500     24.9891    129.1111
   518.5000     26.0819    127.6101
