~Version Information
VERS.                      2.0: CWLS Log ASCII Standard - VERSION 2.0
WRAP.                       NO: One line per depth step
~Well Information Block
STRT.FT                 0.0000: 
STOP.FT              1538.0000: 
STEP.FT                 0.2500: 
NULL.                -999.2500: 
COMP.          Pioneer Natural Resources: COMPANY
WELL.           Butch 33-10 TR: WELL
FLD.           Purgatorie River: FIELD
LOC.           2309' FSL & 1337' FEL: LOCATION
PROV.                 Colorado: PROVINCE
CNTY.               Las Animas: COUNTRY
SRVC.                Patterson: SERVICE COMPANY
DATE.          Thu Jan 19 12:40:27 2006: LOG DATE
UWI.                          : UNIQUE WELL ID
~Curve Information Block
DEPT.FT            0 000 00 00: Depth
CCL.                          : Casing Collar Locator
TT3.usec                      : CBL 3' Travel Time
AMP3.mV                       : CBL 3' Amplitude
GR.GAPI                       : Gamma Ray
~Parameter Information Block
~A  Depth       CCL         TT3         AMP3         GR     
# ...
  1005.0000      0.0000    673.4933     15.3519    122.8175
  1005.2500      0.0000    720.6923     15.4575    123.7917
  1005.5000      0.0000    736.6701     15.5062    122.1994
  1005.7500      0.0000    737.9626     15.5637    119.4071
  1006.0000      0.0000    738.0388     15.5790    117.6641
  1006.2500      0.0000    733.0456     15.4991    118.0218
  1006.5000      0.0000    717.4230     15.3351    119.4223
  1006.7500      0.0000    696.9462     15.1612    120.1068
  1007.0000      0.0000    680.3810     15.0381    119.5772
  1007.2500      0.0000    669.3596     14.9568    118.8036
  1007.5000      0.0000    661.8482     14.8673    118.7487
  1007.7500      0.0000    659.2703     14.7188    119.2488
  1008.0000      0.0000    665.0490     14.4759    119.3803
  1008.2500      0.0000    680.5109     14.1339    118.1557
  1008.5000      0.0000    704.5259     13.7289    114.5142
  1008.7500      0.0000    730.9227     13.3307    107.5635
  1009.0000      0.0000    748.5229     13.0099     97.7113
  1009.2500      0.0000    748.9807     12.7903     87.0261
  1009.5000      0.0000    732.8797     12.6559     77.6005
  1009.7500      0.0000    711.2065     12.6012     69.7453
  1010.0000      0.0000    700.2607     12.6104     62.3832
  1010.2500      0.0000    707.8424     12.6179     54.9616
  1010.5000      0.0000    725.5164     12.5411     48.3500
  1010.7500      0.0000    739.6872     12.3396     43.9043
  1011.0000      0.0000    747.1086     12.0442     42.1451
  1011.2500      0.0000    752.5329     11.7403     42.4958
  1011.5000      0.0000    757.6427     11.5075     43.9617
  1011.7500      0.0000    761.0095     11.3650     45.7168
  1012.0000      0.0000    762.5837     11.2815     47.1734
  1012.2500      0.0000    763.0372     11.2572     48.0242
  1012.5000      0.0000    761.9878     11.3727     48.5641
  1012.7500      0.0000    758.5833     11.7228     49.9004
  1013.0000      0.0000    753.7642     12.3080     53.4838
  1013.2500      0.0000    751.0581     13.0235     60.1749
  1013.5000      0.0000    752.1662     13.7557     69.7271
  1013.7500      0.0000    753.5977     14.4452     81.0635
  1014.0000      0.0000    751.9696     15.0392     92.7520
  1014.2500      0.0000    747.9620     15.4175    103.2048
  1014.5000      0.0000    740.5680     15.4010    110.8758
  1014.7500      0.0000    725.7913     14.8902    114.6993
  1015.0000      0.0000    707.5300     14.0428    114.3768
  1015.2500      0.0000    698.7234     13.2372    110.2105
  1015.5000      0.0000    703.2649     12.7650    102.8656
  1015.7500      0.0000    707.4619     12.6050     93.5180
  1016.0000      0.0000    699.2275     12.5427     84.1456
  1016.2500      0.0000    684.3553     12.4251     77.3370
  1016.5000      0.0000    673.8889     12.2623     75.3678
  1016.7500      0.0000    669.5715     12.1791     78.9619
  1017.0000      0.0000    667.2256     12.3477     86.6240
  1017.2500      0.0000    662.1298     12.9335     95.3069
  1017.5000      0.0000    646.4073     14.0323    102.0786
  1017.7500      0.0000    605.6700     15.6299    105.4929
  1018.0000      0.0000    529.8920     17.5637    105.8002
  1018.2500      0.0000    435.7137     19.4451    104.3223
  1018.5000      0.0000    360.0474     20.7644    102.8004
  1018.7500      0.0000    323.4727     21.2565    103.0615
  1019.0000      0.0000    323.8490     21.0819    106.5653
  1019.2500      0.0000    361.6450     20.5809    113.5345
  1019.5000      0.0000    439.9194     19.9886    122.3641
  1019.7500      0.0000    537.8875     19.3880    130.1472
  1020.0000      0.0000    616.3134     18.7738    134.2035
  1020.2500      0.0000    656.6378     18.1187    133.7151
  1020.5000      0.0000    670.0233     17.4103    130.3421
  1020.7500      0.0000    673.0089     16.6730    127.1193
  1021.0000      0.0000    673.6114     15.9557    126.3041
  1021.2500      0.0000    673.7903     15.2857    128.0038
  1021.5000      0.0000    673.6916     14.6739    130.6970
  1021.7500      0.0000    673.3348     14.1445    132.8335
  1022.0000      0.0000    672.9005     13.7131    133.7115
  1022.2500      0.0000    672.5739     13.3823    133.0090
  1022.5000      0.0000    672.3875     13.1923    130.3095
  1022.7500      0.0000    672.2571     13.2175    125.6685
  1023.0000      0.0000    672.1581     13.4779    120.2086
  1023.2500      0.0000    672.1494     13.8888    115.6854
  1023.5000      0.0000    672.2780     14.3256    113.6440
  1023.7500      0.0000    672.7384     14.7035    114.7190
  1024.0000      0.0000    674.2084     14.9926    117.9778
  1024.2500      0.0000    677.5396     15.2139    121.1502
  1024.5000      0.0000    681.9501     15.4067    122.3911
  1024.7500      0.0000    684.0385     15.5757    121.7707
  1025.0000      0.0000    681.6370     15.6757    120.5176
  1025.2500      0.0000    677.1296     15.6467    119.1557
  1025.5000      0.0000    673.3678     15.4884    116.9174
  1025.7500      0.0000    669.7068     15.2925    112.9169
  1026.0000      0.0000    664.2271     15.1568    107.6089
  1026.2500      0.0000    656.8375     15.0729    102.7867
  1026.5000      0.0000    650.1150     14.9310    100.0027
  1026.7500      0.0000    648.6758     14.6342     99.3788
  1027.0000      0.0000    654.4754     14.2095    100.2402
  1027.2500      0.0000    662.9271     13.7869    102.3206
  1027.5000      0.0000    668.5435     13.4791    105.6339
  1027.7500      0.0000    670.6302     13.3288    109.5759
  1028.0000      0.0000    670.9680     13.3088    113.0828
  1028.2500      0.0000    670.4146     13.3217    115.6963
  1028.5000      0.0000    668.7256     13.2891    117.8069
  1028.7500      0.0000    666.2800     13.2301    119.7601
  1029.0000      0.0000    665.0135     13.1895    121.3399
  1029.2500      0.0000    666.0964     13.1600    122.3082
  1029.5000      0.0000    667.6609     13.1076    122.7475
  1029.7500      0.0000    666.8502     13.0218    122.5819
  1030.0000      0.0000    663.1882     12.9349    121.4411
  1030.2500      0.0000    659.5764     12.9285    119.4851
  1030.5000      0.0000    659.8282     13.0998    117.8720
  1030.7500      0.0000    664.7518     13.4697    117.8337
  1031.0000      0.0000    672.1379     13.9316    119.4282
  1031.2500      0.0000    678.8565     14.3422    121.4591
  1031.5000      0.0000    680.7227     14.6488    122.4406
  1031.7500      0.0000    675.0970     14.8842    121.7018
  1032.0000      0.0000    665.6494     15.0852    119.9474
  1032.2500      0.0000    659.7099     15.2553    119.0332
  1032.5000      0.0000    659.5159     15.3853    120.8651
  1032.7500      0.0000    659.5043     15.5052    125.7301
  1033.0000      0.0000    654.7098     15.6942    131.3480
  1033.2500      0.0000    648.6909     15.9862    134.0897
  1033.5000      0.0000    648.9321     16.2894    131.8770
  1033.7500      0.0000    656.2802     16.4697    126.0848
  1034.0000      0.0000    664.5494     16.4906    120.3403
  1034.2500      0.0000    669.2097     16.4301    117.4107
  1034.5000      0.0000    670.7002     16.3750    117.3644
  1034.7500      0.0000    670.9523     16.3343    118.3831
  1035.0000      0.0000    670.9277     16.2559    118.6101
  1035.2500      0.0000    670.8592     16.0951    117.0667
  1035.5000      0.0000    670.8680     15.8618    113.5157
  1035.7500      0.0000    670.9903     15.6212    108.2435
  1036.0000      0.0000    671.1016     15.4423    102.2089
  1036.2500      0.0000    671.0934     15.3444     97.1546
  1036.5000      0.0000    671.0108     15.2954     95.0025
  1036.7500      0.0000    670.9626     15.2672     96.6168
  1037.0000      0.0000    671.0007     15.2687    101.0810
  1037.2500      0.0000    671.1071     15.3051    106.4344
  1037.5000      0.0000    671.2725     15.3429    111.1704
  1037.7500      0.0000    671.6588     15.3297    114.7270
  1038.0000      0.0000    672.8917     15.2443    116.7692
  1038.2500      0.0000    675.1607     15.1381    116.9364
