~Version Information
VERS.                      2.0: CWLS Log ASCII Standard - VERSION 2.0
WRAP.                       NO: One line per depth step
~Well Information Block
STRT.FT                 2.0000: 
STOP.FT               698.7500: 
STEP.FT                 0.2500: 
NULL.                -999.2500: 
COMP.          XTO Energy Inc.: COMPANY
WELL.          Golden Eagle 20-14: WELL
FLD.           Purgatrorie River: FIELD
LOC.           587' FSL & 2478' FWL--: LOCATION
STAT.                       CO: State
CNTY.               Las Animas: COUNTY
CTRY. USA : Country
SECT. 20 : Section
TOWN. 33S : Township
RANG. 67W : Range
SRVC.          Patterson Wireline: SERVICE COMPANY
DATE.          Sat Dec 10 16:49:08 2005: LOG DATE
API.           05 071 08614 00: UNIQUE WELL ID
~Curve Information Block
DEPT.FT            0 000 00 00: Depth
MINMK.                        : Magnetic Mark Ticks
TEMP.degF                     : Downhole Temperature
DTMP.degF                     : Delta Temperature
~Parameter Information Block
~A  Depth      MINMK        TEMP        DTMP    
# ...
   503.0000      0.0000     67.2642     -0.0949
   503.2500      0.0000     67.2413     -0.0934
   503.5000      0.0000     67.2188     -0.0919
   503.7500      0.0000     67.1968     -0.0903
   504.0000      0.0000     67.1750     -0.0859
   504.2500      0.0000     67.1537     -0.0842
   504.5000      0.0000     67.1329     -0.0846
   504.7500      0.0000     67.1124     -0.0828
   505.0000      0.0000     67.0924     -0.0809
   505.2500      0.0000     67.0729     -0.0788
   505.5000      0.0000     67.0495     -0.0767
   505.7500      0.0000     67.0311     -0.0745
   506.0000      0.0000     67.0133     -0.0722
   506.2500      0.0000     66.9960     -0.0698
   506.5000      0.0000     66.9794     -0.0652
   506.7500      0.0000     66.9634     -0.0644
   507.0000      0.0000     66.9480     -0.0619
   507.2500      0.0000     66.9333     -0.0594
   507.5000      0.0000     66.9191     -0.0570
   507.7500      0.0000     66.9024     -0.0546
   508.0000      0.0000     66.8895     -0.0522
   508.2500      0.0000     66.8772     -0.0499
   508.5000      0.0000     66.8655     -0.0488
   508.7500      0.0000     66.8543     -0.0450
   509.0000      0.0000     66.8436     -0.0419
   509.2500      0.0000     66.8334     -0.0399
   509.5000      0.0000     66.8214     -0.0380
   509.7500      0.0000     66.8123     -0.0361
   510.0000      0.0000     66.8057     -0.0343
   510.2500      0.0000     66.7974     -0.0326
   510.5000      0.0000     66.7895     -0.0298
   510.7500      0.0000     66.7820     -0.0290
   511.0000      0.0000     66.7749     -0.0286
   511.2500      0.0000     66.7681     -0.0271
   511.5000      0.0000     66.7618     -0.0256
   511.7500      0.0000     66.7543     -0.0248
   512.0000      0.0000     66.7486     -0.0235
   512.2500      0.0000     66.7433     -0.0222
   512.5000      0.0000     66.7382     -0.0209
   512.7500      0.0000     66.7324     -0.0190
   513.0000      1.0000     66.7279     -0.0178
   513.2500      1.0000     66.7238     -0.0166
   513.5000      1.0000     66.7199     -0.0157
   513.7500      1.0000     66.7163     -0.0139
   514.0000      0.0000     66.7130     -0.0126
   514.2500      0.0000     66.7100     -0.0112
   514.5000      0.0000     66.7068     -0.0098
   514.7500      0.0000     66.7046     -0.0083
   515.0000      0.0000     66.7028     -0.0067
   515.2500      0.0000     66.7014     -0.0051
   515.5000      0.0000     66.7004     -0.0032
   515.7500      0.0000     66.6997     -0.0016
   516.0000      0.0000     66.6995     -0.0000
   516.2500      0.0000     66.6997      0.0016
   516.5000      0.0000     66.7004      0.0031
   516.7500      0.0000     66.7014      0.0046
   517.0000      0.0000     66.7027      0.0064
   517.2500      0.0000     66.7045      0.0079
   517.5000      0.0000     66.7066      0.0092
   517.7500      0.0000     66.7089      0.0105
   518.0000      0.0000     66.7124      0.0118
   518.2500      0.0000     66.7155      0.0130
   518.5000      0.0000     66.7188      0.0142
   518.7500      0.0000     66.7224      0.0154
   519.0000      0.0000     66.7263      0.0169
   519.2500      0.0000     66.7305      0.0180
   519.5000      0.0000     66.7350      0.0192
   519.7500      0.0000     66.7398      0.0203
   520.0000      0.0000     66.7462      0.0223
   520.2500      0.0000     66.7515      0.0236
   520.5000      0.0000     66.7571      0.0248
   520.7500      0.0000     66.7631      0.0261
   521.0000      0.0000     66.7710      0.0268
   521.2500      0.0000     66.7776      0.0282
   521.5000      0.0000     66.7846      0.0297
   521.7500      0.0000     66.7920      0.0312
   522.0000      0.0000     66.7997      0.0320
   522.2500      0.0000     66.8079      0.0336
   522.5000      0.0000     66.8165      0.0366
   522.7500      0.0000     66.8255      0.0384
   523.0000      0.0000     66.8349      0.0388
   523.2500      0.0000     66.8449      0.0421
   523.5000      0.0000     66.8579      0.0439
   523.7500      0.0000     66.8689      0.0456
   524.0000      0.0000     66.8773      0.0474
   524.2500      0.0000     66.8921      0.0490
   524.5000      0.0000     66.9042      0.0492
   524.7500      0.0000     66.9168      0.0524
   525.0000      0.0000     66.9297      0.0552
   525.2500      0.0000     66.9429      0.0549
   525.5000      0.0000     66.9564      0.0562
   525.7500      0.0000     66.9736      0.0591
   526.0000      0.0000     66.9877      0.0602
   526.2500      0.0000     67.0019      0.0612
   526.5000      0.0000     67.0166      0.0622
   526.7500      0.0000     67.0350      0.0614
   527.0000      0.0000     67.0501      0.0623
   527.2500      0.0000     67.0653      0.0631
   527.5000      0.0000     67.0808      0.0618
   527.7500      0.0000     67.0963      0.0628
   528.0000      0.0000     67.1122      0.0635
   528.2500      0.0000     67.1282      0.0642
   528.5000      0.0000     67.1402      0.0649
   528.7500      0.0000     67.1607      0.0656
   529.0000      0.0000     67.1772      0.0662
   529.2500      0.0000     67.1938      0.0668
   529.5000      0.0000     67.2106      0.0716
   529.7500      0.0000     67.2275      0.0701
   530.0000      0.0000     67.2446      0.0706
   530.2500      0.0000     67.2618      0.0710
   530.5000      0.0000     67.2834      0.0714
   530.7500      0.0000     67.3008      0.0740
   531.0000      0.0000     67.3184      0.0743
   531.2500      0.0000     67.3359      0.0744
   531.5000      0.0000     67.3535      0.0724
   531.7500      0.0000     67.3756      0.0723
   532.0000      0.0000     67.3931      0.0723
   532.2500      0.0000     67.4106      0.0721
   532.5000      0.0000     67.4281      0.0719
   532.7500      0.0000     67.4455      0.0715
   533.0000      0.0000     67.4629      0.0713
   533.2500      0.0000     67.4801      0.0710
   533.5000      0.0000     67.4972      0.0706
   533.7500      0.0000     67.5187      0.0702
   534.0000      0.0000     67.5357      0.0697
   534.2500      0.0000     67.5525      0.0693
   534.5000      0.0000     67.5693      0.0688
   534.7500      0.0000     67.5858      0.0662
   535.0000      0.0000     67.6023      0.0657
   535.2500      0.0000     67.6186      0.0653
   535.5000      0.0000     67.6349      0.0649
   535.7500      0.0000     67.6511      0.0644
   536.0000      0.0000     67.6671      0.0640
   536.2500      0.0000     67.6831      0.0656
   536.5000      0.0000     67.6990      0.0652
   536.7500      0.0000     67.7147      0.0647
   537.0000      0.0000     67.7304      0.0642
   537.2500      0.0000     67.7498      0.0655
   537.5000      0.0000     67.7653      0.0649
   537.7500      0.0000     67.7805      0.0643
   538.0000      0.0000     67.7955      0.0637
   538.2500      0.0000     67.8141      0.0610
   538.5000      0.0000     67.8289      0.0602
   538.7500      0.0000     67.8434      0.0594
   539.0000      0.0000     67.8577      0.0603
   539.2500      0.0000     67.8718      0.0576
   539.5000      0.0000     67.8857      0.0568
   539.7500      0.0000     67.8994      0.0558
   540.0000      0.0000     67.9162      0.0550
   540.2500      0.0000     67.9294      0.0526
   540.5000      0.0000     67.9424      0.0533
   540.7500      0.0000     67.9551      0.0526
   541.0000      0.0000     67.9677      0.0502
   541.2500      0.0000     67.9771      0.0496
   541.5000      0.0000     67.9924      0.0491
   541.7500      0.0000     68.0045      0.0487
   542.0000      0.0000     68.0166      0.0484
   542.2500      0.0000     68.0285      0.0497
   542.5000      0.0000     68.0405      0.0495
   542.7500      0.0000     68.0525      0.0495
   543.0000      0.0000     68.0644      0.0496
   543.2500      0.0000     68.0764      0.0498
   543.5000      0.0000     68.0915      0.0515
   543.7500      0.0000     68.1036      0.0517
   544.0000      0.0000     68.1159      0.0519
   544.2500      0.0000     68.1281      0.0522
   544.5000      0.0000     68.1436      0.0509
