~Version Information
VERS.                      2.0: CWLS Log ASCII Standard - VERSION 2.0
WRAP.                       NO: One line per depth step
~Well Information Block
STRT.FT                -2.0000: 
STOP.FT              2017.5000: 
STEP.FT                 0.2500: 
NULL.                -999.2500: 
COMP.          Pioneer Natural Resources: COMPANY
WELL.            Zink 44-10 Tr: WELL
FLD.           Purgatoire River: FIELD
LOC.           486' FSL & 554' FEL--: LOCATION
PROV.                 Colorado: PROVINCE
CNTY.               Las Animas: COUNTRY
SRVC.                Patterson: SERVICE COMPANY
DATE.          Mon Aug 01 14:01:23 2005: LOG DATE
UWI.           05 071 08446 00: UNIQUE WELL ID
~Curve Information Block
DEPT.FT            0 000 00 00: Depth
CCL.                          : Casing Collar Locator
TT3.usec                      : CBL 3' Travel Time
AMP3.mV                       : CBL 3' Amplitude
GR.GAPI                       : Gamma Ray
~Parameter Information Block
~A  Depth       CCL         TT3         AMP3         GR     
# ...
  1170.5000      0.0000   1117.4393     10.1860    148.1228
  1170.7500      0.0000   1107.7755     10.3311    144.4201
  1171.0000      0.0000   1112.1237     10.4780    139.7258
  1171.2500      0.0000   1135.2939     10.6138    134.6581
  1171.5000      0.0000   1170.1417     10.7395    129.9266
  1171.7500      0.0000   1202.4863     10.8723    125.9490
  1172.0000      0.0000   1222.6935     11.0288    122.7191
  1172.2500      0.0000   1232.9042     11.2035    120.0335
  1172.5000      0.0000   1242.0929     11.3660    117.8619
  1172.7500      0.0000   1252.5914     11.4772    116.6022
  1173.0000      0.0000   1252.6012     11.5009    116.8259
  1173.2500      0.0000   1224.7607     11.4023    118.5814
  1173.5000      0.0000   1162.4098     11.1459    121.0078
  1173.7500      0.0000   1077.1663     10.7094    122.6615
  1174.0000      0.0000    992.8597     10.1115    122.1540
  1174.2500      0.0000    934.5357      9.4293    118.5770
  1174.5000      0.0000    920.6962      8.7804    111.7114
  1174.7500      0.0000    957.9626      8.2690    102.3042
  1175.0000      0.0000   1035.1876      7.9387     92.1560
  1175.2500      0.0000   1123.4432      7.7667     83.4512
  1175.5000      0.0000   1191.2019      7.6964     77.6987
  1175.7500      0.0000   1225.7877      7.6790     75.2996
  1176.0000      0.0000   1238.6646      7.6985     75.9373
  1176.2500      0.0000   1248.9958      7.7723     79.3046
  1176.5000      0.0000   1264.1879      7.9321     85.6749
  1176.7500      0.0000   1275.8134      8.1938     95.6113
  1177.0000      0.0000   1270.9901      8.5348    108.6942
  1177.2500      0.0000   1245.0426      8.8992    122.7172
  1177.5000      0.0000   1203.4155      9.2300    134.7442
  1177.7500      0.0000   1155.4210      9.5003    143.1600
  1178.0000      0.0000   1108.8954      9.7141    148.4483
  1178.2500      0.0000   1066.8320      9.8833    151.7761
  1178.5000      0.0000   1024.5780     10.0057    153.3012
  1178.7500      0.0000    973.9068     10.0656    152.4796
  1179.0000      0.0000    914.2129     10.0526    149.5874
  1179.2500      0.0000    856.4615      9.9776    145.9009
  1179.5000      0.0000    813.3421      9.8695    142.4074
  1179.7500      0.0000    788.7997      9.7559    139.2057
  1180.0000      0.0000    778.5203      9.6481    136.2327
  1180.2500      0.0000    776.8499      9.5425    133.7793
  1180.5000      0.0000    781.4720      9.4328    131.9227
  1180.7500      0.0000    793.1097      9.3213    130.1888
  1181.0000      0.0000    811.8854      9.2185    128.3655
  1181.2500      0.0000    833.8328      9.1358    127.1535
  1181.5000      0.0000    852.4257      9.0772    127.2950
  1181.7500      0.0000    865.2493      9.0402    128.3027
  1182.0000      0.0000    877.7262      9.0189    128.5809
  1182.2500      0.0000    897.4220      9.0080    126.7012
  1182.5000      0.0000    925.4656      9.0030    122.4250
  1182.7500      0.0000    956.1034      9.0000    116.8487
  1183.0000      0.0000    982.9213      8.9963    111.7150
  1183.2500      0.0000   1001.5012      8.9921    108.2796
  1183.5000      0.0000   1009.1015      8.9894    106.8138
  1183.7500      0.0000   1009.1415      8.9875    107.1939
  1184.0000      0.0000   1012.7465      8.9815    109.4251
  1184.2500      0.0000   1025.9697      8.9702    113.0971
  1184.5000      0.0000   1037.0466      8.9639    116.7628
  1184.7500      0.0000   1026.0349      8.9811    118.6396
  1185.0000      0.0000    987.8335      9.0307    118.1175
  1185.2500      0.0000    938.6161      9.1017    116.3525
  1185.5000      0.0000    900.0155      9.1721    115.1747
  1185.7500      0.0000    883.2152      9.2287    115.4701
  1186.0000      0.0000    886.9670      9.2734    116.7661
  1186.2500      0.0000    902.9613      9.3128    118.2335
  1186.5000      0.0000    920.5621      9.3468    119.6831
  1186.7500      0.0000    930.6016      9.3703    121.5166
  1187.0000      0.0000    929.0397      9.3821    123.9832
  1187.2500      0.0000    919.1045      9.3869    126.6982
  1187.5000      0.0000    910.3424      9.3888    128.7816
  1187.7500      0.0000    914.7049      9.3897    129.4573
  1188.0000      0.0000    940.3686      9.3953    128.7726
  1188.2500      0.0000    985.8657      9.4163    127.6066
  1188.5000      0.0000   1039.2156      9.4584    126.6484
  1188.7500      0.0000   1085.4938      9.5116    125.6942
  1189.0000      0.0000   1117.4558      9.5529    124.5329
  1189.2500      0.0000   1138.8923      9.5590    124.2385
  1189.5000      0.0000   1159.1680      9.5188    126.7497
  1189.7500      0.0000   1184.7568      9.4377    132.7280
  1190.0000      0.0000   1212.8953      9.3311    140.0687
  1190.2500      0.0000   1231.6465      9.2141    145.0433
  1190.5000      0.0000   1228.1545      9.0963    145.2612
  1190.7500      0.0000   1198.6379      8.9867    141.3758
  1191.0000      0.0000   1151.4989      8.8968    135.8579
  1191.2500      0.0000   1102.4152      8.8394    130.8062
  1191.5000      0.0000   1067.4194      8.8213    127.3297
  1191.7500      0.0000   1058.9500      8.8393    126.1048
  1192.0000      0.0000   1082.1071      8.8817    127.3279
  1192.2500      0.0000   1130.2201      8.9384    130.1858
  1192.5000      0.0000   1186.9374      9.0079    133.1690
  1192.7500      0.0000   1237.0496      9.0932    135.1369
  1193.0000      0.0000   1274.9777      9.1892    135.8565
  1193.2500      0.0000   1302.4604      9.2806    135.6301
  1193.5000      0.0000   1320.0107      9.3546    134.6501
  1193.7500      0.0000   1322.5079      9.4152    132.8239
  1194.0000      0.0000   1304.8359      9.4796    130.4516
  1194.2500      0.0000   1271.3458      9.5631    128.7997
  1194.5000      0.0000   1235.5953      9.6682    129.2150
  1194.7500      0.0000   1208.4023      9.7841    131.5395
  1195.0000      0.0000   1190.5631      9.8946    133.9792
  1195.2500      0.0000   1179.1593      9.9879    134.6762
  1195.5000      0.0000   1174.3157     10.0625    133.0886
  1195.7500      0.0000   1176.4895     10.1251    130.0206
  1196.0000      0.0000   1182.6055     10.1820    126.7961
  1196.2500      0.0000   1188.1781     10.2248    124.4873
  1196.5000      0.0000   1190.5409     10.2149    123.4833
  1196.7500      0.0000   1188.7909     10.0792    123.2276
  1197.0000      0.0000   1182.4034      9.7518    122.2761
  1197.2500      0.0000   1171.3481      9.2608    119.2872
  1197.5000      0.0000   1157.1060      8.7565    114.3416
  1197.7500      0.0000   1142.6523      8.3915    108.9310
  1198.0000      0.0000   1130.4646      8.1738    104.4750
  1198.2500      0.0000   1119.9863      7.9997    101.0031
  1198.5000      0.0000   1107.7720      7.8153     97.2436
  1198.7500      0.0000   1091.5081      7.6633     91.9473
  1199.0000     -2.0000   1075.2540      7.5869     85.1971
  1199.2500      2.0000   1069.9463      7.5707     78.4298
  1199.5000      2.0000   1086.1016      7.5811     73.3511
  1199.7500     -2.0000   1123.9700      7.6248     71.0118
  1200.0000      0.0000   1171.2231      7.7575     71.6109
  1200.2500      0.0000   1211.3088      8.0304     74.7622
  1200.5000      0.0000   1233.4414      8.4106     80.0655
  1200.7500      0.0000   1233.7777      8.7764     87.6065
  1201.0000      0.0000   1211.1232      9.0290     97.5056
  1201.2500      0.0000   1168.1697      9.1734    108.6691
  1201.5000      0.0000   1115.5863      9.2601    118.4290
  1201.7500      0.0000   1066.3320      9.2997    124.1489
  1202.0000      0.0000   1025.5066      9.2743    125.3468
  1202.2500      0.0000    992.4179      9.1895    124.0543
  1202.5000      0.0000    969.5230      9.0818    123.1999
  1202.7500      0.0000    961.4937      8.9897    124.7730
  1203.0000      0.0000    969.3585      8.9314    129.1865
  1203.2500      0.0000    992.1256      8.9038    135.7473
  1203.5000      0.0000   1029.5001      8.8959    143.2314
  1203.7500      0.0000   1077.1832      8.9049    149.8253
