~Version Information
VERS.                      2.0: CWLS Log ASCII Standard - VERSION 2.0
WRAP.                       NO: One line per depth step
~Well Information Block
STRT.FT               550.0000: 
STOP.FT              1979.0000: 
STEP.FT                 0.1000: 
NULL.                -999.2500: 
COMP.          Pioneer Natural Resources: COMPANY
WELL.          Flying Horse 12-11 Tr: WELL
FLD.           Purgatoire River: FIELD
LOC.           2459' FNL & 410' FWL: LOCATION
STAT.                 Colorado: PROVINCE
CNTY.               Las Animas: COUNTY
CTRY. USA : Country
SECT. 11 : Section
TOWN. 32S : Township
RANG. 66W : Range
SRVC.                Patterson: SERVICE COMPANY
DATE.          Tue Sep 06 07:09:24 2005: LOG DATE
API.           05 071 08485 00: UNIQUE WELL ID
~Curve Information Block
DEPT.FT            0 000 00 00: Depth
DCAL.in                       : CDL Caliper
RHOB.g/cc                     : CDL Bulk Density
RHOC.g/cc                     : CDL Density Correction
DPOR.pu                       : CDL Density Porosity
GR.GAPI                       : Gamma Ray
NPOR.pu                       : Neutron Porosity
~Parameter Information Block
~A  Depth       DCAL        RHOB        RHOC        DPOR         GR         NPOR    
# ...
  1769.2000      8.0802      2.6136      0.0060      2.2070    116.3945     26.0072
  1769.3000      8.1074      2.6058     -0.0132      2.6759    105.5681     24.8192
  1769.4000      8.1074      2.6025      0.0411      2.8814     90.8605     23.4486
  1769.5000      8.0525      2.5982     -0.0512      3.1403     78.7295     22.3062
  1769.6000      8.0525      2.5921      0.0577      3.5110     76.3523     21.5884
  1769.7000      8.0525      2.5727      0.0579      4.6839     77.7215     21.0465
  1769.8000      8.0511      2.5474      0.0329      6.2172     76.9115     20.6058
  1769.9000      8.0511      2.5447      0.0098      6.3832     74.2808     20.5433
  1770.0000      8.0390      2.5671      0.0717      5.0232     70.7775     20.6146
  1770.1000      8.0390      2.5890      0.0440      3.6974     69.0892     20.5082
  1770.2000      8.0390      2.5961      0.0491      3.2643     71.5737     20.1865
  1770.3000      8.0412      2.5918      0.0495      3.5251     75.5386     19.5801
  1770.4000      8.0412      2.5842      0.0379      3.9859     78.5248     18.9525
  1770.5000      8.0511      2.5786      0.0332      4.3281     80.2816     18.7088
  1770.6000      8.0511      2.5765      0.0538      4.4552     79.9417     18.9883
  1770.7000      8.0511      2.5826      0.0451      4.0868     77.6673     19.3398
  1770.8000      8.0520      2.5944      0.0714      3.3694     76.2483     19.3510
  1770.9000      8.0520      2.5932      0.0969      3.4439     78.0464     20.0347
  1771.0000      8.0417      2.5728      0.0224      4.6803     77.9762     21.6854
  1771.1000      8.0417      2.5534      0.0623      5.8516     74.3293     22.6543
  1771.2000      8.0417      2.5517      0.0739      5.9587     74.6192     22.2852
  1771.3000      8.0335      2.5740      0.0805      4.6062     78.6279     21.3668
  1771.4000      8.0335      2.6177      0.1237      1.9549     78.0828     20.3867
  1771.5000      8.0122      2.6654      0.1277     -0.9359     70.6793     19.8983
  1771.6000      8.0122      2.7012      0.1058     -3.1058     61.8974     20.2425
  1771.7000      8.0122      2.7064      0.1637     -3.4193     58.1202     20.8424
  1771.8000      7.9961      2.6656      0.1161     -0.9481     61.5710     20.7666
  1771.9000      7.9961      2.5992      0.0753      3.0761     70.5400     20.4138
  1772.0000      7.9750      2.5437      0.0179      6.4397     80.8996     20.8945
  1772.1000      7.9750      2.5104      0.0574      8.4591     85.8330     22.0610
  1772.2000      7.9750      2.4946     -0.0075      9.4188     84.4980     23.1543
  1772.3000      7.9726      2.5008     -0.0058      9.0416     87.1744     23.5634
  1772.4000      7.9726      2.5220      0.0585      7.7598     96.4272     22.7882
  1772.5000      7.9511      2.5327      0.1117      7.1089    102.8056     21.3819
  1772.6000      7.9511      2.5245      0.0835      7.6075    104.9591     20.5897
  1772.7000      7.9511      2.5148      0.0403      8.1921    109.0531     20.9053
  1772.8000      8.0017      2.5192      0.0533      7.9292    111.3461     21.9238
  1772.9000      8.0017      2.5269      0.0861      7.4619    106.0973     22.9434
  1773.0000      8.0278      2.5133      0.0858      8.2863    100.0503     23.4828
  1773.1000      8.0278      2.4785      0.0360     10.3965    101.0647     23.3309
  1773.2000      8.0278      2.4548      0.0180     11.8273    108.0894     22.9405
  1773.3000      8.0386      2.4622      0.0354     11.3834    115.3027     23.0853
  1773.4000      8.0386      2.4864      0.0514      9.9168    119.4806     23.6630
  1773.5000      8.0575      2.5068      0.0684      8.6782    122.3122     24.1016
  1773.6000      8.0575      2.5183      0.0792      7.9815    126.6433     24.1820
  1773.7000      8.0575      2.5276      0.1039      7.4194    131.7121     24.4586
  1773.8000      8.0474      2.5364      0.1296      6.8833    137.1805     25.5124
  1773.9000      8.0474      2.5403      0.1444      6.6487    143.6348     27.0383
  1774.0000      8.0382      2.5526      0.0835      5.9017    146.9764     28.3110
  1774.1000      8.0382      2.5817      0.1630      4.1404    145.4724     28.7300
  1774.2000      8.0382      2.6019      0.1491      2.9177    145.5837     28.2141
  1774.3000      8.0411      2.6078      0.0947      2.5560    151.0507     27.3253
  1774.4000      8.0411      2.6172      0.1622      1.9891    155.8599     26.8788
  1774.5000      8.0825      2.6220      0.1315      1.6992    156.0058     27.1119
  1774.6000      8.0825      2.6059      0.1179      2.6717    155.5194     27.0169
  1774.7000      8.0825      2.5713      0.0324      4.7700    155.9428     26.3679
  1774.8000      8.1027      2.5355      0.0278      6.9405    157.8052     26.2905
  1774.9000      8.1027      2.5160     -0.0325      8.1225    159.9319     26.9147
  1775.0000      8.1014      2.5188      0.0493      7.9520    158.5397     27.3494
  1775.1000      8.1014      2.5329      0.0643      7.0991    157.1035     27.3438
  1775.2000      8.1014      2.5409      0.0608      6.6121    159.6880     27.7176
  1775.3000      8.1323      2.5230      0.1125      7.6965    160.7822     28.4356
  1775.4000      8.1323      2.4611      0.0701     11.4477    156.2685     28.6578
  1775.5000      8.1277      2.3738     -0.0176     16.7408    150.1344     28.6117
  1775.6000      8.1277      2.2940      0.0183     21.5737    147.3061     28.7330
  1775.7000      8.1277      2.1987      0.0481     27.3534    146.4284     28.7913
  1775.8000      8.1319      2.0455     -0.0247     36.6390    144.0973     28.7167
  1775.9000      8.1319      1.8699     -0.1360     47.2779    139.5971     28.8428
  1776.0000      8.1304      1.7509     -0.1410     54.4931    131.0617     29.1133
  1776.1000      8.1304      1.7060     -0.1154     57.2096    119.1589     29.4395
  1776.2000      8.1304      1.6856     -0.0246     58.4491    109.9216     29.9445
  1776.3000      8.1245      1.6460     -0.0532     60.8474    106.0674     30.5613
  1776.4000      8.1245      1.5981     -0.0485     63.7516    105.1279     31.3662
  1776.5000      8.1558      1.5671      0.0879     65.6282    105.2549     32.2666
  1776.6000      8.1558      1.5503      0.0950     66.6467    106.3408     32.8904
  1776.7000      8.1558      1.5357      0.1150     67.5357    104.7635     32.9789
  1776.8000      8.2092      1.5225      0.0662     68.3315     98.2624     32.8014
  1776.9000      8.2092      1.5155      0.0216     68.7604     92.8127     33.0379
  1777.0000      8.4664      1.5066      0.0143     69.2943     89.4930     33.7754
  1777.1000      8.4664      1.4912      0.0060     70.2333     81.0704     34.1811
  1777.2000      8.4664      1.4819      0.0747     70.7964     68.8272     33.8930
  1777.3000      8.4904      1.4793      0.1178     70.9487     62.4249     33.6050
  1777.4000      8.4904      1.4728      0.0915     71.3460     63.7204     33.6338
  1777.5000      8.3090      1.4657      0.0540     71.7769     65.3432     33.6619
  1777.6000      8.3090      1.4583      0.0502     72.2271     63.0418     33.5602
  1777.7000      8.3090      1.4443      0.0056     73.0733     59.9628     33.8060
  1777.8000      8.4485      1.4347      0.0636     73.6517     59.4583     34.6215
  1777.9000      8.4485      1.4508      0.0612     72.6807     61.4038     35.2359
  1778.0000      8.5843      1.5165      0.0629     68.6946     64.1323     35.2382
  1778.1000      8.5843      1.6413      0.1223     61.1355     65.4197     34.8822
  1778.2000      8.5843      1.7922      0.1425     51.9887     65.6223     34.3344
  1778.3000      8.5159      1.9180      0.1978     44.3606     68.4425     33.6006
  1778.4000      8.5159      2.0062      0.1988     39.0167     75.4030     32.9893
  1778.5000      8.5497      2.0989      0.1924     33.3974     82.7074     32.9882
  1778.6000      8.5497      2.2317      0.2275     25.3486     86.4614     33.0768
  1778.7000      8.5497      2.3767      0.2524     16.5637     88.9723     32.2329
