~Version Information
VERS.                      2.0: CWLS Log ASCII Standard - VERSION 2.0
WRAP.                       NO: One line per depth step
~Well Information Block
STRT.FT                -7.7500: 
STOP.FT              1420.5000: 
STEP.FT                 0.2500: 
NULL.                -999.2500: 
COMP.          Pioneer Natural Resources: COMPANY
WELL.          Parklane 43-34 Tr: WELL
FLD.           Purgatorie River: FIELD
LOC.           1643' FSL & 966' FEL--: LOCATION
PROV.                       CO: PROVINCE
CNTY.               Las Animas: COUNTRY
SRVC.          Patterson Wireline: SERVICE COMPANY
DATE.          Tue Aug 02 11:35:27 2005: LOG DATE
UWI.           05 071 08452 00: UNIQUE WELL ID
~Curve Information Block
DEPT.FT            0 000 00 00: Depth
CCL.                          : Casing Collar Locator
TT3.usec                      : CBL 3' Travel Time
AMP3.mV                       : CBL 3' Amplitude
GR.GAPI                       : Gamma Ray
~Parameter Information Block
~A  Depth       CCL         TT3         AMP3         GR     
# ...
  1198.2500      0.0000    794.6116     10.4467    141.7470
  1198.5000      0.0000    794.6471     10.4444    141.1870
  1198.7500      0.0000    794.5933     10.4009    140.3905
  1199.0000      0.0000    794.3446     10.3262    139.6996
  1199.2500      0.0000    793.6342     10.2237    138.7094
  1199.5000      0.0000    791.9238     10.1043    137.3631
  1199.7500      0.0000    788.5413      9.9948    136.3164
  1200.0000      0.0000    783.2565      9.9307    135.9564
  1200.2500      0.0000    776.7417      9.9333    135.3086
  1200.5000      0.0000    769.9516      9.9871    132.4123
  1200.7500      0.0000    762.9561     10.0451    126.0754
  1201.0000      0.0000    755.3667     10.0671    117.3031
  1201.2500      0.0000    748.2854     10.0539    108.8965
  1201.5000      0.0000    744.4922     10.0399    103.5078
  1201.7500      0.0000    745.8646     10.0548    101.8614
  1202.0000      0.0000    751.6027     10.0987    102.8159
  1202.2500      0.0000    759.5835     10.1466    105.0575
  1202.5000      0.0000    768.3188     10.1721    108.3904
  1202.7500      0.0000    776.9215     10.1674    113.1483
  1203.0000      0.0000    784.3085     10.1486    118.5424
  1203.2500      0.0000    789.5181     10.1413    122.2724
  1203.5000      0.0000    792.4488     10.1576    122.5379
  1203.7500      0.0000    793.7681     10.1824    120.3350
  1204.0000      0.0000    794.2535     10.1824    118.7687
  1204.2500      0.0000    794.3888     10.1326    119.8637
  1204.5000      0.0000    794.3890     10.0396    122.8669
  1204.7500      0.0000    794.3444      9.9403    125.7346
  1205.0000      0.0000    794.3043      9.8751    127.3527
  1205.2500      0.0000    794.2843      9.8532    128.1241
  1205.5000      0.0000    794.2655      9.8433    129.0093
  1205.7500      0.0000    794.2241      9.8046    130.0583
  1206.0000      0.0000    794.1612      9.7272    129.6775
  1206.2500      0.0000    794.1033      9.6354    125.8002
  1206.5000      0.0000    794.0818      9.5531    118.1746
  1206.7500      0.0000    794.1137      9.4794    109.0907
  1207.0000      0.0000    794.1931      9.3982    101.6670
  1207.2500      0.0000    794.2921      9.3039     97.7941
  1207.5000      0.0000    794.3824      9.2102     97.6663
  1207.7500      0.0000    794.4543      9.1381    100.4110
  1208.0000      0.0000    794.5128      9.1010    104.6332
  1208.2500      0.0000    794.5549      9.0986    108.8455
  1208.5000      0.0000    794.5646      9.1209    112.2278
  1208.7500      0.0000    794.5135      9.1565    115.1929
  1209.0000      0.0000    794.3356      9.1986    118.7006
  1209.2500      0.0000    793.8746      9.2456    122.7601
  1209.5000      0.0000    792.9225      9.2942    126.1710
  1209.7500      0.0000    791.4713      9.3318    128.0808
  1210.0000      0.0000    789.9847      9.3423    129.1672
  1210.2500      0.0000    789.1899      9.3227    130.8831
  1210.5000      0.0000    789.3486      9.2896    133.9049
  1210.7500      0.0000    789.7840      9.2673    137.4198
  1211.0000      0.0000    789.2786      9.2724    139.5048
  1211.2500      0.0000    786.9700      9.3075    138.0776
  1211.5000      0.0000    783.0301      9.3582    131.9937
  1211.7500      0.0000    778.7745      9.3955    121.9538
  1212.0000      0.0000    776.0906      9.3873    110.7404
  1212.2500      0.0000    776.3841      9.3188    102.1682
  1212.5000      0.0000    779.6907      9.1966     98.9152
  1212.7500      0.0000    784.6162      9.0353    100.8293
  1213.0000      0.0000    789.2174      8.8492    105.3255
  1213.2500      0.0000    792.1863      8.6609    109.4188
  1213.5000      0.0000    793.4094      8.5058    111.3457
  1213.7500      0.0000    793.5837      8.4159    110.7193
  1214.0000      0.0000    793.4598      8.3947    107.9734
  1214.2500      0.0000    793.4061      8.4092    104.0894
  1214.5000      0.0000    793.4497      8.4083    100.5091
  1214.7500      0.0000    793.5042      8.3539     98.7125
  1215.0000      0.0000    793.5181      8.2419     99.4179
  1215.2500      0.0000    793.4925      8.1020    102.0025
  1215.5000      0.0000    793.4423      7.9823    104.9095
  1215.7500      0.0000    793.3765      7.9277    106.9230
  1216.0000      0.0000    793.3041      7.9601    107.8990
  1216.2500      0.0000    793.2452      8.0703    107.8318
  1216.5000      0.0000    793.2211      8.2211    105.6652
  1216.7500      0.0000    793.2344      8.3634    100.2918
  1217.0000      0.0000    793.2667      8.4627     92.9941
  1217.2500      0.0000    793.2909      8.5244     87.6129
  1217.5000      0.0000    793.2801      8.5982     87.3661
  1217.7500      0.0000    793.2211      8.7489     91.9976
  1218.0000      0.0000    793.1378      9.0161     98.5473
  1218.2500      0.0000    793.0931      9.3942    104.2563
  1218.5000      0.0000    793.1458      9.8391    108.0498
  1218.7500      0.0000    793.2821     10.2778    109.8234
  1219.0000      0.0000    793.2842     10.6091    109.5235
  1219.2500      0.0000    792.4756     10.7159    107.4866
  1219.5000      0.0000    789.4351     10.5149    105.0880
  1219.7500      0.0000    782.2527     10.0214    103.9903
  1220.0000      0.0000    770.1786      9.3697    104.4069
  1220.2500      0.0000    756.1298      8.7587    104.6657
  1220.5000      0.0000    746.8654      8.3532    102.8465
  1220.7500      0.0000    748.3546      8.2011     98.5184
  1221.0000      0.0000    760.0092      8.2231     92.9440
  1221.2500      0.0000    774.6873      8.2800     88.3601
  1221.5000      0.0000    784.7788      8.2611     87.1206
  1221.7500      0.0000    787.0511      8.1220     90.5194
  1222.0000      0.0000    781.9840      7.8671     97.8626
  1222.2500      0.0000    771.2284      7.5377    106.8639
  1222.5000      0.0000    757.6652      7.2386    114.9407
  1222.7500      0.0000    746.6907      7.1339    120.2791
  1223.0000      0.0000    744.6404      7.3411    122.2838
  1223.2500      0.0000    754.2791      7.8152    121.4599
  1223.5000      0.0000    772.0869      8.3777    118.7794
  1223.7500      0.0000    790.7910      8.8635    115.0795
  1224.0000      0.0000    804.6770      9.2185    111.0927
  1224.2500      0.0000    812.3223      9.4885    107.6861
  1224.5000      2.0000    814.6291      9.7710    105.4742
  1224.7500      0.0000    810.3036     10.1743    104.2002
  1225.0000      0.0000    793.1551     10.7995    103.0297
  1225.2500      0.0000    756.7670     11.7243    101.6646
  1225.5000      0.0000    706.2587     12.9357    100.7678
  1225.7500      0.0000    663.5247     14.2242    100.9223
  1226.0000      0.0000    652.7964     15.2116    101.6584
  1226.2500      0.0000    678.4738     15.5997    102.0727
  1226.5000      0.0000    722.1100     15.4020    101.9847
  1226.7500      0.0000    761.2641     14.8936    101.9757
  1227.0000      0.0000    785.9374     14.3670    102.6115
  1227.2500      0.0000    797.8921     13.9546    104.0715
  1227.5000      0.0000    802.0148     13.6143    106.3168
  1227.7500      0.0000    801.7974     13.2202    109.2362
  1228.0000      0.0000    799.5662     12.6790    112.5337
  1228.2500      0.0000    797.0961     12.0015    115.5935
  1228.5000      0.0000    795.3705     11.2868    117.7089
  1228.7500      0.0000    794.5247     10.6470    118.7769
  1229.0000      0.0000    794.2719     10.1477    119.8770
  1229.2500      0.0000    794.3372      9.8001    122.8188
  1229.5000      0.0000    794.5947      9.5884    128.6722
  1229.7500      0.0000    795.0915      9.4948    136.5769
  1230.0000      0.0000    796.0850      9.5045    143.9946
  1230.2500      0.0000    797.9189      9.5973    148.1032
  1230.5000      0.0000    800.5642      9.7416    147.0854
  1230.7500      0.0000    803.1526      9.9033    140.5598
  1231.0000      0.0000    804.3105     10.0611    129.5335
  1231.2500      0.0000    803.3241     10.2074    116.3770
  1231.5000      0.0000    800.8457     10.3368    104.4678
