~Version Information
VERS.                      2.0: CWLS Log ASCII Standard - VERSION 2.0
WRAP.                       NO: One line per depth step
~Well Information Block
STRT.FT               830.0000: 
STOP.FT              2368.5000: 
STEP.FT                 0.1000: 
NULL.                -999.2500: 
COMP.          Pioneer Natural Resources: COMPANY
WELL.              Rolls 14-14: WELL
FLD.           Purgatoire River: FIELD
LOC.           572' FSL & 856' FWL: LOCATION
PROV.                 Colorado: PROVINCE
CNTY.               Las Animas: COUNTRY
SRVC.                Patterson: SERVICE COMPANY
DATE.          Mon Aug 01 05:48:31 2005: LOG DATE
UWI.           05 071 08455 00: UNIQUE WELL ID
~Curve Information Block
DEPT.FT            0 000 00 00: Depth
DCAL.in                       : CDL Caliper
RHOB.g/cc                     : CDL Bulk Density
RHOC.g/cc                     : CDL Density Correction
DPOR.pu                       : CDL Density Porosity
GR.GAPI                       : Gamma Ray
NPOR.pu                       : Neutron Porosity
~Parameter Information Block
~A  Depth       DCAL        RHOB        RHOC        DPOR         GR         NPOR    
   830.0000      5.0763      2.0550      0.2546     36.0581    108.2230     22.6831
   830.1000      5.0763      2.0660      0.2991     35.3936    114.2482     22.3094
   830.2000      5.0763      2.0930      0.3298     33.7561    119.0804     20.8529
   830.3000      5.0753      2.1140      0.3405     32.4860    121.8740     19.4895
   830.4000      5.0753      2.1169      0.3366     32.3120    121.9556     18.8662
   830.5000      5.0785      2.1069      0.3511     32.9127    120.4582     18.9783
   830.6000      5.0785      2.1056      0.3056     32.9954    119.3614     19.5861
   830.7000      5.0785      2.1188      0.3705     32.1910    116.6028     20.2998
   830.8000      5.0804      2.1271      0.3633     31.6890    115.5302     20.8476
   830.9000      5.0804      2.1219      0.3135     32.0061    121.3180     21.1751
   831.0000      5.0785      2.1081      0.3370     32.8442    126.3040     20.9820
   831.1000      5.0785      2.0828      0.3498     34.3732    123.0166     20.2975
   831.2000      5.0785      2.0494      0.2939     36.3991    115.7176     20.0193
   831.3000      5.0822      2.0246      0.2899     37.9001    108.7205     20.5593
   831.4000      5.0822      2.0202      0.2808     38.1674    104.1307     21.4760
   831.5000      5.0755      2.0351      0.3023     37.2650    104.7445     22.2217
   831.6000      5.0755      2.0586      0.3229     35.8412    109.4433     22.1065
   831.7000      5.0755      2.0752      0.3615     34.8388    114.1670     21.3362
   831.8000      5.0781      2.0788      0.3347     34.6186    115.3986     20.8834
   831.9000      5.0781      2.0766      0.3786     34.7536    110.3085     20.7802
   832.0000      5.0788      2.0754      0.3365     34.8243    104.1857     20.3296
   832.1000      5.0788      2.0810      0.3471     34.4841    101.9448     19.3669
   832.2000      5.0788      2.0934      0.3034     33.7356     99.0428     18.5172
   832.3000      5.0792      2.1026      0.3740     33.1759     98.7458     18.1834
   832.4000      5.0792      2.0996      0.3680     33.3577    106.2353     18.1223
   832.5000      5.0726      2.0821      0.3772     34.4209    112.9977     18.1519
   832.6000      5.0726      2.0588      0.2925     35.8291    113.1545     18.7593
   832.7000      5.0726      2.0413      0.3442     36.8891    110.8990     19.9424
   832.8000      5.0766      2.0286      0.2805     37.6632    111.1960     20.6369
   832.9000      5.0766      2.0232      0.2999     37.9877    112.6232     20.4896
   833.0000      5.0802      2.0299      0.3256     37.5803    111.3193     20.2177
   833.1000      5.0802      2.0410      0.3351     36.9115    109.3093     20.0033
   833.2000      5.0802      2.0456      0.3552     36.6313    111.1961     20.0570
   833.3000      5.0834      2.0410      0.3375     36.9084    117.2637     20.6697
   833.4000      5.0834      2.0352      0.2962     37.2623    127.6208     21.1502
   833.5000      5.0718      2.0364      0.3214     37.1892    138.6068     20.9302
   833.6000      5.0718      2.0445      0.3069     36.6949    143.2812     20.4409
   833.7000      5.0718      2.0560      0.2944     36.0027    142.0911     20.2088
   833.8000      5.0763      2.0623      0.3642     35.6188    136.1105     20.4704
   833.9000      5.0763      2.0562      0.3033     35.9904    126.2489     21.1090
   834.0000      5.0756      2.0431      0.3353     36.7837    117.1858     21.5834
   834.1000      5.0756      2.0335      0.3154     37.3647    110.7298     21.2480
   834.2000      5.0756      2.0327      0.3246     37.4119    104.8775     20.2465
   834.3000      5.0777      2.0403      0.3087     36.9530     98.9113     19.9210
   834.4000      5.0777      2.0513      0.3506     36.2879     94.9712     20.7227
   834.5000      5.0781      2.0542      0.3757     36.1098     95.7562     21.9160
   834.6000      5.0781      2.0432      0.3788     36.7760    103.3592     22.8361
   834.7000      5.0781      2.0317      0.3121     37.4747    114.2465     22.7587
   834.8000      5.0774      2.0349      0.3560     37.2817    120.7447     22.3181
   834.9000      5.0774      2.0514      0.3259     36.2787    122.3473     23.0297
   835.0000      5.0693      2.0776      0.3207     34.6913    121.5060     24.3924
   835.1000      5.0693      2.1068      0.3566     32.9207    114.6884     25.2445
   835.2000      5.0693      2.1244      0.3733     31.8549    101.0682     25.6873
   835.3000      5.0704      2.1319      0.3006     31.3992     89.2538     25.9894
   835.4000      5.0704      2.1401      0.3893     30.9049     82.9391     25.6253
   835.5000      5.0735      2.1444      0.3467     30.6446     81.4392     24.5432
   835.6000      5.0735      2.1448      0.3670     30.6201     87.8304     23.9319
   835.7000      5.0735      2.1519      0.3603     30.1907     99.5607     24.6276
   835.8000      5.0772      2.1666      0.3943     29.2972    108.4848     26.4967
   835.9000      5.0772      2.1784      0.3954     28.5841    111.0555     28.2883
   836.0000      5.0747      2.1850      0.3775     28.1837    110.5623     28.7298
   836.1000      5.0747      2.1954      0.3814     27.5536    111.7241     28.1273
   836.2000      5.0747      2.2150      0.3932     26.3615    114.2636     27.2402
   836.3000      5.0688      2.2317      0.4512     25.3515    116.5779     26.4886
   836.4000      5.0688      2.2253      0.4404     25.7375    121.7227     25.9072
   836.5000      5.0637      2.1938      0.4020     27.6484    128.6471     25.3346
   836.6000      5.0637      2.1458      0.3997     30.5564    132.2468     25.2626
   836.7000      5.0637      2.0874      0.3853     34.0989    131.6827     25.6737
   836.8000      5.0531      2.0271      0.3622     37.7531    127.5057     25.9795
   836.9000      5.0531      1.9715      0.3574     41.1236    123.9088     26.1499
   837.0000      5.0636      1.9263      0.3154     43.8617    124.8537     25.8093
   837.1000      5.0636      1.9074      0.2832     45.0084    127.5526     24.7469
   837.2000      5.0636      1.9243      0.3439     43.9796    126.8797     23.4373
   837.3000      5.0753      1.9612      0.3610     41.7460    121.7010     22.3974
   837.4000      5.0753      1.9933      0.3600     39.7980    119.6514     21.9948
   837.5000      5.0788      2.0136      0.3641     38.5669    126.5048     21.8153
   837.6000      5.0788      2.0299      0.3665     37.5827    135.7977     21.4408
   837.7000      5.0788      2.0450      0.4137     36.6661    139.2260     21.5437
   837.8000      5.0742      2.0568      0.3853     35.9500    139.8751     22.2324
   837.9000      5.0742      2.0682      0.4109     35.2597    141.5238     22.7802
   838.0000      5.0738      2.0778      0.4410     34.6763    141.9857     22.8217
   838.1000      5.0738      2.0826      0.4291     34.3899    142.0782     22.5767
   838.2000      5.0738      2.0909      0.3798     33.8837    140.5951     22.7777
   838.3000      5.0665      2.1076      0.4328     32.8745    134.6051     23.6497
   838.4000      5.0665      2.1156      0.4467     32.3852    126.4463     24.6538
   838.5000      5.0685      2.1042      0.4259     33.0763    119.4053     25.2606
   838.6000      5.0685      2.0886      0.4141     34.0272    117.5826     25.3389
   838.7000      5.0685      2.0861      0.4029     34.1744    123.8400     25.1860
   838.8000      5.0674      2.0901      0.4239     33.9305    130.1561     25.2460
   838.9000      5.0674      2.0831      0.3919     34.3606    126.9565     25.7755
   839.0000      5.0660      2.0685      0.3608     35.2430    117.0659     26.7716
   839.1000      5.0660      2.0637      0.3528     35.5304    107.7289     27.2603
   839.2000      5.0660      2.0726      0.3873     34.9942    105.2755     26.5107
   839.3000      5.0662      2.0859      0.3641     34.1879    111.7187     25.6873
   839.4000      5.0662      2.0950      0.3846     33.6364    119.3752     25.4181
   839.5000      5.0798      2.0950      0.3675     33.6382    123.1193     25.1113
