~Version Information
VERS.                      2.0: CWLS Log ASCII Standard - VERSION 2.0
WRAP.                       NO: One line per depth step
~Well Information Block
STRT.FT                -9.5000: 
STOP.FT              2305.7500: 
STEP.FT                 0.2500: 
NULL.                -999.2500: 
COMP.          Pioneer Natural Resources: COMPANY
WELL.          Fittipaldi 21-12: WELL
FLD.           Purgatorie River: FIELD
LOC.           207' FNL & 2110' FWL--: LOCATION
CNTY.               Las Animas: COUNTY
SRVC.          Patterson Wireline: SERVICE COMPANY
DATE.          Wed Apr 12 10:38:25 2006: LOG DATE
UWI.           05 071 08492 00: UNIQUE WELL ID
STAT.                       CO: STATE
~Curve Information Block
DEPT.FT            0 000 00 00: Depth
CCL.                          : Casing Collar Locator
TT3.usec                      : CBL 3' Travel Time
AMP3.mV                       : CBL 3' Amplitude
GR.GAPI                       : Gamma Ray
~Parameter Information Block
~A  Depth       CCL         TT3         AMP3         GR     
# ...
  1364.0000      0.0000    668.1951      2.9964     96.1169
  1364.2500      0.0000    628.7999      3.0365    106.1426
  1364.5000      0.0000    574.2369      3.0882    115.8307
  1364.7500      0.0000    515.8243      3.1258    123.0179
  1365.0000      0.0000    468.1476      3.1314    126.0587
  1365.2500      0.0000    439.4477      3.1067    124.9849
  1365.5000      0.0000    428.1852      3.0734    121.0907
  1365.7500      0.0000    427.8091      3.0592    115.7728
  1366.0000      0.0000    432.7419      3.0816    110.2054
  1366.2500      0.0000    440.2751      3.1413    105.4570
  1366.5000      0.0000    449.6688      3.2288    101.9685
  1366.7500      0.0000    461.4423      3.3352     99.1745
  1367.0000      0.0000    477.0522      3.4531     96.3079
  1367.2500      0.0000    497.2662      3.5668     93.4047
  1367.5000      0.0000    519.1388      3.6459     91.1290
  1367.7500      0.0000    534.6690      3.6567     89.9375
  1368.0000      0.0000    534.7882      3.5860     89.7337
  1368.2500      0.0000    517.0049      3.4521     90.1395
  1368.5000      0.0000    489.0114      3.2924     90.9286
  1368.7500      0.0000    463.4487      3.1405     92.3341
  1369.0000      0.0000    449.0202      3.0177     95.0379
  1369.2500      0.0000    446.6320      2.9379     99.6816
  1369.5000      0.0000    452.6153      2.9094    106.0285
  1369.7500      0.0000    463.5997      2.9294    112.3814
  1370.0000      0.0000    477.4447      2.9808    116.1280
  1370.2500      0.0000    490.7010      3.0409    115.6268
  1370.5000      0.0000    498.1549      3.0921    112.0401
  1370.7500      0.0000    497.0085      3.1282    108.8877
  1371.0000      0.0000    490.2497      3.1514    109.0341
  1371.2500      0.0000    483.9468      3.1638    112.1525
  1371.5000      0.0000    482.2855      3.1646    115.7034
  1371.7500      0.0000    487.0431      3.1569    118.0779
  1372.0000      0.0000    500.6392      3.1513    119.7846
  1372.2500      0.0000    526.6516      3.1555    121.7518
  1372.5000      0.0000    565.6158      3.1638    123.6761
  1372.7500      0.0000    611.1188      3.1625    124.4481
  1373.0000      0.0000    652.2766      3.1436    123.4429
  1373.2500      0.0000    681.0195      3.1104    120.8595
  1373.5000      0.0000    696.4744      3.0714    117.2890
  1373.7500      0.0000    702.8494      3.0345    113.5658
  1374.0000      0.0000    704.8796      3.0046    110.5534
  1374.2500      0.0000    705.4283      2.9826    108.2586
  1374.5000      0.0000    705.6167      2.9664    105.4524
  1374.7500      0.0000    705.7350      2.9537    100.9706
  1375.0000      0.0000    705.8427      2.9449     95.3835
  1375.2500      0.0000    705.9734      2.9424     90.9015
  1375.5000      0.0000    706.1208      2.9491     89.5799
  1375.7500      0.0000    706.2131      2.9674     91.7589
  1376.0000      0.0000    706.1090      2.9975     96.0685
  1376.2500      0.0000    705.4698      3.0356    100.6169
  1376.5000      0.0000    703.3071      3.0731    104.1711
  1376.7500      0.0000    697.3251      3.1019    106.6068
  1377.0000      0.0000    684.1183      3.1210    108.5956
  1377.2500      0.0000    661.8941      3.1365    110.7310
  1377.5000      0.0000    634.9355      3.1513    112.6897
  1377.7500      0.0000    614.3029      3.1589    113.4521
  1378.0000      0.0000    610.4930      3.1485    112.6006
  1378.2500      0.0000    624.0587      3.1164    111.2109
  1378.5000      0.0000    645.2097      3.0712    111.0424
  1378.7500      0.0000    662.7299      3.0300    112.7968
  1379.0000      0.0000    670.9850      3.0098    115.5135
  1379.2500      0.0000    668.9706      3.0178    117.7979
  1379.5000      0.0000    656.8895      3.0471    119.3532
  1379.7500      0.0000    635.9938      3.0824    121.0588
  1380.0000      0.0000    609.8636      3.1096    123.6598
  1380.2500      0.0000    583.3598      3.1242    126.6709
  1380.5000      0.0000    559.9122      3.1329    128.7068
  1380.7500      0.0000    539.9653      3.1463    128.7065
  1381.0000      0.0000    522.3195      3.1698    126.6769
  1381.2500      0.0000    507.8447      3.2011    123.5549
  1381.5000      0.0000    500.9154      3.2362    120.6911
  1381.7500      0.0000    504.9242      3.2747    119.3935
  1382.0000      0.0000    516.9362      3.3165    120.5679
  1382.2500      0.0000    529.1302      3.3581    124.3729
  1382.5000      0.0000    535.3431      3.3946    129.9381
  1382.7500      0.0000    534.4181      3.4261    135.5526
  1383.0000      0.0000    528.1315      3.4598    139.5470
  1383.2500      0.0000    519.2043      3.5005    141.2243
  1383.5000      0.0000    511.5755      3.5394    141.0153
  1383.7500      0.0000    509.4018      3.5494    139.6964
  1384.0000      0.0000    514.3297      3.4954    137.4887
  1384.2500      0.0000    524.5831      3.3557    134.1002
  1384.5000      0.0000    536.9747      3.1437    129.5961
  1384.7500      0.0000    548.9784      2.9141    124.8249
  1385.0000      0.0000    559.0134      2.7480    120.9538
  1385.2500      0.0000    565.3990      2.7143    118.8135
  1385.5000      0.0000    564.7326      2.8268    118.4282
  1385.7500      0.0000    552.3181      3.0345    118.9374
  1386.0000      0.0000    527.3124      3.2619    119.0981
  1386.2500      0.0000    498.6006      3.4568    117.9645
  1386.5000      0.0000    483.0929      3.5998    115.2765
  1386.7500      0.0000    495.1913      3.6847    111.6307
  1387.0000     -2.0000    535.9896      3.7086    108.2341
  1387.2500      0.0000    591.7286      3.6835    106.0297
  1387.5000      0.0000    642.8892      3.6496    105.1205
  1387.7500      0.0000    675.9765      3.6620    105.0947
  1388.0000      0.0000    688.4950      3.7392    105.4779
  1388.2500      0.0000    685.2845      3.8229    105.5379
  1388.5000      0.0000    672.3381      3.8223    104.1773
  1388.7500      0.0000    653.9725      3.7201    100.7368
  1389.0000      0.0000    633.8825      3.6051     96.1912
  1389.2500      0.0000    616.8582      3.5780     93.3143
  1389.5000      0.0000    608.1806      3.6513     95.0457
  1389.7500      0.0000    610.3789      3.7547    101.9947
  1390.0000      0.0000    619.7637      3.8105    111.3167
  1390.2500      0.0000    626.3330      3.7876    118.4107
  1390.5000      0.0000    618.9404      3.7020    120.1649
  1390.7500      0.0000    593.0067      3.5881    116.9118
  1391.0000      0.0000    554.1622      3.4721    111.7340
  1391.2500      0.0000    514.1616      3.3654    108.0958
  1391.5000      0.0000    483.0709      3.2742    107.5935
  1391.7500      0.0000    464.5128      3.2072    109.2572
  1392.0000      0.0000    456.0743      3.1747    110.8844
  1392.2500      0.0000    452.5337      3.1822    111.0516
  1392.5000      0.0000    449.3381      3.2235    109.9624
  1392.7500      0.0000    445.0326      3.2804    108.8372
  1393.0000      0.0000    441.6985      3.3297    108.9098
  1393.2500      0.0000    443.0576      3.3557    110.6632
  1393.5000      0.0000    451.3514      3.3569    113.5024
  1393.7500      0.0000    465.3988      3.3459    116.0696
  1394.0000      0.0000    481.5720      3.3411    117.0040
  1394.2500      0.0000    496.4140      3.3557    115.4619
  1394.5000      0.0000    507.4152      3.3948    111.3489
  1394.7500      0.0000    511.1136      3.4588    105.6780
  1395.0000      0.0000    502.7563      3.5467    100.5959
  1395.2500      0.0000    480.6382      3.6489     98.3697
  1395.5000      0.0000    450.3422      3.7429    100.0032
  1395.7500      0.0000    422.2165      3.8004    104.9094
  1396.0000      0.0000    404.2237      3.7995    111.7394
  1396.2500      0.0000    398.1028      3.7330    119.0539
  1396.5000      0.0000    401.4180      3.6112    125.2352
  1396.7500      0.0000    411.7724      3.4605    128.5315
  1397.0000      0.0000    428.8549      3.3125    128.0041
  1397.2500      0.0000    451.9662      3.1889    124.3693
