~Version Information
VERS.                      2.0: CWLS Log ASCII Standard - VERSION 2.0
WRAP.                       NO: One line per depth step
~Well Information Block
STRT.FT                 0.0000: 
STOP.FT              2062.2500: 
STEP.FT                 0.2500: 
NULL.                -999.2500: 
COMP.          Petrogulf Corporation: COMPANY
WELL.           Montoya 12-44R: WELL
FLD.           Purgatorie River: FIELD
LOC.           713' FSL & 798' FEL: LOCATION
PROV.                 Colorado: PROVINCE
CNTY.               Las Animas: COUNTRY
SRVC.                Patterson: SERVICE COMPANY
DATE.          Wed Nov 09 13:30:24 2005: LOG DATE
UWI.           05-071-08538               : UNIQUE WELL ID
~Curve Information Block
DEPT.FT            0 000 00 00: Depth
CCL.                          : Casing Collar Locator
TT3.usec                      : CBL 3' Travel Time
AMP3.mV                       : CBL 3' Amplitude
GR.GAPI                       : Gamma Ray
~Parameter Information Block
~A  Depth       CCL         TT3         AMP3         GR     
# ...
   938.0000      0.0000    300.8639     24.8229    125.4185
   938.2500      0.0000    300.8183     24.2210    122.1150
   938.5000      0.0000    301.0315     23.1200    117.0597
   938.7500      0.0000    301.2871     22.1509    111.4914
   939.0000      0.0000    301.3631     21.7615    107.4830
   939.2500      0.0000    301.1941     21.9852    106.2400
   939.5000      0.0000    300.8390     22.6386    107.0250
   939.7500      0.0000    300.3825     23.5129    107.9083
   940.0000      0.0000    299.8899     24.4537    107.6597
   940.2500      0.0000    299.4057     25.4077    106.7722
   940.5000      0.0000    298.9594     26.4023    106.3772
   940.7500      0.0000    298.5614     27.5042    106.4412
   941.0000      0.0000    298.1894     28.8070    105.6989
   941.2500      0.0000    297.8206     30.3276    103.3306
   941.5000      0.0000    297.5081     31.8414    100.0009
   941.7500      0.0000    297.3641     32.9589     97.2187
   942.0000      0.0000    297.4147     33.4929     96.4019
   942.2500      0.0000    297.5460     33.6628     98.5432
   942.5000      0.0000    297.6283     33.9053    103.7687
   942.7500      0.0000    297.6107     34.5623    110.6115
   943.0000      0.0000    297.4939     35.6664    116.3037
   943.2500      0.0000    297.3135     36.9076    118.5515
   943.5000      0.0000    297.1513     37.8639    116.9981
   943.7500      0.0000    297.0873     38.2871    112.7052
   944.0000      0.0000    297.1472     38.1020    106.5537
   944.2500      0.0000    297.3072     37.2760     98.6783
   944.5000      0.0000    297.5315     35.8612     89.4386
   944.7500      0.0000    297.8095     34.0575     80.3491
   945.0000      0.0000    298.1469     32.0999     73.4730
   945.2500      0.0000    298.5178     30.1573     69.9304
   945.5000      0.0000    298.8417     28.4255     69.3620
   945.7500      0.0000    299.0276     27.1941     70.7859
   946.0000      0.0000    299.0377     26.6667     73.5725
   946.2500      0.0000    298.9122     26.7562     77.5357
   946.5000      0.0000    298.7350     27.1869     82.4823
   946.7500      0.0000    298.5624     27.7904     87.9088
   947.0000      0.0000    298.3851     28.5721     93.1859
   947.2500      0.0000    298.1743     29.4831     97.9745
   947.5000      0.0000    297.9492     30.2853    102.2971
   947.7500      0.0000    297.7774     30.7219    106.2714
   948.0000      0.0000    297.7121     30.7830    109.9728
   948.2500      0.0000    297.7122     30.7805    113.4431
   948.5000      0.0000    297.6643     31.0822    116.5932
   948.7500      0.0000    297.5436     31.6709    119.2375
   949.0000      0.0000    297.4577     32.0719    121.4661
   949.2500      0.0000    297.4962     31.8092    123.7358
   949.5000      0.0000    297.6632     30.8232    126.0983
   949.7500      0.0000    297.9338     29.4386    127.4410
   950.0000      0.0000    298.2520     28.0890    126.0328
   950.2500      0.0000    298.5102     27.0956    121.0157
   950.5000      0.0000    298.6290     26.5510    113.3540
   950.7500      0.0000    298.6268     26.3376    105.4955
   951.0000      0.0000    298.5873     26.2595    100.0766
   951.2500      0.0000    298.5930     26.1597     98.3753
   951.5000      0.0000    298.6813     25.9888     99.5864
   951.7500      0.0000    298.8212     25.8343    101.7423
   952.0000      0.0000    298.9397     25.8249    103.5119
   952.2500      0.0000    298.9870     25.9881    105.0920
   952.5000      0.0000    298.9779     26.2249    107.4890
   952.7500      0.0000    298.9889     26.3650    111.1835
   953.0000      0.0000    299.1635     26.2213    115.5841
   953.2500      0.0000    299.9801     25.6631    119.6011
   953.5000      0.0000    303.1228     24.6641    122.4872
   953.7500      0.0000    312.1834     23.2868    124.0852
   954.0000      0.0000    331.0385     21.6911    124.4784
   954.2500      0.0000    362.4762     20.1518    123.6684
   954.5000      0.0000    412.7132     18.9335    121.7363
   954.7500      0.0000    488.8320     18.0766    119.1571
   955.0000      0.0000    579.5530     17.3412    116.6473
   955.2500      0.0000    655.3303     16.4305    114.7736
   955.5000      0.0000    699.3801     15.2937    114.1284
   955.7500      0.0000    718.4263     14.1450    115.7282
   956.0000      0.0000    722.2813     13.2352    120.3729
   956.2500      0.0000    713.6821     12.6847    127.2409
   956.5000      0.0000    697.2473     12.4210    133.7115
   956.7500      0.0000    681.9234     12.2262    137.0370
   957.0000      0.0000    671.8408     11.9355    136.1532
   957.2500      0.0000    663.3154     11.5825    131.8951
   957.5000      0.0000    652.0659     11.2946    125.9840
   957.7500      0.0000    640.2269     11.1013    120.2475
   958.0000      0.0000    635.0648     10.9422    116.3352
   958.2500      0.0000    640.9655     10.8167    115.0550
   958.5000      0.0000    655.2689     10.7739    115.4864
   958.7500      0.0000    672.8975     10.8027    115.3887
   959.0000      0.0000    689.4127     10.8494    113.2606
   959.2500      0.0000    695.0620     10.8857    109.8943
   959.5000      0.0000    677.6494     10.9022    107.4390
   959.7500      0.0000    644.7629     10.9037    107.0992
   960.0000      0.0000    623.3696     10.9323    108.1623
   960.2500      0.0000    612.3541     11.0586    108.9067
   960.5000      0.0000    572.9167     11.3368    107.7792
   960.7500      0.0000    494.5544     11.7810    103.8638
   961.0000      0.0000    415.1042     12.3888     97.0142
   961.2500      0.0000    365.1499     13.1419     87.9747
   961.5000      0.0000    342.7817     14.0259     78.3967
   961.7500      0.0000    334.5787     15.1132     70.4628
   962.0000      0.0000    330.9744     16.5343     65.8519
   962.2500      0.0000    326.7670     18.3754     64.6523
   962.5000      0.0000    319.6552     20.6853     65.4083
   962.7500      0.0000    310.7370     23.4256     66.3983
   963.0000      0.0000    303.2861     26.3480     66.8863
   963.2500      0.0000    299.1176     29.1229     67.3176
   963.5000      0.0000    297.4983     31.5735     68.4848
   963.7500      0.0000    297.0503     33.6249     70.4452
   964.0000      0.0000    296.9846     35.1270     72.2712
   964.2500      0.0000    297.0392     35.8809     72.9803
   964.5000      0.0000    297.1689     35.8794     72.4799
   964.7500      0.0000    297.3174     35.4152     71.3170
   965.0000      0.0000    297.4179     34.7161     69.8799
   965.2500      0.0000    297.5351     33.5918     68.4743
   965.5000      0.0000    297.8735     31.7075     67.9805
   965.7500      0.0000    298.9194     29.0585     69.5227
   966.0000      0.0000    303.1099     26.0422     73.0079
   966.2500      0.0000    319.5915     23.2070     76.4495
   966.5000      0.0000    365.7053     20.9769     77.2720
   966.7500      0.0000    446.3970     19.5188     74.3729
   967.0000      0.0000    524.4489     18.7730     68.8448
   967.2500      0.0000    548.6801     18.5037     62.9037
   967.5000      0.0000    522.8711     18.3635     58.3858
   967.7500      0.0000    497.1152     18.0644     56.0736
   968.0000      0.0000    497.3876     17.5199     55.7334
   968.2500      0.0000    506.0322     16.8246     56.3077
   968.5000      0.0000    507.5155     16.0121     56.3859
   968.7500      0.0000    524.4855     14.9351     55.1184
   969.0000      0.0000    577.8796     13.7229     52.8239
   969.2500      0.0000    645.1921     12.9031     50.6602
   969.5000      0.0000    695.0733     12.6910     49.7305
   969.7500      0.0000    722.7717     12.7807     50.3469
   970.0000     -2.0000    736.9213     12.8462     51.8961
   970.2500      2.0000    739.2852     12.8081     53.4566
   970.5000      0.0000    719.9617     12.8077     54.6356
   970.7500      0.0000    669.2257     13.1922     55.7190
   971.0000      0.0000    594.6558     14.3810     57.0069
   971.2500      0.0000    517.8213     16.2377     58.3050
