~Version Information
VERS.                      2.0: CWLS Log ASCII Standard - VERSION 2.0
WRAP.                       NO: One line per depth step
~Well Information Block
STRT.FT                -7.5000: 
STOP.FT              1336.0000: 
STEP.FT                 0.2500: 
NULL.                -999.2500: 
COMP.          Pioneer Natural Resources: COMPANY
WELL.               LPGC 32-32: WELL
FLD.           Purgatorie River: FIELD
LOC.           1937' FNL & 1661' FEL--: LOCATION
CNTY.               Las Animas: COUNTY
SRVC.          Patterson Wireline: SERVICE COMPANY
DATE.          Fri Feb 03 09:39:42 2006: LOG DATE
UWI.           05 071 08641 00: UNIQUE WELL ID
STAT.                       CO: STATE
~Curve Information Block
DEPT.FT            0 000 00 00: Depth
CCL.                          : Casing Collar Locator
TT3.usec                      : CBL 3' Travel Time
AMP3.mV                       : CBL 3' Amplitude
GR.GAPI                       : Gamma Ray
~Parameter Information Block
~A  Depth       CCL         TT3         AMP3         GR     
# ...
  1299.0000      0.0000    306.3464     21.1249     62.8198
  1299.2500      0.0000    308.0721     20.3654     59.4010
  1299.5000      0.0000    311.6516     19.5741     58.2069
  1299.7500      0.0000    318.1352     18.6551     58.9975
  1300.0000      0.0000    327.7718     17.5811     61.2652
  1300.2500      0.0000    339.4886     16.4265     64.5225
  1300.5000      0.0000    351.7161     15.2841     68.5095
  1300.7500      0.0000    363.9809     14.1309     73.0385
  1301.0000      0.0000    377.3753     12.8542     77.3956
  1301.2500      0.0000    393.9256     11.4693     79.9993
  1301.5000      0.0000    415.5617     10.2269     79.2460
  1301.7500      0.0000    441.4595      9.4131     75.1366
  1302.0000     -1.6647    464.6392      9.0889     69.8938
  1302.2500      2.0000    474.5486      9.0722     66.5775
  1302.5000      1.8600    467.6205      9.1131     66.9619
  1302.7500      0.0000    454.4864      9.0550     70.5670
  1303.0000      0.0000    453.2381      8.9056     75.3055
  1303.2500      0.0000    473.8257      8.8190     78.9508
  1303.5000      0.0000    507.4178      8.9756     80.3453
  1303.7500      0.0000    530.4594      9.4418     79.6067
  1304.0000      0.0000    522.7169     10.1740     77.4487
  1304.2500      0.0000    484.2035     11.1258     74.5255
  1304.5000      0.0000    433.4893     12.2673     71.3397
  1304.7500      0.0000    390.5048     13.5054     68.4020
  1305.0000      0.0000    363.5121     14.6712     66.2283
  1305.2500      0.0000    349.9672     15.6221     65.1919
  1305.5000      0.0000    343.6864     16.3290     65.3347
  1305.7500      0.0000    339.5750     16.8550     66.1664
  1306.0000      0.0000    334.7539     17.2741     66.8551
  1306.2500      0.0000    328.4197     17.6205     67.1115
  1306.5000      0.0000    321.4092     17.8937     67.8896
  1306.7500      0.0000    315.3004     18.0858     70.7719
  1307.0000      0.0000    311.3026     18.1984     76.4104
  1307.2500      0.0000    309.7338     18.2421     83.5919
  1307.5000      0.0000    310.2988     18.2288     89.9227
  1307.7500      0.0000    312.4307     18.1700     93.5226
  1308.0000      0.0000    315.3897     18.0768     93.9687
  1308.2500      0.0000    318.5658     17.9604     91.6882
  1308.5000      0.0000    321.9739     17.8295     87.1285
  1308.7500      0.0000    326.0556     17.6951     80.9783
  1309.0000      0.0000    330.6637     17.5765     74.5523
  1309.2500      0.0000    334.5246     17.5012     69.2449
  1309.5000      0.0000    335.9632     17.4885     65.6669
  1309.7500      0.0000    334.1108     17.5327     63.5480
  1310.0000      0.0000    329.6075     17.6032     62.3094
  1310.2500      0.0000    324.4035     17.6612     61.4934
  1310.5000      0.0000    320.6224     17.6808     60.7817
  1310.7500      0.0000    319.2572     17.6559     60.0467
  1311.0000      0.0000    320.0266     17.5905     59.5339
  1311.2500      0.0000    322.4100     17.4861     59.7369
  1311.5000      0.0000    326.2295     17.3399     60.8745
  1311.7500      0.0000    331.0769     17.1536     62.5937
  1312.0000      0.0000    335.8842     16.9404     64.3209
  1312.2500      0.0000    339.5407     16.7184     65.8267
  1312.5000      0.0000    341.6693     16.5018     67.2999
  1312.7500      0.0000    342.6094     16.2992     68.9532
  1313.0000      0.0000    342.8990     16.1179     70.7091
  1313.2500      0.0000    342.9151     15.9626     72.3248
  1313.5000      0.0000    342.8419     15.8292     73.7769
  1313.7500      0.0000    342.7771     15.7020     75.3965
  1314.0000      0.0000    342.8745     15.5586     77.4888
  1314.2500      0.0000    343.5050     15.3820     79.7949
  1314.5000      0.0000    345.6804     15.1742     81.4589
  1314.7500      0.0000    351.8537     14.9577     81.6935
  1315.0000      0.0000    366.7357     14.7590     80.4398
  1315.2500      0.0000    396.6636     14.5848     78.3225
  1315.5000      0.0000    445.8102     14.4151     76.1483
  1315.7500      0.0000    510.6859     14.2222     74.5581
  1316.0000      0.0000    578.9332     13.9949     73.9484
  1316.2500      0.0000    636.3904     13.7437     74.5674
  1316.5000      0.0000    676.3990     13.4827     76.5735
  1316.7500      0.0000    701.5134     13.2154     79.7516
  1317.0000      0.0000    717.4308     12.9460     83.1717
  1317.2500      0.0000    727.6766     12.6988     85.5765
  1317.5000      0.0000    733.5588     12.5168     86.3635
  1317.7500      0.0000    736.0049     12.4324     85.9633
  1318.0000      0.0000    735.7513     12.4408     85.1585
  1318.2500      0.0000    733.0259     12.5034     84.2426
  1318.5000      0.0000    728.3699     12.5769     82.9851
  1318.7500      0.0000    723.2221     12.6422     81.2384
  1319.0000      0.0000    719.1218     12.7073     79.2562
  1319.2500      0.0000    716.6811     12.7867     77.3570
  1319.5000      0.0000    715.6324     12.8808     75.5696
  1319.7500      0.0000    715.5867     12.9748     73.8132
  1320.0000      0.0000    716.6042     13.0520     72.2670
  1320.2500      0.0000    719.2341     13.1009     71.3436
  1320.5000      0.0000    723.9736     13.1125     71.2274
  1320.7500      0.0000    730.4141     13.0808     71.4463
  1321.0000      0.0000    736.9360     13.0105     70.9695
  1321.2500      0.0000    741.6820     12.9227     68.6537
  1321.5000      0.0000    744.0541     12.8444     63.4471
  1321.7500      0.0000    744.9312     12.7882     54.5441
  1322.0000      0.0000    745.3354     12.7424     42.1578
  1322.2500      0.0000    745.4529     12.6859     28.2824
  1322.5000      0.0000    745.1851     12.6123     15.9788
  1322.7500      0.0000    744.8503     12.5377      7.4299
  1323.0000      0.0000    744.7296     12.4852      2.7966
  1323.2500      0.0000    744.5153     12.4657      0.8422
  1323.5000      0.0000    743.8343     12.4723      0.2012
  1323.7500      0.0000    742.8888     12.4918      0.0375
  1324.0000      0.0000    742.1024     12.5186      0.0051
  1324.2500      0.0000    741.4541     12.5573      0.0000
  1324.5000      0.0000    740.3891     12.6128   -999.2500
  1324.7500      0.0000    738.1247     12.6819   -999.2500
  1325.0000      0.0000    734.2527     12.7563   -999.2500
  1325.2500      0.0000    729.5112     12.8329   -999.2500
  1325.5000      0.0000    725.7025     12.9196   -999.2500
  1325.7500      0.0000    724.2667     13.0276   -999.2500
  1326.0000      0.0000    724.9963     13.1575   -999.2500
  1326.2500      0.0000    725.8741     13.2802   -999.2500
  1326.5000      0.0000    722.7450     13.3068   -999.2500
  1326.7500      0.0000    706.9243     13.0447   -999.2500
  1327.0000      0.0000    663.4894     12.1977   -999.2500
  1327.2500      0.0000    577.4633     10.5044   -999.2500
  1327.5000      0.0000    448.5928      8.0013   -999.2500
  1327.7500      0.0000    300.3826      5.1589   -999.2500
  1328.0000      0.0000    168.6145      2.6539   -999.2500
  1328.2500      0.0000     77.7223      0.9355   -999.2500
  1328.5000      0.0000     28.9860      0.0171   -999.2500
  1328.7500      0.0000      8.6533     -0.3653   -999.2500
  1329.0000      0.0000      2.0496     -0.4893   -999.2500
  1329.2500      0.0000      0.3793     -0.5207   -999.2500
  1329.5000      0.0000      0.0504     -0.5268   -999.2500
  1329.7500      0.0000   -999.2500   -999.2500   -999.2500
  1330.0000      0.0000   -999.2500   -999.2500   -999.2500
  1330.2500      0.0000   -999.2500   -999.2500   -999.2500
  1330.5000      0.0000   -999.2500   -999.2500   -999.2500
  1330.7500      0.0000   -999.2500   -999.2500   -999.2500
  1331.0000      0.0000   -999.2500   -999.2500   -999.2500
  1331.2500      0.0000   -999.2500   -999.2500   -999.2500
  1331.5000      0.0000   -999.2500   -999.2500   -999.2500
  1331.7500      0.0000   -999.2500   -999.2500   -999.2500
  1332.0000      0.0000   -999.2500   -999.2500   -999.2500
  1332.2500      0.0000   -999.2500   -999.2500   -999.2500
