~Version Information
VERS.                      2.0: CWLS Log ASCII Standard - VERSION 2.0
WRAP.                       NO: One line per depth step
~Well Information Block
STRT.FT               410.0000: 
STOP.FT              1530.5000: 
STEP.FT                 0.1000: 
NULL.                -999.2500: 
COMP.          Pioneer Natural Resources: COMPANY
WELL.          Pioneer 34-27 Tr: WELL
FLD.           Purgatoire River: FIELD
LOC.           243' FSL & 1593' FEL: LOCATION
STAT.                 Colorado: State
CNTY.               Las Animas: COUNTY
CTRY. USA : Country
SECT. 27 : Section
TOWN. 32S : Township
RANG. 67W : Range 
SRVC.                Patterson: SERVICE COMPANY
DATE.          Fri Oct 07 07:11:38 2005: LOG DATE
API.           05 071 08548 00: UNIQUE WELL ID
~Curve Information Block
DEPT.FT            0 000 00 00: Depth
DCAL.in                       : CDL Caliper
RHOB.g/cc                     : CDL Bulk Density
RHOC.g/cc                     : CDL Density Correction
DPOR.pu                       : CDL Density Porosity
GR.GAPI                       : Gamma Ray
NPOR.pu                       : Neutron Porosity
~Parameter Information Block
~A  Depth       DCAL        RHOB        RHOC        DPOR         GR         NPOR    
# ...
   707.6000      8.0986      2.5163      0.0555      8.1056    151.2030     26.3679
   707.7000      8.0986      2.5351      0.0607      6.9622    153.8618     27.0543
   707.8000      8.1416      2.5542      0.1211      5.8068    156.4396     27.7553
   707.9000      8.1416      2.5555      0.1204      5.7292    153.5821     28.0543
   708.0000      8.1375      2.5446      0.0738      6.3901    145.9200     27.8665
   708.1000      8.1375      2.5478      0.0923      6.1969    137.9268     27.4133
   708.2000      8.1375      2.5653      0.1465      5.1322    132.6893     27.0718
   708.3000      8.0844      2.5733      0.1141      4.6465    133.4500     27.2248
   708.4000      8.0844      2.5658      0.1128      5.1026    141.2889     27.6760
   708.5000      8.0637      2.5518      0.0975      5.9543    151.3284     27.8741
   708.6000      8.0637      2.5451      0.1029      6.3547    159.6442     27.8396
   708.7000      8.0637      2.5674      0.1007      5.0064    166.8687     27.6666
   708.8000      8.0758      2.6141      0.1689      2.1781    169.0997     27.1186
   708.9000      8.0758      2.6388      0.1952      0.6758    162.1465     26.4389
   709.0000      8.0713      2.6124      0.1385      2.2766    150.9212     25.9852
   709.1000      8.0713      2.5591      0.0752      5.5097    144.6461     25.6133
   709.2000      8.0713      2.5165      0.0642      8.0887    147.4053     25.2894
   709.3000      8.0844      2.4986      0.0371      9.1738    152.8298     25.3229
   709.4000      8.0844      2.4982      0.0852      9.2017    153.3321     25.7296
   709.5000      8.0934      2.5023      0.0911      8.9493    152.2710     26.1378
   709.6000      8.0934      2.5033      0.0729      8.8925    151.2742     26.2741
   709.7000      8.0934      2.4927      0.0768      9.5317    145.6378     26.0881
   709.8000      8.1123      2.4693      0.0615     10.9520    139.0664     25.6995
   709.9000      8.1123      2.4495      0.0523     12.1500    138.7033     25.2929
   710.0000      8.1200      2.4534      0.0563     11.9172    143.6427     25.0913
   710.1000      8.1200      2.4800      0.1487     10.3026    148.5393     25.1775
   710.2000      8.1200      2.5085      0.1596      8.5750    150.9105     25.3456
   710.3000      8.1357      2.5303      0.1367      7.2543    150.8048     25.4764
   710.4000      8.1357      2.5481      0.1742      6.1777    149.9889     25.7957
   710.5000      8.1431      2.5620      0.1154      5.3327    150.7346     26.3828
   710.6000      8.1431      2.5835      0.1326      4.0297    150.3739     26.7953
   710.7000      8.1431      2.6136      0.1989      2.2075    147.4339     26.7539
   710.8000      8.1472      2.6297      0.2079      1.2305    143.8389     26.3062
   710.9000      8.1472      2.6261      0.1792      1.4468    140.4948     25.4133
   711.0000      8.1593      2.6152      0.1712      2.1072    136.4651     24.4311
   711.1000      8.1593      2.5982      0.1551      3.1407    130.7524     23.8968
   711.2000      8.1593      2.5734      0.1089      4.6441    125.0230     23.8911
   711.3000      8.1620      2.5436      0.0751      6.4459    120.6064     24.2847
   711.4000      8.1620      2.5104      0.0943      8.4597    117.0513     24.8839
   711.5000      8.1635      2.4882      0.0393      9.8064    115.6225     25.3055
   711.6000      8.1635      2.4960      0.0740      9.3343    117.7040     25.4120
   711.7000      8.1635      2.5222      0.1227      7.7482    122.0610     25.3226
   711.8000      8.1698      2.5454      0.0958      6.3387    125.5440     25.1323
   711.9000      8.1698      2.5608      0.1135      5.4051    126.7564     25.0496
   712.0000      8.1918      2.5601      0.1218      5.4496    126.4192     25.1915
   712.1000      8.1918      2.5357      0.1300      6.9295    125.5938     25.5090
   712.2000      8.1918      2.5021      0.1144      8.9631    126.8282     25.9408
   712.3000      8.1705      2.4800      0.1401     10.3053    130.9229     26.3503
   712.4000      8.1705      2.4739      0.1675     10.6755    133.2148     26.4464
   712.5000      8.1574      2.4830      0.1339     10.1184    132.8431     26.1777
   712.6000      8.1574      2.5182      0.0972      7.9908    132.8683     26.0246
   712.7000      8.1574      2.5827      0.1949      4.0796    134.2764     26.2635
   712.8000      8.1164      2.6522      0.1999     -0.1327    134.6455     26.4271
   712.9000      8.1164      2.6956      0.3141     -2.7637    129.0462     26.1688
   713.0000      8.0947      2.7016      0.2828     -3.1255    118.4078     25.9356
   713.1000      8.0947      2.6836      0.2728     -2.0369    109.6856     25.8625
   713.2000      8.0947      2.6582      0.2202     -0.4943    107.2485     25.5640
   713.3000      8.0695      2.6313      0.1666      1.1338    108.0987     25.1224
   713.4000      8.0695      2.6035      0.1255      2.8164    105.8684     24.8181
   713.5000      8.0457      2.5824      0.0565      4.0966     96.9171     24.5990
   713.6000      8.0457      2.5794      0.0561      4.2816     85.4708     24.3190
   713.7000      8.0457      2.5887      0.0848      3.7127     78.3611     23.8164
   713.8000      7.9919      2.5972      0.0156      3.1993     73.9070     23.0309
   713.9000      7.9919      2.5954      0.0900      3.3077     68.5038     22.2237
   714.0000      8.0221      2.5725      0.0492      4.6957     64.4815     21.7689
   714.1000      8.0221      2.5334      0.0182      7.0665     63.5051     21.7425
   714.2000      8.0221      2.5010      0.0358      9.0325     63.1068     21.7126
   714.3000      8.0207      2.4897      0.0044      9.7161     61.3890     21.3352
   714.4000      8.0207      2.4910      0.0390      9.6376     57.4746     20.8440
   714.5000      8.0282      2.4957      0.0079      9.3519     53.9929     20.5264
   714.6000      8.0282      2.5038      0.0610      8.8619     54.9465     20.5202
   714.7000      8.0282      2.5024      0.1073      8.9448     59.7635     20.6792
   714.8000      8.0433      2.4873      0.0730      9.8577     64.2869     20.5493
   714.9000      8.0433      2.4832      0.0862     10.1116     64.1599     20.0201
   715.0000      8.0121      2.5108      0.0616      8.4366     60.6343     19.6374
   715.1000      8.0121      2.5580      0.1267      5.5763     60.3252     19.7787
   715.2000      8.0121      2.5860      0.2039      3.8793     65.2203     20.1127
   715.3000      7.9772      2.5826      0.1261      4.0856     72.2991     20.0943
   715.4000      7.9772      2.5739      0.1487      4.6113     77.8755     19.8797
   715.5000      7.9739      2.5693      0.1586      4.8931     79.0058     19.8741
   715.6000      7.9739      2.5631      0.0975      5.2659     77.6004     19.8329
   715.7000      7.9739      2.5593      0.1018      5.4950     76.2202     19.5983
   715.8000      7.9795      2.5501      0.0913      6.0532     73.8764     19.2932
   715.9000      7.9795      2.5287      0.0542      7.3489     71.0915     18.9108
   716.0000      8.0060      2.5108      0.0038      8.4340     70.6868     18.6060
   716.1000      8.0060      2.5027      0.0982      8.9271     72.3182     18.4717
   716.2000      8.0060      2.4907      0.0461      9.6529     71.5705     18.2869
   716.3000      8.0834      2.4793      0.0125     10.3474     67.9286     18.0071
   716.4000      8.0834      2.4763      0.0461     10.5249     64.6136     17.7874
   716.5000      8.1492      2.4634      0.1039     11.3093     61.2850     17.7131
   716.6000      8.1492      2.4343      0.0204     13.0743     57.9236     18.0259
   716.7000      8.1492      2.4207      0.0251     13.8946     59.6272     18.6317
   716.8000      8.1334      2.4368      0.0697     12.9221     67.0888     18.9901
   716.9000      8.1334      2.4508      0.1352     12.0731     69.9391     18.9533
   717.0000      8.1091      2.4435      0.0632     12.5139     63.3909     18.6749
   717.1000      8.1091      2.4428      0.0519     12.5577     57.3884     18.2110
