~Version Information
VERS.                      2.0: CWLS Log ASCII Standard - VERSION 2.0
WRAP.                       NO: One line per depth step
~Well Information Block
STRT.FT               460.0000: 
STOP.FT              3058.5000: 
STEP.FT                 0.1000: 
NULL.                -999.2500: 
COMP.          Pioneer Natural Resources: COMPANY
WELL.            Cleaver 24-12: WELL
FLD.           Purgatoire River: FIELD
LOC.           204' FSL & 2351' FWL: LOCATION
PROV.                 Colorado: PROVINCE
CNTY.               Las Animas: COUNTRY
SRVC.                Patterson: SERVICE COMPANY
DATE.          Mon Jan 09 13:49:27 2006: LOG DATE
UWI.           05 071 08634 00: UNIQUE WELL ID
~Curve Information Block
DEPT.FT            0 000 00 00: Depth
DCAL.in                       : CDL Caliper
RHOB.g/cc                     : CDL Bulk Density
RHOC.g/cc                     : CDL Density Correction
DPOR.pu                       : CDL Density Porosity
GR.GAPI                       : Gamma Ray
NPOR.pu                       : Neutron Porosity
~Parameter Information Block
~A  Depth       DCAL        RHOB        RHOC        DPOR         GR         NPOR    
# ...
  2524.0000      7.8528      2.5975      0.0897      3.1848    121.7063     22.7501
  2524.1000      7.8528      2.5842      0.0457      3.9899    114.4798     21.7177
  2524.2000      7.8528      2.5689      0.0322      4.9173    108.8655     21.2045
  2524.3000      7.8517      2.5659      0.0462      5.0962    106.6856     21.4309
  2524.4000      7.8517      2.5662      0.0587      5.0763    104.0562     21.8742
  2524.5000      7.8585      2.5635      0.0019      5.2422    101.9974     22.5744
  2524.6000      7.8585      2.5679      0.0303      4.9751    102.9167     23.4300
  2524.7000      7.8585      2.5896      0.0074      3.6605    102.9315     23.7600
  2524.8000      7.8611      2.6250      0.0239      1.5123     99.0177     23.1468
  2524.9000      7.8611      2.6512      0.0686     -0.0756     94.8364     22.1798
  2525.0000      7.8301      2.6418      0.1441      0.4950     93.5422     21.3738
  2525.1000      7.8301      2.6054      0.0412      2.7008     95.6005     20.4666
  2525.2000      7.8301      2.5818      0.0406      4.1323    100.9907     19.6692
  2525.3000      7.8315      2.5879      0.0349      3.7622    106.3528     19.5747
  2525.4000      7.8315      2.6140      0.0643      2.1810    105.5002     19.9905
  2525.5000      7.8103      2.6483      0.1725      0.1024     98.3320     20.3890
  2525.6000      7.8103      2.6716      0.1325     -1.3114     91.0378     21.0219
  2525.7000      7.8103      2.6690      0.0937     -1.1504     89.0740     21.8877
  2525.8000      7.8055      2.6509      0.0827     -0.0541     93.4651     22.1813
  2525.9000      7.8055      2.6387      0.0682      0.6862     99.8931     21.5376
  2526.0000      7.8110      2.6324      0.0666      1.0689    104.5230     20.8401
  2526.1000      7.8110      2.6197      0.0544      1.8383    105.9242     21.0253
  2526.2000      7.8110      2.6035      0.0594      2.8159    104.6629     21.6180
  2526.3000      7.8130      2.5984      0.0300      3.1273    103.3098     21.4207
  2526.4000      7.8130      2.6051      0.0690      2.7188    100.0985     20.3586
  2526.5000      7.8126      2.6036      0.0798      2.8107     91.7291     19.7346
  2526.6000      7.8126      2.5843      0.0728      3.9812     82.5366     20.1321
  2526.7000      7.8126      2.5582      0.0274      5.5609     78.0171     20.5760
  2526.8000      7.8120      2.5304      0.0268      7.2488     73.1430     20.3937
  2526.9000      7.8120      2.5020     -0.0227      8.9716     63.1032     19.9777
  2527.0000      7.8159      2.4872     -0.0158      9.8639     54.9571     19.4186
  2527.1000      7.8159      2.4879      0.0397      9.8255     54.2952     18.5873
  2527.2000      7.8159      2.4890      0.0332      9.7603     56.5229     17.8335
  2527.3000      7.8014      2.4902      0.0473      9.6858     57.7733     17.2425
  2527.4000      7.8014      2.4930      0.0742      9.5177     58.2180     16.6099
  2527.5000      7.8005      2.4895      0.0472      9.7283     58.1540     16.1632
  2527.6000      7.8005      2.4819      0.0518     10.1865     58.4212     16.2142
  2527.7000      7.8005      2.4792      0.0166     10.3500     59.7656     16.5522
  2527.8000      7.8056      2.4848      0.0250     10.0140     61.2092     16.8768
  2527.9000      7.8056      2.4933      0.0474      9.4973     62.9834     17.4624
  2528.0000      7.8049      2.4984      0.0730      9.1874     66.7708     18.0338
  2528.1000      7.8049      2.4954      0.0595      9.3669     68.1538     17.5324
  2528.2000      7.8049      2.4817      0.0215     10.2026     63.2241     15.9777
  2528.3000      7.8070      2.4619      0.0598     11.4022     57.1940     14.4507
  2528.4000      7.8070      2.4451      0.0440     12.4197     54.6724     13.7257
  2528.5000      7.8067      2.4377      0.0404     12.8646     54.3530     13.7725
  2528.6000      7.8067      2.4451      0.0221     12.4182     54.6375     14.1850
  2528.7000      7.8067      2.4693      0.0451     10.9491     56.1423     14.5925
  2528.8000      7.8215      2.4969      0.0954      9.2799     59.3236     14.2233
  2528.9000      7.8215      2.5093      0.0741      8.5299     61.8185     13.1845
  2529.0000      7.8259      2.5080      0.0560      8.6058     60.1281     12.8289
  2529.1000      7.8259      2.4984      0.0736      9.1901     55.9136     13.4389
  2529.2000      7.8259      2.4808      0.0044     10.2559     52.5881     14.2775
  2529.3000      7.8312      2.4683      0.0223     11.0109     50.6467     15.1069
  2529.4000      7.8312      2.4692      0.0380     10.9596     50.4998     16.1212
  2529.5000      7.8370      2.4712      0.0630     10.8375     49.7635     17.1305
  2529.6000      7.8370      2.4636      0.0248     11.2961     46.4057     17.7941
  2529.7000      7.8370      2.4589      0.0421     11.5822     44.0489     17.8386
  2529.8000      7.8436      2.4761      0.0147     10.5398     45.1807     16.9348
  2529.9000      7.8436      2.5071      0.0501      8.6615     46.2939     15.2366
  2530.0000      7.8437      2.5228      0.0862      7.7118     47.3209     13.8453
  2530.1000      7.8437      2.5166      0.0375      8.0846     51.4079     13.5402
  2530.2000      7.8437      2.5034      0.0589      8.8857     55.2635     13.9008
  2530.3000      7.8485      2.4852      0.0265      9.9863     56.8337     14.2835
  2530.4000      7.8485      2.4583      0.0281     11.6153     59.4133     14.6743
  2530.5000      7.8486      2.4280      0.0232     13.4532     62.0640     15.1833
  2530.6000      7.8486      2.4060      0.0025     14.7880     59.6125     15.3800
  2530.7000      7.8486      2.3983      0.0214     15.2573     53.6023     14.8272
  2530.8000      7.8410      2.3950      0.0195     15.4551     50.0437     13.8510
  2530.9000      7.8410      2.3894     -0.0410     15.7961     49.3470     13.1781
  2531.0000      7.8351      2.3907      0.0089     15.7147     49.6505     13.1108
  2531.1000      7.8351      2.4002      0.0512     15.1408     49.1294     13.2805
  2531.2000      7.8351      2.4079      0.0659     14.6707     45.6855     13.1235
  2531.3000      7.8310      2.4087      0.0475     14.6239     41.8147     12.7072
  2531.4000      7.8310      2.4004      0.0360     15.1293     42.1837     12.5118
  2531.5000      7.8341      2.3785      0.0447     16.4558     45.2773     12.6467
  2531.6000      7.8341      2.3523     -0.0077     18.0398     44.7496     12.7893
  2531.7000      7.8341      2.3494     -0.0025     18.2158     39.7518     12.5763
  2531.8000      7.8394      2.3745      0.0083     16.6975     34.8951     11.8272
  2531.9000      7.8394      2.3996      0.0822     15.1786     32.9889     11.0588
  2532.0000      7.8419      2.4110      0.0329     14.4877     35.4692     10.7887
  2532.1000      7.8419      2.4210      0.0640     13.8774     40.6054     10.8472
  2532.2000      7.8419      2.4301      0.1057     13.3286     44.2905     11.2583
  2532.3000      7.8343      2.4341      0.0095     13.0837     45.2654     12.1801
  2532.4000      7.8343      2.4424      0.0692     12.5810     44.6515     13.1351
  2532.5000      7.8353      2.4463      0.1125     12.3484     43.1879     13.4989
  2532.6000      7.8353      2.4243      0.0915     13.6812     42.0971     13.2670
  2532.7000      7.8353      2.3834      0.0003     16.1605     41.5088     12.9620
  2532.8000      7.8355      2.3613     -0.0330     17.4987     41.4520     13.1528
  2532.9000      7.8355      2.3788     -0.0062     16.4335     44.4089     13.7455
  2533.0000      7.8343      2.4159      0.0419     14.1897     50.0598     14.5114
  2533.1000      7.8343      2.4403      0.0876     12.7106     53.4548     15.5192
  2533.2000      7.8343      2.4438      0.0567     12.4990     51.7252     16.3579
  2533.3000      7.8351      2.4475      0.0372     12.2701     47.0916     16.7885
  2533.4000      7.8351      2.4681      0.0834     11.0222     45.2317     17.2554
  2533.5000      7.8329      2.4955      0.1016      9.3633     46.9823     17.9321
