~Version Information
VERS.                      2.0: CWLS Log ASCII Standard - VERSION 2.0
WRAP.                       NO: One line per depth step
~Well Information Block
STRT.FT               875.0000: 
STOP.FT              2947.2000: 
STEP.FT                 0.1000: 
NULL.                -999.2500: 
COMP.          Pioneer Natural Resources: COMPANY
WELL.          Hanginstone 21-27: WELL
FLD.           Purgatoire River: FIELD
LOC.           1186' FNL & 1606' FWL--: LOCATION
PROV.                 Colorado: PROVINCE
CNTY.               Las Animas: COUNTRY
SRVC.                Patterson: SERVICE COMPANY
DATE.          Mon Jan 09 07:31:45 2006: LOG DATE
UWI.           05 071 08632 00: UNIQUE WELL ID
~Curve Information Block
DEPT.FT            0 000 00 00: Depth
DCAL.in                       : CDL Caliper
RHOB.g/cc                     : CDL Bulk Density
RHOC.g/cc                     : CDL Density Correction
DPOR.pu                       : CDL Density Porosity
NPOR.pu                       : Neutron Porosity
GR.GAPI                       : Gamma Ray
~Parameter Information Block
~A  Depth       DCAL        RHOB        RHOC        DPOR        NPOR         GR     
   875.0000      8.1849      2.4877     -0.2270      9.8391     34.8097     54.9525
   875.1000      8.1849      2.5138     -0.1765      8.2537     34.8926     53.4329
   875.2000      8.1849      2.5437     -0.1436      6.4436     35.0386     53.0235
   875.3000      8.1850      2.5497     -0.1461      6.0799     35.2490     54.9244
   875.4000      8.1850      2.5266     -0.1607      7.4768     35.4673     57.9174
   875.5000      8.1844      2.4887     -0.2126      9.7786     35.6719     58.7598
   875.6000      8.1844      2.4539     -0.2462     11.8866     35.6511     56.1362
   875.7000      8.1844      2.4442     -0.2482     12.4745     35.3482     52.5508
   875.8000      8.1836      2.4579     -0.2368     11.6445     34.9658     52.3483
   875.9000      8.1836      2.4650     -0.2301     11.2147     34.6856     57.8563
   876.0000      8.1851      2.4539     -0.2855     11.8865     34.6727     66.0707
   876.1000      8.1851      2.4459     -0.2993     12.3674     35.0292     70.9303
   876.2000      8.1851      2.4522     -0.2795     11.9856     35.6083     70.1463
   876.3000      8.1867      2.4509     -0.2362     12.0678     36.0689     66.7718
   876.4000      8.1867      2.4228     -0.2636     13.7701     36.2310     66.1480
   876.5000      8.1853      2.3832     -0.2982     16.1668     36.1762     69.3443
   876.6000      8.1853      2.3575     -0.3013     17.7246     36.0243     71.1486
   876.7000      8.1853      2.3505     -0.2908     18.1504     35.9719     67.9642
   876.8000      8.1845      2.3560     -0.2636     17.8163     36.1877     63.6567
   876.9000      8.1845      2.3654     -0.2447     17.2503     36.4536     63.4012
   877.0000      8.1856      2.3687     -0.2558     17.0485     36.3565     66.2316
   877.1000      8.1856      2.3738     -0.2609     16.7413     35.9630     69.6607
   877.2000      8.1856      2.3954     -0.2208     15.4295     35.6740     72.9383
   877.3000      8.1869      2.4228     -0.1488     13.7706     35.4935     74.8667
   877.4000      8.1869      2.4280     -0.1303     13.4517     35.2501     75.1432
   877.5000      8.1892      2.4047     -0.1956     14.8663     34.9247     73.0191
   877.6000      8.1892      2.3736     -0.1808     16.7542     34.5645     67.5649
   877.7000      8.1892      2.3567     -0.1744     17.7776     34.4583     60.7323
   877.8000      8.1907      2.3602     -0.1958     17.5652     34.7255     56.9409
   877.9000      8.1907      2.3745     -0.1337     16.6990     34.9531     56.8123
   878.0000      8.1896      2.3894     -0.1906     15.7966     34.9628     56.7309
   878.1000      8.1896      2.4032     -0.1865     14.9604     34.9784     55.8065
   878.2000      8.1896      2.4036     -0.1332     14.9334     35.0693     56.9066
   878.3000      8.1869      2.3794     -0.2153     16.3993     35.2623     61.4394
   878.4000      8.1869      2.3498     -0.2963     18.1920     35.6554     68.0682
   878.5000      8.1870      2.3410     -0.2474     18.7249     36.2831     72.3281
   878.6000      8.1870      2.3486     -0.2345     18.2664     36.9622     71.8283
   878.7000      8.1870      2.3533     -0.2823     17.9836     37.2167     71.0702
   878.8000      8.1906      2.3573     -0.3089     17.7410     36.9161     72.4467
   878.9000      8.1906      2.3660     -0.2144     17.2127     36.7563     72.9043
   879.0000      8.1931      2.3643     -0.2203     17.3181     37.0780     71.2806
   879.1000      8.1931      2.3506     -0.3118     18.1436     37.3472     69.7600
   879.2000      8.1931      2.3381     -0.2502     18.9018     37.2539     69.4928
   879.3000      8.1941      2.3296     -0.2866     19.4183     36.9261     70.6803
   879.4000      8.1941      2.3308     -0.2720     19.3433     36.5565     72.8189
   879.5000      8.1940      2.3447     -0.2368     18.5014     36.4018     73.3887
   879.6000      8.1940      2.3544     -0.2347     17.9160     36.4980     71.9713
   879.7000      8.1940      2.3490     -0.2588     18.2420     36.5719     73.1244
   879.8000      8.1927      2.3498     -0.2808     18.1936     36.3895     78.3884
   879.9000      8.1927      2.3787     -0.2326     16.4416     36.1201     81.7814
   880.0000      8.1929      2.4246     -0.2261     13.6606     36.0657     79.0565
   880.1000      8.1929      2.4556     -0.1778     11.7826     36.0727     72.2432
   880.2000      8.1929      2.4622     -0.2174     11.3790     36.0226     66.0244
   880.3000      8.1931      2.4631     -0.1686     11.3244     36.0740     62.2521
   880.4000      8.1931      2.4642     -0.1988     11.2636     36.2791     60.7104
   880.5000      8.1924      2.4581     -0.1981     11.6273     36.5713     62.1967
   880.6000      8.1924      2.4396     -0.2276     12.7531     36.7930     64.7906
   880.7000      8.1924      2.3981     -0.1954     15.2678     36.9398     66.0632
   880.8000      8.1899      2.3431     -0.3013     18.6000     37.2239     67.3547
   880.9000      8.1899      2.3194     -0.3160     20.0353     37.5211     68.6374
   881.0000      8.1863      2.3532     -0.2877     17.9856     37.4945     68.4516
   881.1000      8.1863      2.4264     -0.1873     13.5544     37.1104     67.3687
   881.2000      8.1863      2.5166     -0.2042      8.0874     36.5904     65.7571
   881.3000      8.1864      2.6114     -0.1472      2.3420     36.2627     63.7924
   881.4000      8.1864      2.6736     -0.1145     -1.4316     36.2422     62.4135
   881.5000      8.1887      2.6708     -0.1203     -1.2596     36.3937     60.7970
   881.6000      8.1887      2.6215     -0.2049      1.7256     36.5952     56.4118
   881.7000      8.1887      2.5372     -0.1872      6.8377     36.7823     50.4761
   881.8000      8.1880      2.3895     -0.2721     15.7864     37.0811     47.2757
   881.9000      8.1880      2.1960     -0.4265     27.5168     37.7181     47.6125
   882.0000      8.1869      2.0433     -0.6436     36.7719     38.5662     49.4598
   882.1000      8.1869      1.9831     -0.5805     40.4163     39.1852     50.8157
   882.2000      8.1869      1.9752     -0.5868     40.8994     39.3383     50.1604
   882.3000      8.1870      1.9738     -0.7783     40.9793     38.8725     48.1798
   882.4000      8.1870      1.9866     -0.7879     40.2050     37.4403     46.6429
   882.5000      8.1866      2.0182     -0.6395     38.2879     35.0099     47.8082
   882.6000      8.1866      2.0417     -0.5103     36.8674     31.9233     54.5558
   882.7000      8.1866      2.0459     -0.4766     36.6131     28.3078     64.7895
   882.8000      8.1871      2.0648     -0.3505     35.4675     24.6311     71.9543
   882.9000      8.1871      2.1216      0.0200     32.0259     21.8051     74.5507
   883.0000      8.1863      2.1826      0.1116     28.3248     19.9581     75.6287
   883.1000      8.1863      2.2172      0.1097     26.2306     18.5887     76.4125
   883.2000      8.1863      2.2297      0.1278     25.4721     17.6714     76.9662
   883.3000      8.1843      2.2316      0.1268     25.3562     17.2006     79.1029
   883.4000      8.1843      2.2332      0.1325     25.2588     16.9156     83.4088
   883.5000      8.1839      2.2372      0.1423     25.0180     16.8413     85.5569
   883.6000      8.1839      2.2372      0.1464     25.0209     16.8940     81.6441
   883.7000      8.1839      2.2344      0.1246     25.1902     16.7928     74.6537
   883.8000      8.1820      2.2359      0.1284     25.0941     16.5115     69.6483
   883.9000      8.1820      2.2392      0.1349     24.8953     16.0900     67.7080
   884.0000      8.1724      2.2347      0.1468     25.1717     15.5893     69.5494
   884.1000      8.1724      2.2188      0.1316     26.1330     15.2997     76.3704
   884.2000      8.1724      2.2000      0.1023     27.2697     15.4230     82.4154
   884.3000      8.1565      2.1914      0.1007     27.7914     15.8627     82.0027
   884.4000      8.1565      2.1943      0.1284     27.6205     16.3758     79.3936
   884.5000      8.1445      2.2013      0.1008     27.1963     16.7304     81.1360
