~Version Information
VERS.                      2.0: CWLS Log ASCII Standard - VERSION 2.0
WRAP.                       NO: One line per depth step
~Well Information Block
STRT.FT               650.0000: 
STOP.FT              2127.7000: 
STEP.FT                 0.1000: 
NULL.                -999.2500: 
COMP.          Pioneer Natural Resources: COMPANY
WELL.          Kennington 41-26: WELL
FLD.           Purgatoire River: FIELD
LOC.           940' FNL & 1008' FEL--: LOCATION
CNTY.               Las Animas: COUNTY
SRVC.                Patterson: SERVICE COMPANY
DATE.          Wed Mar 29 11:30:50 2006: LOG DATE
UWI.           05 071 08679 00: UNIQUE WELL ID
STAT.                 Colorado: STATE
~Curve Information Block
DEPT.FT            0 000 00 00: Depth
DCAL.in                       : CDL Caliper
RHOB.g/cc                     : CDL Bulk Density
RHOC.g/cc                     : CDL Density Correction
DPOR.pu                       : CDL Density Porosity
NPOR.pu                       : Neutron Porosity
GR.GAPI                       : Gamma Ray
~Parameter Information Block
~A  Depth       DCAL        RHOB        RHOC        DPOR        NPOR         GR     
# ...
  2099.6000      7.7150      2.4709      0.0473     10.8564     20.6274   -999.2500
  2099.7000      7.7150      2.4728      0.0382     10.7389     20.8909   -999.2500
  2099.8000      7.7135      2.4780      0.0332     10.4224     21.1155   -999.2500
  2099.9000      7.7135      2.4909      0.0603      9.6417     21.6355   -999.2500
  2100.0000      7.7135      2.5176      0.0387      8.0262     22.1660   -999.2500
  2100.1000      7.7135      2.5582      0.0540      5.5608     22.5371   -999.2500
  2100.2000      7.7135      2.5912      0.1247      3.5658     23.0151   -999.2500
  2100.3000      7.7159      2.5956      0.1057      3.2996     23.5489   -999.2500
  2100.4000      7.7159      2.5802      0.0637      4.2297     23.6889   -999.2500
  2100.5000      7.7185      2.5614      0.0461      5.3679     23.3731   -999.2500
  2100.6000      7.7185      2.5468      0.0423      6.2546     22.9947   -999.2500
  2100.7000      7.7185      2.5484      0.0171      6.1589     22.7314   -999.2500
  2100.8000      7.7196      2.5726      0.0488      4.6936     22.7642   -999.2500
  2100.9000      7.7196      2.6045      0.0686      2.7586     24.6241   -999.2500
  2101.0000      7.7187      2.6188      0.1141      1.8896     30.7547   -999.2500
  2101.1000      7.7187      2.6040      0.1086      2.7887     39.8219   -999.2500
  2101.2000      7.7187      2.5832      0.0335      4.0497     46.3716   -999.2500
  2101.3000      7.7181      2.5830      0.0503      4.0628     48.8090   -999.2500
  2101.4000      7.7181      2.5911      0.0938      3.5672     49.2944   -999.2500
  2101.5000      7.7171      2.5887      0.0524      3.7175     49.3460   -999.2500
  2101.6000      7.7171      2.5839      0.0417      4.0031     49.3489   -999.2500
  2101.7000      7.7171      2.5854      0.0885      3.9159   -999.2500   -999.2500
  2101.8000      7.7155      2.5814      0.0972      4.1571   -999.2500   -999.2500
  2101.9000      7.7155      2.5658      0.0562      5.1019   -999.2500   -999.2500
  2102.0000      7.7155      2.5538      0.0270      5.8303   -999.2500   -999.2500
  2102.1000      7.7155      2.5583      0.0298      5.5560   -999.2500   -999.2500
  2102.2000      7.7155      2.5728      0.0460      4.6807   -999.2500   -999.2500
  2102.3000      7.7170      2.5862      0.0732      3.8686   -999.2500   -999.2500
  2102.4000      7.7170      2.5950      0.0846      3.3316   -999.2500   -999.2500
  2102.5000      7.7174      2.5959      0.0798      3.2758   -999.2500   -999.2500
  2102.6000      7.7174      2.5814      0.0747      4.1592   -999.2500   -999.2500
  2102.7000      7.7174      2.5522      0.0371      5.9290   -999.2500   -999.2500
  2102.8000      7.7125      2.5236      0.0497      7.6614   -999.2500   -999.2500
  2102.9000      7.7125      2.5069      0.0236      8.6741   -999.2500   -999.2500
  2103.0000      7.7047      2.5029      0.0445      8.9127   -999.2500   -999.2500
  2103.1000      7.7047      2.5151      0.0074      8.1733   -999.2500   -999.2500
  2103.2000      7.7047      2.5429      0.0532      6.4880   -999.2500   -999.2500
  2103.3000      7.7042      2.5691      0.0556      4.9031   -999.2500   -999.2500
  2103.4000      7.7042      2.5821      0.0504      4.1150   -999.2500   -999.2500
  2103.5000      7.7068      2.5804      0.0926      4.2187   -999.2500   -999.2500
  2103.6000      7.7068      2.5644      0.0859      5.1864   -999.2500   -999.2500
  2103.7000      7.7068      2.5490      0.0562      6.1191   -999.2500   -999.2500
  2103.8000      7.7011      2.5510      0.0603      6.0000   -999.2500   -999.2500
  2103.9000      7.7011      2.5706      0.0959      4.8150   -999.2500   -999.2500
  2104.0000      7.6935      2.5971      0.0959      3.2065   -999.2500   -999.2500
  2104.1000      7.6935      2.6143      0.1360      2.1606   -999.2500   -999.2500
  2104.2000      7.6935      2.6092      0.1279      2.4711   -999.2500   -999.2500
  2104.3000      7.6906      2.5888      0.1056      3.7065   -999.2500   -999.2500
  2104.4000      7.6906      2.5737      0.0832      4.6270   -999.2500   -999.2500
  2104.5000      7.6922      2.5719      0.1066      4.7334   -999.2500   -999.2500
  2104.6000      7.6922      2.5769      0.1066      4.4289   -999.2500   -999.2500
  2104.7000      7.6922      2.5840      0.0700      4.0019   -999.2500   -999.2500
  2104.8000      7.6986      2.5916      0.0639      3.5406   -999.2500   -999.2500
  2104.9000      7.6986      2.5994      0.0625      3.0642   -999.2500   -999.2500
  2105.0000      7.7024      2.6072      0.1003      2.5926   -999.2500   -999.2500
  2105.1000      7.7024      2.6096      0.0858      2.4499   -999.2500   -999.2500
  2105.2000      7.7024      2.6045      0.0736      2.7600   -999.2500   -999.2500
  2105.3000      7.6991      2.5954      0.0855      3.3084   -999.2500   -999.2500
  2105.4000      7.6991      2.5829      0.0918      4.0664   -999.2500   -999.2500
  2105.5000      7.6937      2.5678      0.0500      4.9834   -999.2500   -999.2500
  2105.6000      7.6937      2.5585      0.0512      5.5442   -999.2500   -999.2500
  2105.7000      7.6937      2.5649      0.0335      5.1572   -999.2500   -999.2500
  2105.8000      7.6903      2.5865      0.0696      3.8462   -999.2500   -999.2500
  2105.9000      7.6903      2.6072      0.0812      2.5970   -999.2500   -999.2500
  2106.0000      7.6920      2.6085      0.0944      2.5143   -999.2500   -999.2500
  2106.1000      7.6920      2.5946      0.0514      3.3588   -999.2500   -999.2500
  2106.2000      7.6920      2.5906      0.0376      3.5990   -999.2500   -999.2500
  2106.3000      7.6948      2.6070      0.0605      2.6056   -999.2500   -999.2500
  2106.4000      7.6948      2.6240      0.0902      1.5762   -999.2500   -999.2500
  2106.5000      7.6942      2.6219      0.0534      1.7060   -999.2500   -999.2500
  2106.6000      7.6942      2.6041      0.0500      2.7797   -999.2500   -999.2500
  2106.7000      7.6942      2.5870      0.0505      3.8177   -999.2500   -999.2500
  2106.8000      7.6929      2.5815      0.0800      4.1515   -999.2500   -999.2500
  2106.9000      7.6929      2.5826      0.0461      4.0838   -999.2500   -999.2500
  2107.0000      7.6906      2.5779      0.0328      4.3689   -999.2500   -999.2500
  2107.1000      7.6906      2.5666     -0.0125      5.0558   -999.2500   -999.2500
  2107.2000      7.6906      2.5595      0.0383      5.4878   -999.2500   -999.2500
  2107.3000      7.6830      2.5643      0.0156      5.1913   -999.2500   -999.2500
  2107.4000      7.6830      2.5719      0.0973      4.7323   -999.2500   -999.2500
  2107.5000      7.6736      2.5648      0.0644      5.1663   -999.2500   -999.2500
  2107.6000      7.6736      2.5536      0.0139      5.8399   -999.2500   -999.2500
  2107.7000      7.6736      2.5607      0.0589      5.4136   -999.2500   -999.2500
  2107.8000      7.6693      2.5781      0.1150      4.3587   -999.2500   -999.2500
  2107.9000      7.6693      2.5865      0.0934      3.8503   -999.2500   -999.2500
  2108.0000      7.6635      2.5881      0.1087      3.7500   -999.2500   -999.2500
  2108.1000      7.6635      2.5929      0.1039      3.4583   -999.2500   -999.2500
  2108.2000      7.6635      2.5960      0.1143      3.2712   -999.2500   -999.2500
  2108.3000      7.6517      2.5898      0.1158      3.6489   -999.2500   -999.2500
  2108.4000      7.6517      2.6000      0.0772      3.0274   -999.2500   -999.2500
  2108.5000      7.6156      2.6710      0.0994     -1.2753   -999.2500   -999.2500
  2108.6000      7.6156      2.6793      0.0823     -1.7787   -999.2500   -999.2500
  2108.7000      7.6156      2.2204      0.5631     26.0359   -999.2500   -999.2500
  2108.8000      7.2809      1.2521      0.0800     84.7210   -999.2500   -999.2500
  2108.9000      7.2809      0.4229      0.0800    134.9783   -999.2500   -999.2500
  2109.0000      5.7951      0.0801   -999.2500    155.7503   -999.2500   -999.2500
  2109.1000      5.7951      0.0082   -999.2500    160.1061   -999.2500   -999.2500
