~Version Information
VERS.                      2.0: CWLS Log ASCII Standard - VERSION 2.0
WRAP.                       NO: One line per depth step
~Well Information Block
STRT.FT                -1.5000: 
STOP.FT              2143.7500: 
STEP.FT                 0.2500: 
NULL.                -999.2500: 
COMP.          Pioneer Natural Resources: COMPANY
WELL.              Kermit 32-7: WELL
FLD.           Purgatoire River: FIELD
LOC.           2002' FNL & 2103' FEL: LOCATION
PROV.                 Colorado: PROVINCE
CNTY.               Las Animas: COUNTRY
SRVC.                Patterson: SERVICE COMPANY
DATE.          Wed Jan 18 14:17:49 2006: LOG DATE
UWI.           05 071 08647 00: UNIQUE WELL ID
~Curve Information Block
DEPT.FT            0 000 00 00: Depth
GR.GAPI                       : Gamma Ray
CCL.                          : Casing Collar Locator
TT3.usec                      : CBL 3' Travel Time
AMP3.mV                       : CBL 3' Amplitude
~Parameter Information Block
~A  Depth        GR         CCL         TT3         AMP3    
# ...
   132.5000     81.3445      0.0000    644.1408     14.8147
   132.7500     82.9898      0.0000    644.0664     14.8640
   133.0000     84.1754      0.0000    644.1237     14.9230
   133.2500     84.7991      0.0000    644.5226     14.9995
   133.5000     84.9836      0.0000    645.6591     15.0893
   133.7500     84.7225      0.0000    648.0840     15.1775
   134.0000     83.8238      0.0000    652.0219     15.2465
   134.2500     82.3838      0.0000    656.5900     15.2876
   134.5000     81.1985      0.0000    659.7761     15.3042
   134.7500     81.2998      0.0000    659.9932     15.3059
   135.0000     82.8056      0.0000    657.9964     15.3012
   135.2500     84.4789      0.0000    656.7377     15.2959
   135.5000     84.8211      0.0000    658.8901     15.2949
   135.7500     83.4424      0.0000    664.7194     15.3037
   136.0000     81.0222      0.0000    672.3721     15.3283
   136.2500     78.1640      0.0000    679.3826     15.3721
   136.5000     74.9413      0.0000    683.6066     15.4326
   136.7500     71.5968      0.0000    683.9535     15.5015
   137.0000     69.1075      0.0000    681.1658     15.5710
   137.2500     68.6467      0.0000    677.2031     15.6388
   137.5000     70.5363      0.0000    673.5359     15.7046
   137.7500     73.8337      0.0000    670.5983     15.7620
   138.0000     77.1089      0.0000    668.2823     15.8010
   138.2500     79.7022      0.0000    665.9152     15.8176
   138.5000     82.0600      0.0000    662.4102     15.8174
   138.7500     84.7277      0.0000    657.4515     15.8077
   139.0000     87.4071      0.0000    652.1031     15.7930
   139.2500     89.4072      0.0000    647.6396     15.7779
   139.5000     90.7025      0.0000    644.0579     15.7689
   139.7500     91.8888      0.0000    639.8060     15.7681
   140.0000     93.0988      0.0000    632.9134     15.7687
   140.2500     93.7044      0.0000    623.1205     15.7578
   140.5000     93.5052      0.0000    613.5646     15.7261
   140.7500     93.6524      0.0000    609.3380     15.6769
   141.0000     95.6081      0.0000    612.9954     15.6267
   141.2500     99.1942      0.0000    621.8050     15.5950
   141.5000    102.2609      0.0000    630.0966     15.5899
   141.7500    102.5652      0.0000    633.3998     15.6042
   142.0000     99.8114      0.0000    630.0861     15.6224
   142.2500     95.7904      0.0000    621.0810     15.6316
   142.5000     92.8035      0.0000    609.1484     15.6267
   142.7500     92.1037      0.0000    596.5928     15.6099
   143.0000     93.5902      0.0000    582.2442     15.5880
   143.2500     96.4565      0.0000    562.7402     15.5690
   143.5000     99.7307      0.0000    538.5616     15.5607
   143.7500    102.4029      0.0000    517.0930     15.5706
   144.0000    103.6015      0.0000    508.2105     15.6046
   144.2500    102.8120      0.0000    517.3746     15.6645
   144.5000     99.8717      0.0000    542.1339     15.7469
   144.7500     95.0395      0.0000    573.0696     15.8439
   145.0000     89.2219      0.0000    598.0168     15.9438
   145.2500     83.7931      0.0000    607.3638     16.0307
   145.5000     79.9128      0.0000    597.5979     16.0896
   145.7500     77.9781      0.0000    572.1204     16.1154
   146.0000     77.5632      0.0000    539.6811     16.1167
   146.2500     77.8229      0.0000    510.2332     16.1054
   146.5000     78.1746      0.0000    489.9130     16.0851
   146.7500     78.6080      0.0000    479.1236     16.0546
   147.0000     79.2182      0.0000    474.9420     16.0188
   147.2500     79.6465      0.0000    474.8399     15.9896
   147.5000     79.1440      0.0000    478.7914     15.9737
   147.7500     77.1469      0.0000    489.1455     15.9636
   148.0000     73.9039      0.0000    508.3572     15.9423
   148.2500     70.5787      0.0000    535.5350     15.8981
   148.5000     68.3971      0.0000    565.0471     15.8381
   148.7500     67.5528      0.0000    589.8928     15.7885
   149.0000     67.2686      0.0000    606.8822     15.7778
   149.2500     67.0170      0.0000    617.7338     15.8152
   149.5000     67.1547      0.0000    625.5338     15.8804
   149.7500     68.0474      0.0000    631.6500     15.9351
   150.0000     69.1292      0.0000    635.9755     15.9478
   150.2500     69.3902      0.0000    638.4714     15.9134
   150.5000     68.5868      0.0000    639.6587     15.8528
   150.7500     67.4982      0.0000    640.1829     15.7920
   151.0000     66.9731      0.0000    640.4604     15.7324
   151.2500     67.1027      0.0000    640.6257     15.6410
   151.5000     67.4707      0.0000    640.5598     15.4744
   151.7500     67.7800      0.0000    639.8637     15.2175
   152.0000     67.7377      0.0000    637.9769     14.9018
   152.2500     66.5173      0.0000    634.7031     14.5648
   152.5000     63.0139      0.0000    630.9872     14.1659
   152.7500     56.9697      0.0000    629.1110     13.5814
   153.0000     49.6783      0.0000    631.8561     12.7543
   153.2500     43.3867      0.0000    640.9825     11.8335
   153.5000     39.8077      0.0000    655.7383     11.0818
   153.7500     38.9750      0.0000    672.3257     10.6474
   154.0000     39.4851      0.0000    685.3223     10.4847
   154.2500     39.8740      3.0000    690.3479     10.4713
   154.5000     39.7209      0.0000    685.9096     10.5511
   154.7500     39.5424      0.0000    673.6595     10.7771
   155.0000     39.9172      0.0000    657.3279     11.2437
   155.2500     40.8787      0.0000    639.9744     11.9725
   155.5000     41.9730      0.0000    621.4822     12.8702
   155.7500     42.5921      0.0000    600.0768     13.8170
   156.0000     42.2517      0.0000    576.2637     14.7458
   156.2500     40.8504      0.0000    552.4739     15.6021
   156.5000     38.8272      0.0000    528.0753     16.2992
   156.7500     37.0325      0.0000    498.5414     16.7797
   157.0000     36.4457      0.0000    461.6924     17.0811
   157.2500     37.8502      0.0000    421.8619     17.3006
   157.5000     41.3382      0.0000    386.4505     17.5087
   157.7500     45.8744      0.0000    360.4349     17.7092
   158.0000     49.5907      0.0000    344.5292     17.8733
   158.2500     50.9725      0.0000    336.4728     17.9923
   158.5000     49.9266      0.0000    333.0997     18.0906
   158.7500     47.6270      0.0000    331.8669     18.1916
   159.0000     45.5095      0.0000    331.3873     18.2903
   159.2500     44.6302      0.0000    331.1211     18.3675
   159.5000     45.6121      0.0000    330.9105     18.4173
   159.7500     48.5817      0.0000    330.7342     18.4481
   160.0000     53.0004      0.0000    330.6149     18.4597
   160.2500     57.7527      0.0000    330.6012     18.4308
   160.5000     61.5397      0.0000    330.7064     18.3378
   160.7500     63.4046      0.0000    330.8683     18.1831
   161.0000     63.3034      0.0000    330.9906     18.0028
   161.2500     62.4021      0.0000    331.0344     17.8466
   161.5000     62.6039      0.0000    331.0664     17.7452
   161.7500     65.3615      0.0000    331.2273     17.6918
   162.0000     70.6835      0.0000    331.7877     17.6531
   162.2500     77.3621      0.0000    333.5739     17.5973
   162.5000     84.2082      0.0000    338.8638     17.5093
   162.7500     90.6481      0.0000    351.9245     17.3847
   163.0000     95.9221      0.0000    377.2669     17.2201
   163.2500     98.5109      0.0000    414.4482     17.0180
   163.5000     97.2859      0.0000    453.3214     16.8006
   163.7500     92.9699      0.0000    477.5309     16.6047
   164.0000     87.6453      0.0000    477.4590     16.4559
   164.2500     82.9114      0.0000    459.7418     16.3478
   164.5000     79.1224      0.0000    440.2038     16.2518
   164.7500     76.1836      0.0000    427.4816     16.1415
   165.0000     74.2771      0.0000    418.1450     16.0080
   165.2500     73.6419      0.0000    408.4706     15.8579
   165.5000     74.0953      0.0000    405.0532     15.7048
   165.7500     75.0212      0.0000    419.4830     15.5584
