~Version Information
VERS.                      2.0: CWLS Log ASCII Standard - VERSION 2.0
WRAP.                       NO: One line per depth step
~Well Information Block
STRT.FT                -9.5000: 
STOP.FT              1304.7500: 
STEP.FT                 0.2500: 
NULL.                -999.2500: 
COMP.          Pioneer Natural Resources: COMPANY
WELL.            Hamburg 43-35: WELL
FLD.           Purgatorie River: FIELD
LOC.           2444' FSL & 950' FEL--: LOCATION
PROV.                       CO: PROVINCE
CNTY.               Las Animas: COUNTRY
SRVC.          Patterson Wireline: SERVICE COMPANY
DATE.          Thu Dec 08 14:29:45 2005: LOG DATE
UWI.           08 071 08607 00: UNIQUE WELL ID
~Curve Information Block
DEPT.FT            0 000 00 00: Depth
CCL.                          : Casing Collar Locator
TT3.usec                      : CBL 3' Travel Time
AMP3.mV                       : CBL 3' Amplitude
GR.GAPI                       : Gamma Ray
~Parameter Information Block
~A  Depth       CCL         TT3         AMP3         GR     
# ...
   660.5000      0.0000    843.1274     10.8316    115.5501
   660.7500      0.0000    843.0729     10.7815    112.7856
   661.0000      0.0000    842.8341     10.7766    111.0940
   661.2500      0.0000    841.9069     10.8102    111.1081
   661.5000      0.0000    839.8033     10.8685    113.0196
   661.7500      0.0000    836.9493     10.9400    115.3876
   662.0000      0.0000    834.3138     11.0139    115.8904
   662.2500      0.0000    832.4382     11.0730    113.4593
   662.5000      0.0000    831.1936     11.1004    109.0712
   662.7500      0.0000    830.2444     11.0976    104.7113
   663.0000      0.0000    829.4097     11.0931    102.2254
   663.2500      0.0000    828.6353     11.1266    102.9347
   663.5000      0.0000    827.7853     11.2170    107.5224
   663.7500      0.0000    826.4708     11.3384    115.7518
   664.0000      0.0000    824.0974     11.4283    126.1521
   664.2500      0.0000    820.3524     11.4321    136.3438
   664.5000      0.0000    815.8802     11.3500    144.2224
   664.7500      0.0000    812.1652     11.2439    148.9318
   665.0000      0.0000    810.1295     11.1911    150.5940
   665.2500      0.0000    808.8873     11.2309    149.7817
   665.5000      0.0000    806.5843     11.3503    147.8139
   665.7500      0.0000    802.5242     11.5136    146.4526
   666.0000      0.0000    797.8827     11.6945    146.0625
   666.2500      0.0000    794.2362     11.8806    144.7459
   666.5000      0.0000    792.0475     12.0584    140.3488
   666.7500      0.0000    791.0316     12.2067    132.8293
   667.0000      0.0000    791.7358     12.3051    124.1007
   667.2500      0.0000    795.8696     12.3472    116.2156
   667.5000      0.0000    804.4763     12.3466    109.9929
   667.7500      0.0000    816.3672     12.3315    104.7779
   668.0000      0.0000    828.9765     12.3255     99.4834
   668.2500      0.0000    840.0497     12.3239     94.1991
   668.5000      0.0000    847.9938     12.2890     90.5748
   668.7500      0.0000    851.7264     12.1763     90.5151
   669.0000      0.0000    851.3415     11.9718     94.7446
   669.2500      0.0000    848.5846     11.7080    102.3012
   669.5000      0.0000    845.9483     11.4462    110.6996
   669.7500      0.0000    845.3658     11.2395    116.9373
   670.0000      0.0000    847.9623     11.1069    119.4955
   670.2500      0.0000    854.2248     11.0353    119.7358
   670.5000      0.0000    863.3752     10.9993    120.9442
   670.7500      0.0000    872.5818     10.9784    125.7082
   671.0000      0.0000    877.7084     10.9632    134.0201
   671.2500      0.0000    875.7780     10.9487    143.3898
   671.5000      0.0000    867.2211     10.9277    150.6025
   671.7500      0.0000    855.7048     10.8961    154.0589
   672.0000      0.0000    845.5840     10.8627    154.9484
   672.2500      0.0000    839.4405     10.8398    155.8627
   672.5000      0.0000    837.6763     10.8257    158.1065
   672.7500      0.0000    839.5682     10.8099    160.5069
   673.0000      0.0000    844.1370     10.7950    160.5969
   673.2500      0.0000    850.2552     10.7972    156.7064
   673.5000      0.0000    856.3881     10.8265    149.3977
   673.7500      0.0000    860.5727     10.8787    141.4507
   674.0000      0.0000    861.2489     10.9484    136.2986
   674.2500      0.0000    858.4874     11.0411    135.8919
   674.5000      0.0000    853.9317     11.1626    139.6290
   674.7500      0.0000    849.2389     11.2965    145.1512
   675.0000      0.0000    845.0493     11.3969    150.2524
   675.2500      0.0000    841.3980     11.4116    154.0615
   675.5000      0.0000    838.3055     11.3205    156.4699
   675.7500      0.0000    835.8019     11.1546    156.9034
   676.0000      0.0000    833.8765     10.9825    154.3157
   676.2500      0.0000    832.5897     10.8740    148.3013
   676.5000      0.0000    832.0872     10.8667    139.6192
   676.7500      0.0000    832.5422     10.9545    129.6147
   677.0000      0.0000    834.0826     11.1016    119.7939
   677.2500      0.0000    836.5220     11.2635    112.2337
   677.5000      0.0000    839.0712     11.3991    109.6002
   677.7500      0.0000    840.7158     11.4792    113.5170
   678.0000      0.0000    841.1763     11.4936    122.5923
   678.2500      0.0000    841.2001     11.4542    132.8656
   678.5000      0.0000    841.6329     11.3888    140.9199
   678.7500      0.0000    842.7829     11.3312    146.4788
   679.0000      0.0000    845.0924     11.3082    151.5661
   679.2500      0.0000    849.8370     11.3270    157.1281
   679.5000      0.0000    858.5708     11.3761    160.9323
   679.7500      0.0000    871.8954     11.4398    159.1241
   680.0000      0.0000    888.1659     11.5079    149.7633
   680.2500      0.0000    902.2957     11.5727    134.7775
   680.5000      0.0000    906.6680     11.6274    118.8698
   680.7500      0.0000    895.9648     11.6744    106.8401
   681.0000      0.0000    872.9422     11.7301    101.3153
   681.2500      0.0000    849.0776     11.8181    101.7817
   681.5000      0.0000    837.8107     11.9567    105.3105
   681.7500      0.0000    845.3078     12.1517    108.7932
   682.0000      0.0000    866.4265     12.3921    110.9129
   682.2500      0.0000    889.0824     12.6442    112.1526
   682.5000      0.0000    902.9755     12.8567    113.7279
   682.7500      0.0000    906.0128     12.9915    117.1083
   683.0000      0.0000    903.8899     13.0529    123.5391
   683.2500      0.0000    903.2102     13.0756    132.7664
   683.5000      0.0000    904.2679     13.0772    142.5319
   683.7500      0.0000    901.0479     13.0217    150.2188
   684.0000      0.0000    888.0771     12.8129    154.8385
   684.2500      0.0000    865.9300     12.3317    157.0547
   684.5000      0.0000    840.8503     11.5338    157.9019
   684.7500      0.0000    821.8993     10.5495    158.2828
   685.0000      0.0000    817.7858      9.6545    159.2541
   685.2500      0.0000    831.8546      9.0918    161.6574
   685.5000      0.0000    858.2542      8.9141    165.3293
   685.7500      0.0000    886.1580      8.9944    169.3291
   686.0000      0.0000    909.9708      9.1580    173.0364
   686.2500      2.0000    932.9709      9.2948    176.6665
   686.5000      0.0000    958.7288      9.3796    180.6075
   686.7500      0.0000    981.6602      9.4330    184.4166
   687.0000      0.0000    989.2296      9.4846    186.7332
   687.2500      0.0000    973.2134      9.5605    186.2726
   687.5000      0.0000    937.8038      9.6782    182.5869
   687.7500      0.0000    897.0684      9.8485    175.7828
   688.0000      0.0000    864.9860     10.1020    165.9800
   688.2500      0.0000    847.6971     10.4886    153.3602
   688.5000      0.0000    843.4975     11.0120    138.6765
   688.7500      0.0000    847.4551     11.5856    123.5540
   689.0000      0.0000    855.1044     12.0927    110.0340
   689.2500      0.0000    863.9961     12.4720     99.5577
   689.5000      0.0000    873.9915     12.7251     92.3992
   689.7500      0.0000    886.0938     12.8707     88.0002
   690.0000      0.0000    899.9484     12.9217     85.6824
   690.2500      0.0000    912.4192     12.8972     85.0535
   690.5000      0.0000    919.2320     12.8262     85.8038
   690.7500      0.0000    917.8436     12.7330     87.3590
   691.0000      0.0000    908.1110     12.6279     89.2019
   691.2500      0.0000    891.0157     12.5158     91.6809
   691.5000      0.0000    868.4888     12.4035     95.9701
   691.7500      0.0000    844.4166     12.2957    102.7516
   692.0000      0.0000    823.9608     12.1932    111.0486
   692.2500      0.0000    810.9508     12.0973    118.7045
   692.5000      0.0000    806.3679     12.0132    124.2830
   692.7500      0.0000    809.1235     11.9403    128.5201
   693.0000      0.0000    817.1573     11.8610    133.4994
   693.2500      0.0000    827.7657     11.7448    140.0188
   693.5000      0.0000    838.1542     11.5774    146.3880
   693.7500      0.0000    846.3770     11.3872    150.5075
