~Version Information
VERS.                      2.0: CWLS Log ASCII Standard - VERSION 2.0
WRAP.                       NO: One line per depth step
~Well Information Block
STRT.FT               370.0000: 
STOP.FT              2831.7500: 
STEP.FT                 0.2500: 
NULL.                -999.2500: 
COMP.          Pioneer Natural Resources: COMPANY
WELL.          Black Cat 13-32: WELL
FLD.           Purgatoire River: FIELD
LOC.           1865' FSL & 1120' FWL--: LOCATION
PROV.                 Colorado: PROVINCE
CNTY.               Las Animas: COUNTRY
SRVC.                Patterson: SERVICE COMPANY
DATE.          Sun Jul 31 08:49:16 2005: LOG DATE
UWI.           05 071 08450 00: UNIQUE WELL ID
~Curve Information Block
DEPT.FT            0 000 00 00: Depth
DIR.Ohm-m                     : IEL Induction Resistivity
SN.Ohm-m                      : IEL Short Normal
SP.mV                         : IEL Spontaneous Potential
GR.GAPI                       : Gamma Ray
~Parameter Information Block
~A  Depth       DIR          SN          SP          GR     
# ...
  1140.5000     75.5972     82.5830    -34.0697     73.3386
  1140.7500     78.6993     85.6349    -33.5153     71.1138
  1141.0000     81.9237     88.5108    -32.8874     67.1381
  1141.2500     85.0374     91.2274    -32.1980     64.4523
  1141.5000     87.6489     93.8365    -31.4610     60.7282
  1141.7500     89.4231     96.3719    -30.6892     58.4703
  1142.0000     90.3394     98.8145    -29.8927     55.2126
  1142.2500     90.7220    101.0940    -29.0777     52.9379
  1142.5000     90.9994    103.1174    -28.2461     49.3371
  1142.7500     91.4563    104.8060    -27.3974     47.1342
  1143.0000     92.1594    106.1249    -26.5297     44.9715
  1143.2500     93.0328    107.0889    -25.6412     44.5854
  1143.5000     93.9629    107.7373    -24.7311     45.4071
  1143.7500     94.8576    108.0970    -23.7997     46.5094
  1144.0000     95.6690    108.1614    -22.8485     48.2940
  1144.2500     96.3990    107.8959    -21.8802     49.2446
  1144.5000     97.0779    107.2638    -20.8997     49.9288
  1144.7500     97.7198    106.2615    -19.9147     49.8623
  1145.0000     98.2835    104.9439    -18.9366     49.4578
  1145.2500     98.6701    103.4240    -17.9807     49.4745
  1145.5000     98.7250    101.8398    -17.0649     50.5932
  1145.7500     98.2075    100.3067    -16.2071     52.1580
  1146.0000     96.8392     98.8816    -15.4218     55.4577
  1146.2500     94.5101     97.5546    -14.7180     57.9803
  1146.5000     91.5087     96.2655    -14.0961     61.4809
  1146.7500     88.4695     94.9340    -13.5485     63.1090
  1147.0000     86.0212     93.4954    -13.0604     63.9213
  1147.2500     84.4410     91.9283    -12.6129     63.4833
  1147.5000     83.5476     90.2598    -12.1859     62.3101
  1147.7500     82.8434     88.5455    -11.7613     61.8880
  1148.0000     81.8054     86.8408    -11.3248     62.5294
  1148.2500     80.1789     85.1824    -10.8665     63.7614
  1148.5000     78.0790     83.5883    -10.3798     66.1804
  1148.7500     75.8364     82.0636     -9.8596     67.7890
  1149.0000     73.7482     80.5989     -9.3002     69.9559
  1149.2500     71.9323     79.1616     -8.6929     71.3592
  1149.5000     70.3444     77.6897     -8.0259     73.6421
  1149.7500     68.8843     76.0981     -7.2836     75.1849
  1150.0000     67.4932     74.3007     -6.4487     76.9858
  1150.2500     66.1796     72.2465     -5.5037     77.5761
  1150.5000     64.9736     69.9564     -4.4330     77.5269
  1150.7500     63.8582     67.5360     -3.2253     77.0952
  1151.0000     62.7291     65.1438     -1.8749     76.5203
  1151.2500     61.4148     62.9142     -0.3836     76.7048
  1151.5000     59.7536     60.8758      1.2379     78.6711
  1151.7500     57.6676     58.9241      2.9692     81.2685
  1152.0000     55.1787     56.8850      4.7799     86.4442
  1152.2500     52.3790     54.6360      6.6312     89.9528
  1152.5000     49.4114     52.2092      8.4782     93.9025
  1152.7500     46.4702     49.8016     10.2739     95.2713
  1153.0000     43.7798     47.6814     11.9736     96.0666
  1153.2500     41.5408     46.0529     13.5385     96.7632
  1153.5000     39.8833     44.9715     14.9389     99.6584
  1153.7500     38.8506     44.3539     16.1552    102.9008
  1154.0000     38.4089     44.0597     17.1781    107.8188
  1154.2500     38.4609     43.9911     18.0075    109.3236
  1154.5000     38.8703     44.1615     18.6510    106.6906
  1154.7500     39.5055     44.7006     19.1229    101.7942
  1155.0000     40.2993     45.7863     19.4428     92.2551
  1155.2500     41.2858     47.5300     19.6346     86.3111
  1155.5000     42.5803     49.8781     19.7247     80.1364
  1155.7500     44.3142     52.5935     19.7407     78.0010
  1156.0000     46.5680     55.3338     19.7093     76.4753
  1156.2500     49.3264     57.7803     19.6539     75.4670
  1156.5000     52.4554     59.7468     19.5933     72.6832
  1156.7500     55.6894     61.2185     19.5396     69.9910
  1157.0000     58.6505     62.3171     19.4973     65.6826
  1157.2500     60.9363     63.2204     19.4639     63.1885
  1157.5000     62.2737     64.0771     19.4299     60.3261
  1157.7500     62.6452     64.9536     19.3805     58.9970
  1158.0000     62.2826     65.8341     19.2974     58.0468
  1158.2500     61.5468     66.6640     19.1606     58.2565
  1158.5000     60.8032     67.4050     18.9506     59.8481
  1158.7500     60.3487     68.0614     18.6499     61.6278
  1159.0000     60.3699     68.6664     18.2441     64.8544
  1159.2500     60.9086     69.2538     17.7230     66.8317
  1159.5000     61.8484     69.8454     17.0810     68.5808
  1159.7500     62.9609     70.4634     16.3172     68.7304
  1160.0000     64.0161     71.1499     15.4361     67.6166
  1160.2500     64.8968     71.9735     14.4473     66.0845
  1160.5000     65.6242     73.0105     13.3649     62.7112
  1160.7500     66.2864     74.3066     12.2063     59.9514
  1161.0000     66.9595     75.8386     10.9897     55.6378
  1161.2500     67.7062     77.5068      9.7314     53.0266
  1161.5000     68.6203     79.1688      8.4449     50.2211
  1161.7500     69.8237     80.6870      7.1404     49.4738
  1162.0000     71.3722     81.9585      5.8265     50.2115
  1162.2500     73.1374     82.9225      4.5134     51.6351
  1162.5000     74.7928     83.5633      3.2154     54.1487
  1162.7500     75.9767     83.9120      1.9521     55.4656
  1163.0000     76.5344     84.0397      0.7475     56.2543
  1163.2500     76.6166     84.0378     -0.3728     55.8904
  1163.5000     76.5337     83.9905     -1.3862     54.2285
  1163.7500     76.5263     83.9526     -2.2762     52.7400
  1164.0000     76.6505     83.9387     -3.0356     50.8108
  1164.2500     76.8235     83.9263     -3.6663     50.0912
  1164.5000     76.9428     83.8744     -4.1781     49.9107
  1164.7500     76.9516     83.7512     -4.5853     50.2708
  1165.0000     76.8075     83.5518     -4.9030     51.4674
  1165.2500     76.4130     83.2916     -5.1435     52.6389
  1165.5000     75.6121     82.9839     -5.3130     54.3714
  1165.7500     74.2903     82.6213     -5.4103     54.9531
  1166.0000     72.4876     82.1753     -5.4259     54.3335
  1166.2500     70.4059     81.6089     -5.3424     53.0710
  1166.5000     68.2787     80.8891     -5.1358     51.0119
  1166.7500     66.2178     79.9852     -4.7767     50.3387
  1167.0000     64.1642     78.8454     -4.2315     51.1997
  1167.2500     61.9617     77.3659     -3.4638     52.8589
  1167.5000     59.4756     75.3901     -2.4351     55.7626
  1167.7500     56.6513     72.7612     -1.1067     57.2011
  1168.0000     53.4945     69.4066      0.5586     58.1690
  1168.2500     50.0449     65.3923      2.5929     58.4800
  1168.5000     46.3879     60.9037      5.0190     59.8491
  1168.7500     42.6686     56.1680      7.8464     61.9109
  1169.0000     39.0597     51.3731     11.0668     66.5696
  1169.2500     35.7027     46.6312     14.6519     70.2240
  1169.5000     32.6694     41.9966     18.5523     75.7830
  1169.7500     29.9660     37.5139     22.6988     79.2877
  1170.0000     27.5624     33.2616     27.0054     84.0164
  1170.2500     25.4215     29.3621     31.3743     86.8541
  1170.5000     23.5147     25.9519     35.7013     91.0630
  1170.7500     21.8261     23.1294     39.8833     94.1337
  1171.0000     20.3484     20.9205     43.8255     99.5167
  1171.2500     19.0750     19.2873     47.4480    103.8014
  1171.5000     17.9953     18.1688     50.6908    111.3615
  1171.7500     17.0949     17.5050     53.5175    116.8957
  1172.0000     16.3602     17.2248     55.9147    124.9329
  1172.2500     15.7810     17.2215     57.8907    129.4235
  1172.5000     15.3488     17.3611     59.4720    133.9227
  1172.7500     15.0541     17.5301     60.6982    135.1585
  1173.0000     14.8855     17.6845     61.6185    134.4911
  1173.2500     14.8320     17.8526     62.2867    132.7501
  1173.5000     14.8865     18.0892     62.7573    129.0287
  1173.7500     15.0444     18.4150     63.0824    126.1672
