~Version Information
VERS.                      2.0: CWLS Log ASCII Standard - VERSION 2.0
WRAP.                       NO: One line per depth step
~Well Information Block
STRT.FT               460.0000: 
STOP.FT              1349.5000: 
STEP.FT                 0.2500: 
NULL.                -999.2500: 
COMP.          Pioneer Natural Resources: COMPANY
WELL.              Dicks 32-5R: WELL
FLD.           Purgatorie River: FIELD
LOC.           1485' FNL & 1684' FEL: LOCATION
PROV.                 Colorado: PROVINCE
CNTY.               Las Animas: COUNTRY
SRVC.                Patterson: SERVICE COMPANY
DATE.          Thu Dec 08 23:11:15 2005: LOG DATE
UWI.                          : UNIQUE WELL ID
~Curve Information Block
DEPT.FT            0 000 00 00: Depth
SN.Ohm-m                      : IEL Short Normal
SP.mV                         : IEL Spontaneous Potential
DIR.Ohm-m                     : IEL Induction Resistivity
GR.GAPI                       : Gamma Ray
~Parameter Information Block
~A  Depth        SN          SP         DIR          GR     
# ...
   761.5000   2000.0000   2000.0000      8.9617    168.0815
   761.7500   2000.0000   2000.0000      8.8267    166.8974
   762.0000   2000.0000   2000.0000      8.7250    165.3431
   762.2500   2000.0000   2000.0000      8.6521    164.7705
   762.5000   2000.0000   2000.0000      8.6014    164.6478
   762.7500   2000.0000   2000.0000      8.5646    165.0815
   763.0000   2000.0000   2000.0000      8.5337    166.9863
   763.2500   2000.0000   2000.0000      8.5029    169.4371
   763.5000   2000.0000   2000.0000      8.4697    174.6529
   763.7500   2000.0000   2000.0000      8.4345    178.2898
   764.0000   2000.0000   2000.0000      8.3992    181.9452
   764.2500   2000.0000   2000.0000      8.3654    182.3975
   764.5000   2000.0000   2000.0000      8.3340    180.3013
   764.7500   2000.0000   2000.0000      8.3056    177.9212
   765.0000   2000.0000   2000.0000      8.2819    174.5625
   765.2500   2000.0000   2000.0000      8.2661    173.0125
   765.5000   2000.0000   2000.0000      8.2629    171.7428
   765.7500   2000.0000   2000.0000      8.2771    171.3857
   766.0000   2000.0000   2000.0000      8.3133    171.3000
   766.2500   2000.0000   2000.0000      8.3749    171.3786
   766.5000   2000.0000   2000.0000      8.4639    171.3219
   766.7500   2000.0000   2000.0000      8.5803    171.0558
   767.0000   2000.0000   2000.0000      8.7216    170.6012
   767.2500   2000.0000   2000.0000      8.8828    170.6024
   767.5000   2000.0000   2000.0000      9.0575    171.4466
   767.7500   2000.0000   2000.0000      9.2406    172.4527
   768.0000   2000.0000   2000.0000      9.4297    173.7684
   768.2500   2000.0000   2000.0000      9.6253    173.9114
   768.5000   2000.0000   2000.0000      9.8292    172.6231
   768.7500   2000.0000   2000.0000     10.0428    171.0333
   769.0000   2000.0000   2000.0000     10.2663    168.2239
   769.2500   2000.0000   2000.0000     10.4982    166.1622
   769.5000   2000.0000   2000.0000     10.7346    162.4156
   769.7500   2000.0000   2000.0000     10.9686    159.2823
   770.0000   2000.0000   2000.0000     11.1888    153.8810
   770.2500   2000.0000   2000.0000     11.3801    150.3147
   770.5000   2000.0000   2000.0000     11.5255    145.9290
   770.7500   2000.0000   2000.0000     11.6107    143.8900
   771.0000   2000.0000   2000.0000     11.6287    142.0365
   771.2500   2000.0000   2000.0000     11.5808    141.4643
   771.5000   2000.0000   2000.0000     11.4755    141.6564
   771.7500   2000.0000   2000.0000     11.3241    142.6392
   772.0000   2000.0000   2000.0000     11.1385    145.4478
   772.2500   2000.0000   2000.0000     10.9306    148.0044
   772.5000   2000.0000   2000.0000     10.7128    152.3189
   772.7500   2000.0000   2000.0000     10.4984    155.2208
   773.0000   2000.0000   2000.0000     10.3008    159.2905
   773.2500   2000.0000   2000.0000     10.1316    161.8094
   773.5000   2000.0000   2000.0000      9.9991    165.4459
   773.7500   2000.0000   2000.0000      9.9077    167.6621
   774.0000   2000.0000   2000.0000      9.8581    169.9753
   774.2500   2000.0000   2000.0000      9.8472    170.5886
   774.5000   2000.0000   2000.0000      9.8695    170.7604
   774.7500   2000.0000   2000.0000      9.9179    171.1592
   775.0000   2000.0000   2000.0000      9.9867    172.8493
   775.2500   2000.0000   2000.0000     10.0727    174.2647
   775.5000   2000.0000   2000.0000     10.1778    175.2820
   775.7500   2000.0000   2000.0000     10.3101    174.5460
   776.0000   2000.0000   2000.0000     10.4823    171.0833
   776.2500   2000.0000   2000.0000     10.7091    167.4082
   776.5000   2000.0000   2000.0000     11.0027    160.4222
   776.7500   2000.0000   2000.0000     11.3686    155.3058
   777.0000   2000.0000   2000.0000     11.8038    148.3273
   777.2500   2000.0000   2000.0000     12.2953    145.0330
   777.5000   2000.0000   2000.0000     12.8191    143.1107
   777.7500   2000.0000   2000.0000     13.3407    143.8149
   778.0000   2000.0000   2000.0000     13.8188    146.7337
   778.2500   2000.0000   2000.0000     14.2159    148.8852
   778.5000   2000.0000   2000.0000     14.5118    150.7899
   778.7500   2000.0000   2000.0000     14.7120    150.6739
   779.0000   2000.0000   2000.0000     14.8444    148.3732
   779.2500   2000.0000   2000.0000     14.9463    145.6505
   779.5000   2000.0000   2000.0000     15.0505    140.2472
   779.7500   2000.0000   2000.0000     15.1766    136.0664
   780.0000   2000.0000   2000.0000     15.3316    129.7080
   780.2500   2000.0000   2000.0000     15.5155    126.0967
   780.5000   2000.0000   2000.0000     15.7253    122.9513
   780.7500   2000.0000   2000.0000     15.9552    122.9889
   781.0000   2000.0000   2000.0000     16.1942    126.6335
   781.2500   2000.0000   2000.0000     16.4286    131.1665
   781.5000   2000.0000   2000.0000     16.6518    139.7810
   781.7500   2000.0000   2000.0000     16.8714    145.6665
   782.0000   2000.0000   2000.0000     17.1035    152.8542
   782.2500   2000.0000   2000.0000     17.3571    155.6207
   782.5000   2000.0000   2000.0000     17.6229    155.7830
   782.7500   2000.0000   2000.0000     17.8752    153.3412
   783.0000   2000.0000   2000.0000     18.0843    147.2253
   783.2500   2000.0000   2000.0000     18.2284    142.5805
   783.5000   2000.0000   2000.0000     18.2979    135.9625
   783.7500   2000.0000   2000.0000     18.2923    131.8622
   784.0000   2000.0000   2000.0000     18.2150    125.7479
   784.2500   2000.0000   2000.0000     18.0680    121.6280
   784.5000   2000.0000   2000.0000     17.8476    116.0296
   784.7500   2000.0000   2000.0000     17.5449    113.2456
   785.0000   2000.0000   2000.0000     17.1528    111.0277
   785.2500   2000.0000   2000.0000     16.6746    110.8674
   785.5000   2000.0000   2000.0000     16.1292    112.7088
   785.7500   2000.0000   2000.0000     15.5456    115.6287
   786.0000   2000.0000   2000.0000     14.9528    123.0105
   786.2500   2000.0000   2000.0000     14.3719    129.7380
   786.5000   2000.0000   2000.0000     13.8156    141.1232
   786.7500   2000.0000   2000.0000     13.2923    148.3342
   787.0000   2000.0000   2000.0000     12.8115    156.5548
   787.2500   2000.0000   2000.0000     12.3850    159.6973
   787.5000   2000.0000   2000.0000     12.0236    161.3695
   787.7500   2000.0000   2000.0000     11.7327    161.2985
   788.0000   2000.0000   2000.0000     11.5108    160.5865
   788.2500   2000.0000   2000.0000     11.3535    159.9051
   788.5000   2000.0000   2000.0000     11.2596    158.5639
   788.7500   2000.0000   2000.0000     11.2333    157.5757
   789.0000   2000.0000   2000.0000     11.2807    156.3015
   789.2500   2000.0000   2000.0000     11.4015    155.7383
   789.5000   2000.0000   2000.0000     11.5839    155.4791
   789.7500   2000.0000   2000.0000     11.8070    155.7323
   790.0000   2000.0000   2000.0000     12.0474    156.5460
   790.2500   2000.0000   2000.0000     12.2872    157.0780
   790.5000   2000.0000   2000.0000     12.5183    157.2549
   790.7500   2000.0000   2000.0000     12.7414    156.7235
   791.0000   2000.0000   2000.0000     12.9633    154.9653
   791.2500   2000.0000   2000.0000     13.1936    153.3485
   791.5000   2000.0000   2000.0000     13.4424    150.6461
   791.7500   2000.0000   2000.0000     13.7201    148.8916
   792.0000   2000.0000   2000.0000     14.0385    146.8766
   792.2500   2000.0000   2000.0000     14.4097    146.2742
   792.5000   2000.0000   2000.0000     14.8445    146.7213
   792.7500   2000.0000   2000.0000     15.3493    147.8088
   793.0000   2000.0000   2000.0000     15.9244    150.2357
   793.2500   2000.0000   2000.0000     16.5641    152.1760
   793.5000   2000.0000   2000.0000     17.2578    155.2614
   793.7500   2000.0000   2000.0000     17.9893    157.1706
   794.0000   2000.0000   2000.0000     18.7345    159.0928
   794.2500   2000.0000   2000.0000     19.4620    159.2933
   794.5000   2000.0000   2000.0000     20.1397    157.4744
   794.7500   2000.0000   2000.0000     20.7450    154.7413
