~Version Information
VERS.                      2.0: CWLS Log ASCII Standard - VERSION 2.0
WRAP.                       NO: One line per depth step
~Well Information Block
STRT.FT                 0.0000: 
STOP.FT              2072.7500: 
STEP.FT                 0.2500: 
NULL.                -999.2500: 
COMP.          Pioneer Natural Resources: COMPANY
WELL.          Greenwood 43-29 Tr: WELL
FLD.           Purgatorie River: FIELD
LOC.           1478' FSL & 744' FEL: LOCATION
STAT.                 Colorado: State
CNTY.               Las Animas: COUNTY
CTRY. USA : Country
SECT. 29 : Section
TOWN. 32S : Township
RANG. 67W : Range
SRVC.                Patterson: SERVICE COMPANY
DATE.          Tue Sep 06 12:54:40 2005: LOG DATE
API. 05-071-08478                          : UNIQUE WELL ID
~Curve Information Block
DEPT.FT            0 000 00 00: Depth
GR.GAPI                       : Gamma Ray
CCL.                          : Casing Collar Locator
TT3.usec                      : CBL 3' Travel Time
AMP3.mV                       : CBL 3' Amplitude
~Parameter Information Block
~A  Depth        GR         CCL         TT3         AMP3    
# ...
  2043.5000    131.3319      0.0000    423.4624      6.1627
  2043.7500    126.3316      0.0000    430.6061      6.2459
  2044.0000    121.3339      0.0000    451.7726      6.2919
  2044.2500    117.3634      0.0000    474.8321      6.2936
  2044.5000    115.3634      0.0000    485.2949      6.2632
  2044.7500    115.7891      0.0000    476.3701      6.2135
  2045.0000    118.1279      0.0000    456.9618      6.1477
  2045.2500    121.3387      0.0000    449.4496      6.0705
  2045.5000    125.0472      0.0000    478.8344      5.9914
  2045.7500    129.8706      0.0000    553.0132      5.9135
  2046.0000    136.0772      0.0000    646.6777      5.8288
  2046.2500    142.2366      0.0000    719.9450      5.7302
  2046.5000    145.9314      0.0000    756.5649      5.6214
  2046.7500    145.9826      0.0000    767.8419      5.5078
  2047.0000    143.6646      0.0000    767.8818      5.3934
  2047.2500    141.6517      0.0000    760.3762      5.2906
  2047.5000    141.8156      0.0000    743.2236      5.2144
  2047.7500    143.8969      0.0000    718.9579      5.1678
  2048.0000    146.2258      0.0000    696.6694      5.1438
  2048.2500    147.6093      0.0000    680.4144      5.1278
  2048.5000    148.2016      0.0000    667.0737      5.1022
  2048.7500    148.5086      0.0000    659.2445      5.0606
  2049.0000    148.2160      0.0000    662.3240      5.0126
  2049.2500    146.5206      0.0000    672.6066      4.9691
  2049.5000    143.3183      0.0000    683.8513      4.9274
  2049.7500    139.6158      0.0000    695.7808      4.8802
  2050.0000    136.6829      0.0000    709.6712      4.8323
  2050.2500    134.8204      0.0000    725.7326      4.7953
  2050.5000    133.0780      0.0000    745.6006      4.7735
  2050.7500    130.3365      0.0000    769.4828      4.7652
  2051.0000    126.5367      0.0000    792.8300      4.7656
  2051.2500    122.5984      0.0000    811.3321      4.7636
  2051.5000    119.2583      0.0000    824.7185      4.7439
  2051.7500    116.3009      0.0000    832.1168      4.7015
  2052.0000    112.9811      0.0000    830.2037      4.6513
  2052.2500    109.0391      0.0000    818.7987      4.6127
  2052.5000    105.1378      0.0000    802.7590      4.5879
  2052.7500    102.1343      0.0000    788.0381      4.5711
  2053.0000    100.1511      0.0000    778.9335      4.5628
  2053.2500     98.7864      0.0000    777.7379      4.5633
  2053.5000     97.9848      0.0000    785.9998      4.5745
  2053.7500     98.0763      0.0000    803.8073      4.6032
  2054.0000     99.1511      0.0000    825.8002      4.6467
  2054.2500    100.9731      0.0000    844.2039      4.6852
  2054.5000    103.2535      0.0000    859.0522      4.7038
  2054.7500    105.6604      0.0000    875.0888      4.7071
  2055.0000    107.9564      0.0000    884.6428      4.7104
  2055.2500    110.2839      0.0000    871.0895      4.7224
  2055.5000    112.7671      0.0000    837.0056      4.7426
  2055.7500    114.6756      0.0000    806.9995      4.7765
  2056.0000    114.5610      0.0000    798.4742      4.8373
  2056.2500    111.6669      0.0000    810.1908      4.9217
  2056.5000    107.0803      0.0000    836.8378      5.0038
  2056.7500    103.0788      0.0000    873.5372      5.0623
  2057.0000    101.1182      0.0000    902.3112      5.1019
  2057.2500    100.6405      0.0000    898.1083      5.1433
  2057.5000     99.9964      0.0000    860.6301      5.1909
  2057.7500     98.1467      0.0000    817.9523      5.2190
  2058.0000     95.0652      0.0000    793.2316      5.1954
  2058.2500     90.9368      0.0000    786.0526      5.1121
  2058.5000     85.8932      0.0000    780.7316      4.9859
  2058.7500     80.6757      0.0000    753.1734      4.7843
  2059.0000     76.8133      0.0000    668.4045      4.3214
  2059.2500     75.7613      0.0000    502.6668      3.4008
  2059.5000     78.0959      0.0000    293.3754      2.2028
  2059.7500     83.5404      0.0000    123.8932      1.2211
  2060.0000     91.2774      0.0000     36.1287      0.7120
  2060.2500    100.1310      0.0000      7.0662      0.5437
  2060.5000    108.9350      0.0000      0.9083      0.5082
  2060.7500    117.0356      0.0000      0.0728      0.5034
  2061.0000    124.3036      0.0000   -999.2500   -999.2500
  2061.2500    130.6678      0.0000   -999.2500   -999.2500
  2061.5000    135.9470      0.0000   -999.2500   -999.2500
  2061.7500    140.2502      0.0000   -999.2500   -999.2500
  2062.0000    144.0649      0.0000   -999.2500   -999.2500
  2062.2500    147.4880      0.0000   -999.2500   -999.2500
  2062.5000    149.6742      0.0000   -999.2500   -999.2500
  2062.7500    149.5794      0.0000   -999.2500   -999.2500
  2063.0000    147.0694      0.0000   -999.2500   -999.2500
  2063.2500    142.8874      0.0000   -999.2500   -999.2500
  2063.5000    137.8540      0.0000   -999.2500   -999.2500
  2063.7500    132.7189      0.0000   -999.2500   -999.2500
  2064.0000    128.5300      0.0000   -999.2500   -999.2500
  2064.2500    126.3923      0.0000   -999.2500   -999.2500
  2064.5000    126.7951      0.0000   -999.2500   -999.2500
  2064.7500    129.3326      0.0000   -999.2500   -999.2500
  2065.0000    132.8327      0.0000   -999.2500   -999.2500
  2065.2500    135.8553      0.0000   -999.2500   -999.2500
  2065.5000    137.7968      0.0000   -999.2500   -999.2500
  2065.7500    139.7267      0.0000   -999.2500   -999.2500
  2066.0000    143.5687      0.0000   -999.2500   -999.2500
  2066.2500    150.1135      0.0000   -999.2500   -999.2500
  2066.5000    157.9739      0.0000   -999.2500   -999.2500
  2066.7500    164.4810      0.0000   -999.2500   -999.2500
  2067.0000    167.4235   -999.2500   -999.2500   -999.2500
  2067.2500    166.1188   -999.2500   -999.2500   -999.2500
  2067.5000    161.4001   -999.2500   -999.2500   -999.2500
  2067.7500    154.9528   -999.2500   -999.2500   -999.2500
  2068.0000    148.6253   -999.2500   -999.2500   -999.2500
  2068.2500    144.0357   -999.2500   -999.2500   -999.2500
  2068.5000    142.2042   -999.2500   -999.2500   -999.2500
  2068.7500    142.9625   -999.2500   -999.2500   -999.2500
  2069.0000    144.7865   -999.2500   -999.2500   -999.2500
  2069.2500    145.4163   -999.2500   -999.2500   -999.2500
  2069.5000    142.3179   -999.2500   -999.2500   -999.2500
  2069.7500    132.6498   -999.2500   -999.2500   -999.2500
  2070.0000    114.1940   -999.2500   -999.2500   -999.2500
  2070.2500     87.7155   -999.2500   -999.2500   -999.2500
  2070.5000     58.1962   -999.2500   -999.2500   -999.2500
  2070.7500     32.4616   -999.2500   -999.2500   -999.2500
  2071.0000     14.9090   -999.2500   -999.2500   -999.2500
  2071.2500      5.5512   -999.2500   -999.2500   -999.2500
  2071.5000      1.6570   -999.2500   -999.2500   -999.2500
  2071.7500      0.3926   -999.2500   -999.2500   -999.2500
  2072.0000      0.0726   -999.2500   -999.2500   -999.2500
  2072.2500      0.0097   -999.2500   -999.2500   -999.2500
  2072.5000      0.0000   -999.2500   -999.2500   -999.2500
  2072.7500   -999.2500   -999.2500   -999.2500   -999.2500
