~Version Information
VERS.                      2.0: CWLS Log ASCII Standard - VERSION 2.0
WRAP.                       NO: One line per depth step
~Well Information Block
STRT.FT               845.0000: 
STOP.FT              2103.2000: 
STEP.FT                 0.1000: 
NULL.                -999.2500: 
COMP.          Petrogulf Corporation: COMPANY
WELL.               YWAM 7-32R: WELL
FLD.           Purgatorie River: FIELD
LOC.           2355' FNL & 2376' FEL: LOCATION
PROV.                 Colorado: PROVINCE
CNTY.               Las Animas: COUNTRY
SRVC.                Patterson: SERVICE COMPANY
DATE.          Thu Sep 29 23:12:08 2005: LOG DATE
UWI.                          : UNIQUE WELL ID
~Curve Information Block
DEPT.FT            0 000 00 00: Depth
SP.mV                         : DIL Spontaneous Potential
RILD.Ohm-m                    : DIL Deep Resistivity
RILM.Ohm-m                    : DIL Medium Resistivity
RLL3.Ohm-m                    : DIL Shallow Resistivity
GR.GAPI                       : Gamma Ray
~Parameter Information Block
~A  Depth        SP         RILD        RILM        RLL3         GR     
# ...
  1595.4000    165.7670     30.5496     45.2687    103.5757     59.9202
  1595.5000    165.9309     31.2744     47.4794    113.8830     59.3443
  1595.6000    165.9309     31.2744     47.4794    113.8830     58.8925
  1595.7000    165.9309     31.2744     47.4794    113.8830     58.5459
  1595.8000    166.2517     32.0764     49.7089    124.1057     58.2715
  1595.9000    166.2517     32.0764     49.7089    124.1057     58.0304
  1596.0000    166.7092     32.8842     51.9109    133.3427     57.7856
  1596.1000    166.7092     32.8842     51.9109    133.3427     57.5109
  1596.2000    166.7092     32.8842     51.9109    133.3427     57.1929
  1596.3000    167.2881     33.6226     54.0201    140.9669     56.8314
  1596.4000    167.2881     33.6226     54.0201    140.9669     56.4415
  1596.5000    167.9814     34.2387     55.9536    146.6061     56.0441
  1596.6000    167.9814     34.2387     55.9536    146.6061     55.6653
  1596.7000    167.9814     34.2387     55.9536    146.6061     55.3311
  1596.8000    168.7796     34.7132     57.6179    149.8139     55.0604
  1596.9000    168.7796     34.7132     57.6179    149.8139     54.8673
  1597.0000    169.6579     35.0520     58.9220    149.8402     54.7542
  1597.1000    169.6579     35.0520     58.9220    149.8402     54.7143
  1597.2000    169.6579     35.0520     58.9220    149.8402     54.7359
  1597.3000    170.5763     35.2734     59.7928    145.9429     54.8039
  1597.4000    170.5763     35.2734     59.7928    145.9429     54.9036
  1597.5000    171.4949     35.3998     60.1897    138.2794     55.0258
  1597.6000    171.4949     35.3998     60.1897    138.2794     55.1696
  1597.7000    171.4949     35.3998     60.1897    138.2794     55.3442
  1597.8000    172.3943     35.4551     60.1140    128.6225     55.5685
  1597.9000    172.3943     35.4551     60.1140    128.6225     55.8648
  1598.0000    173.2857     35.4540     59.6086    119.7850     56.2547
  1598.1000    173.2857     35.4540     59.6086    119.7850     56.7573
  1598.2000    173.2857     35.4540     59.6086    119.7850     57.3842
  1598.3000    174.2077     35.3858     58.7476    113.7731     58.1361
  1598.4000    174.2077     35.3858     58.7476    113.7731     59.0008
  1598.5000    175.2155     35.2084     57.6186    110.5084     59.9574
  1598.6000    175.2155     35.2084     57.6186    110.5084     60.9752
  1598.7000    175.2155     35.2084     57.6186    110.5084     62.0184
  1598.8000    176.3685     34.8660     56.3037    108.7489     63.0503
  1598.9000    176.3685     34.8660     56.3037    108.7489     64.0380
  1599.0000    177.7174     34.3217     54.8665    107.9747     64.9582
  1599.1000    177.7174     34.3217     54.8665    107.9747     65.8022
  1599.2000    177.7174     34.3217     54.8665    107.9747     66.5789
  1599.3000    179.2927     33.5792     53.3437    108.3372     67.3142
  1599.4000    179.2927     33.5792     53.3437    108.3372     68.0522
  1599.5000    181.0921     32.6731     51.7431    108.5852     68.8437
  1599.6000    181.0921     32.6731     51.7431    108.5852     69.7390
  1599.7000    181.0921     32.6731     51.7431    108.5852     70.7777
  1599.8000    183.0709     31.6385     50.0441    105.4983     71.9777
  1599.9000    183.0709     31.6385     50.0441    105.4983     73.3298
  1600.0000    185.1457     30.4886     48.1990     96.7587     74.7965
  1600.1000    185.1457     30.4886     48.1990     96.7587     76.3172
  1600.2000    185.1457     30.4886     48.1990     96.7587     77.8148
  1600.3000    187.2210     29.2152     46.1379     84.0909     79.2137
  1600.4000    187.2210     29.2152     46.1379     84.0909     80.4477
  1600.5000    189.2274     27.8077     43.7831     72.4768     81.4665
  1600.6000    189.2274     27.8077     43.7831     72.4768     82.2473
  1600.7000    189.2274     27.8077     43.7831     72.4768     82.7880
  1600.8000    191.1473     26.2713     41.0739     65.9599     83.1027
  1600.9000    191.1473     26.2713     41.0739     65.9599     83.2173
  1601.0000    193.0078     24.6340     38.0002     64.4409     83.1599
  1601.1000    193.0078     24.6340     38.0002     64.4409     82.9590
  1601.2000    193.0078     24.6340     38.0002     64.4409     82.6431
  1601.3000    194.8482     22.9405     34.6277     64.3503     82.2396
  1601.4000    194.8482     22.9405     34.6277     64.3503     81.7873
  1601.5000    196.6855     21.2433     31.0980     61.9194     81.3328
  1601.6000    196.6855     21.2433     31.0980     61.9194     80.9348
  1601.7000    196.6855     21.2433     31.0980     61.9194     80.6652
  1601.8000    198.5013     19.5959     27.5941     55.7799     80.6008
  1601.9000    198.5013     19.5959     27.5941     55.7799     80.8205
  1602.0000    200.2524     18.0467     24.2912     47.0364     81.3978
  1602.1000    200.2524     18.0467     24.2912     47.0364     82.3936
  1602.2000    200.2524     18.0467     24.2912     47.0364     83.8498
  1602.3000    201.8924     16.6321     21.3164     37.6602     85.7848
  1602.4000    201.8924     16.6321     21.3164     37.6602     88.1919
  1602.5000    203.3858     15.3702     18.7341     29.1381     91.0392
  1602.6000    203.3858     15.3702     18.7341     29.1381     94.2681
  1602.7000    203.3858     15.3702     18.7341     29.1381     97.8022
  1602.8000    204.7141     14.2593     16.5538     22.1877    101.5488
  1602.9000    204.7141     14.2593     16.5538     22.1877    105.4080
  1603.0000    205.8786     13.2835     14.7486     17.0063    109.2765
  1603.1000    205.8786     13.2835     14.7486     17.0063    113.0550
  1603.2000    205.8786     13.2835     14.7486     17.0063    116.6566
  1603.3000    206.8979     12.4215     13.2725     13.4703    120.0049
  1603.4000    206.8979     12.4215     13.2725     13.4703    123.0392
  1603.5000    207.8000     11.6552     12.0741     11.2548    125.7172
  1603.6000    207.8000     11.6552     12.0741     11.2548    128.0137
  1603.7000    207.8000     11.6552     12.0741     11.2548    129.9248
  1603.8000    208.6077     10.9720     11.1038      9.9693    131.4613
  1603.9000    208.6077     10.9720     11.1038      9.9693    132.6508
  1604.0000    209.3272     10.3634     10.3177      9.2728    133.5312
  1604.1000    209.3272     10.3634     10.3177      9.2728    134.1506
  1604.2000    209.3272     10.3634     10.3177      9.2728    134.5576
  1604.3000    209.9445      9.8222      9.6782      8.9207    134.8012
  1604.4000    209.9445      9.8222      9.6782      8.9207    134.9282
  1604.5000    210.4313      9.3413      9.1547      8.7624    134.9906
  1604.6000    210.4313      9.3413      9.1547      8.7624    135.0450
  1604.7000    210.4313      9.3413      9.1547      8.7624    135.1536
  1604.8000    210.7574      8.9154      8.7224      8.7171    135.3881
  1604.9000    210.7574      8.9154      8.7224      8.7171    135.8235
  1605.0000    210.9062      8.5422      8.3623      8.7368    136.5265
  1605.1000    210.9062      8.5422      8.3623      8.7368    137.5409
  1605.2000    210.9062      8.5422      8.3623      8.7368    138.8736
  1605.3000    210.8831      8.2219      8.0602      8.7729    140.4847
  1605.4000    210.8831      8.2219      8.0602      8.7729    142.2870
  1605.5000    210.7113      7.9546      7.8063      8.7690    144.1485
  1605.6000    210.7113      7.9546      7.8063      8.7690    145.9231
  1605.7000    210.7113      7.9546      7.8063      8.7690    147.4692
  1605.8000    210.4188      7.7389      7.5943      8.6875    148.6736
  1605.9000    210.4188      7.7389      7.5943      8.6875    149.4798
  1606.0000    210.0270      7.5713      7.4205      8.5380    149.8883
  1606.1000    210.0270      7.5713      7.4205      8.5380    149.9563
  1606.2000    210.0270      7.5713      7.4205      8.5380    149.7853
  1606.3000    209.5495      7.4461      7.2825      8.3685    149.4917
  1606.4000    209.5495      7.4461      7.2825      8.3685    149.1906
  1606.5000    208.9946      7.3569      7.1788      8.2270    148.9762
