~Version Information
VERS.                      2.0: CWLS Log ASCII Standard - VERSION 2.0
WRAP.                       NO: One line per depth step
~Well Information Block
STRT.FT               264.2500: 
STOP.FT              1134.7500: 
STEP.FT                 0.2500: 
NULL.                -999.2500: 
COMP.          Pioneer Natural Resources: COMPANY
WELL.          Black Cat 13-32 Tr: WELL
FLD.           Purgatoire River: FIELD
LOC.           1679' FSL & 1150' FWL--: LOCATION
CNTY.               Las Animas: COUNTY
SRVC.                Patterson: SERVICE COMPANY
DATE.          Tue Mar 07 10:58:06 2006: LOG DATE
UWI.           05 071 08721 00: UNIQUE WELL ID
STAT.                 Colorado: STATE
~Curve Information Block
DEPT.FT            0 000 00 00: Depth
SN.Ohm-m                      : IEL Short Normal
SP.mV                         : IEL Spontaneous Potential
DIR.Ohm-m                     : IEL Induction Resistivity
GR.GAPI                       : Gamma Ray
~Parameter Information Block
~A  Depth        SN          SP         DIR          GR     
# ...
   766.7500    513.6111   -342.3422     17.7003    134.8527
   767.0000    477.4985   -334.4269     17.7893    135.6840
   767.2500    444.9087   -329.9760     17.7228    136.5439
   767.5000    423.7231   -328.6546     17.5255    137.9609
   767.7500    423.8824   -329.5544     17.2546    138.8227
   768.0000    450.2233   -331.3204     16.9690    140.3951
   768.2500    494.2542   -332.3766     16.7029    141.8727
   768.5000    538.5542   -331.2170     16.4569    144.0918
   768.7500    570.0916   -326.6963     16.2090    144.6969
   769.0000    586.8359   -318.2626     15.9342    143.3129
   769.2500    593.6306   -306.0797     15.6236    141.1765
   769.5000    595.6674   -291.0276     15.2909    137.9437
   769.7500    595.5961   -274.5738     14.9638    136.8502
   770.0000    593.1530   -258.5424     14.6673    137.4917
   770.2500    584.7589   -244.8271     14.4127    139.0243
   770.5000    563.1221   -235.0982     14.1962    141.6448
   770.7500    520.0172   -230.5702     14.0058    143.0433
   771.0000    454.7774   -231.8698     13.8277    144.3681
   771.2500    382.8762   -239.0166     13.6511    144.7722
   771.5000    331.5359   -251.5016     13.4698    144.6430
   771.7500    318.6876   -268.4152     13.2846    143.9798
   772.0000    334.1039   -288.5771     13.1022    141.8072
   772.2500    345.7874   -310.6386     12.9318    139.3851
   772.5000    327.4332   -333.1667     12.7799    134.5732
   772.7500    278.2137   -354.7169     12.6481    131.3567
   773.0000    217.8224   -373.9188     12.5327    128.3579
   773.2500    169.1127   -389.5773     12.4263    128.2243
   773.5000    148.2293   -400.7775     12.3195    130.3405
   773.7500    164.7105   -406.9747     12.2051    132.3138
   774.0000    221.2724   -408.0484     12.0823    134.4678
   774.2500    309.3020   -404.3236     11.9579    134.9562
   774.5000    407.7541   -396.5630     11.8419    134.6190
   774.7500    492.3358   -385.9357     11.7416    134.1761
   775.0000    548.6829   -373.9523     11.6589    133.7931
   775.2500    576.4675   -362.3559     11.5927    133.7819
   775.5000    581.5953   -352.9452     11.5432    134.0132
   775.7500    565.8748   -347.3408     11.5131    134.3057
   776.0000    523.9863   -346.7248     11.5056    134.8873
   776.2500    450.3164   -351.6093     11.5215    135.3231
   776.5000    350.4346   -361.7159     11.5579    136.2396
   776.7500    246.3364   -376.0018     11.6099    137.2216
   777.0000    168.8659   -392.8469     11.6724    139.2281
   777.2500    143.3545   -410.3568     11.7411    140.6766
   777.5000    178.9850   -426.7066     11.8125    142.5556
   777.7500    264.8094   -440.4198     11.8835    143.3745
   778.0000    372.8572   -450.5331     11.9536    143.7400
   778.2500    470.8159   -456.6194     12.0254    143.5741
   778.5000    538.5851   -458.6977     12.1059    143.2681
   778.7500    574.8967   -457.0796     12.2041    143.0770
   779.0000    590.0304   -452.2213     12.3278    142.1124
   779.2500    594.9396   -444.6274     12.4813    140.4412
   779.5000    596.1801   -434.8142     12.6639    135.7647
   779.7500    596.4241   -423.3303     12.8718    131.2441
   780.0000    596.4453   -410.8046     13.1016    123.3130
   780.2500    596.3547   -397.9896     13.3540    118.2491
   780.5000    595.9175   -385.7742     13.6348    112.8118
   780.7500    594.3008   -375.1444     13.9525    111.2953
   781.0000    589.7400   -367.0888     14.3139    112.1707
   781.2500    580.1017   -362.4662     14.7200    114.3502
   781.5000    564.9937   -361.8551     15.1647    119.0702
   781.7500    547.6494   -365.4212     15.6355    122.7200
   782.0000    532.6235   -372.8433     16.1180    127.8841
   782.2500    520.5731   -383.3298     16.6034    130.3547
   782.5000    508.5735   -395.7348     17.0937    131.9342
   782.7500    497.9780   -408.7582     17.6021    131.9122
   783.0000    497.4109   -421.1888     18.1464    131.4808
   783.2500    513.2448   -432.1256     18.7406    131.2834
   783.5000    540.3679   -441.1212     19.3882    130.6045
   783.7500    566.6635   -448.2061     20.0812    129.4137
   784.0000    584.0765   -453.7953     20.8050    126.6347
   784.2500    592.4473   -458.5102     21.5423    124.8516
   784.5000    595.4468   -462.9734     22.2743    123.6716
   784.7500    596.2617   -467.6365     22.9793    124.2291
   785.0000    596.4308   -472.6849     23.6344    126.7630
   785.2500    596.4615   -478.0349     24.2225    129.0926
   785.5000    596.4615   -483.4075     24.7462    132.4053
   785.7500    596.4615   -488.4433     25.2379    133.7170
   786.0000    596.4615   -492.8179     25.7586    133.3347
   786.2500    596.4615   -496.3215     26.3835    131.4638
   786.5000    596.4615   -498.8864     27.1811    127.0417
   786.7500    596.4615   -500.5721     28.1966    123.6466
   787.0000    596.4615   -501.5262     29.4435    118.6352
   787.2500    596.4615   -501.9310     30.9035    115.4689
   787.5000    596.4615   -501.9603     32.5401    110.7188
   787.7500    596.4615   -501.7545     34.3205    107.3894
   788.0000    596.4615   -501.4094     36.2291    102.4706
   788.2500    596.4615   -500.9762     38.2513     99.7440
   788.5000    596.4615   -500.4684     40.3301     97.1290
   788.7500    596.4615   -499.8725     42.3407     96.2767
   789.0000    596.4615   -499.1579     44.1292     95.4269
   789.2500    596.4615   -498.2862     45.6039     94.5296
   789.5000    596.4615   -497.2209     46.7964     92.3500
   789.7500    596.4615   -495.9344     47.8271     90.7973
   790.0000    596.4615   -494.4137     48.8178     89.6134
   790.2500    596.4615   -492.6697     49.8285     89.9495
   790.5000    596.4615   -490.7479     50.8438     91.3793
   790.7500    596.4615   -488.7378     51.7829     91.9446
   791.0000    596.4615   -486.7789     52.5217     90.6959
   791.2500    596.4615   -485.0533     52.9435     88.1987
   791.5000    596.4615   -483.7651     53.0102     82.5974
   791.7500    596.4615   -483.1029     52.7945     78.3004
   792.0000    596.4615   -483.1981     52.4354     72.1023
   792.2500    596.4615   -484.0872     52.0555     68.6370
   792.5000    596.4615   -485.6931     51.7052     64.9343
   792.7500    596.4615   -487.8305     51.3623     63.4193
   793.0000    596.4615   -490.2392     50.9758     61.9392
   793.2500    596.4615   -492.6309     50.5157     61.0387
   793.5000    596.4615   -494.7385     49.9741     59.6197
   793.7500    596.4615   -496.3554     49.3049     59.0141
   794.0000    596.4615   -497.3592     48.3544     59.6846
   794.2500    596.4615   -497.7202     46.8783     61.5690
   794.5000    596.4615   -497.4988     44.6800     66.3398
   794.7500    596.4615   -496.8339     41.7699     70.3294
   795.0000    596.4615   -495.9248     38.3959     76.7367
   795.2500    596.4615   -495.0036     34.9197     81.1559
   795.5000    596.4615   -494.3002     31.6621     88.4137
   795.7500    596.4615   -494.0036     28.8207     93.9674
   796.0000    596.4615   -494.2288     26.4660    103.2262
   796.2500    596.4615   -494.9989     24.5773    109.5218
   796.5000    596.4615   -496.2489     23.0872    118.2751
   796.7500    596.4615   -497.8503     21.9151    123.4041
   797.0000    596.4615   -499.6493     20.9847    129.8942
   797.2500    596.4615   -501.5044     20.2285    133.2988
   797.5000    596.4615   -503.3136     19.5914    136.7317
   797.7500    596.4615   -505.0216     19.0384    137.7624
   798.0000    596.4615   -506.6113     18.5615    137.3556
   798.2500    596.4615   -508.0788     18.1754    135.9733
   798.5000    596.4615   -509.4064     17.9003    133.1094
   798.7500    596.4615   -510.5350     17.7436    131.3157
   799.0000    596.4615   -511.3455     17.6898    129.5099
   799.2500    596.4615   -511.6526     17.7003    129.0479
   799.5000    596.4615   -511.2136     17.7201    129.6886
   799.7500    596.4615   -509.7527     17.6886    131.1275
   800.0000    596.4615   -506.9937     17.5556    134.4619
