~Version Information
 VERS.                                  2.0 : CWLS LAS VERSION
 WRAP.                                   NO : WRAPING MODE
 SWARE .                 MController 2.5.0J : SOFTWARE VERSION
~Well Information
 WELL.                Lorencito 15-36-33-67 : WELL
 COMP.    Pioneer Natural Resources USA Inc : COMPANY
 FLD.                      Purgatoire River : FIELD
 LOC.                 SW/SE Sec36 T33S R67W : LOCATION
 DATE.                             10/12/05 : DATE(S) LOGGED
 SRVC.       Blanco Geological Services LLC : SERVICE COMPANY
 STAT.                             Colorado : STATE
 CNTY.                            Las Animas : COUNTY
 CTRY.                                  USA : COUNTRY
 API.                       05-071-08515-00 : API NUMBER
 STRT.FT                             723.00 : START DEPTH
 STOP.FT                            1975.00 : STOP DEPTH
 STEP.FT                               1.00 : DEPTH INCREMENT
 NULL.                                -9999 : NULL VALUE
~Curve information
 DEPTH.FT                                   :
 ROP.MIN/FT                                 :
 GAS.UNITS                                  :
~ASCII Log data
# ...
      1123.0         0.17          7.1 
      1124.0         0.20          6.6 
      1125.0         0.17          6.8 
      1126.0         0.20          6.5 
      1127.0         0.20          7.5 
      1128.0         0.17          6.3 
      1129.0         0.20          6.5 
      1130.0         0.20          6.8 
      1131.0         0.13          7.0 
      1132.0         0.13          6.9 
      1133.0         0.20          6.4 
      1134.0         0.13          6.6 
      1135.0         2.95          6.0 
      1136.0         0.10          6.0 
      1137.0         0.13          6.3 
      1138.0         0.35          9.2 
      1139.0         0.30          8.3 
      1140.0         0.17          7.3 
      1141.0         0.17          7.8 
      1142.0         0.20          7.8 
      1143.0         0.27          8.6 
      1144.0         0.13          8.9 
      1145.0         0.17         10.4 
      1146.0         0.23         11.8 
      1147.0         0.23         12.7 
      1148.0         0.23         13.9 
      1149.0         0.17         14.3 
      1150.0         0.13         14.6 
      1151.0         0.23         15.7 
      1152.0         0.20         15.6 
      1153.0         0.13         15.4 
      1154.0         0.13         15.2 
      1155.0         0.13         15.0 
      1156.0         0.18         14.8 
      1157.0         0.23         14.4 
      1158.0         0.20         14.3 
      1159.0         0.37         13.4 
      1160.0         0.27         12.9 
      1161.0         0.20         12.1 
      1162.0         0.17         12.7 
      1163.0         0.20         11.3 
      1164.0         0.13         11.8 
      1165.0         1.40          7.4 
      1166.0         0.55          7.3 
      1167.0         0.50          6.7 
      1168.0         0.43          6.5 
      1169.0         0.43          6.6 
      1170.0         0.23          6.8 
      1171.0         0.27          6.9 
      1172.0         0.40          7.1 
      1173.0         0.37          7.3 
      1174.0         0.28          7.2 
      1175.0         0.23          7.7 
      1176.0         0.17          7.5 
      1177.0         0.23          7.8 
      1178.0         0.20          7.5 
      1179.0         0.20          7.7 
      1180.0         0.23          7.3 
      1181.0         0.17          7.5 
      1182.0         0.20          7.4 
      1183.0         0.20          7.5 
      1184.0         0.17          7.2 
      1185.0         0.20          7.0 
      1186.0         0.23          7.4 
      1187.0         0.17          6.9 
      1188.0         0.20          6.9 
      1189.0         0.23          6.7 
      1190.0         0.20          6.7 
      1191.0         0.22          6.4 
      1192.0         0.20          6.6 
      1193.0         0.23          6.0 
      1194.0         0.60          5.9 
      1195.0         0.27          6.1 
      1196.0         0.87          6.3 
      1197.0         0.23          5.5 
      1198.0         0.43          5.6 
      1199.0         0.30          5.7 
      1200.0         0.25          5.3 
      1201.0         0.23          5.5 
      1202.0         0.23          6.1 
      1203.0         0.20          5.5 
      1204.0         0.13          5.6 
      1205.0         0.20          5.9 
      1206.0         0.17          6.2 
      1207.0         0.13          6.0 
      1208.0         0.10          5.7 
      1209.0         0.17          6.2 
      1210.0         0.17          6.4 
      1211.0         0.13          6.5 
      1212.0         0.13          6.5 
      1213.0         0.17          6.8 
      1214.0         0.17          7.3 
      1215.0         0.17          7.5 
      1216.0         0.63          7.4 
      1217.0         0.32          7.7 
      1218.0         0.30          8.0 
      1219.0         0.33          7.8 
      1220.0         0.30          7.6 
      1221.0         0.33          7.0 
      1222.0         0.33          6.9 
      1223.0         0.30          6.5 
      1224.0         0.33          6.3 
      1225.0         0.67          5.8 
      1226.0         0.38          5.9 
      1227.0         0.30          5.7 
      1228.0         0.33          5.4 
      1229.0         0.33          5.5 
      1230.0         0.07          5.6 
      1231.0         0.37          5.2 
      1232.0         0.33          5.5 
      1233.0         0.33          5.5 
      1234.0         0.23          5.6 
      1235.0         0.27          5.9 
      1236.0         0.27          5.3 
      1237.0         0.23          5.8 
      1238.0         0.28          6.1 
      1239.0         0.23          6.3 
      1240.0         0.23          6.2 
      1241.0         0.27          6.1 
      1242.0         0.23          6.9 
      1243.0         0.27          6.3 
      1244.0         0.20          7.1 
      1245.0         0.20          6.3 
      1246.0         0.20          6.3 
      1247.0         0.23          6.0 
      1248.0         0.20          5.3 
      1249.0         0.20          4.9 
      1250.0         0.20          4.7 
      1251.0         0.17          5.0 
      1252.0         0.17          5.0 
      1253.0         0.25          5.7 
      1254.0         0.33          7.0 
      1255.0         0.20          7.1 
      1256.0         1.57          7.4 
      1257.0         0.23          6.6 
      1258.0         0.60          5.8 
      1259.0         0.27          5.8 
      1260.0         0.28          5.7 
      1261.0         0.20          5.7 
      1262.0         0.20          5.5 
      1263.0         0.23          5.6 
      1264.0         0.20          5.5 
      1265.0         0.23          5.5 
      1266.0         0.17          5.8 
      1267.0         0.17          6.0 
      1268.0         0.17          6.1 
      1269.0         0.17          6.4 
      1270.0         0.17          6.5 
      1271.0         0.13          6.9 
      1272.0         0.13          7.7 
      1273.0         0.13          7.2 
      1274.0         0.10          7.0 
      1275.0         0.13          7.6 
      1276.0         0.13          7.3 
      1277.0         0.13          7.5 
      1278.0         0.13          7.5 
      1279.0         0.13          7.4 
      1280.0         0.18          6.9 
      1281.0         0.17          6.6 
      1282.0         0.17          6.2 
      1283.0         0.23          6.4 
      1284.0         0.17          6.0 
      1285.0         0.20          5.6 
      1286.0         1.27          6.2 
      1287.0         0.20          5.5 
      1288.0         0.50          5.1 
      1289.0         0.45          5.1 
      1290.0         0.27          4.8 
      1291.0         0.30          5.6 
      1292.0         0.30          4.8 
      1293.0         0.30          5.0 
      1294.0         0.27          5.1 
      1295.0         0.20          4.8 
      1296.0         0.30          5.0 
      1297.0         0.23          5.1 
      1298.0         0.23          5.2 
      1299.0         0.13          5.3 
      1300.0         0.13          5.0 
      1301.0         0.13          5.2 
      1302.0         0.13          5.4 
      1303.0         0.27          5.6 
      1304.0         0.18          5.7 
      1305.0         0.17          5.8 
      1306.0         0.23          6.3 
      1307.0         0.20          6.0 
      1308.0         0.20          6.2 
      1309.0         0.20          6.4 
      1310.0         0.17          6.2 
      1311.0         0.23          6.1 
      1312.0         0.20          6.7 
      1313.0         0.17          6.3 
      1314.0         0.23          6.3 
      1315.0         0.30          6.7 
      1316.0         1.75          8.1 
      1317.0         0.57          8.3 
      1318.0         0.33          8.3 
      1319.0         0.23          8.5 
      1320.0         0.23          8.5 
      1321.0         0.30          9.0 
      1322.0         0.23          9.4 
