~Version Information
VERS.                      2.0: CWLS Log ASCII Standard - VERSION 2.0
WRAP.                       NO: One line per depth step
~Well Information Block
STRT.FT                -6.0000: 
STOP.FT              1295.2500: 
STEP.FT                 0.2500: 
NULL.                -999.2500: 
COMP.          Pioneer Natural Resources: COMPANY
WELL.            Erin 21-15 Tr: WELL
FLD.           Purgatoire River: FIELD
LOC.           1217' FNL & 2284' FWL--: LOCATION
CNTY.               Las Animas: COUNTY
SRVC.                         : SERVICE COMPANY
DATE.          Fri Mar 10 09:14:17 2006: LOG DATE
UWI.           05 071 08712 00: UNIQUE WELL ID
STAT.                       CO: STATE
~Curve Information Block
DEPT.FT            0 000 00 00: Depth
GR.GAPI                       : Gamma Ray
CCL.                          : Casing Collar Locator
TT3.usec                      : CBL 3' Travel Time
AMP3.mV                       : CBL 3' Amplitude
~Parameter Information Block
~A  Depth        GR         CCL         TT3         AMP3    
# ...
    94.5000     86.6400      0.0000    530.6492     24.9030
    94.7500     85.9304      0.0000    462.4764     25.2657
    95.0000     86.4467      0.0000    398.0701     25.6560
    95.2500     86.6605      0.0000    349.8763     25.9643
    95.5000     85.3731      0.0000    321.6241     26.1363
    95.7500     82.4236      0.0000    309.1801     26.1882
    96.0000     78.3777      0.0000    306.5999     26.1438
    96.2500     73.8741      0.0000    310.7552     25.9776
    96.5000     69.4818      0.0000    321.0083     25.6515
    96.7500     65.8024      0.0000    335.5665     25.2108
    97.0000     63.2604      0.0000    348.7359     24.8183
    97.2500     61.8448      0.0000    353.1525     24.6641
    97.5000     61.2835      0.0000    345.9978     24.8350
    97.7500     61.3890      0.0000    331.7779     25.2629
    98.0000     61.9745      0.0000    317.9705     25.7916
    98.2500     62.4551      0.0000    308.9821     26.3012
    98.5000     61.9147      0.0000    304.7310     26.7975
    98.7500     59.8195      0.0000    303.1401     27.3965
    99.0000     56.6341      0.0000    302.4872     28.2226
    99.2500     53.6681      0.0000    302.0033     29.3147
    99.5000     52.2654      0.0000    301.5192     30.5865
    99.7500     52.9562      0.0000    301.0892     31.8301
   100.0000     55.0479      0.0000    300.8136     32.7789
   100.2500     56.9669      0.0000    300.9935     33.2205
   100.5000     57.3529      0.0000    302.5495     33.0642
   100.7500     56.1338      0.0000    308.1025     32.3089
   101.0000     54.4232      0.0000    323.5876     31.0099
   101.2500     53.3454      0.0000    359.4290     29.3062
   101.5000     53.2932      0.0000    428.6534     27.4278
   101.7500     54.1528      0.0000    538.5420     25.6197
   102.0000     55.5816      0.0000    678.0590     24.0401
   102.2500     57.0690      0.0000    814.6063     22.7078
   102.5000     58.3069      0.0000    912.3622     21.5233
   102.7500     59.5409      0.0000    959.0413     20.3544
   103.0000     61.1033      0.0000    971.7418     19.1335
   103.2500     62.6517      0.0000    976.6898     17.8891
   103.5000     63.4132      0.0000    988.6263     16.7010
   103.7500     63.2754      0.0000   1008.3900     15.6408
   104.0000     63.1941      0.0000   1031.5839     14.7495
   104.2500     64.3529      0.0000   1055.1338     14.0457
   104.5000     67.1657      0.0000   1078.2855     13.5318
   104.7500     71.1706      0.0000   1099.6744     13.1877
   105.0000     75.6312      0.0000   1112.8875     12.9716
   105.2500     80.0164      0.0000   1106.4498     12.8388
   105.5000     83.9140      0.0000   1071.6472     12.7570
   105.7500     86.7197      0.0000   1011.7606     12.6936
   106.0000     87.7784      0.0000    942.6119     12.5898
   106.2500     87.1299      0.0000    882.9727     12.3504
   106.5000     85.9634      0.0000    843.5839     11.8608
   106.7500     85.9057      0.0000    823.3979     11.0523
   107.0000     87.5796      0.0000    813.4275      9.9813
   107.2500     89.9539      0.0000    803.0193      8.8276
   107.5000     91.2204      0.0000    785.6448      7.7729
   107.7500     90.2541      0.0000    763.5912      6.8915
   108.0000     87.1575      0.0000    748.2306      6.1879
   108.2500     82.6943      0.0000    752.0737      5.6924
   108.5000     77.7144      0.0000    777.4690      5.4459
   108.7500     73.1854      0.0000    813.1801      5.4254
   109.0000     70.2701      2.0000    842.6396      5.5516
   109.2500     69.7765      2.0000    856.4449      5.7582
   109.5000     71.2779      0.0000    858.1072      6.0286
   109.7500     73.0975      0.0000    858.3160      6.3900
   110.0000     73.7112      0.0000    864.9088      6.8996
   110.2500     73.1793      0.0000    879.8031      7.6098
   110.5000     72.8440      0.0000    902.2628      8.5044
   110.7500     73.8191      0.0000    929.3665      9.4593
   111.0000     76.1508      0.0000    953.9436     10.2845
   111.2500     79.1089      0.0000    967.4800     10.8339
   111.5000     81.6522      0.0000    966.6939     11.0980
   111.7500     82.8929      0.0000    955.5064     11.1962
   112.0000     82.8487      0.0000    940.4578     11.2826
   112.2500     82.6944      0.0000    925.2540     11.4501
   112.5000     83.8524      0.0000    909.6569     11.6930
   112.7500     87.0256      0.0000    892.5931     11.9342
   113.0000     92.0497      0.0000    875.1912     12.0854
   113.2500     97.8452      0.0000    860.4865     12.0919
   113.5000    102.3977      0.0000    850.7916     11.9371
   113.7500    103.8029      0.0000    846.2067     11.6366
   114.0000    101.8121      0.0000    845.6148     11.2513
   114.2500     97.9937      0.0000    848.4843     10.8927
   114.5000     94.3839      0.0000    855.7244     10.6882
   114.7500     92.2291      0.0000    869.0131     10.7228
   115.0000     91.5714      0.0000    889.0864     11.0012
   115.2500     91.5269      0.0000    914.1705     11.4642
   115.5000     91.1242      0.0000    940.1153     12.0405
   115.7500     90.0776      0.0000    962.6907     12.6728
   116.0000     88.7138      0.0000    980.4072     13.2951
   116.2500     87.4723      0.0000    995.1639     13.8186
   116.5000     86.7368      0.0000   1009.3367     14.1651
   116.7500     86.7467      0.0000   1021.8641     14.3116
   117.0000     87.3225      0.0000   1027.7865     14.3013
   117.2500     87.9416      0.0000   1020.9878     14.2283
   117.5000     88.3400      0.0000    996.6350     14.2032
   117.7500     88.8212      0.0000    954.1104     14.2917
   118.0000     89.8946      0.0000    900.7456     14.4597
   118.2500     91.9407      0.0000    850.1317     14.5987
   118.5000     95.1629      0.0000    813.5126     14.6282
   118.7500     99.3104      0.0000    793.2617     14.5584
   119.0000    103.3837      0.0000    784.7607     14.4411
   119.2500    106.1318      0.0000    782.1357     14.3026
   119.5000    106.9939      0.0000    781.5688     14.1579
   119.7500    106.3284      0.0000    781.4075     14.0605
   120.0000    104.8641      0.0000    781.1984     14.0945
   120.2500    103.3276      0.0000    780.9178     14.3125
   120.5000    102.4635      0.0000    780.6165     14.6872
   120.7500    102.7446      0.0000    780.3439     15.1123
   121.0000    103.7018      0.0000    780.1437     15.4574
   121.2500    104.0079      0.0000    780.0993     15.6384
   121.5000    102.8122      0.0000    780.4273     15.6427
   121.7500    100.6490      0.0000    781.5763     15.5066
   122.0000     98.5545      0.0000    784.1401     15.3068
   122.2500     96.7098      0.0000    788.3425     15.1630
   122.5000     94.4271      0.0000    793.2820     15.1920
   122.7500     91.0884      0.0000    796.8815     15.4260
   123.0000     86.7416      0.0000    797.2452     15.7962
   123.2500     82.0451      0.0000    794.3206     16.1968
   123.5000     77.9077      0.0000    789.8611     16.5450
   123.7500     75.0453      0.0000    785.6628     16.7878
   124.0000     73.6671      0.0000    782.0963     16.8995
   124.2500     73.5007      0.0000    778.2023     16.8977
   124.5000     74.0414      0.0000    772.8196     16.8483
   124.7500     74.7303      0.0000    765.7548     16.8349
   125.0000     75.0335      0.0000    758.2878     16.8994
   125.2500     74.6071      0.0000    752.5013     17.0004
   125.5000     73.5187      0.0000    749.6974     17.0451
   125.7500     72.2679      0.0000    749.3066     16.9922
   126.0000     71.5358      0.0000    749.5439     16.9200
   126.2500     71.8697      0.0000    749.3317     16.9584
   126.5000     73.4506      0.0000    749.4763     17.1344
   126.7500     75.8495      0.0000    751.7756     17.2981
   127.0000     77.9629      0.0000    757.0459     17.2288
   127.2500     78.5731      0.0000    764.1651     16.8187
   127.5000     77.4101      0.0000    770.9583     16.1578
   127.7500     75.5660      0.0000    775.8242     15.4586
