~Version Information
VERS.                      2.0: CWLS Log ASCII Standard - VERSION 2.0
WRAP.                       NO: One line per depth step
~Well Information Block
STRT.FT                -7.7500: 
STOP.FT              2248.5000: 
STEP.FT                 0.2500: 
NULL.                -999.2500: 
COMP.          Pioneer Natural Resources: COMPANY
WELL.          Interceptor 43-13 Tr: WELL
FLD.           Purgatoire River: FIELD
LOC.           2006' FSL & 438' FEL--: LOCATION
PROV.                       CO: PROVINCE
CNTY.               Las Animas: COUNTRY
SRVC.          Patterson Wireline: SERVICE COMPANY
DATE.          Thu Nov 17 10:14:59 2005: LOG DATE
UWI.           05 071 08549 00: UNIQUE WELL ID
~Curve Information Block
DEPT.FT            0 000 00 00: Depth
CCL.                          : Casing Collar Locator
TT3.usec                      : CBL 3' Travel Time
AMP3.mV                       : CBL 3' Amplitude
GR.GAPI                       : Gamma Ray
~Parameter Information Block
~A  Depth       CCL         TT3         AMP3         GR     
# ...
  1466.2500      0.0000    675.9525      5.2709     94.4589
  1466.5000      0.0000    677.6050      5.1696     99.6260
  1466.7500      0.0000    678.4248      5.1256    106.0646
  1467.0000      0.0000    675.0454      5.1384    113.6383
  1467.2500      0.0000    666.7881      5.1815    121.0557
  1467.5000      0.0000    657.0443      5.2229    127.3684
  1467.7500      0.0000    651.5653      5.2509    132.6653
  1468.0000      0.0000    654.2421      5.2791    137.1005
  1468.2500      0.0000    664.0145      5.3249    139.9009
  1468.5000      0.0000    676.3003      5.3886    139.8568
  1468.7500      0.0000    687.5113      5.4554    136.5002
  1469.0000      0.0000    697.6620      5.5121    130.5085
  1469.2500      0.0000    708.4846      5.5584    123.2520
  1469.5000      0.0000    719.1159      5.6066    116.0897
  1469.7500      0.0000    723.8123      5.6720    109.9117
  1470.0000      0.0000    715.0916      5.7610    105.3828
  1470.2500      0.0000    690.8099      5.8636    103.4623
  1470.5000      0.0000    658.4070      5.9543    104.8923
  1470.7500      0.0000    630.7183      6.0045    108.8598
  1471.0000      0.0000    616.0922      6.0028    112.7653
  1471.2500      0.0000    611.8244      5.9645    113.8291
  1471.5000      0.0000    606.6942      5.9120    110.8346
  1471.7500      0.0000    589.8152      5.8474    104.4604
  1472.0000      0.0000    558.1545      5.7558     96.5567
  1472.2500      0.0000    517.9650      5.6404     89.3085
  1472.5000      0.0000    481.3126      5.5372     84.6930
  1472.7500      0.0000    460.8084      5.4806     84.0761
  1473.0000      0.0000    464.5334      5.4452     87.5649
  1473.2500      0.0000    492.7993      5.3347     93.6755
  1473.5000      0.0000    538.1324      5.0570    100.4227
  1473.7500      0.0000    588.9584      4.6339    106.8253
  1474.0000      0.0000    635.3483      4.2180    112.5136
  1474.2500      0.0000    672.6928      3.9735    116.3000
  1474.5000      0.0000    700.7371      3.9488    116.7034
  1474.7500      0.0000    720.5696      4.0814    113.9843
  1475.0000      2.0000    733.8849      4.2888    110.4453
  1475.2500      0.0000    744.0527      4.5134    108.4193
  1475.5000      0.0000    755.1759      4.7059    108.5999
  1475.7500      0.0000    768.9669      4.8266    110.5072
  1476.0000      0.0000    783.1053      4.8798    113.8556
  1476.2500      0.0000    793.0247      4.9137    118.8069
  1476.5000      0.0000    795.5250      4.9717    125.2225
  1476.7500      0.0000    791.2122      5.0539    132.5183
  1477.0000      0.0000    783.7964      5.1206    140.4470
  1477.2500      0.0000    776.7509      5.1282    149.2446
  1477.5000      0.0000    770.5270      5.0722    158.3006
  1477.7500      0.0000    763.2114      5.0032    165.1529
  1478.0000      0.0000    753.6342      4.9877    166.8513
  1478.2500      0.0000    743.2092      5.0562    162.4033
  1478.5000      0.0000    734.9838      5.1927    153.2817
  1478.7500      0.0000    731.7616      5.3608    141.9765
  1479.0000      0.0000    734.7830      5.5227    130.9750
  1479.2500      0.0000    742.4898      5.6247    122.4931
  1479.5000      0.0000    750.6422      5.5899    117.6343
  1479.7500      0.0000    755.9657      5.3583    115.5892
  1480.0000      0.0000    760.1165      4.9535    114.3138
  1480.2500      0.0000    767.7546      4.5003    111.9511
  1480.5000      0.0000    780.1868      4.1585    107.3767
  1480.7500      0.0000    792.8096      4.0292    100.0973
  1481.0000      0.0000    799.1561      4.1111     90.4884
  1481.2500      0.0000    795.9500      4.3275     80.0197
  1481.5000      0.0000    784.3005      4.5869     70.7345
  1481.7500      0.0000    767.5771      4.8289     64.3818
  1482.0000      0.0000    749.0244      5.0297     61.8424
  1482.2500      0.0000    731.1349      5.1818     62.6856
  1482.5000      0.0000    716.1010      5.2781     65.0027
  1482.7500      0.0000    705.5158      5.3110     66.3312
  1483.0000      0.0000    699.5349      5.2797     65.2243
  1483.2500      0.0000    697.1011      5.1968     61.9196
  1483.5000      0.0000    697.3064      5.0901     57.7905
  1483.7500      0.0000    700.5631      4.9891     54.4809
  1484.0000      0.0000    708.6578      4.9064     53.0455
  1484.2500      0.0000    723.1512      4.8373     53.0946
  1484.5000      0.0000    742.8985      4.7805     52.8077
  1484.7500      0.0000    763.4296      4.7543     50.4820
  1485.0000      0.0000    780.0270      4.7890     46.4366
  1485.2500      0.0000    790.7041      4.9034     43.1712
  1485.5000      0.0000    794.4118      5.0867     43.3686
  1485.7500      0.0000    787.9841      5.2998     47.7448
  1486.0000      0.0000    769.0726      5.4888     54.8871
  1486.2500      0.0000    742.6709      5.5986     62.8083
  1486.5000      0.0000    720.6566      5.5855     70.2049
  1486.7500      0.0000    712.0089      5.4367     76.4799
  1487.0000      0.0000    714.3765      5.1816     81.5059
  1487.2500      0.0000    716.7128      4.8771     85.8360
  1487.5000      0.0000    709.6355      4.5746     90.6654
  1487.7500      0.0000    692.2285      4.3021     97.0567
  1488.0000      0.0000    669.9670      4.0721    105.1422
  1488.2500      0.0000    648.8513      3.9043    114.0342
  1488.5000      0.0000    632.4075      3.8332    122.3775
  1488.7500      0.0000    622.0714      3.8872    129.0862
  1489.0000      0.0000    618.2068      4.0547    133.6963
  1489.2500      0.0000    620.3270      4.2739    135.9613
  1489.5000      0.0000    626.9086      4.4586    135.2849
  1489.7500      0.0000    635.5633      4.5417    131.1262
  1490.0000      0.0000    644.0594      4.5037    124.1018
  1490.2500      0.0000    651.6270      4.3721    116.1521
  1490.5000      0.0000    659.0484      4.1989    109.3006
  1490.7500      0.0000    667.2206      4.0360    104.4157
  1491.0000      0.0000    675.7494      3.9189    101.1184
  1491.2500      0.0000    683.1601      3.8601     98.5697
  1491.5000      0.0000    688.2633      3.8538     96.2933
  1491.7500      0.0000    690.9942      3.8887     94.4040
  1492.0000      0.0000    692.0345      3.9550     93.2406
  1492.2500      0.0000    691.9070      4.0359     93.0289
  1492.5000      0.0000    690.3431      4.0980     93.9756
  1492.7500      0.0000    686.2462      4.1025     96.3752
  1493.0000      0.0000    678.9213      4.0328    100.3886
  1493.2500      0.0000    670.9532      3.9139    105.7403
  1493.5000      0.0000    670.9633      3.8061    111.5528
  1493.7500      0.0000    691.8570      3.7735    116.4524
  1494.0000      0.0000    742.1652      3.8483    119.3112
  1494.2500      0.0000    815.9006      4.0169    120.3941
  1494.5000      0.0000    891.8597      4.2351    121.4279
  1494.7500      0.0000    946.2817      4.4537    123.8772
  1495.0000      0.0000    968.4915      4.6325    127.2742
  1495.2500      0.0000    965.0851      4.7393    129.9129
  1495.5000      0.0000    950.1714      4.7520    131.0862
  1495.7500      0.0000    932.4867      4.6697    131.8603
  1496.0000      0.0000    911.6241      4.5203    133.5074
  1496.2500      0.0000    884.9519      4.3505    135.8855
  1496.5000      0.0000    854.8998      4.2047    137.6275
  1496.7500      0.0000    827.9486      4.1128    137.5609
  1497.0000      0.0000    808.9102      4.0873    135.6394
  1497.2500      0.0000    797.8729      4.1202    132.5825
  1497.5000      0.0000    791.1490      4.1851    129.0246
  1497.7500      0.0000    784.3524      4.2508    125.5009
  1498.0000      0.0000    776.3372      4.2978    123.1395
  1498.2500      0.0000    770.8802      4.3262    123.4620
  1498.5000      0.0000    773.0317      4.3511    126.8230
  1498.7500      0.0000    783.3113      4.3877    131.4339
  1499.0000      0.0000    796.7311      4.4374    134.6311
  1499.2500      0.0000    807.3409      4.4858    135.1497
  1499.5000      0.0000    812.3839      4.5131    133.7184
