~Version Information
VERS.                      2.0: CWLS Log ASCII Standard - VERSION 2.0
WRAP.                       NO: One line per depth step
~Well Information Block
STRT.FT                65.0000: 
STOP.FT               998.0000: 
STEP.FT                 0.2500: 
NULL.                -999.2500: 
COMP.          Pioneer Natural Resources: COMPANY
WELL.              Gough 14-29: WELL
FLD.           Purgatorie River: FIELD
LOC.           1199' FSL & 676' FWL: LOCATION
PROV.                 Colorado: PROVINCE
CNTY.               Las Animas: COUNTRY
SRVC.                Patterson: SERVICE COMPANY
DATE.          Wed Dec 28 08:38:26 2005: LOG DATE
UWI.                          : UNIQUE WELL ID
~Curve Information Block
DEPT.FT            0 000 00 00: Depth
CCL.                          : Casing Collar Locator
TT3.usec                      : CBL 3' Travel Time
AMP3.mV                       : CBL 3' Amplitude
GR.GAPI                       : Gamma Ray
~Parameter Information Block
~A  Depth       CCL         TT3         AMP3         GR     
# ...
   902.5000      0.0000    699.2588      2.8440     69.9700
   902.7500      0.0000    699.5155      2.7384     69.8536
   903.0000      0.0000    699.3292      2.6248     70.3380
   903.2500      0.0000    698.8494      2.5447     71.0745
   903.5000      0.0000    700.4633      2.5470     72.4383
   903.7500      0.0000    708.6579      2.6392     75.1583
   904.0000      0.0000    725.5793      2.8017     79.3051
   904.2500      0.0000    744.6520      3.0204     84.0218
   904.5000      0.0000    753.9454      3.2838     88.2441
   904.7500      0.0000    748.7596      3.5945     91.5671
   905.0000      0.0000    735.4101      3.9895     94.3327
   905.2500      0.0000    724.4963      4.5000     96.8334
   905.5000      0.0000    725.1818      5.0960     98.5648
   905.7500      0.0000    740.2131      5.7050     98.4115
   906.0000      0.0000    762.4592      6.2796     95.6532
   906.2500      0.0000    780.8621      6.8126     90.8123
   906.5000      0.0000    790.5316      7.3031     85.4988
   906.7500      0.0000    793.2584      7.7556     81.3910
   907.0000      0.0000    791.4149      8.1869     79.3507
   907.2500      0.0000    786.5934      8.5816     79.2962
   907.5000      0.0000    781.9835      8.8765     80.5675
   907.7500      0.0000    778.4763      9.0666     82.2259
   908.0000      0.0000    768.0707      9.2811     83.2602
   908.2500      0.0000    742.7185      9.6149     82.9685
   908.5000      0.0000    709.4594      9.9345     81.3542
   908.7500      0.0000    683.6473     10.0276     79.0291
   909.0000      0.0000    671.2802      9.8886     76.6286
   909.2500      0.0000    668.0127      9.6973     74.4189
   909.5000      0.0000    668.9550      9.5854     72.5094
   909.7500      0.0000    672.4973      9.5523     71.1855
   910.0000      0.0000    677.2633      9.5403     70.6657
   910.2500      0.0000    679.6724      9.5107     70.4569
   910.5000      0.0000    677.4136      9.4799     69.3915
   910.7500      0.0000    672.8918      9.5138     66.6711
   911.0000      0.0000    669.5862      9.6666     62.7607
   911.2500      0.0000    668.1887      9.8910     59.0836
   911.5000      0.0000    667.7815     10.0529     57.0347
   911.7500      0.0000    667.6955     10.1008     57.2169
   912.0000      0.0000    667.6932     10.1333     59.0796
   912.2500      0.0000    667.6899     10.2406     61.0768
   912.5000      0.0000    667.6863     10.3989     61.6367
   912.7500      0.0000    667.7562     10.5461     60.3883
   913.0000      0.0000    667.9527     10.6792     58.4841
   913.2500      0.0000    668.2736     10.8473     57.7179
   913.5000      0.0000    668.9241     11.0764     59.2905
   913.7500      0.0000    670.9089     11.3651     63.2026
   914.0000      0.0000    676.0821     11.7573     68.5646
   914.2500      0.0000    684.8808     12.3430     74.2686
   914.5000      0.0000    693.4338     13.1835     79.3120
   914.7500      0.0000    696.2593     14.2667     82.7905
   915.0000      0.0000    690.7834     15.5303     84.0709
   915.2500      0.0000    671.7543     16.9080     83.1673
   915.5000      0.0000    624.6781     18.3339     80.8585
   915.7500      0.0000    540.4219     19.7000     78.2724
   916.0000      0.0000    439.1651     20.8694     76.1919
   916.2500      0.0000    359.5006     21.7767     74.6686
   916.5000      0.0000    318.8738     22.4535     73.3610
   916.7500      0.0000    305.5105     22.9257     72.2333
   917.0000      0.0000    302.8666     23.1695     71.6897
   917.2500      0.0000    303.9080     23.1682     71.9837
   917.5000      0.0000    310.4962     22.9244     72.9161
   917.7500      0.0000    330.8768     22.4389     74.3519
   918.0000      0.0000    372.7754     21.7426     76.6421
   918.2500      0.0000    431.5402     20.9123     80.2072
   918.5000      0.0000    489.9345     19.9799     84.9895
   918.7500      0.0000    534.3890     18.8586     90.6482
   919.0000      0.0000    565.4117     17.3803     97.2133
   919.2500      0.0000    586.0242     15.3860    105.4370
   919.5000      0.0000    596.1083     12.9706    116.3634
   919.7500      0.0000    612.4108     10.7806    129.9748
   920.0000      0.0000    657.8983      9.5484    143.7319
   920.2500      0.0000    721.7947      9.0791    152.9094
   920.5000      0.0000    768.9489      8.6222    153.3354
   920.7500      0.0000    785.5203      8.0518    144.3884
   921.0000      0.0000    790.3923      7.6020    129.5927
   921.2500      2.0000    798.2779      7.1967    114.4863
   921.5000      0.0000    797.4849      6.7054    103.5103
   921.7500     -2.0000    779.7892      6.2508     97.8916
   922.0000      0.0000    762.9760      6.0408     95.7198
   922.2500      0.0000    767.1744      6.1981     94.1455
   922.5000      0.0000    786.9025      6.8526     91.8581
   922.7500      0.0000    792.9859      7.9619     89.6890
   923.0000      0.0000    767.5436      8.9302     89.2348
   923.2500      0.0000    730.9022      9.2006     91.2052
   923.5000      0.0000    713.4143      9.0592     94.6710
   923.7500      0.0000    719.0663      9.0709     97.3517
   924.0000      0.0000    734.9920      9.3768     96.8866
   924.2500      0.0000    753.3683      9.8747     92.5072
   924.5000      0.0000    770.6434     10.5032     85.6638
   924.7500      0.0000    781.8186     11.2543     78.8375
   925.0000      0.0000    781.8351     12.1310     73.6503
   925.2500      0.0000    763.3813     13.1610     70.1993
   925.5000      0.0000    713.3024     14.3622     67.9605
   925.7500      0.0000    624.6474     15.6730     66.6886
   926.0000      0.0000    519.1364     16.9739     66.2899
   926.2500      0.0000    438.7733     18.1194     66.5726
   926.5000      0.0000    410.1505     18.9324     67.5500
   926.7500      0.0000    438.7411     19.2916     69.4155
   927.0000      0.0000    520.1765     19.2399     71.7884
   927.2500      0.0000    628.2664     18.9295     73.5451
   927.5000      0.0000    719.0479     18.5046     73.9472
   927.7500      0.0000    768.2832     18.0792     73.6621
   928.0000      0.0000    783.6624     17.7138     74.1960
   928.2500      0.0000    782.3248     17.3546     76.2376
   928.5000      0.0000    776.2172     16.8494     78.7438
   928.7500      0.0000    770.6969     16.0382     79.8074
   929.0000      0.0000    763.5800     14.8417     78.4637
   929.2500      0.0000    750.5049     13.3258     75.5299
   929.5000      0.0000    734.5891     11.7062     72.6192
   929.7500      0.0000    722.8544     10.2356     70.5589
   930.0000      0.0000    715.7691      9.0500     69.0083
   930.2500      0.0000    709.8127      8.1579     67.4048
   930.5000      0.0000    704.6317      7.5475     65.7858
   930.7500      0.0000    701.9935      7.2055     64.5601
   931.0000      0.0000    703.3170      7.0650     63.8956
   931.2500      0.0000    711.7892      7.0517     63.6433
   931.5000      0.0000    735.1386      7.1675     63.6689
   931.7500      0.0000    780.8517      7.4613     64.1249
   932.0000      0.0000    846.0982      7.9685     65.3963
   932.2500      0.0000    914.5869      8.6940     67.5282
   932.5000      0.0000    957.2182      9.5956     69.6488
   932.7500      0.0000    946.5439     10.5996     70.4682
   933.0000      0.0000    891.3130     11.6531     69.5967
   933.2500      0.0000    833.0374     12.7312     67.9673
   933.5000      0.0000    798.9483     13.7468     66.7742
   933.7500      0.0000    786.4177     14.5192     66.2926
   934.0000      0.0000    783.5228     14.9174     65.8174
   934.2500      0.0000    782.4393     14.9613     64.4905
   934.5000      0.0000    780.9164     14.7574     62.1381
   934.7500      0.0000    780.0385     14.4124     59.4392
   935.0000      0.0000    781.1218     13.9998     57.3631
   935.2500      0.0000    784.0681     13.5639     56.6129
   935.5000      0.0000    787.1160     13.1608     57.6586
   935.7500      0.0000    788.4659     12.8684     60.8368
