~Version Information
VERS.                      2.0: CWLS Log ASCII Standard - VERSION 2.0
WRAP.                       NO: One line per depth step
~Well Information Block
STRT.FT               480.0000: 
STOP.FT              1817.0000: 
STEP.FT                 0.1000: 
NULL.                -999.2500: 
COMP.          Pioneer Natural Resources: COMPANY
WELL.           Bobsy 34-11 Tr: WELL
FLD.           Purgatoire River: FIELD
LOC.           514' FSL & 1784' FEL: LOCATION
PROV.                 Colorado: PROVINCE
CNTY.               Las Animas: COUNTRY
SRVC.                Patterson: SERVICE COMPANY
DATE.          Tue Jul 19 10:30:09 2005: LOG DATE
UWI.           05 071 08438 00: UNIQUE WELL ID
~Curve Information Block
DEPT.FT            0 000 00 00: Depth
DCAL.in                       : CDL Caliper
DPOR.pu                       : CDL Density Porosity
GR.GAPI                       : Gamma Ray
NPOR.pu                       : Neutron Porosity
RHOB.g/cc                     : CDL Bulk Density
RHOC.g/cc                     : CDL Density Correction
~Parameter Information Block
~A  Depth       DCAL        DPOR         GR         NPOR        RHOB        RHOC    
# ...
  1190.4000      8.0932     16.2320    130.5071     33.1675      2.3822      0.1215
  1190.5000      8.1259     19.1927    126.4302     35.1753      2.3333      0.0381
  1190.6000      8.1259     21.4806    125.4073     33.3352      2.2956      0.0054
  1190.7000      8.1259     22.2428    129.5117     29.6903      2.2830      0.0648
  1190.8000      8.1586     21.9618    135.6940     27.0024      2.2876      0.0258
  1190.9000      8.1586     21.3633    138.6878     28.2012      2.2975      0.0925
  1191.0000      8.1761     20.7722    137.9346     29.7514      2.3073      0.0890
  1191.1000      8.1761     19.6465    135.9925     29.4618      2.3258      0.0235
  1191.2000      8.1761     17.8721    134.0470     29.4839      2.3551      0.1317
  1191.3000      8.1641     16.5235    133.3948     31.2761      2.3774      0.1447
  1191.4000      8.1641     15.8312    133.8394     33.0294      2.3888      0.1166
  1191.5000      8.1755     15.2060    131.6037     32.2054      2.3991      0.0903
  1191.6000      8.1755     15.2865    129.5293     29.0745      2.3978      0.1411
  1191.7000      8.1755     16.9832    132.9155     25.7212      2.3698      0.0658
  1191.8000      8.1541     19.4444    140.0966     26.0103      2.3292      0.0462
  1191.9000      8.1541     21.7049    148.4234     27.2379      2.2919      0.0808
  1192.0000      8.1560     23.8790    153.4499     26.8960      2.2560      0.0427
  1192.1000      8.1560     26.1808    149.9146     27.4614      2.2180      0.0193
  1192.2000      8.1560     28.8049    140.2989     29.0660      2.1747      0.0372
  1192.3000      8.1535     31.7173    132.5613     28.8665      2.1267      0.0260
  1192.4000      8.1535     35.0805    130.7518     26.8442      2.0712      0.0983
  1192.5000      8.1572     40.0144    132.8858     27.4557      1.9898      0.0838
  1192.6000      8.1572     46.3748    134.3245     30.8521      1.8848     -0.0017
  1192.7000      8.1572     52.3116    131.0213     32.7840      1.7869      0.0502
  1192.8000      8.1871     57.5446    123.6792     30.5588      1.7005      0.0599
  1192.9000      8.1871     63.5816    116.2345     24.8360      1.6009     -0.0417
  1193.0000      8.1886     71.2570    107.5378     20.5483      1.4743     -0.0668
  1193.1000      8.1886     79.0617     96.3929     23.2451      1.3455     -0.1683
  1193.2000      8.1886     83.2990     85.1514     23.3372      1.2756     -0.1061
  1193.3000      8.2197     82.3611     74.6489     19.4432      1.2910      0.1160
  1193.4000      8.2197     78.9416     66.4637     20.2902      1.3475      0.1967
  1193.5000      8.3665     76.3808     61.8356     25.7850      1.3897      0.2375
  1193.6000      8.3665     75.7214     59.2134     28.9983      1.4006      0.1873
  1193.7000      8.3665     76.0374     57.2528     30.1752      1.3954      0.1600
  1193.8000      8.5823     76.2491     56.4044     30.9440      1.3919      0.1170
  1193.9000      8.5823     76.2575     56.4559     31.7854      1.3918      0.1323
  1194.0000      8.6808     76.4117     55.2150     31.9576      1.3892      0.0984
  1194.1000      8.6808     76.7240     52.8202     32.0473      1.3841      0.0978
  1194.2000      8.6808     76.9096     51.3024     32.9157      1.3810      0.0147
  1194.3000      8.6180     77.2292     50.5958     33.3280      1.3757      0.0545
  1194.4000      8.6180     78.4688     49.0149     31.5901      1.3553     -0.0301
  1194.5000      8.5316     80.4717     46.0628     28.6850      1.3222     -0.0672
  1194.6000      8.5316     82.3893     42.9180     27.8475      1.2906     -0.0490
  1194.7000      8.5316     83.7646     41.3001     30.5777      1.2679     -0.0588
  1194.8000      8.4702     84.8881     40.8315     32.3764      1.2493     -0.0001
  1194.9000      8.4702     86.3482     40.1102     30.9105      1.2253     -0.0290
  1195.0000      8.4931     87.4580     41.4355     29.0770      1.2069     -0.0812
  1195.1000      8.4931     87.1164     46.2026     30.5317      1.2126     -0.0369
  1195.2000      8.4931     85.7860     50.0725     33.9836      1.2345     -0.0086
  1195.3000      8.5708     84.0607     49.5956     36.7209      1.2630     -0.0127
  1195.4000      8.5708     81.0632     47.5096     36.5289      1.3125     -0.0165
  1195.5000      8.5021     75.7225     47.1375     35.2874      1.4006      0.0639
  1195.6000      8.5021     67.7494     50.5305     34.1280      1.5321      0.1075
  1195.7000      8.5021     57.7635     59.8295     33.0536      1.6969      0.2262
  1195.8000      8.7143     48.1105     73.0750     32.7459      1.8562      0.2864
  1195.9000      8.7143     40.6169     85.7328     34.3081      1.9798      0.2713
  1196.0000      9.1566     33.6511     95.4213     37.2986      2.0948      0.1943
  1196.1000      9.1566     25.3057    101.7874     37.6867      2.2325      0.2445
  1196.2000      9.1566     17.3674    108.4426     34.7952      2.3634      0.2782
  1196.3000      8.9197     12.5886    118.7670     32.7598      2.4423      0.2238
  1196.4000      8.9197     10.6772    129.3229     32.3014      2.4738      0.0916
  1196.5000      8.5154      9.4375    135.1785     32.1232      2.4943      0.0054
  1196.6000      8.5154      8.3402    134.1609     31.2507      2.5124      0.0587
  1196.7000      8.5154      8.1455    130.8627     30.2709      2.5156      0.0654
  1196.8000      8.1090      8.6737    132.3760     30.4627      2.5069      0.0660
  1196.9000      8.1090      9.4083    135.3606     32.0192      2.4948      0.0907
  1197.0000      8.0037     10.2610    134.1939     33.5014      2.4807      0.0329
  1197.1000      8.0037     10.7375    132.7497     33.1582      2.4728      0.0318
  1197.2000      8.0037     10.6306    135.8730     31.8828      2.4746      0.0604
  1197.3000      7.9860     10.5335    139.0386     31.0881      2.4762      0.0648
  1197.4000      7.9860     10.5460    135.4206     30.8060      2.4760      0.0369
  1197.5000      7.9560      9.8322    130.6403     30.7916      2.4878      0.0077
  1197.6000      7.9560      7.8360    133.3449     30.9696      2.5207      0.0884
  1197.7000      7.9560      5.5891    140.3280     31.0243      2.5578      0.1432
  1197.8000      7.9739      4.5001    144.2949     30.6229      2.5757      0.1376
  1197.9000      7.9739      4.2991    144.5715     29.7548      2.5791      0.1150
  1198.0000      7.9686      4.1955    145.0377     28.6063      2.5808      0.1375
  1198.1000      7.9686      4.1767    145.4123     28.1401      2.5811      0.0797
  1198.2000      7.9686      4.1991    141.5515     29.0770      2.5807      0.1024
  1198.3000      7.9699      4.0945    132.5912     28.4461      2.5824      0.1546
  1198.4000      7.9699      3.7936    123.3111     29.7226      2.5874      0.1025
  1198.5000      7.9630      3.5276    116.6090     30.7000      2.5918      0.0706
  1198.6000      7.9630      3.3985    109.4323     30.1639      2.5939      0.0973
  1198.7000      7.9630      2.6076    104.3008     28.2481      2.6070      0.0157
  1198.8000      7.9832      1.1837    105.7501     26.7807      2.6305      0.1083
  1198.9000      7.9832      0.4974    109.1240     27.3687      2.6418      0.0809
  1199.0000      8.0181      0.9147    109.2936     28.7073      2.6349      0.0599
  1199.1000      8.0181      2.4164    106.8355     28.9768      2.6101      0.0526
  1199.2000      8.0181      5.2305    107.2120     28.0309      2.5637      0.0193
  1199.3000      8.0853      8.3469    112.0726     26.9012      2.5123      0.0166
  1199.4000      8.0853      9.5223    114.2854     26.8438      2.4929     -0.0671
  1199.5000      8.1089      7.8153    112.8075     27.6568      2.5210      0.0316
  1199.6000      8.1089      5.7519    113.1158     27.9229      2.5551      0.0878
  1199.7000      8.1089      5.8932    112.4013     26.7131      2.5528      0.0699
  1199.8000      8.1325      7.7300    106.2901     24.5047      2.5225      0.0168
  1199.9000      8.1325      9.5426     98.6687     23.8967      2.4925      0.0094
