~Version Information
VERS.                      2.0: CWLS Log ASCII Standard - VERSION 2.0
WRAP.                       NO: One line per depth step
~Well Information Block
STRT.FT               860.0000: 
STOP.FT              2360.5000: 
STEP.FT                 0.1000: 
NULL.                -999.2500: 
COMP.          Pioneer Natural Resources: COMPANY
WELL.            Cayenne 23-23: WELL
FLD.           Purgatoire River: FIELD
LOC.           2555' FSL & 2386' FWL: LOCATION
PROV.                 Colorado: PROVINCE
CNTY.               Las Animas: COUNTRY
SRVC.                Patterson: SERVICE COMPANY
DATE.          Wed Aug 17 08:28:25 2005: LOG DATE
UWI.           05 071 08476 00: UNIQUE WELL ID
~Curve Information Block
DEPT.FT            0 000 00 00: Depth
DCAL.in                       : CDL Caliper
RHOB.g/cc                     : CDL Bulk Density
RHOC.g/cc                     : CDL Density Correction
DPOR.pu                       : CDL Density Porosity
GR.GAPI                       : Gamma Ray
NPOR.pu                       : Neutron Porosity
~Parameter Information Block
~A  Depth       DCAL        RHOB        RHOC        DPOR         GR         NPOR    
# ...
  1157.6000      8.0769      2.5065     -0.0216      8.6943     62.3039     22.2921
  1157.7000      8.0769      2.5140      0.0043      8.2432     63.9149     22.1394
  1157.8000      8.1159      2.5217      0.0351      7.7760     67.8778     21.3080
  1157.9000      8.1159      2.5168      0.0612      8.0727     74.8667     21.0889
  1158.0000      8.1310      2.4990      0.0062      9.1530     81.6514     21.6287
  1158.1000      8.1310      2.4898     -0.0187      9.7077     86.7133     22.5437
  1158.2000      8.1310      2.4968      0.0232      9.2826     91.5821     23.1120
  1158.3000      8.1224      2.5050      0.0115      8.7873     94.7401     22.8256
  1158.4000      8.1224      2.5126      0.0175      8.3261     95.1870     22.4596
  1158.5000      8.0817      2.5188      0.0812      7.9527     97.9035     22.9608
  1158.6000      8.0817      2.5148      0.0169      8.1929    105.7776     24.7239
  1158.7000      8.0817      2.5079      0.0538      8.6099    112.2335     27.5353
  1158.8000      8.0591      2.5027      0.0454      8.9287    109.2431     29.6833
  1158.9000      8.0591      2.4978      0.0139      9.2233    101.1962     29.3318
  1159.0000      8.0621      2.5004      0.0539      9.0643     97.2846     27.2767
  1159.1000      8.0621      2.5133      0.0271      8.2823     97.7508     25.6283
  1159.2000      8.0621      2.5295      0.0863      7.3017     99.4809     25.2446
  1159.3000      8.0644      2.5450      0.1284      6.3642    102.3688     25.9490
  1159.4000      8.0644      2.5641      0.0910      5.2066    107.7489     27.1489
  1159.5000      8.0845      2.5868      0.1275      3.8306    118.2787     28.0761
  1159.6000      8.0845      2.6002      0.1312      3.0168    129.0138     28.4540
  1159.7000      8.0845      2.5910      0.1032      3.5769    132.3591     28.2042
  1159.8000      8.0993      2.5559      0.0339      5.7015    131.8836     28.1154
  1159.9000      8.0993      2.5098      0.0146      8.4998    130.3875     28.6458
  1160.0000      8.0891      2.4780     -0.0344     10.4229    127.4784     28.4708
  1160.1000      8.0891      2.4681      0.0199     11.0250    123.7352     27.4082
  1160.2000      8.0891      2.4647      0.0242     11.2274    119.0827     26.8111
  1160.3000      8.1168      2.4615      0.0120     11.4252    119.3143     26.6844
  1160.4000      8.1168      2.4674      0.0061     11.0684    127.3874     26.4973
  1160.5000      8.1046      2.4933     -0.0103      9.4950    136.5895     26.2760
  1160.6000      8.1046      2.5359      0.0702      6.9150    141.1950     26.3178
  1160.7000      8.1046      2.5716      0.1016      4.7522    138.3150     26.5890
  1160.8000      8.0698      2.5827      0.1111      4.0780    128.7750     26.4784
  1160.9000      8.0698      2.5712      0.0947      4.7729    117.9693     25.5891
  1161.0000      8.0725      2.5473      0.1071      6.2270    113.8321     24.7974
  1161.1000      8.0725      2.5204      0.0519      7.8571    118.2555     25.0877
  1161.2000      8.0725      2.5053      0.0084      8.7709    121.5359     25.7748
  1161.3000      8.0768      2.5127      0.0024      8.3203    120.9465     25.8361
  1161.4000      8.0768      2.5330      0.0377      7.0886    122.8888     25.4465
  1161.5000      8.1103      2.5511      0.0332      5.9953    125.1991     25.1516
  1161.6000      8.1103      2.5611      0.0913      5.3873    124.4783     24.8027
  1161.7000      8.1103      2.5629      0.0281      5.2808    122.5123     23.7023
  1161.8000      8.1052      2.5633      0.0217      5.2568    120.0170     22.6094
  1161.9000      8.1052      2.5647      0.0948      5.1687    114.6980     22.9280
  1162.0000      8.0841      2.5555      0.0865      5.7267    106.9368     23.8880
  1162.1000      8.0841      2.5328      0.0120      7.1025     99.9963     24.0804
  1162.2000      8.0841      2.5074      0.1063      8.6413     95.1817     23.5572
  1162.3000      8.0574      2.4799      0.0487     10.3119     91.6903     23.0661
  1162.4000      8.0574      2.4511      0.0250     12.0520     88.8656     23.3171
  1162.5000      8.0500      2.4280      0.0191     13.4551     85.9359     24.2108
  1162.6000      8.0500      2.4104      0.0138     14.5198     82.8166     25.1777
  1162.7000      8.0500      2.3975      0.0294     15.3026     82.5262     26.1150
  1162.8000      8.0453      2.3879      0.0365     15.8871     88.5840     26.8635
  1162.9000      8.0453      2.3814      0.0257     16.2778     99.9705     27.2462
  1163.0000      8.0617      2.3934      0.0551     15.5545    110.4030     27.4919
  1163.1000      8.0617      2.4406      0.1044     12.6939    113.3088     27.9075
  1163.2000      8.0617      2.5092      0.1624      8.5333    109.8596     28.0975
  1163.3000      8.0705      2.5611      0.1943      5.3857    109.6733     27.4641
  1163.4000      8.0705      2.5777      0.1787      4.3817    114.5363     26.6242
  1163.5000      8.1237      2.5781      0.1507      4.3603    116.3097     26.6719
  1163.6000      8.1237      2.5862      0.1366      3.8672    114.2750     27.1457
  1163.7000      8.1237      2.6066      0.1299      2.6294    110.8172     26.6105
  1163.8000      8.1091      2.6308      0.1374      1.1629    104.6806     25.1247
  1163.9000      8.1091      2.6407      0.1621      0.5632     97.8911     23.9612
  1164.0000      8.0016      2.6241      0.0952      1.5694     94.6904     24.0340
  1164.1000      8.0016      2.5818      0.1407      4.1335     95.7151     25.1617
  1164.2000      8.0016      2.5239      0.0553      7.6427     97.9208     25.9398
  1164.3000      7.9948      2.4795      0.0004     10.3362     97.8522     25.6899
  1164.4000      7.9948      2.4702     -0.0099     10.8992     95.5317     25.1268
  1164.5000      8.0284      2.4850      0.0438     10.0016     93.0309     24.6860
  1164.6000      8.0284      2.4958      0.0377      9.3458     90.8927     24.1771
  1164.7000      8.0284      2.4900      0.0329      9.6952     91.0656     24.1882
  1164.8000      8.0373      2.4843      0.0265     10.0445     97.5358     25.2040
  1164.9000      8.0373      2.5021      0.0508      8.9646    107.6081     26.3941
  1165.0000      8.0415      2.5357      0.1277      6.9263    112.5845     27.4077
  1165.1000      8.0415      2.5582      0.0911      5.5619    112.5485     28.2129
  1165.2000      8.0415      2.5629      0.1173      5.2793    112.1492     28.1363
  1165.3000      8.1566      2.5582      0.1146      5.5647    114.5411     27.4897
  1165.4000      8.1566      2.5481      0.0830      6.1777    121.6687     27.2972
  1165.5000      8.1795      2.5299      0.0694      7.2764    129.8889     27.6718
  1165.6000      8.1795      2.5103     -0.0072      8.4671    135.7152     27.8066
  1165.7000      8.1795      2.5021      0.0094      8.9656    139.5046     27.1377
  1165.8000      8.1683      2.5071     -0.0190      8.6620    138.6894     25.8812
  1165.9000      8.1683      2.5213     -0.0043      7.8017    132.7294     24.4507
  1166.0000      8.1875      2.5367      0.0093      6.8683    131.2909     23.6333
  1166.1000      8.1875      2.5460      0.0283      6.3043    137.9039     24.2710
  1166.2000      8.1875      2.5525      0.0184      5.9063    142.6832     26.0515
  1166.3000      8.1861      2.5673      0.0090      5.0104    139.4783     27.6917
  1166.4000      8.1861      2.5874      0.0488      3.7957    130.9690     28.2425
  1166.5000      8.1881      2.5924      0.0648      3.4909    120.3116     27.8999
  1166.6000      8.1881      2.5799      0.0307      4.2457    109.3208     27.3321
  1166.7000      8.1881      2.5674     -0.0078      5.0090    102.4112     26.6127
  1166.8000      8.1604      2.5520      0.0430      5.9384    102.8472     25.4571
  1166.9000      8.1604      2.5268     -0.0354      7.4637    109.8830     23.8062
  1167.0000      8.1041      2.5154     -0.0385      8.1546    122.1152     22.3578
  1167.1000      8.1041      2.5275      0.0374      7.4253    136.1087     22.1012
