~Version Information
VERS.                      2.0: CWLS Log ASCII Standard - VERSION 2.0
WRAP.                       NO: One line per depth step
~Well Information Block
STRT.FT               480.0000: 
STOP.FT              1817.0000: 
STEP.FT                 0.1000: 
NULL.                -999.2500: 
COMP.          Pioneer Natural Resources: COMPANY
WELL.           Bobsy 34-11 Tr: WELL
FLD.           Purgatoire River: FIELD
LOC.           514' FSL & 1784' FEL: LOCATION
PROV.                 Colorado: PROVINCE
CNTY.               Las Animas: COUNTRY
SRVC.                Patterson: SERVICE COMPANY
DATE.          Tue Jul 19 10:30:09 2005: LOG DATE
UWI.           05 071 08438 00: UNIQUE WELL ID
~Curve Information Block
DEPT.FT            0 000 00 00: Depth
DCAL.in                       : CDL Caliper
DPOR.pu                       : CDL Density Porosity
GR.GAPI                       : Gamma Ray
NPOR.pu                       : Neutron Porosity
RHOB.g/cc                     : CDL Bulk Density
RHOC.g/cc                     : CDL Density Correction
~Parameter Information Block
~A  Depth       DCAL        DPOR         GR         NPOR        RHOB        RHOC    
# ...
   566.4000      8.1483     19.0527     60.4484     14.3583      2.3356     -0.0320
   566.5000      8.1619     18.0317     61.7210     13.7650      2.3525      0.0623
   566.6000      8.1619     17.5962     61.4239     13.1276      2.3597      0.0523
   566.7000      8.1619     18.3983     58.7361     12.8264      2.3464      0.0528
   566.8000      8.1694     20.3830     56.4655     13.0604      2.3137      0.0370
   566.9000      8.1694     22.5412     55.7149     13.7066      2.2781     -0.0442
   567.0000      8.1856     23.1931     54.1861     14.2210      2.2673     -0.0607
   567.1000      8.1856     22.4828     53.4229     14.3413      2.2790      0.0380
   567.2000      8.1856     22.0521     55.5009     14.4360      2.2861      0.0176
   567.3000      8.1997     22.4038     57.7809     14.4493      2.2803      0.0260
   567.4000      8.1997     22.9418     58.1319     13.9960      2.2715     -0.0080
   567.5000      8.2017     23.1561     57.1226     13.6036      2.2679      0.0369
   567.6000      8.2017     22.5945     56.0327     13.8566      2.2772     -0.0340
   567.7000      8.2017     21.2084     54.6217     14.3303      2.3001      0.0260
   567.8000      8.2010     19.8634     53.3058     14.5837      2.3223      0.0356
   567.9000      8.2010     19.0536     53.3306     14.7202      2.3356      0.0451
   568.0000      8.1790     18.6293     54.2109     14.7504      2.3426      0.0497
   568.1000      8.1790     18.5036     54.0222     14.7185      2.3447      0.0565
   568.2000      8.1790     18.2968     52.3970     15.0023      2.3481      0.0305
   568.3000      8.1725     17.3624     51.9503     15.6957      2.3635      0.0445
   568.4000      8.1725     15.6547     53.2723     16.5363      2.3917      0.0382
   568.5000      8.1619     13.8689     54.2724     17.3163      2.4212      0.0492
   568.6000      8.1619     12.7939     54.7301     17.8614      2.4389      0.0403
   568.7000      8.1619     12.2971     55.3851     18.3248      2.4471      0.0031
   568.8000      8.1793     11.4041     57.9393     19.1966      2.4618      0.0095
   568.9000      8.1793      9.8108     65.8528     20.5166      2.4881      0.0627
   569.0000      8.1946      7.9117     78.2548     21.8331      2.5195      0.0274
   569.1000      8.1946      6.4219     88.3337     22.8768      2.5440      0.0439
   569.2000      8.1946      5.9770     92.3511     23.7930      2.5514      0.0179
   569.3000      8.1973      6.1983     94.1902     24.7687      2.5477      0.0194
   569.4000      8.1973      6.8473    100.6287     25.5661      2.5370      0.0596
   569.5000      8.1860      8.1225    113.8153     26.0001      2.5160      0.0223
   569.6000      8.1860      9.2973    128.7629     26.3288      2.4966      0.0025
   569.7000      8.1860      9.1264    141.9064     26.6706      2.4994     -0.0381
   569.8000      8.2045      7.3195    152.2396     27.0127      2.5292     -0.0007
   569.9000      8.2045      5.1472    154.9067     27.1656      2.5651      0.0664
   570.0000      8.2547      4.0304    148.9822     26.9959      2.5835      0.0703
   570.1000      8.2547      3.9033    138.7222     26.6641      2.5856      0.0565
   570.2000      8.2547      3.4664    131.2910     26.1529      2.5928      0.0146
   570.3000      8.2722      2.3676    132.3899     25.4781      2.6109      0.0794
   570.4000      8.2722      2.0687    137.3291     24.8580      2.6159      0.0865
   570.5000      8.2317      3.5455    138.6539     24.3781      2.5915      0.0771
   570.6000      8.2317      5.6957    140.0774     24.1684      2.5560      0.0101
   570.7000      8.2317      6.9718    146.2913     24.2917      2.5350      0.0021
   570.8000      8.2148      7.0650    150.0764     24.4866      2.5334      0.0013
   570.9000      8.2148      6.3874    145.1398     24.5415      2.5446     -0.0120
   571.0000      8.2132      5.3467    135.0516     24.7114      2.5618      0.0681
   571.1000      8.2132      4.5988    127.0355     25.1284      2.5741      0.0682
   571.2000      8.2132      4.8980    123.4961     25.4729      2.5692      0.0312
   571.3000      8.2119      6.3204    122.3583     25.5402      2.5457     -0.0042
   571.4000      8.2119      7.9034    122.0873     25.4756      2.5196      0.0046
   571.5000      8.2065      8.2225    121.8161     25.5103      2.5143     -0.0097
   571.6000      8.2065      7.0664    122.8622     25.6839      2.5334      0.0051
   571.7000      8.2065      5.7270    125.4760     25.7067      2.5555     -0.0081
   571.8000      8.2112      5.0575    126.8414     25.4350      2.5666      0.0150
   571.9000      8.2112      5.0269    126.9307     25.1260      2.5671      0.0347
   572.0000      8.2143      5.0442    126.9469     25.1391      2.5668     -0.0024
   572.1000      8.2143      4.6150    125.0972     25.5421      2.5739      0.0617
   572.2000      8.2143      4.4194    120.9137     25.9205      2.5771      0.0631
   572.3000      8.2120      5.2239    117.3078     26.1896      2.5638      0.0333
   572.4000      8.2120      6.7384    116.1939     26.4559      2.5388      0.0048
   572.5000      8.2125      7.8894    117.4037     26.3805      2.5198     -0.0259
   572.6000      8.2125      7.6279    120.0540     25.8684      2.5241      0.0006
   572.7000      8.2125      6.1924    123.1124     25.4487      2.5478     -0.0046
   572.8000      8.2121      5.0042    126.3989     25.2637      2.5674      0.0401
   572.9000      8.2121      4.8045    129.7275     24.8876      2.5707      0.0335
   573.0000      8.1870      4.7818    129.5637     24.4019      2.5711      0.0321
   573.1000      8.1870      4.2255    124.2521     24.2571      2.5803      0.0528
   573.2000      8.1870      3.3042    120.4447     24.2920      2.5955      0.0458
   573.3000      8.1969      2.4265    121.9718     24.1704      2.6100      0.0726
   573.4000      8.1969      2.6336    124.0736     23.9843      2.6065      0.1026
   573.5000      8.2065      4.7338    124.4295     23.7873      2.5719      0.0400
   573.6000      8.2065      7.4267    126.1819     23.5348      2.5275     -0.0114
   573.7000      8.2065      8.4508    129.6185     23.2544      2.5106     -0.0066
   573.8000      8.1910      7.5732    133.2785     23.0698      2.5250      0.0398
   573.9000      8.1910      6.5131    136.5752     22.9329      2.5425      0.0651
   574.0000      8.1708      6.2104    136.2392     22.8373      2.5475      0.0715
   574.1000      8.1708      6.0717    130.9202     22.8717      2.5498      0.0572
   574.2000      8.1708      5.8341    124.7174     22.9235      2.5537      0.0313
   574.3000      8.1832      5.9731    123.0560     23.0197      2.5514      0.0732
   574.4000      8.1832      6.5139    127.3188     23.2274      2.5425      0.0105
   574.5000      8.1949      7.2468    132.8907     23.2843      2.5304      0.0544
   574.6000      8.1949      8.2805    133.3378     23.1333      2.5134     -0.0002
   574.7000      8.1949      9.0289    128.3223     22.9076      2.5010      0.0089
   574.8000      8.1833      8.8319    124.4107     22.6207      2.5043     -0.0221
   574.9000      8.1833      8.2781    124.8555     22.4444      2.5134      0.0357
   575.0000      8.1883      8.5342    126.7660     22.3552      2.5092      0.0240
   575.1000      8.1883     10.1329    128.4023     21.9719      2.4828      0.0172
   575.2000      8.1883     12.3725    127.7384     21.4209      2.4459     -0.0350
   575.3000      8.1910     13.9222    122.8398     21.2459      2.4203     -0.0469
   575.4000      8.1910     14.0537    116.4001     21.5558      2.4181     -0.0579
   575.5000      8.1858     12.4464    111.1860     21.9572      2.4446     -0.0453
   575.6000      8.1858      9.6950    108.9608     22.2336      2.4900      0.0168
   575.7000      8.1858      7.5450    110.6330     22.6746      2.5255      0.0400
   575.8000      8.1706      6.7185    112.9790     23.2886      2.5391      0.0514
   575.9000      8.1706      6.4386    111.9264     23.5491      2.5438     -0.0026
