~Version Information
VERS.                      2.0: CWLS Log ASCII Standard - VERSION 2.0
WRAP.                       NO: One line per depth step
~Well Information Block
STRT.FT               -10.0000: 
STOP.FT              1935.0000: 
STEP.FT                 0.2500: 
NULL.                -999.2500: 
COMP.          Pioneer Natural Resources: COMPANY
WELL.           Willys 32-8 Tr: WELL
FLD.           Purgatorie River: FIELD
LOC.           1843' FNL & 2355' FEL--: LOCATION
CNTY.               Las Animas: COUNTY
SRVC.          Patterson Wireline: SERVICE COMPANY
DATE.          Wed Feb 15 13:29:41 2006: LOG DATE
UWI.           05 071 08688 00: UNIQUE WELL ID
STAT.                       CO: STATE
~Curve Information Block
DEPT.FT            0 000 00 00: Depth
CCL.                          : Casing Collar Locator
TT3.usec                      : CBL 3' Travel Time
AMP3.mV                       : CBL 3' Amplitude
GR.GAPI                       : Gamma Ray
~Parameter Information Block
~A  Depth       CCL         TT3         AMP3         GR     
# ...
  1765.5000      0.0000    463.5484     10.9648    137.8451
  1765.7500      0.0000    432.9472     10.9914    150.3800
  1766.0000      0.0000    430.8573     10.9439    159.3941
  1766.2500      0.0000    455.1993     10.8420    162.2596
  1766.5000      0.0000    494.6304     10.7180    157.7799
  1766.7500      0.0000    529.3613     10.5977    147.4897
  1767.0000      0.0000    540.2958     10.4898    134.9488
  1767.2500      0.0000    523.4009     10.3914    123.4483
  1767.5000      0.0000    493.5457     10.3166    114.3091
  1767.7500      0.0000    470.6155     10.3238    107.0580
  1768.0000      0.0000    462.1525     10.4875    100.8260
  1768.2500      0.0000    461.6880     10.8010     95.5086
  1768.5000      0.0000    461.2932     11.1213     91.8559
  1768.7500      0.0000    459.6437     11.2651     90.7159
  1769.0000      0.0000    458.1539     11.1785     92.2463
  1769.2500      0.0000    457.7663     10.9729     95.6784
  1769.5000      0.0000    463.6104     10.7883     99.6793
  1769.7500      0.0000    485.8628     10.6618    103.2328
  1770.0000      0.0000    528.4277     10.5427    106.5873
  1770.2500      0.0000    579.4448     10.3891    111.1532
  1770.5000      0.0000    619.8022     10.2139    118.0838
  1770.7500      0.0000    641.3199     10.0544    127.1044
  1771.0000      0.0000    652.0093      9.9336    136.8861
  1771.2500      0.0000    663.6761      9.8545    146.2946
  1771.5000      0.0000    679.5293      9.8116    154.9923
  1771.7500      0.0000    695.2327      9.7960    162.9912
  1772.0000      0.0000    706.7518      9.7942    170.0038
  1772.2500      0.0000    713.5401      9.7871    175.3969
  1772.5000      0.0000    716.2504      9.7518    178.6408
  1772.7500      0.0000    714.9521      9.6691    179.6356
  1773.0000      0.0000    710.0818      9.5388    178.5882
  1773.2500      0.0000    703.3552      9.3894    175.5544
  1773.5000      0.0000    696.0526      9.2678    170.1945
  1773.7500      0.0000    686.1110      9.2142    162.2066
  1774.0000      0.0000    667.5386      9.2439    152.2147
  1774.2500      0.0000    634.2599      9.3489    142.2265
  1774.5000      0.0000    586.6931      9.5058    134.8642
  1774.7500      0.0000    535.4984      9.6798    131.6848
  1775.0000      0.0000    497.5764      9.8285    132.2057
  1775.2500      0.0000    486.5771      9.9160    134.6513
  1775.5000      0.0000    505.5207      9.9255    137.3421
  1775.7500      0.0000    545.8362      9.8589    139.4158
  1776.0000      0.0000    591.8561      9.7285    141.0530
  1776.2500      0.0000    628.0596      9.5567    143.2928
  1776.5000      0.0000    644.7762      9.3802    146.9487
  1776.7500      0.0000    638.9218      9.2406    151.4911
  1777.0000      0.0000    612.0648      9.1625    155.4995
  1777.2500      0.0000    570.2014      9.1375    158.1541
  1777.5000      0.0000    524.0974      9.1281    159.6911
  1777.7500      0.0000    486.0978      9.0836    160.2671
  1778.0000      0.0000    465.0126      8.9582    159.2310
  1778.2500      0.0000    464.1634      8.7228    156.1622
  1778.5000      0.0000    482.8538      8.3673    151.9490
  1778.7500      0.0000    517.5042      7.9002    147.9512
  1779.0000      0.0000    561.8091      7.3652    144.6145
  1779.2500      0.0000    607.9073      6.8678    141.7473
  1779.5000      0.0000    648.3419      6.5505    139.6436
  1779.7500      0.0000    677.4864      6.4881    139.0258
  1780.0000      0.0000    692.3058      6.6063    139.8612
  1780.2500      0.0000    692.8972      6.7477    140.7086
  1780.5000      0.0000    683.4462      6.8172    139.5871
  1780.7500      0.0000    672.5762      6.8267    135.5366
  1781.0000      0.0000    669.1775      6.8252    129.3728
  1781.2500      0.0000    674.3386      6.8369    123.2273
  1781.5000      0.0000    679.2109      6.8704    119.4861
  1781.7500      0.0000    674.1855      6.9635    119.6129
  1782.0000      0.0000    659.0341      7.2029    123.4088
  1782.2500      0.0000    641.6503      7.6704    129.3288
  1782.5000      0.0000    628.6487      8.3387    135.5896
  1782.7500      0.0000    620.9634      9.0502    140.9823
  1783.0000      0.0000    618.0914      9.6425    144.9352
  1783.2500      0.0000    622.0758     10.0713    147.3108
  1783.5000      0.0000    635.1813     10.3830    148.3615
  1783.7500      0.0000    655.5809     10.6148    148.7942
  1784.0000      0.0000    677.2292     10.7658    149.4487
  1784.2500      0.0000    694.1425     10.8310    150.4183
  1784.5000      0.0000    704.1690     10.8260    150.7279
  1784.7500      0.0000    708.8029     10.7808    149.5747
  1785.0000      0.0000    710.5766     10.7207    147.7089
  1785.2500      0.0000    711.1147     10.6559    146.8166
  1785.5000      0.0000    710.6893     10.5844    147.5445
  1785.7500      0.0000    708.4285     10.5009    148.7715
  1786.0000      0.0000    702.6229     10.4016    148.7461
  1786.2500      0.0000    691.7765     10.2879    146.3430
  1786.5000      0.0000    676.7782     10.1728    141.2695
  1786.7500      0.0000    662.6944     10.0792    133.7751
  1787.0000      0.0000    656.8014     10.0196    124.6545
  1787.2500      0.0000    662.7634      9.9781    115.5084
  1787.5000      0.0000    677.0004      9.9177    108.5490
  1787.7500      0.0000    691.9860      9.8095    105.6138
  1788.0000      0.0000    702.4641      9.6550    107.0291
  1788.2500      0.0000    707.7820      9.4830    111.2998
  1788.5000      0.0000    709.8069      9.3286    115.9603
  1788.7500      0.0000    710.3647      9.2097    118.9827
  1789.0000      0.0000    710.3927      9.1183    119.7892
  1789.2500      0.0000    710.2319      9.0299    119.2494
  1789.5000      0.0000    709.9818      8.9257    118.5972
  1789.7500      0.0000    709.6272      8.8056    118.1908
  1790.0000      0.0000    709.0049      8.6836    117.3843
  1790.2500      0.0000    707.8913      8.5745    115.6358
  1790.5000      0.0000    706.3051      8.4887    113.6118
  1790.7500      0.0000    704.8066      8.4349    112.9044
  1791.0000      0.0000    704.2823      8.4186    114.4063
  1791.2500      0.0000    705.1711      8.4351    117.2023
  1791.5000      0.0000    706.9701      8.4740    119.5515
  1791.7500      0.0000    708.6354      8.5314    120.8941
  1792.0000      0.0000    709.3268      8.6122    122.2643
  1792.2500      0.0000    708.6274      8.7161    124.5872
  1792.5000      0.0000    706.2552      8.8264    127.2270
  1792.7500      0.0000    701.9058      8.9172    128.6848
  1793.0000      0.0000    695.5509      8.9689    128.3927
  1793.2500      0.0000    687.7521      8.9793    127.4290
  1793.5000      0.0000    679.4241      8.9632    127.4932
  1793.7500      0.0000    671.4463      8.9407    129.2666
  1794.0000      0.0000    664.9122      8.9231    131.7663
  1794.2500      0.0000    661.5397      8.9109    133.4152
  1794.5000      0.0000    662.9664      8.9049    133.7202
  1794.7500      0.0000    669.4266      8.9155    133.6256
  1795.0000      0.0000    679.5581      8.9586    134.3092
  1795.2500      0.0000    691.2329      9.0436    135.8909
  1795.5000      0.0000    701.7211      9.1694    137.2630
  1795.7500      0.0000    707.6660      9.3263    137.0492
  1796.0000      0.0000    706.9711      9.4985    134.8900
  1796.2500      0.0000    701.5084      9.6647    132.0775
  1796.5000      0.0000    696.5158      9.8030    130.9351
  1796.7500      0.0000    696.1429      9.8994    133.0293
  1797.0000      0.0000    700.1968      9.9552    137.5577
  1797.2500      0.0000    705.5757      9.9841    141.7565
  1797.5000      0.0000    709.6978     10.0023    143.1909
  1797.7500      0.0000    711.9242     10.0158    141.5966
  1798.0000      0.0000    712.7522     10.0149    138.5868
  1798.2500      0.0000    712.7734      9.9841    136.0890
  1798.5000      0.0000    712.3538      9.9184    135.2536
  1798.7500      0.0000    711.7552      9.8269    136.1718
