~Version Information
VERS.                      2.0: CWLS Log ASCII Standard - VERSION 2.0
WRAP.                       NO: One line per depth step
~Well Information Block
STRT.FT               480.0000: 
STOP.FT              1946.0000: 
STEP.FT                 0.2500: 
NULL.                -999.2500: 
COMP.          XTO Energy Inc.: COMPANY
WELL.          Golden Eagle 19-15: WELL
FLD.           Purgatoire River: FIELD
LOC.           1121' FSL & 2332' FEL--: LOCATION
CNTY.               Las Animas: COUNTY
SRVC.                Patterson: SERVICE COMPANY
DATE.          Sun Mar 12 15:00:51 2006: LOG DATE
UWI.           05 071 08717 00: UNIQUE WELL ID
STAT.                 Colorado: STATE
~Curve Information Block
DEPT.FT            0 000 00 00: Depth
SP.mV                         : DIL Spontaneous Potential
RILD.Ohm-m                    : DIL Deep Resistivity
RILM.Ohm-m                    : DIL Medium Resistivity
RLL3.Ohm-m                    : DIL Shallow Resistivity
GR.GAPI                       : Gamma Ray
~Parameter Information Block
~A  Depth        SP         RILD        RILM        RLL3         GR     
# ...
   956.0000   2005.0000     13.0148     15.9839   2000.0000    105.6811
   956.2500   2005.0000     13.1176     16.1407   2000.0000    106.8476
   956.5000   2005.0000     13.1498     16.1261   2000.0000    108.2908
   956.7500   2005.0000     13.1227     15.9254   2000.0000    109.2967
   957.0000   2005.0000     13.0410     15.5355   2000.0000    111.8555
   957.2500   2005.0000     12.9047     14.9900   2000.0000    114.6905
   957.5000   2005.0000     12.7149     14.3586   2000.0000    120.4802
   957.7500   2005.0000     12.4771     13.7209   2000.0000    124.7968
   958.0000   2005.0000     12.2005     13.1394   2000.0000    130.7382
   958.2500   2005.0000     11.8952     12.6459   2000.0000    133.7334
   958.5000   2005.0000     11.5719     12.2430   2000.0000    136.1378
   958.7500   2005.0000     11.2424     11.9135   2000.0000    136.3469
   959.0000   2005.0000     10.9200     11.6318   2000.0000    135.3817
   959.2500   2005.0000     10.6193     11.3740   2000.0000    134.6372
   959.5000   2005.0000     10.3545     11.1253   2000.0000    134.2040
   959.7500   2005.0000     10.1379     10.8816   2000.0000    134.2834
   960.0000   2005.0000      9.9767     10.6466   2000.0000    134.3381
   960.2500   2005.0000      9.8731     10.4278   2000.0000    134.2854
   960.5000   2005.0000      9.8236     10.2341   2000.0000    134.7515
   960.7500   2005.0000      9.8211     10.0763   2000.0000    135.7881
   961.0000   2005.0000      9.8552      9.9673   2000.0000    138.1620
   961.2500   2005.0000      9.9125      9.9216   2000.0000    139.7005
   961.5000   2005.0000      9.9775      9.9515   2000.0000    140.9232
   961.7500   2005.0000     10.0333     10.0613   2000.0000    140.5804
   962.0000   2005.0000     10.0651     10.2421   2000.0000    137.6945
   962.2500   2005.0000     10.0649     10.4682   2000.0000    134.0181
   962.5000   2005.0000     10.0338     10.6983   2000.0000    126.6983
   962.7500   2005.0000      9.9807     10.8840   2000.0000    121.8721
   963.0000   2005.0000      9.9188     10.9826   2000.0000    117.2450
   963.2500   2005.0000      9.8611     10.9725   2000.0000    116.8078
   963.5000   2005.0000      9.8161     10.8611   2000.0000    119.8759
   963.7500   2005.0000      9.7860     10.6808   2000.0000    123.4185
   964.0000   2005.0000      9.7655     10.4737   2000.0000    129.2356
   964.2500   2005.0000      9.7434     10.2754   2000.0000    133.0558
   964.5000   2005.0000      9.7049     10.1048   2000.0000    138.8691
   964.7500   2005.0000      9.6358      9.9627   2000.0000    142.6673
   965.0000   2005.0000      9.5267      9.8370   2000.0000    147.0224
   965.2500   2005.0000      9.3773      9.7105   2000.0000    148.2870
   965.5000   2005.0000      9.1972      9.5682   2000.0000    147.7570
   965.7500   2005.0000      9.0024      9.4036   2000.0000    146.6908
   966.0000   2005.0000      8.8104      9.2189   2000.0000    146.1465
   966.2500   2005.0000      8.6355      9.0237   2000.0000    147.3863
   966.5000   2005.0000      8.4863      8.8304   2000.0000    151.6747
   966.7500   2005.0000      8.3654      8.6514   2000.0000    155.2080
   967.0000   2005.0000      8.2693      8.4969   2000.0000    159.2433
   967.2500   2005.0000      8.1899      8.3735   2000.0000    160.2058
   967.5000   2005.0000      8.1179      8.2838   2000.0000    159.0918
   967.7500   2005.0000      8.0464      8.2263   2000.0000    157.2703
   968.0000   2005.0000      7.9726      8.1953   2000.0000    153.8405
   968.2500   2005.0000      7.8964      8.1823   2000.0000    151.2637
   968.5000   2005.0000      7.8179      8.1771   2000.0000    147.2737
   968.7500   2005.0000      7.7364      8.1694   2000.0000    145.0614
   969.0000   2005.0000      7.6508      8.1507   2000.0000    143.4510
   969.2500   2005.0000      7.5610      8.1156   2000.0000    143.7056
   969.5000   2005.0000      7.4687      8.0605   2000.0000    145.6181
   969.7500   2005.0000      7.3763      7.9826   2000.0000    147.5012
   970.0000   2005.0000      7.2858      7.8802   2000.0000    150.6570
   970.2500   2005.0000      7.1979      7.7543   2000.0000    152.7312
   970.5000   2005.0000      7.1127      7.6105   2000.0000    155.4902
   970.7500   2005.0000      7.0294      7.4582   2000.0000    156.9420
   971.0000   2005.0000      6.9476      7.3080   2000.0000    158.2394
   971.2500   2005.0000      6.8672      7.1687   2000.0000    158.4006
   971.5000   2005.0000      6.7888      7.0465   2000.0000    157.7106
   971.7500   2005.0000      6.7141      6.9441   2000.0000    156.8923
   972.0000   2005.0000      6.6449      6.8607   2000.0000    155.6274
   972.2500   2005.0000      6.5823      6.7921   2000.0000    154.9278
   972.5000   2005.0000      6.5259      6.7327   2000.0000    154.0900
   972.7500   2005.0000      6.4749      6.6786   2000.0000    153.6211
   973.0000   2005.0000      6.4294      6.6308   2000.0000    153.2324
   973.2500   2005.0000      6.3909      6.5952   2000.0000    153.4118
   973.5000   2005.0000      6.3618      6.5792   2000.0000    154.3964
   973.7500   2005.0000      6.3443      6.5867   2000.0000    155.1658
   974.0000   2005.0000      6.3389      6.6161   2000.0000    155.4363
   974.2500   2005.0000      6.3439      6.6612   2000.0000    154.4834
   974.5000   2005.0000      6.3557      6.7139   2000.0000    151.0952
   974.7500   2005.0000      6.3698      6.7666   2000.0000    147.9964
   975.0000   2005.0000      6.3822      6.8132   2000.0000    143.8769
   975.2500   2005.0000      6.3904      6.8486   2000.0000    142.6700
   975.5000   2005.0000      6.3939      6.8686   2000.0000    144.1623
   975.7500   2005.0000      6.3939      6.8697   2000.0000    146.8472
   976.0000   2005.0000      6.3936      6.8504   2000.0000    151.3149
   976.2500   2005.0000      6.3978      6.8117   2000.0000    153.6915
   976.5000   2005.0000      6.4123      6.7584   2000.0000    156.4175
   976.7500   2005.0000      6.4422      6.6982   2000.0000    158.0997
   977.0000   2005.0000      6.4908      6.6423   2000.0000    160.3150
   977.2500   2005.0000      6.5589      6.6044   2000.0000    161.0317
   977.5000   2005.0000      6.6443      6.5992   2000.0000    160.3242
   977.7500   2005.0000      6.7424      6.6403   2000.0000    158.8076
   978.0000   2005.0000      6.8471      6.7375   2000.0000    155.6071
   978.2500   2005.0000      6.9518      6.8944   2000.0000    153.0853
   978.5000   2005.0000      7.0522      7.1071   2000.0000    148.7130
   978.7500   2005.0000      7.1472      7.3634   2000.0000    145.2661
   979.0000   2005.0000      7.2391      7.6446   2000.0000    139.1659
   979.2500   2005.0000      7.3322      7.9271   2000.0000    134.7674
   979.5000   2005.0000      7.4320      8.1874   2000.0000    129.0569
   979.7500   2005.0000      7.5432      8.4066   2000.0000    126.7819
   980.0000   2005.0000      7.6686      8.5760   2000.0000    126.2208
   980.2500   2005.0000      7.8068      8.6974   2000.0000    127.1286
   980.5000   2005.0000      7.9503      8.7796   2000.0000    128.6638
   980.7500   2005.0000      8.0852      8.8326   2000.0000    129.2778
   981.0000   2005.0000      8.1930      8.8622   2000.0000    130.1036
   981.2500   2005.0000      8.2556      8.8689   2000.0000    131.1079
   981.5000   2005.0000      8.2617      8.8493   2000.0000    133.2822
   981.7500   2005.0000      8.2117      8.7998   2000.0000    134.7496
   982.0000   2005.0000      8.1181      8.7192   2000.0000    136.6593
   982.2500   2005.0000      7.9998      8.6110   2000.0000    138.0688
   982.5000   2005.0000      7.8743      8.4814   2000.0000    141.2010
   982.7500   2005.0000      7.7511      8.3380   2000.0000    144.0657
   983.0000   2005.0000      7.6306      8.1882   2000.0000    148.8106
   983.2500   2005.0000      7.5087      8.0387   2000.0000    151.6195
   983.5000   2005.0000      7.3826      7.8956   2000.0000    154.3233
   983.7500   2005.0000      7.2546      7.7639   2000.0000    154.8252
