~Version Information
VERS.                      2.0: CWLS Log ASCII Standard - VERSION 2.0
WRAP.                       NO: One line per depth step
~Well Information Block
STRT.FT                -1.5000: 
STOP.FT              2898.5000: 
STEP.FT                 0.2500: 
NULL.                -999.2500: 
COMP.          Pioneer Natural Resources: COMPANY
WELL.          Hanginstone 21-27: WELL
FLD.           Purgatoire River: FIELD
LOC.           1186' FNL & 1606' FWL--: LOCATION
PROV.                 Colorado: PROVINCE
CNTY.               Las Animas: COUNTRY
SRVC.                Patterson: SERVICE COMPANY
DATE.          Mon Jan 23 11:03:53 2006: LOG DATE
UWI.           05 071 08632 00: UNIQUE WELL ID
~Curve Information Block
DEPT.FT            0 000 00 00: Depth
CCL.                          : Casing Collar Locator
TT3.usec                      : CBL 3' Travel Time
AMP3.mV                       : CBL 3' Amplitude
GR.GAPI                       : Gamma Ray
~Parameter Information Block
~A  Depth       CCL         TT3         AMP3         GR     
# ...
   568.0000      0.0000    260.6189     71.5878     23.6267
   568.2500      0.0000    260.6140     71.5946     24.5707
   568.5000      0.0000    260.6053     71.5942     24.0890
   568.7500      0.0000    260.5916     71.5744     22.8722
   569.0000      0.0000    260.5761     71.5362     22.1154
   569.2500      0.0000    260.5624     71.5060     22.4816
   569.5000      0.0000    260.5480     71.5131     23.7479
   569.7500      0.0000    260.5284     71.5548     25.2050
   570.0000      0.0000    260.5046     71.5999     26.2563
   570.2500      0.0000    260.4844     71.6214     26.7368
   570.5000      0.0000    260.4763     71.6164     26.8653
   570.7500      0.0000    260.4836     71.5991     27.0386
   571.0000      0.0000    260.5032     71.5851     27.6365
   571.2500      0.0000    260.5281     71.5750     28.8621
   571.5000      0.0000    260.5508     71.5533     30.6395
   571.7500      0.0000    260.5647     71.5139     32.5896
   572.0000      0.0000    260.5640     71.4823     34.0060
   572.2500      0.0000    260.5469     71.4954     33.9740
   572.5000      0.0000    260.5210     71.5629     31.9773
   572.7500      0.0000    260.5004     71.6587     28.6019
   573.0000      0.0000    260.4946     71.7417     25.3196
   573.2500      0.0000    260.5012     71.7784     23.3699
   573.5000      0.0000    260.5102     71.7621     23.0384
   573.7500      0.0000    260.5123     71.7193     23.9794
   574.0000      0.0000    260.5031     71.6884     25.7906
   574.2500      0.0000    260.4853     71.6898     28.0505
   574.5000      0.0000    260.4664     71.7202     30.1952
   574.7500      0.0000    260.4536     71.7637     31.8986
   575.0000      0.0000    260.4498     71.7963     33.5089
   575.2500      0.0000    260.4533     71.7935     35.6228
   575.5000      0.0000    260.4607     71.7485     38.1883
   575.7500      0.0000    260.4684     71.6792     40.3697
   576.0000      0.0000    260.4734     71.6142     41.3517
   576.2500      0.0000    260.4739     71.5765     41.0606
   576.5000      0.0000    260.4710     71.5744     40.0308
   576.7500      0.0000    260.4678     71.5991     38.7717
   577.0000      0.0000    260.4674     71.6336     37.4374
   577.2500      0.0000    260.4697     71.6661     35.9779
   577.5000      0.0000    260.4725     71.6903     34.2972
   577.7500      0.0000    260.4743     71.7033     32.2850
   578.0000      0.0000    260.4730     71.7132     29.9622
   578.2500      0.0000    260.4645     71.7343     27.6432
   578.5000      0.0000    260.4458     71.7662     25.8469
   578.7500      0.0000    260.4199     71.7921     25.0963
   579.0000      0.0000    260.3956     71.8020     25.7344
   579.2500      0.0000    260.3804     71.8022     27.6463
   579.5000      0.0000    260.3763     71.8006     30.0405
   579.7500      0.0000    260.3810     71.7967     31.6971
   580.0000      0.0000    260.3909     71.7872     31.8090
   580.2500      0.0000    260.4005     71.7686     30.7370
   580.5000      0.0000    260.4032     71.7376     29.7372
   580.7500      0.0000    260.3969     71.6976     29.6711
   581.0000      0.0000    260.3876     71.6634     30.0759
   581.2500      0.0000    260.3851     71.6515     29.7282
   581.5000      0.0000    260.3932     71.6654     27.9936
   581.7500      0.0000    260.4050     71.6912     25.4326
   582.0000      0.0000    260.4103     71.7094     23.1691
   582.2500      0.0000    260.4067     71.7045     21.7876
   582.5000      0.0000    260.4022     71.6688     20.7912
   582.7500      0.0000    260.4070     71.6065     19.1459
   583.0000      0.0000    260.4242     71.5363     16.5054
   583.2500      0.0000    260.4474     71.4794     13.8379
   583.5000      0.0000    260.4667     71.4409     12.5974
   583.7500      0.0000    260.4759     71.4074     13.3308
   584.0000      0.0000    260.4771     71.3566     15.3489
   584.2500      0.0000    260.4796     71.2707     17.6161
   584.5000      0.0000    260.4893     71.1548     19.6966
   584.7500      0.0000    260.5016     71.0404     21.8876
   585.0000      0.0000    260.5043     70.9601     24.6672
   585.2500      0.0000    260.4903     70.9209     28.0963
   585.5000      0.0000    260.4650     70.9109     31.7482
   585.7500      0.0000    260.4396     70.9184     35.1507
   586.0000      0.0000    260.4240     70.9319     38.2204
   586.2500      0.0000    260.4239     70.9365     41.4023
   586.5000      0.0000    260.4378     70.9258     45.5498
   586.7500      0.0000    260.4556     70.9091     51.3153
   587.0000      0.0000    260.4648     70.9011     58.1246
   587.2500      0.0000    260.4608     70.9089     64.0395
   587.5000      0.0000    260.4493     70.9326     67.2646
   587.7500      0.0000    260.4406     70.9656     67.6473
   588.0000      0.0000    260.4427     70.9929     66.2678
   588.2500      0.0000    260.4576     70.9967     63.9779
   588.5000      0.0000    260.4799     70.9727     60.9946
   588.7500      0.0000    260.5006     70.9358     57.6715
   589.0000      0.0000    260.5115     70.9074     54.9521
   589.2500      0.0000    260.5092     70.8992     53.7845
   589.5000      0.0000    260.4971     70.9045     54.2751
   589.7500      0.0000    260.4845     70.9035     55.6685
   590.0000      0.0000    260.4823     70.8798     57.2467
   590.2500      0.0000    260.4953     70.8389     59.0611
   590.5000      0.0000    260.5169     70.8068     61.6468
   590.7500      0.0000    260.5317     70.8053     65.3054
   591.0000      0.0000    260.5287     70.8341     69.8725
   591.2500      0.0000    260.5122     70.8804     74.8155
   591.5000      0.0000    260.4972     70.9344     79.3635
   591.7500      0.0000    260.4954     70.9900     82.9961
   592.0000      0.0000    260.5065     71.0381     85.9383
   592.2500      0.0000    260.5210     71.0651     88.7446
   592.5000      0.0000    260.5276     71.0583     91.3661
   592.7500      0.0000    260.5197     71.0143     93.2173
   593.0000      0.0000    260.4988     70.9456     94.4063
   593.2500      0.0000    260.4731     70.8740     96.2903
   593.5000      0.0000    260.4507     70.8145    100.1002
   593.7500      0.0000    260.4382     70.7680    105.1012
   594.0000      0.0000    260.4434     70.7318    108.6744
   594.2500      0.0000    260.4722     70.7109    108.5089
   594.5000      0.0000    260.5190     70.7145    104.7480
   594.7500      0.0000    260.5647     70.7446     99.9201
   595.0000      0.0000    260.5899     70.7909     96.6141
   595.2500      0.0000    260.5880     70.8340     95.3001
   595.5000      0.0000    260.5653     70.8541     94.7590
   595.7500      0.0000    260.5331     70.8432     94.4379
   596.0000      0.0000    260.5005     70.8114     95.3380
   596.2500      0.0000    260.4729     70.7763     98.0046
   596.5000      0.0000    260.4562     70.7482    100.7314
   596.7500      0.0000    260.4550     70.7267    101.0057
   597.0000      0.0000    260.4685     70.7071     98.2450
   597.2500      0.0000    260.4916     70.6883     93.9537
   597.5000      0.0000    260.5184     70.6770     89.5751
   597.7500      0.0000    260.5430     70.6822     85.3018
   598.0000      0.0000    260.5580     70.7033     80.6369
   598.2500      0.0000    260.5567     70.7278     75.1143
   598.5000      0.0000    260.5387     70.7465     68.7370
   598.7500      0.0000    260.5116     70.7637     62.4531
   599.0000      0.0000    260.4896     70.7832     58.0591
   599.2500      0.0000    260.4875     70.7782     57.2645
   599.5000      0.0000    260.5212     70.6460     60.6440
   599.7500      0.0000    260.6215     70.1579     67.1551
   600.0000      0.0000    260.8893     68.9458     74.5139
   600.2500      0.0000    261.5721     66.6709     80.4982
   600.5000      0.0000    263.0818     63.3674     84.2292
   600.7500      0.0000    265.7858     59.5877     85.8928
   601.0000      0.0000    269.5204     56.0270     85.3241
   601.2500      0.0000    273.2375     53.0308     81.8064
