~Version Information
VERS.                      2.0: CWLS Log ASCII Standard - VERSION 2.0
WRAP.                       NO: One line per depth step
~Well Information Block
STRT.FT                 0.0000: 
STOP.FT               878.7500: 
STEP.FT                 0.2500: 
NULL.                -999.2500: 
COMP.          Pioneer Natural Resources: COMPANY
WELL.          Screamin 12-29 Tr: WELL
FLD.           Purgatoire River: FIELD
LOC.           1979' FNL & 532' FWL--: LOCATION
CNTY.               Las Animas: COUNTY
SRVC.                Patterson: SERVICE COMPANY
DATE.          Thu Apr 13 22:21:38 2006: LOG DATE
UWI.           05 071 08660 00: UNIQUE WELL ID
STAT.                 Colorado: STATE
~Curve Information Block
DEPT.FT            0 000 00 00: Depth
GR.GAPI                       : Gamma Ray
CCL.                          : Casing Collar Locator
TT3.usec                      : CBL 3' Travel Time
AMP3.mV                       : CBL 3' Amplitude
~Parameter Information Block
~A  Depth        GR         CCL         TT3         AMP3    
# ...
   502.5000     65.7178      0.0000    656.3088      4.6952
   502.7500     69.4786      0.0000    663.2619      4.6870
   503.0000     74.0913      0.0000    670.8563      4.6765
   503.2500     76.2437      0.0000    671.2172      4.6733
   503.5000     79.1462      0.0000    663.9174      4.6740
   503.7500     81.7377      0.0000    656.4608      4.6761
   504.0000     87.0439      0.0000    647.3923      4.6758
   504.2500     90.7890      0.0000    644.8990      4.6710
   504.5000     94.2702      0.0000    647.7580      4.6563
   504.7500     93.8464      0.0000    654.6169      4.6431
   505.0000     88.6289      0.0000    673.5567      4.6215
   505.2500     83.1750      0.0000    691.7584      4.6082
   505.5000     75.2114      0.0000    723.0409      4.5980
   505.7500     71.7290      0.0000    741.8425      4.6023
   506.0000     70.7069      0.0000    759.8101      4.6219
   506.2500     72.7918      0.0000    763.9587      4.6346
   506.5000     78.8867      0.0000    762.2545      4.6370
   506.7500     83.7350      0.0000    759.1193      4.6239
   507.0000     89.7267      0.0000    756.0344      4.5858
   507.2500     91.8135      0.0000    757.2457      4.5547
   507.5000     92.4045      0.0000    766.6852      4.5153
   507.7500     92.5306      0.0000    777.8733      4.5004
   508.0000     94.6872      0.0000    797.1685      4.4910
   508.2500     97.5346      0.0000    807.4787      4.4862
   508.5000    102.0987      0.0000    813.4338      4.4797
   508.7500    104.3672      0.0000    809.5533      4.4834
   509.0000    106.6274      0.0000    791.6686      4.5093
   509.2500    107.9696      0.0000    772.7127      4.5348
   509.5000    110.2570      0.0000    738.4065      4.5682
   509.7500    111.7085      0.0000    716.1240      4.5817
   510.0000    112.7594      0.0000    692.4009      4.5895
   510.2500    112.0524      0.0000    686.8890      4.5886
   510.5000    108.3567      0.0000    694.3590      4.5805
   510.7500    104.6176      0.0000    705.3206      4.5713
   511.0000     99.2091      0.0000    718.0488      4.5509
   511.2500     97.0722      0.0000    717.7163      4.5338
   511.5000     97.1740      0.0000    701.6979      4.5111
   511.7500     99.2447      0.0000    684.8050      4.5048
   512.0000    104.2441      0.0000    660.6871      4.5145
   512.2500    108.0008      0.0000    649.6749      4.5294
   512.5000    112.4895      0.0000    642.6116      4.5440
   512.7500    113.8065      0.0000    643.6825      4.5352
   513.0000    113.0965      0.0000    653.2493      4.4892
   513.2500    111.4672      0.0000    664.4125      4.4490
   513.5000    108.2519      0.0000    684.8998      4.4049
   513.7500    105.8677      0.0000    697.0965      4.3950
   514.0000    102.6440      0.0000    705.5641      4.4039
   514.2500    101.2569      0.0000    702.1403      4.4203
   514.5000    100.4457      0.0000    685.6081      4.4611
   514.7500    100.3337      0.0000    671.6872      4.4995
   515.0000    100.2114      0.0000    656.0148      4.5603
   515.2500    100.1944      0.0000    653.3417      4.5881
   515.5000    100.4857      0.0000    665.2767      4.5914
   515.7500    100.7867      0.0000    684.2755      4.5700
   516.0000    100.9411      0.0000    723.6959      4.5250
   516.2500    100.6406      0.0000    749.3647      4.5003
   516.5000     99.4059      0.0000    770.3947      4.4786
   516.7500     98.0299      0.0000    766.6785      4.4714
   517.0000     95.3956      0.0000    737.1318      4.4684
   517.2500     93.5802      0.0000    709.6088      4.4726
   517.5000     91.0911      0.0000    672.6965      4.4859
   517.7500     89.4287      0.0000    656.8783      4.4938
   518.0000     86.4457      0.0000    648.8251      4.4944
   518.2500     84.1418      0.0000    653.2401      4.4856
   518.5000     80.9127      0.0000    672.9651      4.4601
   518.7500     79.4632      0.0000    693.1448      4.4362
   519.0000     79.0886      0.0000    727.5861      4.3929
   519.2500     80.1754      0.0000    747.6465      4.3639
   519.5000     83.2322      0.0000    763.1257      4.3342
   519.7500     85.5590      0.0000    760.0363      4.3306
   520.0000     88.8307      0.0000    738.0685      4.3498
   520.2500     91.1215      0.0000    719.1821      4.3722
   520.5000     95.5131      0.0000    699.8702      4.4043
   520.7500     99.0150      0.0000    698.6536      4.4160
   521.0000    103.7862      0.0000    715.5507      4.4117
   521.2500    105.8281      0.0000    736.8644      4.3963
   521.5000    107.1453      0.0000    776.4708      4.3641
   521.7500    107.4596      0.0000    801.7013      4.3401
   522.0000    107.4301      0.0000    826.0777      4.2990
   522.2500    106.4819      0.0000    828.4095      4.2679
   522.5000    102.7786      0.0000    808.5740      4.2256
   522.7500     99.2498      0.0000    782.2162      4.2112
   523.0000     94.4393      0.0000    733.6563      4.2216
   523.2500     92.5479      0.0000    703.9022      4.2453
   523.5000     91.9773      0.0000    675.6719      4.2864
   523.7500     92.7373      0.0000    670.3442      4.3087
   524.0000     95.1015      0.0000    678.0529      4.3313
   524.2500     97.4144      0.0000    688.3027      4.3414
   524.5000    101.4253      0.0000    703.4446      4.3537
   524.7500    103.5335      0.0000    711.1928      4.3601
   525.0000    103.8986      0.0000    718.8350      4.3618
   525.2500    101.7527      0.0000    721.6900      4.3550
   525.5000     95.9460      0.0000    723.3762      4.3383
   525.7500     91.6458      0.0000    723.2808      4.3302
   526.0000     86.4408      0.0000    722.1446      4.3269
   526.2500     84.2538      0.0000    721.0045      4.3261
   526.5000     82.8761      0.0000    718.9279      4.3196
   526.7500     83.0758      0.0000    717.4481      4.3142
   527.0000     84.5333      0.0000    715.0544      4.3188
   527.2500     85.6496      0.0000    712.8516      4.3378
   527.5000     86.2583      0.0000    707.7555      4.3901
   527.7500     85.6514      0.0000    703.5612      4.4301
   528.0000     84.0524      0.0000    698.3008      4.4681
   528.2500     83.4722      0.0000    696.4703      4.4656
   528.5000     84.3697      0.0000    695.8523      4.4213
   528.7500     85.9734      0.0000    695.8862      4.3803
   529.0000     88.7509      0.0000    695.4169      4.3354
   529.2500     90.2747      0.0000    694.6017      4.3275
   529.5000     91.8528      0.0000    692.5131      4.3440
   529.7500     92.7705      0.0000    690.3077      4.3651
   530.0000     94.8910      0.0000    685.8548      4.4033
   530.2500     96.8528      0.0000    683.0532      4.4316
   530.5000     98.7113      0.0000    682.0361      4.4689
   530.7500     97.5171      0.0000    684.9062      4.4805
   531.0000     90.9215      0.0000    694.6595      4.4685
   531.2500     84.4572      0.0000    703.8713      4.4474
   531.5000     75.1897      0.0000    720.7878      4.4183
   531.7500     70.9948      0.0000    734.1493      4.4097
   532.0000     68.8616      0.0000    755.4928      4.4123
   532.2500     69.7080      0.0000    767.1750      4.4179
   532.5000     71.6354      0.0000    773.7004      4.4224
   532.7500     71.5535      0.0000    769.1618      4.4210
   533.0000     68.3972      0.0000    753.6039      4.4156
   533.2500     65.3056      0.0000    742.0682      4.4135
   533.5000     61.7227      0.0000    728.3915      4.4150
   533.7500     60.6331      0.0000    722.3431      4.4173
   534.0000     59.8716      0.0000    717.0992      4.4190
   534.2500     58.9727      0.0000    715.6787      4.4188
   534.5000     56.6115      0.0000    715.3640      4.4187
   534.7500     54.9104      0.0000    714.7454      4.4198
   535.0000     53.2907      0.0000    709.4559      4.4241
   535.2500     53.1784      0.0000    701.4559      4.4315
   535.5000     54.5926      0.0000    683.4023      4.4579
   535.7500     56.4127      0.0000    669.8163      4.4890
