~Version Information
VERS.                      2.0: CWLS Log ASCII Standard - VERSION 2.0
WRAP.                       NO: One line per depth step
~Well Information Block
STRT.FT               360.0000: 
STOP.FT              2475.0000: 
STEP.FT                 0.1000: 
NULL.                -999.2500: 
COMP.          Pioneer Natural Resources: COMPANY
WELL.          Hellzonfire 32-31: WELL
FLD.           Purgatoire River: FIELD
LOC.           1993' FNL & 2265' FEL: LOCATION
STAT.                 Colorado: State
CNTY.               Las Animas: COUNTY
CTRY. USA : Country
SECT. 31 : Section
TOWN. 32S : Township
RANG. 66W : Range
SRVC.                Patterson: SERVICE COMPANY
DATE.          Fri Sep 02 07:26:13 2005: LOG DATE
API.           05 071 08483 00: UNIQUE WELL ID
~Curve Information Block
DEPT.FT            0 000 00 00: Depth
DCAL.in                       : CDL Caliper
RHOB.g/cc                     : CDL Bulk Density
RHOC.g/cc                     : CDL Density Correction
DPOR.pu                       : CDL Density Porosity
GR.GAPI                       : Gamma Ray
NPOR.pu                       : Neutron Porosity
~Parameter Information Block
~A  Depth       DCAL        RHOB        RHOC        DPOR         GR         NPOR    
# ...
   782.4000      8.4145      2.4439      0.1836     12.4879    132.2038     24.0691
   782.5000      8.4277      2.4742      0.1390     10.6554    142.2007     24.2793
   782.6000      8.4277      2.4910      0.1240      9.6388    150.6690     24.6254
   782.7000      8.4277      2.5062      0.1553      8.7151    145.8887     25.2018
   782.8000      8.4970      2.5225      0.1022      7.7260    130.7989     25.8783
   782.9000      8.4970      2.5346      0.1258      6.9968    118.1431     26.5045
   783.0000      8.5874      2.5381      0.1437      6.7831    115.3904     26.9117
   783.1000      8.5874      2.5293      0.1430      7.3135    118.7565     27.0798
   783.2000      8.5874      2.5071      0.0816      8.6576    120.7182     27.0246
   783.3000      8.4302      2.4869     -0.0359      9.8829    118.9945     26.8890
   783.4000      8.4302      2.4816     -0.0065     10.2054    116.6845     26.9577
   783.5000      8.2527      2.4769      0.0570     10.4904    116.5834     27.1779
   783.6000      8.2527      2.4576     -0.0023     11.6581    118.8363     27.1524
   783.7000      8.2527      2.4325     -0.0127     13.1834    123.7679     26.4652
   783.8000      8.2241      2.4206     -0.0428     13.9055    129.5964     25.5636
   783.9000      8.2241      2.4337     -0.0096     13.1070    130.8316     25.2658
   784.0000      8.2152      2.4624     -0.0029     11.3686    124.9091     25.1874
   784.1000      8.2152      2.4805      0.0786     10.2722    117.8833     24.6169
   784.2000      8.2152      2.4761      0.0532     10.5378    118.5375     23.8152
   784.3000      8.2039      2.4646      0.0192     11.2347    127.5542     23.2688
   784.4000      8.2039      2.4494      0.0602     12.1579    140.4126     22.9853
   784.5000      8.1987      2.4197     -0.0286     13.9599    150.9979     22.7777
   784.6000      8.1987      2.3926     -0.0604     15.6011    155.0555     22.5445
   784.7000      8.1987      2.3841      0.0002     16.1158    156.9794     22.5579
   784.8000      8.2045      2.3858     -0.0063     16.0104    161.3802     23.1086
   784.9000      8.2045      2.3895      0.0177     15.7865    163.7151     23.7564
   785.0000      8.2412      2.3842      0.0197     16.1102    161.4061     23.8773
   785.1000      8.2412      2.3670     -0.0207     17.1538    158.9717     23.8370
   785.2000      8.2412      2.3577     -0.0172     17.7142    157.0661     24.4078
   785.3000      8.3018      2.3671      0.0193     17.1436    152.3595     25.2656
   785.4000      8.3018      2.3849      0.0424     16.0694    145.5073     25.5460
   785.5000      8.3530      2.4035      0.0242     14.9404    140.7953     25.2129
   785.6000      8.3530      2.4218      0.0294     13.8319    141.0339     24.8631
   785.7000      8.3530      2.4387      0.0562     12.8086    145.9658     24.8913
   785.8000      8.3348      2.4488      0.0460     12.1941    151.5258     24.9872
   785.9000      8.3348      2.4450      0.0740     12.4243    152.7854     24.7882
   786.0000      8.3311      2.4388      0.0518     12.7971    151.7170     24.5598
   786.1000      8.3311      2.4387      0.1256     12.8068    153.5367     24.8238
   786.2000      8.3311      2.4296      0.1006     13.3599    160.5085     25.7247
   786.3000      8.2734      2.4182      0.0187     14.0482    165.1919     26.6805
   786.4000      8.2734      2.4218      0.0653     13.8298    159.4128     26.8656
   786.5000      8.2766      2.4257      0.0816     13.5968    147.1824     26.3279
   786.6000      8.2766      2.4255      0.0744     13.6063    138.4296     26.0690
   786.7000      8.2766      2.4498      0.0763     12.1316    133.6283     26.6581
   786.8000      8.2934      2.5040      0.1471      8.8468    125.8575     27.4601
   786.9000      8.2934      2.5553      0.1624      5.7385    117.5747     27.7814
   787.0000      8.2852      2.5817      0.0927      4.1397    114.5192     27.6529
   787.1000      8.2852      2.5820      0.1103      4.1241    111.6923     27.3083
   787.2000      8.2852      2.5561      0.1032      5.6914    103.1028     26.8403
   787.3000      8.3169      2.5229      0.0177      7.7047     91.9958     26.3127
   787.4000      8.3169      2.5138      0.0583      8.2516     83.2638     25.8487
   787.5000      8.2811      2.5357      0.0629      6.9245     78.3442     25.3988
   787.6000      8.2811      2.5652      0.0980      5.1367     75.0409     24.5612
   787.7000      8.2811      2.5761      0.0937      4.4787     71.2702     23.4509
   787.8000      8.2739      2.5710      0.0949      4.7859     69.6213     22.7710
   787.9000      8.2739      2.5696      0.0566      4.8750     70.0774     22.7099
   788.0000      8.2512      2.5804      0.1060      4.2156     68.3969     22.9184
   788.1000      8.2512      2.5949      0.1018      3.3373     63.7374     23.0119
   788.2000      8.2512      2.5981      0.1151      3.1468     59.6675     22.8293
   788.3000      8.2442      2.5884      0.0696      3.7318     59.7632     22.4786
   788.4000      8.2442      2.5799      0.1247      4.2458     63.0162     22.2115
   788.5000      8.2329      2.5783      0.1093      4.3479     66.8690     22.2406
   788.6000      8.2329      2.5748      0.0733      4.5573     69.2010     22.5093
   788.7000      8.2329      2.5550      0.1189      5.7600     68.9994     22.5818
   788.8000      8.2078      2.5227      0.0687      7.7147     67.6768     22.3123
   788.9000      8.2078      2.5048      0.0340      8.8028     66.0632     22.0832
   789.0000      8.1852      2.5090      0.0710      8.5474     62.8067     22.1399
   789.1000      8.1852      2.5237      0.0400      7.6575     60.0066     22.1859
   789.2000      8.1852      2.5414      0.0851      6.5817     59.9635     21.9979
   789.3000      8.1658      2.5587      0.0536      5.5358     59.2843     21.9380
   789.4000      8.1658      2.5712      0.1448      4.7786     56.7276     22.1916
   789.5000      8.1373      2.5691      0.1016      4.9009     54.8930     22.4356
   789.6000      8.1373      2.5532      0.1074      5.8693     55.3056     22.5925
   789.7000      8.1373      2.5379      0.1057      6.7951     58.8039     22.7437
   789.8000      8.1218      2.5336      0.1013      7.0555     65.9906     22.6722
   789.9000      8.1218      2.5316      0.0624      7.1743     71.7758     22.3562
   790.0000      8.1273      2.5203      0.0678      7.8587     70.1322     22.1678
   790.1000      8.1273      2.5087     -0.0224      8.5666     65.6907     22.2918
   790.2000      8.1273      2.5092      0.0105      8.5314     63.0435     22.3948
   790.3000      8.1305      2.5153      0.0608      8.1647     60.4832     22.2663
   790.4000      8.1305      2.5221      0.0221      7.7507     59.0255     22.1363
   790.5000      8.1322      2.5351      0.0911      6.9620     60.1594     22.2709
   790.6000      8.1322      2.5495      0.0493      6.0882     61.1188     22.8673
   790.7000      8.1322      2.5570      0.0955      5.6372     59.9678     23.5020
   790.8000      8.1221      2.5592      0.0990      5.5018     59.4367     23.4806
   790.9000      8.1221      2.5712      0.0700      4.7773     60.9640     23.3243
   791.0000      8.1132      2.5960      0.1413      3.2734     62.2541     23.7190
   791.1000      8.1132      2.6142      0.1471      2.1727     62.6103     23.9908
   791.2000      8.1132      2.6165      0.1633      2.0327     64.1356     23.5648
   791.3000      8.0950      2.6112      0.1146      2.3544     70.2042     22.8407
   791.4000      8.0950      2.6047      0.0921      2.7446     78.8033     22.3158
   791.5000      8.0983      2.5916      0.1052      3.5389     84.9832     22.0871
   791.6000      8.0983      2.5709      0.0737      4.7946     89.3180     22.0878
   791.7000      8.0983      2.5601      0.0431      5.4506     91.2334     22.1976
   791.8000      8.1535      2.5662      0.1345      5.0791     90.6646     22.3110
   791.9000      8.1535      2.5720      0.0882      4.7254     91.1950     22.2987
