~Version Information
VERS.                      2.0: CWLS Log ASCII Standard - VERSION 2.0
WRAP.                       NO: One line per depth step
~Well Information Block
STRT.FT               325.0000: 
STOP.FT              1014.5000: 
STEP.FT                 0.2500: 
NULL.                -999.2500: 
COMP.          Pioneer Natural Resources: COMPANY
WELL.                Doc 34-30: WELL
FLD.           Purgatoire River: FIELD
LOC.           454' FSL & 1386' FEL: LOCATION
CNTY.               Las Animas: COUNTY
SRVC.                Patterson: SERVICE COMPANY
DATE.          Wed Feb 15 20:26:19 2006: LOG DATE
UWI.           05 071 08694 00: UNIQUE WELL ID
STAT.                 Colorado: STATE
~Curve Information Block
DEPT.FT            0 000 00 00: Depth
SN.Ohm-m                      : IEL Short Normal
SP.mV                         : IEL Spontaneous Potential
DIR.Ohm-m                     : IEL Induction Resistivity
GR.GAPI                       : Gamma Ray
~Parameter Information Block
~A  Depth        SN          SP         DIR          GR     
# ...
   358.5000   2000.0000   2000.0000     17.9174    123.8310
   358.7500   2000.0000   2000.0000     17.7370    121.4163
   359.0000   2000.0000   2000.0000     17.4599    117.3995
   359.2500   2000.0000   2000.0000     17.1457    116.2292
   359.5000   2000.0000   2000.0000     16.8646    118.4800
   359.7500   2000.0000   2000.0000     16.6616    122.5003
   360.0000   2000.0000   2000.0000     16.5418    130.1880
   360.2500   2000.0000   2000.0000     16.4789    134.7907
   360.5000   2000.0000   2000.0000     16.4399    139.2779
   360.7500   2000.0000   2000.0000     16.4093    140.8932
   361.0000   2000.0000   2000.0000     16.4011    142.9426
   361.2500   2000.0000   2000.0000     16.4460    144.8465
   361.5000   2000.0000   2000.0000     16.5598    148.2059
   361.7500   2000.0000   2000.0000     16.7139    149.7036
   362.0000   2000.0000   2000.0000     16.8347    148.8259
   362.2500   2000.0000   2000.0000     16.8415    145.6938
   362.5000   2000.0000   2000.0000     16.6919    137.9747
   362.7500   2000.0000   2000.0000     16.3945    131.7271
   363.0000   2000.0000   2000.0000     15.9847    122.1275
   363.2500   2000.0000   2000.0000     15.5006    116.4245
   363.5000   2000.0000   2000.0000     14.9748    110.9929
   363.7500   2000.0000   2000.0000     14.4317    110.7335
   364.0000   2000.0000   2000.0000     13.8823    116.3830
   364.2500   2000.0000   2000.0000     13.3224    123.8060
   364.5000   2000.0000   2000.0000     12.7443    138.7465
   364.7500   2000.0000   2000.0000     12.1527    149.9348
   365.0000   2000.0000   2000.0000     11.5691    166.0311
   365.2500   2000.0000   2000.0000     11.0210    175.1206
   365.5000   2000.0000   2000.0000     10.5251    185.6413
   365.7500   2000.0000   2000.0000     10.0809    190.7825
   366.0000   2000.0000   2000.0000      9.6791    195.4785
   366.2500   2000.0000   2000.0000      9.3161    195.8480
   366.5000   2000.0000   2000.0000      9.0031    191.5699
   366.7500   2000.0000   2000.0000      8.7626    186.5354
   367.0000   2000.0000   2000.0000      8.6163    179.4379
   367.2500   2000.0000   2000.0000      8.5754    176.7667
   367.5000   2000.0000   2000.0000      8.6374    176.0382
   367.7500   2000.0000   2000.0000      8.7894    176.5558
   368.0000   2000.0000   2000.0000      9.0126    176.8232
   368.2500   2000.0000   2000.0000      9.2855    176.0620
   368.5000   2000.0000   2000.0000      9.5856    172.5663
   368.7500   2000.0000   2000.0000      9.8920    167.7647
   369.0000   2000.0000   2000.0000     10.1891    155.9618
   369.2500   2000.0000   2000.0000     10.4701    145.8767
   369.5000   2000.0000   2000.0000     10.7375    131.1533
   369.7500   2000.0000   2000.0000     11.0004    124.0828
   370.0000   2000.0000   2000.0000     11.2706    120.5003
   370.2500   2000.0000   2000.0000     11.5603    123.2374
   370.5000   2000.0000   2000.0000     11.8842    133.8239
   370.7500   2000.0000   2000.0000     12.2604    143.8734
   371.0000   2000.0000   2000.0000     12.7040    161.0197
   371.2500   2000.0000   2000.0000     13.2124    172.4168
   371.5000   2000.0000   2000.0000     13.7547    186.9631
   371.7500   2000.0000   2000.0000     14.2751    193.7706
   372.0000   2000.0000   2000.0000     14.7159    198.5207
   372.2500   2000.0000   2000.0000     15.0435    197.5650
   372.5000   2000.0000   2000.0000     15.2591    188.7542
   372.7500   2000.0000   2000.0000     15.3898    177.6393
   373.0000   2000.0000   2000.0000     15.4714    155.1188
   373.2500   2000.0000   2000.0000     15.5379    138.8760
   373.5000   2000.0000   2000.0000     15.6222    117.4259
   373.7500   2000.0000   2000.0000     15.7617    106.6795
   374.0000   2000.0000   2000.0000     15.9981     96.3252
   374.2500   2000.0000   2000.0000     16.3644     92.7638
   374.5000   2000.0000   2000.0000     16.8653     91.2451
   374.7500   2000.0000   2000.0000     17.4648     92.0137
   375.0000   2000.0000   2000.0000     18.0930     94.4870
   375.2500   2000.0000   2000.0000     18.6741     96.4654
   375.5000   2000.0000   2000.0000     19.1572     99.8048
   375.7500   2000.0000   2000.0000     19.5254    102.5630
   376.0000   2000.0000   2000.0000     19.7782    107.8107
   376.2500   2000.0000   2000.0000     19.9112    111.7307
   376.5000   2000.0000   2000.0000     19.9206    116.9420
   376.7500   2000.0000   2000.0000     19.8240    119.4545
   377.0000   2000.0000   2000.0000     19.6695    122.4661
   377.2500   2000.0000   2000.0000     19.5152    124.9745
   377.5000   2000.0000   2000.0000     19.4024    130.4335
   377.7500   2000.0000   2000.0000     19.3469    134.7243
   378.0000   2000.0000   2000.0000     19.3512    140.1473
   378.2500   2000.0000   2000.0000     19.4179    142.0273
   378.5000   2000.0000   2000.0000     19.5475    141.6225
   378.7500   2000.0000   2000.0000     19.7240    139.5121
   379.0000   2000.0000   2000.0000     19.9064    134.5253
   379.2500   2000.0000   2000.0000     20.0410    130.4866
   379.5000   2000.0000   2000.0000     20.0905    124.2068
   379.7500   2000.0000   2000.0000     20.0596    120.4606
   380.0000   2000.0000   2000.0000     19.9909    116.4355
   380.2500   2000.0000   2000.0000     19.9386    114.9753
   380.5000   2000.0000   2000.0000     19.9393    113.8931
   380.7500   2000.0000   2000.0000     20.0022    113.2227
   381.0000   2000.0000   2000.0000     20.1175    111.8810
   381.2500   2000.0000   2000.0000     20.2699    111.1974
   381.5000   2000.0000   2000.0000     20.4444    111.4294
   381.7500   2000.0000   2000.0000     20.6232    112.5285
   382.0000   2000.0000   2000.0000     20.7856    115.2162
   382.2500   2000.0000   2000.0000     20.9139    117.5891
   382.5000   2000.0000   2000.0000     21.0016    121.8767
   382.7500   2000.0000   2000.0000     21.0487    124.6276
   383.0000   2000.0000   2000.0000     21.0498    126.4975
   383.2500   2000.0000   2000.0000     20.9927    125.1578
   383.5000   2000.0000   2000.0000     20.8755    119.5187
   383.7500   2000.0000   2000.0000     20.7242    114.8295
   384.0000   2000.0000   2000.0000     20.5896    109.4102
   384.2500   2000.0000   2000.0000     20.5230    107.7250
   384.5000   2000.0000   2000.0000     20.5526    107.5756
   384.7500   2000.0000   2000.0000     20.6769    108.3425
   385.0000   2000.0000   2000.0000     20.8723    110.2691
   385.2500   2000.0000   2000.0000     21.1074    112.2740
   385.5000   2000.0000   2000.0000     21.3533    116.6177
   385.7500   2000.0000   2000.0000     21.5922    120.0258
   386.0000   2000.0000   2000.0000     21.8197    124.6326
   386.2500   2000.0000   2000.0000     22.0429    126.7884
   386.5000   2000.0000   2000.0000     22.2717    128.2291
   386.7500   2000.0000   2000.0000     22.5082    127.7868
   387.0000   2000.0000   2000.0000     22.7369    124.5534
   387.2500   2000.0000   2000.0000     22.9238    120.7147
   387.5000   2000.0000   2000.0000     23.0333    113.4561
   387.7500   2000.0000   2000.0000     23.0574    108.4796
   388.0000   2000.0000   2000.0000     23.0353    101.7702
   388.2500   2000.0000   2000.0000     23.0397     97.9174
   388.5000   2000.0000   2000.0000     23.1382     92.9550
   388.7500   2000.0000   2000.0000     23.3600     90.1758
   389.0000   2000.0000   2000.0000     23.6859     86.9267
   389.2500   2000.0000   2000.0000     24.0610     85.4809
   389.5000   2000.0000   2000.0000     24.4182     84.5173
   389.7500   2000.0000   2000.0000     24.7059     84.6464
   390.0000   2000.0000   2000.0000     24.9069     85.7748
   390.2500   2000.0000   2000.0000     25.0388     87.0622
   390.5000   2000.0000   2000.0000     25.1369     89.9340
   390.7500   2000.0000   2000.0000     25.2317     92.5566
   391.0000   2000.0000   2000.0000     25.3384     97.0933
   391.2500   2000.0000   2000.0000     25.4551     99.8460
   391.5000   2000.0000   2000.0000     25.5653    102.3834
   391.7500   2000.0000   2000.0000     25.6436    102.6590
