~Version Information
VERS.                      2.0: CWLS Log ASCII Standard - VERSION 2.0
WRAP.                       NO: One line per depth step
~Well Information Block
STRT.FT               309.8000: 
STOP.FT              2184.7000: 
STEP.FT                 0.1000: 
NULL.                -999.2500: 
COMP.          Pioneer Natural Resources: COMPANY
WELL.             AMX 13-13 Tr: WELL
FLD.           Purgatoire River: FIELD
LOC.           2401' FSL & 895' FWL--: LOCATION
PROV.                 Colorado: PROVINCE
CNTY.               Las Animas: COUNTRY
SRVC.                Patterson: SERVICE COMPANY
DATE.          Thu Dec 22 15:57:57 2005: LOG DATE
UWI.           05 071 08631 00: UNIQUE WELL ID
~Curve Information Block
DEPT.FT            0 000 00 00: Depth
DCAL.in                       : CDL Caliper
RHOB.g/cc                     : CDL Bulk Density
RHOC.g/cc                     : CDL Density Correction
DPOR.pu                       : CDL Density Porosity
GR.GAPI                       : Gamma Ray
~Parameter Information Block
~A  Depth       DCAL        RHOB        RHOC        DPOR         GR     
# ...
  1183.4000      8.1446      2.6568      0.0740     -0.4108    124.1064
  1183.5000      8.1453      2.6985      0.1681     -2.9375    123.4948
  1183.6000      8.1453      2.7141      0.0931     -3.8853    121.4140
  1183.7000      8.1453      2.7050      0.1041     -3.3348    120.5415
  1183.8000      8.1445      2.6940      0.0308     -2.6693    123.9440
  1183.9000      8.1445      2.6868      0.0586     -2.2330    125.0435
  1184.0000      8.1429      2.6671      0.0642     -1.0367    120.8456
  1184.1000      8.1429      2.6332      0.0312      1.0171    116.6368
  1184.2000      8.1429      2.6021     -0.0241      2.9028    115.9815
  1184.3000      8.1437      2.5805     -0.0235      4.2103    116.0614
  1184.4000      8.1437      2.5606     -0.0328      5.4180    110.9539
  1184.5000      8.1441      2.5474     -0.0556      6.2175    101.0386
  1184.6000      8.1441      2.5569     -0.0234      5.6432     93.9095
  1184.7000      8.1441      2.5884     -0.0077      3.7311     94.5551
  1184.8000      8.1425      2.6250      0.0372      1.5147    101.3187
  1184.9000      8.1425      2.6457      0.0520      0.2588    109.9464
  1185.0000      8.1411      2.6492      0.0244      0.0498    113.7074
  1185.1000      8.1411      2.6563      0.0374     -0.3791    109.7005
  1185.2000      8.1411      2.6719      0.0508     -1.3277    104.2362
  1185.3000      8.1396      2.6790      0.0584     -1.7604    106.0889
  1185.4000      8.1396      2.6655      0.0538     -0.9388    116.3248
  1185.5000      8.1388      2.6320      0.0189      1.0938    125.9151
  1185.6000      8.1388      2.5882     -0.0118      3.7437    127.7624
  1185.7000      8.1388      2.5499     -0.0329      6.0651    123.6082
  1185.8000      8.1388      2.5369     -0.0382      6.8518    116.4752
  1185.9000      8.1388      2.5550      0.0209      5.7559    109.6584
  1186.0000      8.1391      2.5764      0.0669      4.4630    106.5320
  1186.1000      8.1391      2.5755      0.0459      4.5128    105.7351
  1186.2000      8.1391      2.5659     -0.0083      5.0977    104.2043
  1186.3000      8.1402      2.5756      0.0031      4.5095    101.9739
  1186.4000      8.1402      2.6025      0.0719      2.8802    102.1461
  1186.5000      8.1402      2.6164      0.0704      2.0372    106.2132
  1186.6000      8.1402      2.6050      0.0593      2.7273    111.6867
  1186.7000      8.1402      2.5893      0.0352      3.6783    115.3095
  1186.8000      8.1400      2.5905      0.0190      3.6038    116.2407
  1186.9000      8.1400      2.6017      0.0910      2.9282    116.2364
  1187.0000      8.1422      2.6081      0.0379      2.5422    115.5504
  1187.1000      8.1422      2.6115      0.0879      2.3335    113.0482
  1187.2000      8.1422      2.6127      0.0619      2.2603    110.5864
  1187.3000      8.1441      2.6105      0.0191      2.3940    108.6925
  1187.4000      8.1441      2.6140     -0.0094      2.1809    106.0448
  1187.5000      8.1444      2.6229      0.0421      1.6445    103.8456
  1187.6000      8.1444      2.6197      0.0655      1.8361    104.6309
  1187.7000      8.1444      2.5982      0.0390      3.1371    107.2003
  1187.8000      8.1450      2.5659      0.0459      5.0981    105.1171
  1187.9000      8.1450      2.5304      0.0070      7.2482     96.3974
  1188.0000      8.1456      2.5050     -0.0166      8.7894     87.4904
  1188.1000      8.1456      2.4955      0.0058      9.3654     83.7961
  1188.2000      8.1456      2.5035     -0.0544      8.8804     83.8756
  1188.3000      8.1440      2.5321     -0.0142      7.1481     86.0040
  1188.4000      8.1440      2.5628      0.0694      5.2856     91.7978
  1188.5000      8.1415      2.5818      0.0193      4.1305     97.0321
  1188.6000      8.1415      2.5972      0.0549      3.1979     95.2322
  1188.7000      8.1415      2.6004      0.0879      3.0057     89.3246
  1188.8000      8.1411      2.5831      0.0567      4.0548     85.4332
  1188.9000      8.1411      2.5570      0.0520      5.6393     83.2127
  1189.0000      8.1439      2.5285      0.0541      7.3638     80.3511
  1189.1000      8.1439      2.5077     -0.0218      8.6260     77.4152
  1189.2000      8.1439      2.5064      0.0436      8.7027     75.1209
  1189.3000      8.1461      2.5231      0.0424      7.6939     73.6405
  1189.4000      8.1461      2.5538      0.0427      5.8316     71.6419
  1189.5000      8.1456      2.5854      0.0854      3.9123     67.1253
  1189.6000      8.1456      2.5941      0.0796      3.3869     62.7478
  1189.7000      8.1456      2.5735      0.0854      4.6376     62.9271
  1189.8000      8.1461      2.5436      0.0082      6.4462     66.1653
  1189.9000      8.1461      2.5243      0.0718      7.6199     66.3317
  1190.0000      8.1491      2.5200      0.0120      7.8768     62.3947
  1190.1000      8.1491      2.5309      0.0328      7.2164     59.2309
  1190.2000      8.1491      2.5464      0.0270      6.2775     59.2171
  1190.3000      8.1530      2.5510      0.0628      6.0024     60.3510
  1190.4000      8.1530      2.5391      0.0192      6.7201     61.5036
  1190.5000      8.1561      2.5229     -0.0400      7.7002     64.1288
  1190.6000      8.1561      2.5184     -0.0425      7.9784     68.4522
  1190.7000      8.1561      2.5198      0.0159      7.8910     71.9786
  1190.8000      8.1570      2.5152      0.0118      8.1707     72.9581
  1190.9000      8.1570      2.5151      0.0109      8.1766     73.1163
  1191.0000      8.1566      2.5300      0.0399      7.2730     73.9923
  1191.1000      8.1566      2.5466      0.0596      6.2666     74.1752
  1191.2000      8.1566      2.5472      0.0579      6.2276     72.9559
  1191.3000      8.1563      2.5325      0.0301      7.1217     72.0420
  1191.4000      8.1563      2.5234     -0.0100      7.6733     73.4498
  1191.5000      8.1567      2.5338      0.0307      7.0417     76.3054
  1191.6000      8.1567      2.5531      0.0274      5.8747     77.7231
  1191.7000      8.1567      2.5714      0.0297      4.7653     77.2109
  1191.8000      8.1580      2.5815      0.0916      4.1516     75.9929
  1191.9000      8.1580      2.5759      0.0360      4.4929     75.2065
  1192.0000      8.1609      2.5618      0.0313      5.3426     75.1127
  1192.1000      8.1609      2.5503      0.0209      6.0426     76.4928
  1192.2000      8.1609      2.5506      0.0026      6.0269     78.2535
  1192.3000      8.1632      2.5497      0.0914      6.0811     79.7409
  1192.4000      8.1632      2.5170      0.0251      8.0625     85.1867
  1192.5000      8.1627      2.4600      0.0143     11.5170     92.9308
  1192.6000      8.1627      2.4154     -0.0288     14.2201     97.1518
  1192.7000      8.1627      2.3953      0.0106     15.4346     97.7864
  1192.8000      8.1634      2.3839      0.0139     16.1247     97.6389
  1192.9000      8.1634      2.3779     -0.0247     16.4902     97.1769
  1193.0000      8.1661      2.3900     -0.0090     15.7559     96.4450
  1193.1000      8.1661      2.4173      0.0205     14.1034     96.8614
  1193.2000      8.1661      2.4379      0.0958     12.8552    100.1701
  1193.3000      8.1697      2.4449      0.0537     12.4314    105.7230
  1193.4000      8.1697      2.4641      0.0581     11.2691    109.9327
  1193.5000      8.1723      2.5160      0.1324      8.1217    111.9447
  1193.6000      8.1723      2.5746      0.1865      4.5700    114.2699
  1193.7000      8.1723      2.5983      0.0811      3.1361    118.1153
  1193.8000      8.1726      2.5886      0.0269      3.7198    121.4424
  1193.9000      8.1726      2.5792     -0.0265      4.2892    120.7404
  1194.0000      8.1716      2.5879      0.0314      3.7658    116.0932
  1194.1000      8.1716      2.6002      0.0313      3.0211    113.9456
  1194.2000      8.1716      2.5963      0.0479      3.2544    119.5961
  1194.3000      8.1690      2.5777      0.0017      4.3805    128.0426
  1194.4000      8.1690      2.5677     -0.0104      4.9877    130.5629
  1194.5000      8.1663      2.5818     -0.0307      4.1320    126.7352
