~Version Information
VERS.                      2.0: CWLS Log ASCII Standard - VERSION 2.0
WRAP.                       NO: One line per depth step
~Well Information Block
STRT.FT               625.0000: 
STOP.FT              2053.7500: 
STEP.FT                 0.2500: 
NULL.                -999.2500: 
COMP.          Pioneer Natural Resources: COMPANY
WELL.            Zink 44-10 Tr: WELL
FLD.           Purgatoire River: FIELD
LOC.           486' FSL & 554' FEL--: LOCATION
PROV.                 Colorado: PROVINCE
CNTY.               Las Animas: COUNTRY
SRVC.                Patterson: SERVICE COMPANY
DATE.          Sun Jul 24 06:18:01 2005: LOG DATE
UWI.           05 071 08446 00: UNIQUE WELL ID
~Curve Information Block
DEPT.FT            0 000 00 00: Depth
SN.Ohm-m                      : IEL Short Normal
SP.mV                         : IEL Spontaneous Potential
DIR.Ohm-m                     : IEL Induction Resistivity
GR.GAPI                       : Gamma Ray
~Parameter Information Block
~A  Depth        SN          SP         DIR          GR     
# ...
  1764.0000     47.5681     42.6907     40.1145     58.0555
  1764.2500     48.3953     42.2490     41.0481     57.7638
  1764.5000     49.0980     41.8599     42.0340     57.1614
  1764.7500     49.7385     41.5251     43.0770     56.7019
  1765.0000     50.3344     41.2436     44.1360     55.7295
  1765.2500     50.8518     41.0111     45.1442     54.8249
  1765.5000     51.2279     40.8197     46.0393     53.0854
  1765.7500     51.4136     40.6597     46.7822     51.7727
  1766.0000     51.4050     40.5213     47.3482     50.1118
  1766.2500     51.2387     40.3965     47.7148     49.6187
  1766.5000     50.9613     40.2808     47.8565     50.0401
  1766.7500     50.6017     40.1737     47.7459     50.8220
  1767.0000     50.1669     40.0790     47.3493     52.0378
  1767.2500     49.6533     40.0039     46.6314     52.6924
  1767.5000     49.0526     39.9573     45.5833     53.7446
  1767.7500     48.3484     39.9480     44.2600     54.8243
  1768.0000     47.5131     39.9828     42.7890     57.1933
  1768.2500     46.5155     40.0653     41.3326     58.9529
  1768.5000     45.3342     40.1950     40.0223     60.8673
  1768.7500     43.9647     40.3683     38.9039     61.2839
  1769.0000     42.4099     40.5801     37.9143     61.0541
  1769.2500     40.6596     40.8264     36.8986     61.1474
  1769.5000     38.6807     41.1058     35.6633     62.9844
  1769.7500     36.4322     41.4217     34.0517     65.5270
  1770.0000     33.9060     41.7818     32.0070     70.6639
  1770.2500     31.1647     42.1964     29.5958     74.5099
  1770.5000     28.3484     42.6758     26.9821     80.7506
  1770.7500     25.6409     43.2261     24.3736     85.5112
  1771.0000     23.2082     43.8462     21.9628     94.0242
  1771.2500     21.1460     44.5264     19.8840    100.4071
  1771.5000     19.4685     45.2488     18.1944    109.7001
  1771.7500     18.1390     45.9892     16.8806    114.8891
  1772.0000     17.1081     46.7210     15.8799    120.7733
  1772.2500     16.3256     47.4189     15.1045    123.6184
  1772.5000     15.7306     48.0623     14.4670    125.9331
  1772.7500     15.2457     48.6375     13.8995    125.3911
  1773.0000     14.7944     49.1382     13.3650    120.6455
  1773.2500     14.3285     49.5653     12.8541    115.6885
  1773.5000     13.8433     49.9253     12.3727    109.1312
  1773.7500     13.3660     50.2286     11.9289    107.5058
  1774.0000     12.9261     50.4875     11.5256    110.6854
  1774.2500     12.5263     50.7142     11.1587    115.8254
  1774.5000     12.1353     50.9193     10.8182    125.2902
  1774.7500     11.7086     51.1109     10.4909    131.1004
  1775.0000     11.2207     51.2949     10.1651    137.0681
  1775.2500     10.6876     51.4748      9.8361    138.8059
  1775.5000     10.1647     51.6530      9.5091    138.5058
  1775.7500      9.7254     51.8308      9.1987    136.8768
  1776.0000      9.4316     52.0097      8.9239    133.1200
  1776.2500      9.3126     52.1909      8.7032    130.3814
  1776.5000      9.3616     52.3752      8.5507    127.3315
  1776.7500      9.5448     52.5632      8.4742    126.6002
  1777.0000      9.8126     52.7543      8.4747    127.6383
  1777.2500     10.1107     52.9468      8.5465    129.4927
  1777.5000     10.3919     53.1380      8.6777    133.0625
  1777.7500     10.6258     53.3237      8.8516    135.0989
  1778.0000     10.8026     53.4985      9.0488    136.2655
  1778.2500     10.9314     53.6558      9.2516    135.5963
  1778.5000     11.0356     53.7877      9.4475    133.3486
  1778.7500     11.1427     53.8857      9.6317    131.7854
  1779.0000     11.2698     53.9411      9.8052    130.0239
  1779.2500     11.4125     53.9464      9.9705    129.1587
  1779.5000     11.5469     53.8961     10.1255    127.7633
  1779.7500     11.6422     53.7882     10.2602    126.4258
  1780.0000     11.6754     53.6250     10.3576    123.6423
  1780.2500     11.6424     53.4126     10.4001    121.6580
  1780.5000     11.5589     53.1602     10.3776    119.7445
  1780.7500     11.4487     52.8796     10.2923    119.6481
  1781.0000     11.3290     52.5825     10.1570    121.0398
  1781.2500     11.2057     52.2797      9.9909    122.7163
  1781.5000     11.0796     51.9795      9.8155    126.4138
  1781.7500     10.9556     51.6876      9.6530    129.6041
  1782.0000     10.8473     51.4080      9.5264    134.2276
  1782.2500     10.7769     51.1443      9.4589    136.1867
  1782.5000     10.7669     50.9026      9.4718    136.5850
  1782.7500     10.8253     50.6944      9.5826    135.2195
  1783.0000     10.9346     50.5381      9.8021    130.9147
  1783.2500     11.0618     50.4589     10.1318    126.5812
  1783.5000     11.1960     50.4861     10.5649    118.4954
  1783.7500     11.3955     50.6468     11.0885    113.0342
  1784.0000     11.7986     50.9593     11.6910    107.2645
  1784.2500     12.5715     51.4259     12.3691    106.3699
  1784.5000     13.8096     52.0291     13.1307    109.9939
  1784.7500     15.4575     52.7321     13.9881    114.5922
  1785.0000     17.3102     53.4841     14.9419    121.3802
  1785.2500     19.1050     54.2287     15.9641    124.3081
  1785.5000     20.6392     54.9142     16.9906    126.0213
  1785.7500     21.8307     55.5019     17.9349    126.0469
  1786.0000     22.6965     55.9701     18.7204    124.7799
  1786.2500     23.2976     56.3153     19.3116    122.5777
  1786.5000     23.7010     56.5479     19.7222    117.0582
  1786.7500     23.9678     56.6873     19.9986    112.9484
  1787.0000     24.1495     56.7562     20.1948    108.6966
  1787.2500     24.2837     56.7761     20.3564    107.8473
  1787.5000     24.3918     56.7648     20.5135    108.9176
  1787.7500     24.4799     56.7348     20.6812    110.4330
  1788.0000     24.5435     56.6940     20.8608    113.1149
  1788.2500     24.5777     56.6454     21.0433    115.1628
  1788.5000     24.5864     56.5890     21.2141    119.0730
  1788.7500     24.5845     56.5223     21.3614    122.4236
  1789.0000     24.5861     56.4417     21.4800    128.0435
  1789.2500     24.5836     56.3435     21.5671    131.2540
  1789.5000     24.5345     56.2247     21.6103    133.1839
  1789.7500     24.3714     56.0831     21.5797    131.6837
  1790.0000     24.0342     55.9181     21.4311    125.2980
  1790.2500     23.5027     55.7298     21.1214    119.2091
  1790.5000     22.8068     55.5190     20.6294    109.8554
  1790.7500     22.0106     55.2861     19.9688    105.1792
  1791.0000     21.1818     55.0310     19.1863    103.0834
  1791.2500     20.3648     54.7524     18.3428    105.6204
  1791.5000     19.5749     54.4481     17.4930    114.1622
  1791.7500     18.8094     54.1152     16.6736    121.3789
  1792.0000     18.0624     53.7505     15.9046    131.7868
  1792.2500     17.3341     53.3516     15.1961    137.4720
  1792.5000     16.6329     52.9172     14.5560    143.2838
  1792.7500     15.9734     52.4476     13.9930    145.2552
  1793.0000     15.3761     51.9447     13.5158    146.2288
  1793.2500     14.8679     51.4124     13.1307    146.6318
  1793.5000     14.4814     50.8561     12.8425    148.6210
  1793.7500     14.2458     50.2822     12.6570    151.1425
  1794.0000     14.1763     49.6973     12.5837    155.4950
  1794.2500     14.2686     49.1069     12.6342    157.5197
  1794.5000     14.5028     48.5144     12.8165    157.5058
  1794.7500     14.8503     47.9208     13.1296    155.1195
  1795.0000     15.2811     47.3243     13.5621    148.3870
  1795.2500     15.7684     46.7233     14.0939    142.3571
  1795.5000     16.2928     46.1190     14.7017    132.4095
  1795.7500     16.8462     45.5195     15.3636    126.2435
  1796.0000     17.4341     44.9431     16.0625    119.2374
  1796.2500     18.0732     44.4177     16.7855    116.1632
  1796.5000     18.7780     43.9768     17.5228    112.6588
  1796.7500     19.5442     43.6501     18.2663    110.2890
  1797.0000     20.3388     43.4528     19.0107    106.6371
  1797.2500     21.1096     43.3762     19.7518    104.5617
