~Version Information
VERS.                      2.0: CWLS Log ASCII Standard - VERSION 2.0
WRAP.                       NO: One line per depth step
~Well Information Block
STRT.FT               230.0000: 
STOP.FT               706.5000: 
STEP.FT                 0.1000: 
NULL.                -999.2500: 
COMP.          Pioneer Natural Resources: COMPANY
WELL.          Razor Clam 23-27: WELL
FLD.           Purgatoire River: FIELD
LOC.           2499' FSL & 2636' FWL: LOCATION
CNTY.               Las Animas: COUNTY
SRVC.                Patterson: SERVICE COMPANY
DATE.          Mon Feb 13 07:31:47 2006: LOG DATE
UWI.           05 071 08667 00: UNIQUE WELL ID
STAT.                 Colorado: STATE
~Curve Information Block
DEPT.FT            0 000 00 00: Depth
DCAL.in                       : CDL Caliper
RHOB.g/cc                     : CDL Bulk Density
RHOC.g/cc                     : CDL Density Correction
DPOR.pu                       : CDL Density Porosity
GR.GAPI                       : Gamma Ray
NPOR.pu                       : Neutron Porosity
~Parameter Information Block
~A  Depth       DCAL        RHOB        RHOC        DPOR         GR         NPOR    
# ...
   690.8000      7.8494      2.5937      0.0741      3.4134   -999.2500     27.0630
   690.9000      7.8494      2.5988      0.1070      3.1041   -999.2500     27.1097
   691.0000      7.8749      2.5772      0.0674      4.4092   -999.2500     26.9508
   691.1000      7.8749      2.5446      0.0632      6.3908   -999.2500     26.9077
   691.2000      7.8749      2.5197      0.0516      7.8984   -999.2500     27.0100
   691.3000      7.8816      2.5101      0.0208      8.4758   -999.2500     26.8460
   691.4000      7.8816      2.5128      0.0358      8.3168   -999.2500     26.6658
   691.5000      7.8296      2.5231      0.0317      7.6914   -999.2500     26.8601
   691.6000      7.8296      2.5426      0.0592      6.5109   -999.2500     27.0212
   691.7000      7.8296      2.5653      0.1155      5.1329   -999.2500     27.0014
   691.8000      7.7872      2.5836      0.1202      4.0237   -999.2500     26.9196
   691.9000      7.7872      2.6043      0.1132      2.7700   -999.2500     26.4038
   692.0000      7.7810      2.6293      0.1486      1.2534   -999.2500     25.7138
   692.1000      7.7810      2.6386      0.1663      0.6903   -999.2500     25.2179
   692.2000      7.7810      2.6208      0.0861      1.7682   -999.2500     24.9206
   692.3000      7.8134      2.5961      0.0936      3.2651   -999.2500     25.2155
   692.4000      7.8134      2.5805      0.0866      4.2128   -999.2500     26.0963
   692.5000      7.8402      2.5681      0.0648      4.9618   -999.2500     26.7185
   692.6000      7.8402      2.5559      0.0252      5.7006   -999.2500     26.8484
   692.7000      7.8402      2.5489      0.0220      6.1302   -999.2500     28.3106
   692.8000      7.8605      2.5496     -0.0175      6.0862   -999.2500     33.5101
   692.9000      7.8605      2.5533      0.0243      5.8585   -999.2500     41.0731
   693.0000      7.8639      2.5475      0.0388      6.2142   -999.2500     46.3261
   693.1000      7.8639      2.5292      0.0325      7.3212   -999.2500     48.2190
   693.2000      7.8639      2.5124     -0.0196      8.3375   -999.2500     48.5913
   693.3000      7.8459      2.5061      0.0292      8.7187   -999.2500     48.6307
   693.4000      7.8459      2.5053      0.0165      8.7710   -999.2500     48.6329
   693.5000      7.8446      2.5054      0.0448      8.7657   -999.2500   -999.2500
   693.6000      7.8446      2.5038      0.0564      8.8589   -999.2500   -999.2500
   693.7000      7.8446      2.4931      0.0705      9.5078   -999.2500   -999.2500
   693.8000      7.8174      2.4646      0.0433     11.2356   -999.2500   -999.2500
   693.9000      7.8174      2.4244     -0.0124     13.6706   -999.2500   -999.2500
   694.0000      7.8192      2.3958     -0.0056     15.4049   -999.2500   -999.2500
   694.1000      7.8192      2.3911     -0.0008     15.6927   -999.2500   -999.2500
   694.2000      7.8192      2.3988     -0.0038     15.2220   -999.2500   -999.2500
   694.3000      7.8103      2.4041      0.0250     14.9054   -999.2500   -999.2500
   694.4000      7.8103      2.4068      0.0487     14.7375   -999.2500   -999.2500
   694.5000      7.8219      2.4144      0.0513     14.2777   -999.2500   -999.2500
   694.6000      7.8219      2.4256      0.0745     13.5974   -999.2500   -999.2500
   694.7000      7.8219      2.4359      0.0883     12.9755   -999.2500   -999.2500
   694.8000      7.8250      2.4493      0.0466     12.1633   -999.2500   -999.2500
   694.9000      7.8250      2.4686      0.0727     10.9926   -999.2500   -999.2500
   695.0000      7.8311      2.4846      0.0926     10.0215   -999.2500   -999.2500
   695.1000      7.8311      2.4905      0.0362      9.6672   -999.2500   -999.2500
   695.2000      7.8311      2.4864      0.0622      9.9152   -999.2500   -999.2500
   695.3000      7.8370      2.4697      0.0328     10.9261   -999.2500   -999.2500
   695.4000      7.8370      2.4426      0.0044     12.5693   -999.2500   -999.2500
   695.5000      7.8373      2.4167     -0.0144     14.1423   -999.2500   -999.2500
   695.6000      7.8373      2.4022     -0.0163     15.0171   -999.2500   -999.2500
   695.7000      7.8373      2.4002      0.0154     15.1379   -999.2500   -999.2500
   695.8000      7.8363      2.4058      0.0111     14.7999   -999.2500   -999.2500
   695.9000      7.8363      2.4164      0.0239     14.1559   -999.2500   -999.2500
   696.0000      7.8378      2.4328      0.0375     13.1631   -999.2500   -999.2500
   696.1000      7.8378      2.4569      0.0245     11.7055   -999.2500   -999.2500
   696.2000      7.8378      2.4851      0.0431      9.9920   -999.2500   -999.2500
   696.3000      7.8316      2.5052      0.0527      8.7787   -999.2500   -999.2500
   696.4000      7.8316      2.5111      0.0563      8.4194   -999.2500   -999.2500
   696.5000      7.8074      2.5129      0.0464      8.3100   -999.2500   -999.2500
   696.6000      7.8074      2.5202      0.0479      7.8658   -999.2500   -999.2500
   696.7000      7.8074      2.5385      0.0229      6.7582   -999.2500   -999.2500
   696.8000      7.8043      2.5686      0.0917      4.9361   -999.2500   -999.2500
   696.9000      7.8043      2.5943      0.1073      3.3782   -999.2500   -999.2500
   697.0000      7.8110      2.5993      0.0926      3.0707   -999.2500   -999.2500
   697.1000      7.8110      2.5878      0.0798      3.7677   -999.2500   -999.2500
   697.2000      7.8110      2.5776      0.0627      4.3854   -999.2500   -999.2500
   697.3000      7.8128      2.5741      0.1199      4.6017   -999.2500   -999.2500
   697.4000      7.8128      2.5655      0.1129      5.1222   -999.2500   -999.2500
   697.5000      7.8339      2.5504      0.0609      6.0366   -999.2500   -999.2500
   697.6000      7.8339      2.5319      0.0679      7.1554   -999.2500   -999.2500
   697.7000      7.8339      2.5066      0.0568      8.6899   -999.2500   -999.2500
   697.8000      7.8498      2.4827      0.0140     10.1415   -999.2500   -999.2500
   697.9000      7.8498      2.4696      0.0134     10.9314   -999.2500   -999.2500
   698.0000      7.8519      2.4576      0.0232     11.6612   -999.2500   -999.2500
   698.1000      7.8519      2.4417     -0.0254     12.6229   -999.2500   -999.2500
   698.2000      7.8519      2.4367     -0.0365     12.9298   -999.2500   -999.2500
   698.3000      7.8512      2.4489      0.0250     12.1906   -999.2500   -999.2500
   698.4000      7.8512      2.4655      0.0190     11.1824   -999.2500   -999.2500
   698.5000      7.8553      2.4689      0.0504     10.9757   -999.2500   -999.2500
   698.6000      7.8553      2.4543      0.0595     11.8584   -999.2500   -999.2500
   698.7000      7.8553      2.4396      0.0334     12.7530   -999.2500   -999.2500
   698.8000      7.8333      2.4439      0.0552     12.4909   -999.2500   -999.2500
   698.9000      7.8333      2.4684      0.0491     11.0032   -999.2500   -999.2500
   699.0000      7.8048      2.4999      0.0761      9.0983   -999.2500   -999.2500
   699.1000      7.8048      2.5216      0.0882      7.7791   -999.2500   -999.2500
   699.2000      7.8048      2.5297      0.1036      7.2926   -999.2500   -999.2500
   699.3000      7.7966      2.5300      0.1149      7.2699   -999.2500   -999.2500
   699.4000      7.7966      2.5249      0.0880      7.5807   -999.2500   -999.2500
   699.5000      7.8036      2.5144      0.0462      8.2190   -999.2500   -999.2500
   699.6000      7.8036      2.5024      0.0425      8.9456   -999.2500   -999.2500
   699.7000      7.8036      2.4941      0.0264      9.4477   -999.2500   -999.2500
   699.8000      7.8351      2.4932      0.0267      9.5017   -999.2500   -999.2500
   699.9000      7.8351      2.5010      0.0202      9.0281   -999.2500   -999.2500
   700.0000      7.8402      2.5166      0.0266      8.0819   -999.2500   -999.2500
   700.1000      7.8402      2.5290      0.0601      7.3336   -999.2500   -999.2500
   700.2000      7.8402      2.5245      0.0423      7.6069   -999.2500   -999.2500
   700.3000      7.8427      2.5105      0.0202      8.4569   -999.2500   -999.2500
