~Version Information
VERS.                      2.0: CWLS Log ASCII Standard - VERSION 2.0
WRAP.                       NO: One line per depth step
~Well Information Block
STRT.FT               650.0000: 
STOP.FT              2053.7000: 
STEP.FT                 0.1000: 
NULL.                -999.2500: 
COMP.          Pioneer Natural Resources: COMPANY
WELL.           Alabaster 11-8: WELL
FLD.           Purgatoire River: FIELD
LOC.           1249' FNL & 215' FWL--: LOCATION
PROV.                 Colorado: PROVINCE
CNTY.               Las Animas: COUNTRY
SRVC.                Patterson: SERVICE COMPANY
DATE.          Thu Jan 19 09:16:54 2006: LOG DATE
UWI.           05 071 08642 00: UNIQUE WELL ID
~Curve Information Block
DEPT.FT            0 000 00 00: Depth
DCAL.in                       : CDL Caliper
RHOB.g/cc                     : CDL Bulk Density
RHOC.g/cc                     : CDL Density Correction
DPOR.pu                       : CDL Density Porosity
NPOR.pu                       : Neutron Porosity
GR.GAPI                       : Gamma Ray
~Parameter Information Block
~A  Depth       DCAL        RHOB        RHOC        DPOR        NPOR         GR     
# ...
   746.0000      8.0788      2.5651      0.0762      5.1439     21.2748     83.6283
   746.1000      8.0788      2.5492      0.0482      6.1116     21.2717     84.0808
   746.2000      8.0788      2.5227      0.0560      7.7150     20.9851     82.8207
   746.3000      8.0806      2.4767      0.0391     10.5022     20.8583     82.4587
   746.4000      8.0806      2.4045     -0.0002     14.8774     20.9318     86.3515
   746.5000      8.0808      2.3192     -0.0276     20.0506     20.6078     94.5413
   746.6000      8.0808      2.2431     -0.0740     24.6628     19.8900    104.9165
   746.7000      8.0808      2.1919     -0.0705     27.7653     19.0077    113.7900
   746.8000      8.0795      2.1596     -0.0465     29.7213     17.8013    117.6644
   746.9000      8.0795      2.1181     -0.0075     32.2371     16.2377    114.5450
   747.0000      8.0770      2.0654     -0.1137     35.4277     14.5329    104.8107
   747.1000      8.0770      2.0450     -0.0566     36.6666     12.9282     93.7962
   747.2000      8.0770      2.0819      0.0001     34.4300     11.2438     84.8903
   747.3000      8.0758      2.1618      0.0788     29.5881      9.5148     77.8896
   747.4000      8.0758      2.2682      0.1407     23.1419      8.4143     74.3515
   747.5000      8.0781      2.3870      0.2231     15.9411      8.1813     73.1389
   747.6000      8.0781      2.4899      0.2680      9.7035      8.4121     70.4273
   747.7000      8.0781      2.5541      0.2375      5.8151      8.8341     65.8032
   747.8000      8.0817      2.5877      0.2211      3.7730      9.5827     61.2967
   747.9000      8.0817      2.6215      0.1806      1.7262     10.9285     58.5074
   748.0000      8.0861      2.6726      0.1769     -1.3696     12.9761     58.1249
   748.1000      8.0861      2.7185      0.1761     -4.1530     15.5457     58.7832
   748.2000      8.0861      2.7386      0.0969     -5.3680     18.3979     59.3563
   748.3000      8.0897      2.7452      0.1175     -5.7722     21.1519     60.6046
   748.4000      8.0897      2.7468      0.0727     -5.8653     23.6264     62.0909
   748.5000      8.0949      2.7377      0.0679     -5.3157     26.0972     62.1199
   748.6000      8.0949      2.7203      0.0258     -4.2596     28.5109     60.3196
   748.7000      8.0949      2.7108     -0.0083     -3.6831     30.4173     57.7641
   748.8000      8.0979      2.7226     -0.0208     -4.4017     31.7952     55.5125
   748.9000      8.0979      2.7523      0.0336     -6.2020     32.9685     54.9754
   749.0000      8.0955      2.7785      0.0685     -7.7899     34.1280     58.5652
   749.1000      8.0955      2.7816      0.0496     -7.9743     35.0796     66.2002
   749.2000      8.0955      2.7643      0.0231     -6.9261     35.4390     74.1977
   749.3000      8.0947      2.7407      0.0277     -5.4954     35.2005     77.5337
   749.4000      8.0947      2.7237     -0.0354     -4.4660     34.5094     74.9281
   749.5000      8.0967      2.7227     -0.0186     -4.4070     33.3294     71.6728
   749.6000      8.0967      2.7262      0.0539     -4.6198     31.8594     70.5878
   749.7000      8.0967      2.7138      0.0215     -3.8684     30.6355     66.9741
   749.8000      8.0963      2.6955     -0.0428     -2.7579     30.1414     60.4423
   749.9000      8.0963      2.6919     -0.0247     -2.5391     30.5467     55.7037
   750.0000      8.0938      2.6996      0.0090     -3.0047     31.4332     54.3293
   750.1000      8.0938      2.7110     -0.0313     -3.6986     31.8804     55.2303
   750.2000      8.0938      2.7273      0.0064     -4.6835     31.4276     55.4685
   750.3000      8.0945      2.7383      0.0212     -5.3488     30.7148     55.3390
   750.4000      8.0945      2.7337     -0.0321     -5.0720     30.2871     58.8051
   750.5000      8.0978      2.7232     -0.0305     -4.4344     30.2203     65.5206
   750.6000      8.0978      2.7193     -0.0039     -4.2006     30.7342     70.7141
   750.7000      8.0978      2.7260     -0.0177     -4.6057     31.4122     72.1713
   750.8000      8.0993      2.7409      0.0237     -5.5082     31.6011     72.2204
   750.9000      8.0993      2.7530      0.0289     -6.2401     31.5443     72.0992
   751.0000      8.0982      2.7506      0.0039     -6.0974     31.5883     71.2226
   751.1000      8.0982      2.7320      0.0239     -4.9702     31.7004     70.9316
   751.2000      8.0982      2.7106     -0.0333     -3.6720     31.9983     72.3922
   751.3000      8.0983      2.6994      0.0115     -2.9926     32.5014     73.2685
   751.4000      8.0983      2.6934     -0.0126     -2.6285     32.7227     72.0460
   751.5000      8.1031      2.6957     -0.0502     -2.7687     32.2778     69.6077
   751.6000      8.1031      2.7168      0.0094     -4.0475     31.5517     66.6811
   751.7000      8.1031      2.7429      0.0304     -5.6291     31.3879     64.3030
   751.8000      8.1098      2.7463      0.0727     -5.8372     31.6915     63.6634
   751.9000      8.1098      2.7248      0.0256     -4.5327     31.7811     64.2757
   752.0000      8.1118      2.7104      0.0047     -3.6625     31.8288     63.4940
   752.1000      8.1118      2.7130      0.1144     -3.8182     32.3473     60.4324
   752.2000      8.1118      2.7152      0.0574     -3.9489     33.1395     58.0188
   752.3000      8.1119      2.7204      0.0500     -4.2668     33.6418     58.4471
   752.4000      8.1119      2.7290      0.1435     -4.7905     33.7118     62.8594
   752.5000      8.1139      2.7323      0.0738     -4.9892     33.5205     70.1800
   752.6000      8.1139      2.7371      0.0801     -5.2786     33.4976     75.1652
   752.7000      8.1139      2.7436      0.0763     -5.6737     33.9025     74.7453
   752.8000      8.1149      2.7482      0.0658     -5.9539     34.3926     70.4650
   752.9000      8.1149      2.7563      0.0664     -6.4427     34.9272     65.4470
   753.0000      8.1143      2.7647      0.0936     -6.9486     35.7073     63.6457
   753.1000      8.1143      2.7569      0.1113     -6.4765     36.5547     67.0841
   753.2000      8.1143      2.7271      0.1025     -4.6744     36.9375     73.1033
   753.3000      8.1136      2.6903      0.0378     -2.4397     36.7081     77.2738
   753.4000      8.1136      2.6581      0.0228     -0.4883     36.5031     77.7083
   753.5000      8.1133      2.6265      0.0413      1.4265     36.2887     77.3385
   753.6000      8.1133      2.5913      0.0073      3.5587     35.1886     80.6572
   753.7000      8.1133      2.5600      0.0250      5.4526     33.1493     87.6805
   753.8000      8.1170      2.5439      0.0031      6.4291     31.1122     95.7425
   753.9000      8.1170      2.5398      0.0266      6.6799     29.7662    102.6945
   754.0000      8.1374      2.5353     -0.0136      6.9543     28.7814    108.1414
   754.1000      8.1374      2.5292      0.0482      7.3194     27.7173    113.8166
   754.2000      8.1374      2.5247      0.0378      7.5929     27.0979    121.4150
   754.3000      8.1706      2.5201      0.0266      7.8713     27.3302    127.6169
   754.4000      8.1706      2.5141     -0.0073      8.2363     27.7464    128.1117
   754.5000      8.1894      2.5040      0.0810      8.8500     27.6682    123.3676
   754.6000      8.1894      2.4867      0.0400      9.8968     27.3341    118.0489
   754.7000      8.1894      2.4717      0.0540     10.8052     27.2338    118.0132
   754.8000      8.1932      2.4690      0.1115     10.9716     27.0510    123.3609
   754.9000      8.1932      2.4755      0.0868     10.5754     26.4408    130.9386
   755.0000      8.1936      2.4900      0.0702      9.6971     25.7584    136.8389
   755.1000      8.1936      2.5126      0.1320      8.3270     25.4853    136.3968
   755.2000      8.1936      2.5291      0.1986      7.3258     25.6314    131.6755
   755.3000      8.1935      2.5271      0.1385      7.4494     25.7396    128.1537
   755.4000      8.1935      2.5194      0.1052      7.9121     25.7439    125.2195
   755.5000      8.1938      2.5288      0.0802      7.3462     25.8078    124.0241
