~Version Information
VERS.                      2.0: CWLS Log ASCII Standard - VERSION 2.0
WRAP.                       NO: One line per depth step
~Well Information Block
STRT.FT                 6.0000: 
STOP.FT              1577.7500: 
STEP.FT                 0.2500: 
NULL.                -999.2500: 
COMP.          Pioneer Natural Resources: COMPANY
WELL.           Kermit 32-7 Tr: WELL
FLD.           Purgatoire River: FIELD
LOC.           2009' FNL & 2196' FEL: LOCATION
PROV.                 Colorado: PROVINCE
CNTY.               Las Animas: COUNTRY
SRVC.                Patterson: SERVICE COMPANY
DATE.          Wed Jan 18 14:19:39 2006: LOG DATE
UWI.           05 071 08664 00: UNIQUE WELL ID
~Curve Information Block
DEPT.FT            0 000 00 00: Depth
GR.GAPI                       : Gamma Ray
CCL.                          : Casing Collar Locator
TT3.usec                      : CBL 3' Travel Time
AMP3.mV                       : CBL 3' Amplitude
~Parameter Information Block
~A  Depth        GR         CCL         TT3         AMP3    
# ...
   609.0000     92.8937      0.0000    763.9962     10.9945
   609.2500     91.6456      0.0000    764.2161     10.9193
   609.5000     88.9770      0.0000    764.5118     10.8564
   609.7500     85.5958      0.0000    764.8340     10.8052
   610.0000     82.4450      0.0000    765.1546     10.7658
   610.2500     80.0202      0.0000    765.4388     10.7396
   610.5000     78.3232      0.0000    765.6133     10.7268
   610.7500     77.2991      0.0000    765.6113     10.7240
   611.0000     77.1075      0.0000    765.4403     10.7270
   611.2500     78.0390      0.0000    765.1767     10.7343
   611.5000     80.2699      0.0000    764.9120     10.7427
   611.7500     83.5558      0.0000    764.7264     10.7417
   612.0000     87.1211      0.0000    764.6666     10.7195
   612.2500     90.0335      0.0000    764.6921     10.6742
   612.5000     91.7290      0.0000    764.6295     10.6163
   612.7500     92.1392      0.0000    764.1345     10.5597
   613.0000     91.5374      0.0000    762.5587     10.5126
   613.2500     90.3962      0.0000    758.8129     10.4768
   613.5000     89.1208      0.0000    751.7370     10.4540
   613.7500     87.6943      0.0000    741.3387     10.4498
   614.0000     85.6778      0.0000    730.0961     10.4708
   614.2500     82.6823      0.0000    722.5198     10.5202
   614.5000     78.8830      0.0000    722.3890     10.5973
   614.7500     75.0938      0.0000    729.8434     10.6992
   615.0000     72.3690      0.0000    741.2590     10.8210
   615.2500     71.4449      0.0000    752.0534     10.9533
   615.5000     72.3245      0.0000    759.5846     11.0845
   615.7500     74.2844      0.0000    763.7702     11.2080
   616.0000     76.4230      0.0000    765.8143     11.3298
   616.2500     78.3570      0.0000    766.8514     11.4651
   616.5000     80.3790      0.0000    767.4622     11.6222
   616.7500     82.9478      0.0000    767.8940     11.7856
   617.0000     86.0965      0.0000    768.4841     11.9188
   617.2500     89.3217      0.0000    769.9323     11.9882
   617.5000     91.9298      0.0000    773.0494     11.9858
   617.7500     93.5016      0.0000    777.8278     11.9274
   618.0000     94.1433      0.0000    782.5999     11.8310
   618.2500     94.3030      0.0000    784.7466     11.7037
   618.5000     94.3443      0.0000    782.9404     11.5475
   618.7500     94.3937      0.0000    778.4505     11.3693
   619.0000     94.4101      0.0000    773.8265     11.1848
   619.2500     94.0106      0.0000    770.7039     11.0139
   619.5000     92.3082      0.0000    769.1560     10.8733
   619.7500     88.5289      0.0000    768.5137     10.7681
   620.0000     83.2550      0.0000    768.1945     10.6913
   620.2500     78.7744      0.0000    767.9348     10.6333
   620.5000     77.4755      0.0000    767.6915     10.5909
   620.7500     79.7558      0.0000    767.5090     10.5654
   621.0000     83.8197      0.0000    767.4191     10.5524
   621.2500     87.3299      0.0000    767.4161     10.5406
   621.5000     88.8218      0.0000    767.4732     10.5208
   621.7500     87.9716      0.0000    767.5679     10.4958
   622.0000     85.4021      0.0000    767.6820     10.4768
   622.2500     82.3087      0.0000    767.7954     10.4707
   622.5000     79.7337      0.0000    767.8952     10.4713
   622.7500     78.0905      0.0000    767.9854     10.4655
   623.0000     77.4325      0.0000    768.0799     10.4511
   623.2500     77.6938      0.0000    768.1921     10.4419
   623.5000     78.3226      0.0000    768.3263     10.4523
   623.7500     78.2337      0.0000    768.4590     10.4781
   624.0000     76.7679      0.0000    768.5245     10.4974
   624.2500     74.5592      0.0000    768.4418     10.4906
   624.5000     72.9912      0.0000    768.1807     10.4563
   624.7500     72.8316      0.0000    767.7949     10.4116
   625.0000     73.6154      0.0000    767.3730     10.3771
   625.2500     74.2028      0.0000    766.8905     10.3636
   625.5000     73.7590      0.0000    765.9881     10.3690
   625.7500     72.3201      0.0000    763.7677     10.3870
   626.0000     70.5704      0.0000    758.8903     10.4155
   626.2500     69.1390      0.0000    750.4396     10.4549
   626.5000     68.2483      0.0000    739.2285     10.4998
   626.7500     68.1350      0.0000    727.8986     10.5376
   627.0000     69.4799      0.0000    718.9390     10.5586
   627.2500     72.9126      0.0000    712.7354     10.5650
   627.5000     77.9742      0.0000    708.0394     10.5670
   627.7500     82.8824      0.0000    703.7471     10.5711
   628.0000     85.6003      0.0000    699.6033     10.5780
   628.2500     85.2290      0.0000    696.0155     10.5874
   628.5000     82.3744      0.0000    693.6751     10.6013
   628.7500     78.3108      0.0000    692.4496     10.6201
   629.0000     73.9985      0.0000    690.2472     10.6381
   629.2500     69.8777      0.0000    684.1609     10.6423
   629.5000     66.2995      0.0000    673.9478     10.6182
   629.7500     63.8883      0.0000    664.1523     10.5649
   630.0000     63.4346      0.0000    661.4027     10.5055
   630.2500     65.3737      0.0000    668.4386     10.4780
   630.5000     69.2682      0.0000    681.1406     10.5058
   630.7500     73.8535      0.0000    692.2837     10.5789
   631.0000     77.6412      0.0000    697.6707     10.6650
   631.2500     79.5037      0.0000    698.2742     10.7360
   631.5000     78.9850      0.0000    698.6274     10.7846
   631.7500     76.4377      0.0000    704.0893     10.8230
   632.0000     72.8272      0.0000    716.9812     10.8748
   632.2500     69.2718      0.0000    734.1277     10.9649
   632.5000     66.7146      0.0000    749.6014     11.1088
   632.7500     65.7849      0.0000    759.8192     11.3082
   633.0000     66.6475      0.0000    765.0476     11.5525
   633.2500     68.9883      0.0000    767.2178     11.8175
   633.5000     72.2482      0.0000    767.8802     12.0600
   633.7500     75.7798      0.0000    767.8496     12.2278
   634.0000     78.8707      0.0000    767.4953     12.2926
   634.2500     80.9467      0.0000    766.8052     12.2624
   634.5000     81.7172      0.0000    765.1677     12.1479
   634.7500     80.9911      0.0000    761.1367     11.9094
   635.0000     78.7501      0.0000    752.9612     11.4693
   635.2500     75.7144      0.0000    740.5098     10.8076
   635.5000     73.3358      0.0000    727.8867     10.0295
   635.7500     72.6645      0.0000    723.5239      9.2844
   636.0000     73.3673      0.0000    734.8810      8.6359
   636.2500     74.1440      0.0000    761.0345      8.0830
   636.5000     73.9054      0.0000    791.7693      7.6707
   636.7500     72.3756      0.0000    815.2007      7.4742
   637.0000     69.9237      0.0000    824.3159      7.4897
   637.2500     67.3464      0.0000    815.4658      7.6263
   637.5000     65.7383      3.0000    785.2998      7.8092
   637.7500     65.9847      0.0000    733.6121      8.0736
   638.0000     68.0571      0.0000    668.3580      8.5786
   638.2500     70.9858      0.0000    605.5766      9.5222
   638.5000     73.6448      0.0000    562.9509     10.9669
   638.7500     75.4085      0.0000    550.1365     12.7048
   639.0000     76.0805      0.0000    561.5560     14.3329
   639.2500     75.5654      0.0000    579.1898     15.4954
   639.5000     73.9507      0.0000    587.4066     16.0623
   639.7500     71.8178      0.0000    587.5840     16.1195
   640.0000     69.9928      0.0000    595.7495     15.8483
   640.2500     68.6965      0.0000    624.3534     15.4144
   640.5000     67.2218      0.0000    668.8272     14.9206
   640.7500     64.7747      0.0000    712.9542     14.4113
   641.0000     61.4832      0.0000    743.9152     13.8974
   641.2500     58.3201      0.0000    759.7772     13.3833
   641.5000     56.1726      0.0000    765.6667     12.8838
   641.7500     55.2070      0.0000    767.1523     12.4268
   642.0000     54.9629      0.0000    767.3730     12.0374
   642.2500     54.8098      0.0000    767.4680     11.7251
