~Version Information
VERS.                      2.0: CWLS Log ASCII Standard - VERSION 2.0
WRAP.                       NO: One line per depth step
~Well Information Block
STRT.FT                 0.0000: 
STOP.FT               988.7500: 
STEP.FT                 0.2500: 
NULL.                -999.2500: 
COMP.          Pioneer Natural Resources: COMPANY
WELL.             Quartz 13-22: WELL
FLD.           Purgatoire River: FIELD
LOC.           1933' FSL & 675' FWL --------: LOCATION
PROV.                 Colorado: PROVINCE
CNTY.               Las Animas: COUNTRY
SRVC.                         : SERVICE COMPANY
DATE.          Thu Dec 22 09:29:32 2005: LOG DATE
UWI.                          : UNIQUE WELL ID
~Curve Information Block
DEPT.FT            0 000 00 00: Depth
CCL.                          : Casing Collar Locator
TT3.usec                      : CBL 3' Travel Time
AMP3.mV                       : CBL 3' Amplitude
AMP5.mV                       : CBL 5' Amplitude
GR.GAPI                       : Gamma Ray
~Parameter Information Block
~A  Depth       CCL         TT3         AMP3        AMP5         GR     
# ...
   644.0000      0.0000    677.5346      7.7888      1.6431    148.5193
   644.2500      0.0000    677.6031      7.6895      1.5115    153.0318
   644.5000      0.0000    677.6838      7.6304      1.4041    155.7253
   644.7500      0.0000    677.7616      7.6504      1.3486    157.1371
   645.0000      0.0000    677.7928      7.7534      1.3290    158.0448
   645.2500      0.0000    677.7998      7.9081      1.3033    158.7326
   645.5000      0.0000    678.0018      8.0685      1.2527    158.9362
   645.7500      0.0000    678.9340      8.1931      1.2022    158.2665
   646.0000      0.0000    681.4261      8.2507      1.1956    156.8407
   646.2500      0.0000    686.2163      8.2232      1.2524    155.6281
   646.5000      0.0000    693.2334      8.1112      1.3490    155.8082
   646.7500      0.0000    701.2101      7.9422      1.4351    157.4537
   647.0000      0.0000    708.2630      7.7675      1.4732    159.0950
   647.2500      0.0000    713.0108      7.6414      1.4631    158.8326
   647.5000      0.0000    715.1121      7.5916      1.4309    155.6452
   647.7500      0.0000    714.9680      7.6081      1.4043    149.6844
   648.0000      0.0000    713.3554      7.6608      1.3972    142.0965
   648.2500      0.0000    711.3344      7.7255      1.4027    134.7148
   648.5000      0.0000    709.8926      7.7897      1.3981    129.1307
   648.7500      0.0000    709.0587      7.8419      1.3703    125.6472
   649.0000      0.0000    707.4911      7.8680      1.3404    123.3790
   649.2500      0.0000    703.4680      7.8613      1.3502    121.2751
   649.5000      0.0000    696.4772      7.8297      1.4188    118.8286
   649.7500      0.0000    687.6060      7.7878      1.5207    116.0935
   650.0000      0.0000    678.1367      7.7447      1.6077    113.3681
   650.2500      0.0000    667.1122      7.7047      1.6501    110.7968
   650.5000      0.0000    649.4741      7.6792      1.6551    108.2156
   650.7500      0.0000    618.0076      7.6923      1.6482    105.3814
   651.0000      0.0000    570.6564      7.7675      1.6441    102.1992
   651.2500      0.0000    517.1234      7.9068      1.6419     98.8150
   651.5000      0.0000    474.7967      8.0825      1.6436     95.7163
   651.7500      0.0000    454.7972      8.2504      1.6586     93.5427
   652.0000      0.0000    452.1212      8.3725      1.6885     92.4437
   652.2500      0.0000    450.9706      8.4322      1.7216     91.7749
   652.5000      0.0000    439.7623      8.4357      1.7490     90.8410
   652.7500      0.0000    419.9941      8.4109      1.7744     89.8492
   653.0000      0.0000    402.0340      8.4028      1.7991     89.6667
   653.2500      0.0000    396.7169      8.4527      1.8049     90.6739
   653.5000      0.0000    411.9419      8.5688      1.7679     92.2563
   653.7500      0.0000    451.6956      8.7121      1.6891     93.3655
   654.0000      0.0000    512.5715      8.8168      1.6017     93.1623
   654.2500      0.0000    581.6307      8.8334      1.5454     91.1421
   654.5000      0.0000    641.9731      8.7616      1.5339     87.2609
   654.7500      0.0000    682.6301      8.6454      1.5390     82.3127
   655.0000      0.0000    702.7446      8.5344      1.5093     77.9504
   655.2500      0.0000    707.4511      8.4532      1.4176     75.8832
   655.5000      0.0000    702.2383      8.4099      1.2958     76.7316
   655.7500      0.0000    691.5925      8.4187      1.2144     79.5266
   656.0000      0.0000    680.2740      8.4934      1.2253     82.4083
   656.2500      0.0000    673.0353      8.6172      1.3276     83.9671
   656.5000      0.0000    672.4296      8.7353      1.4756     84.0689
   656.7500      0.0000    677.7561      8.7857      1.6090     83.4668
   657.0000      0.0000    686.2661      8.7345      1.6820     82.7737
   657.2500      0.0000    694.7098      8.5863      1.6872     82.0638
   657.5000      0.0000    700.1165      8.3656      1.6536     81.4354
   657.7500      0.0000    701.0212      8.0930      1.6116     81.5165
   658.0000      0.0000    699.1299      7.7669      1.5638     83.0562
   658.2500      0.0000    699.1475      7.3647      1.5009     86.0425
   658.5000      0.0000    705.7506      6.8794      1.4329     89.2877
   658.7500      0.0000    720.0866      6.3792      1.3843     90.8669
   659.0000      0.0000    738.8177      6.0132      1.3632     89.2876
   659.2500      0.0000    756.2759      5.9068      1.3566     84.6325
   659.5000      0.0000    767.9200      6.0428      1.3543     78.5907
   659.7500      0.0000    772.6943      6.2790      1.3565     73.2801
   660.0000     -2.0000    772.6187      6.4812      1.3540     70.0016
   660.2500      0.0000    770.1240      6.6153      1.3281     68.8624
   660.5000      0.0000    765.4118      6.7367      1.2719     69.2837
   660.7500      0.0000    755.5443      6.9314      1.2008     70.7350
   661.0000      0.0000    736.5536      7.2464      1.1401     73.0362
   661.2500      0.0000    708.6320      7.6256      1.1094     76.2150
   661.5000      0.0000    680.1299      7.9245      1.1138     80.3242
   661.7500      0.0000    663.7628      8.0339      1.1416     85.1675
   662.0000      0.0000    666.1260      7.9805      1.1755     89.8102
   662.2500      0.0000    681.8812      7.8799      1.2059     92.5048
   662.5000      0.0000    699.3896      7.8149      1.2353     91.6502
   662.7500      0.0000    709.9931      7.7850      1.2716     87.1609
   663.0000      0.0000    710.9654      7.7455      1.3127     80.8451
   663.2500      0.0000    703.1552      7.6625      1.3374     75.2762
   663.5000      0.0000    689.3597      7.5348      1.3259     72.2547
   663.7500      0.0000    674.3082      7.3871      1.2954     72.1899
   664.0000      0.0000    663.1016      7.2510      1.2941     74.4295
   664.2500      0.0000    658.0497      7.1449      1.3473     77.7543
   664.5000      0.0000    657.6349      7.0661      1.4232     80.8460
   664.7500      0.0000    658.9509      6.9956      1.4689     82.9721
   665.0000      0.0000    660.6813      6.9117      1.4730     84.4159
   665.2500      0.0000    663.6286      6.8035      1.4726     85.9183
   665.5000      0.0000    669.2386      6.6743      1.4974     87.6228
   665.7500      0.0000    677.9852      6.5339      1.5211     88.7573
   666.0000      0.0000    688.4609      6.3874      1.4858     88.2614
   666.2500      0.0000    697.5201      6.2349      1.3746     85.6365
   666.5000      0.0000    701.8967      6.0801      1.2450     81.5943
   666.7500      0.0000    700.4338      5.9357      1.1805     78.0000
   667.0000      0.0000    694.8136      5.8134      1.2098     76.4762
   667.2500      0.0000    688.0228      5.7124      1.2846     76.6288
   667.5000      0.0000    682.1390      5.6192      1.3369     76.0322
   667.7500      0.0000    677.5193      5.5182      1.3439     72.3190
   668.0000      0.0000    673.6956      5.4028      1.3275     65.1891
   668.2500      0.0000    670.6223      5.2820      1.3102     56.4365
   668.5000      0.0000    668.8978      5.1782      1.2917     48.3538
   668.7500      0.0000    668.9229      5.1184      1.2626     42.2082
   669.0000      0.0000    670.2832      5.1215      1.2242     37.9846
   669.2500      0.0000    672.2288      5.1887      1.1963     35.2147
   669.5000      0.0000    674.6102      5.3007      1.2071     33.6834
   669.7500      0.0000    678.1616      5.4298      1.2598     33.3143
   670.0000      0.0000    683.8432      5.5573      1.3138     33.7724
   670.2500      0.0000    691.7906      5.6799      1.3184     34.5923
   670.5000      0.0000    700.7880      5.8043      1.2674     35.7104
   670.7500      0.0000    708.9053      5.9394      1.2064     37.5752
   671.0000      0.0000    714.7843      6.0915      1.1880     40.5853
   671.2500      0.0000    718.3059      6.2629      1.2267     44.6438
   671.5000      0.0000    720.1842      6.4502      1.2948     49.3973
   671.7500      0.0000    721.2144      6.6351      1.3521     54.5567
