~Version Information
VERS.                      2.0: CWLS Log ASCII Standard - VERSION 2.0
WRAP.                       NO: One line per depth step
~Well Information Block
STRT.FT                -7.2500: 
STOP.FT              1334.7500: 
STEP.FT                 0.2500: 
NULL.                -999.2500: 
COMP.          Pioneer Natural Resources: COMPANY
WELL.          Buffet 41-36 Tr: WELL
FLD.           Purgatorie River: FIELD
LOC.           119' FNL & 271' FEL--: LOCATION
PROV.                       CO: PROVINCE
CNTY.               Las Animas: COUNTRY
SRVC.          Patterson Wireline: SERVICE COMPANY
DATE.          Tue Jan 03 09:43:31 2006: LOG DATE
UWI.           05 071 08627 00: UNIQUE WELL ID
~Curve Information Block
DEPT.FT            0 000 00 00: Depth
CCL.                          : Casing Collar Locator
TT3.usec                      : CBL 3' Travel Time
AMP3.mV                       : CBL 3' Amplitude
GR.GAPI                       : Gamma Ray
~Parameter Information Block
~A  Depth       CCL         TT3         AMP3         GR     
# ...
    93.2500      0.0000    705.3334     10.8184     55.9230
    93.5000      0.0000    718.5629     10.8051     52.7379
    93.7500      0.0000    729.2527     10.9340     49.3347
    94.0000      0.0000    732.9087     11.1653     46.0380
    94.2500      0.0000    725.9061     11.4496     43.0079
    94.5000      0.0000    706.8693     11.7557     40.4932
    94.7500      0.0000    675.1716     12.0648     38.9408
    95.0000      0.0000    630.8759     12.3581     38.5445
    95.2500      0.0000    578.6962     12.6113     39.0212
    95.5000      0.0000    529.9022     12.7959     40.0583
    95.7500      0.0000    496.6757     12.8952     41.7028
    96.0000      0.0000    485.5787     12.9186     44.0830
    96.2500      0.0000    498.4393     12.8906     46.9820
    96.5000      0.0000    534.7397     12.8227     50.0821
    96.7500      0.0000    588.2925     12.7117     53.5843
    97.0000      0.0000    645.5607     12.5664     58.1176
    97.2500      0.0000    692.4589     12.4171     63.7370
    97.5000      0.0000    721.9028     12.2927     69.2524
    97.7500      0.0000    734.2579     12.2049     72.8609
    98.0000      0.0000    734.3448     12.1582     73.3042
    98.2500      0.0000    730.0025     12.1591     70.4048
    98.5000      0.0000    730.3912     12.2003     65.1574
    98.7500      0.0000    741.8590     12.2439     59.5853
    99.0000      0.0000    763.6925     12.2340     55.7585
    99.2500      0.0000    787.1035     12.1323     54.3100
    99.5000      0.0000    799.3059     11.9397     54.1128
    99.7500      0.0000    791.9096     11.6923     53.7308
   100.0000      0.0000    767.8139     11.4405     53.1065
   100.2500      0.0000    739.5806     11.2265     53.7436
   100.5000      0.0000    720.7381     11.0747     57.3585
   100.7500      0.0000    719.0917     10.9980     64.2208
   101.0000      0.0000    735.8226     10.9997     72.6066
   101.2500      0.0000    766.1317     11.0583     80.0790
   101.5000      0.0000    799.7189     11.1215     85.6322
   101.7500      0.0000    824.7888     11.1367     90.3678
   102.0000      0.0000    834.8015     11.0886     95.6884
   102.2500      0.0000    830.6304     10.9954    101.1134
   102.5000      0.0000    816.3779     10.8730    104.6742
   102.7500      0.0000    796.6898     10.7252    105.6154
   103.0000      0.0000    778.9607     10.5766    105.7655
   103.2500      0.0000    772.7750     10.4932    107.4002
   103.5000      0.0000    781.9293     10.5501    110.2302
   103.7500      0.0000    797.9651     10.7712    111.6359
   104.0000      0.0000    805.7765     11.1030    109.9045
   104.2500      0.0000    797.6848     11.4456    106.1913
   104.5000      0.0000    781.1802     11.7148    103.0113
   104.7500      0.0000    771.7669     11.8808    101.6718
   105.0000      0.0000    778.4820     11.9592    101.8515
   105.2500      0.0000    796.4479     11.9816    103.0821
   105.5000      0.0000    812.1317     11.9822    105.3953
   105.7500      0.0000    814.5646     12.0043    108.1141
   106.0000      0.0000    802.3765     12.0897    109.0085
   106.2500      0.0000    782.5019     12.2413    105.6578
   106.5000      0.0000    764.0941     12.4042     97.5268
   106.7500      0.0000    753.9266     12.5018     86.3110
   107.0000      0.0000    755.3744     12.4950     74.6741
   107.2500      0.0000    768.0767     12.4020     65.0780
   107.5000      0.0000    787.2521     12.2691     59.1056
   107.7500      0.0000    805.4252     12.1350     56.8107
   108.0000      0.0000    816.1297     12.0169     56.6063
   108.2500      0.0000    815.6729     11.9115     56.5631
   108.5000      0.0000    802.8001     11.7999     56.1551
   108.7500      0.0000    779.3593     11.6570     56.3498
   109.0000      0.0000    751.3196     11.4673     57.9957
   109.2500      0.0000    726.7313     11.2374     60.6896
   109.5000      0.0000    711.5145     10.9963     63.2464
   109.7500      0.0000    707.1876     10.7801     64.5677
   110.0000      0.0000    711.5952     10.6124     63.9960
   110.2500      0.0000    720.7255     10.4960     61.6029
   110.5000      0.0000    730.9345     10.4222     58.4597
   110.7500      0.0000    740.8201     10.3821     56.1488
   111.0000      0.0000    750.4719     10.3670     55.5596
   111.2500      0.0000    758.7813     10.3614     56.1578
   111.5000      0.0000    763.1722     10.3487     56.6199
   111.7500      0.0000    762.0828     10.3282     56.2161
   112.0000      0.0000    755.8452     10.3229     55.3615
   112.2500      0.0000    745.5143     10.3662     54.8315
   112.5000      0.0000    732.7946     10.4820     54.8164
   112.7500      0.0000    720.6625     10.6677     54.9359
   113.0000      0.0000    712.3214     10.8863     55.0266
   113.2500      0.0000    709.6251     11.0790     55.5752
   113.5000      0.0000    712.9883     11.2029     57.1268
   113.7500      0.0000    721.6565     11.2608     59.4156
   114.0000      0.0000    733.2989     11.2913     61.4628
   114.2500      0.0000    744.6214     11.3333     62.4852
   114.5000      0.0000    753.4350     11.4046     62.3468
   114.7500      0.0000    759.3482     11.5049     61.1341
   115.0000      0.0000    762.5049     11.6220     58.8178
   115.2500      0.0000    763.3708     11.7276     55.5834
   115.5000      0.0000    763.5189     11.7764     52.1311
   115.7500      0.0000    764.1072     11.7313     49.3397
   116.0000      0.0000    763.5636     11.6030     47.8671
   116.2500      0.0000    759.2555     11.4583     48.1818
   116.5000      0.0000    751.3516     11.3722     50.5571
   116.7500      0.0000    742.7052     11.3708     54.6216
   117.0000      0.0000    735.2600     11.4302     59.0156
   117.2500      0.0000    728.7498     11.5192     61.9062
   117.5000      0.0000    722.3144     11.6239     62.3726
   117.7500      0.0000    715.5549     11.7400     61.4072
   118.0000      0.0000    708.6484     11.8579     61.1347
   118.2500      0.0000    702.6804     11.9594     62.7933
   118.5000      0.0000    699.5697     12.0267     65.6926
   118.7500      0.0000    701.1720     12.0599     68.2211
   119.0000      0.0000    708.2076     12.0851     69.4853
   119.2500      0.0000    719.2526     12.1401     69.6411
   119.5000      0.0000    730.4205     12.2456     69.0097
   119.7500      0.0000    737.0297     12.3811     67.5091
   120.0000      0.0000    736.7144     12.4760     65.0428
   120.2500      0.0000    730.7957     12.4287     61.9200
   120.5000      0.0000    722.0814     12.1732     58.6020
   120.7500      0.0000    711.8976     11.7664     55.2695
   121.0000      0.0000    700.5621     11.3907     51.9942
   121.2500      0.0000    690.7440     11.2094     49.3049
   121.5000      0.0000    688.2207     11.2147     48.1087
   121.7500      0.0000    697.3948     11.2687     48.6338
   122.0000      0.0000    716.6205     11.2812     49.7201
   122.2500      0.0000    739.4138     11.2837     49.7122
   122.5000      0.0000    759.8189     11.3385     48.0846
   122.7500      2.0000    774.1759     11.4471     45.8578
   123.0000      0.0000    778.1285     11.5634     44.3923
   123.2500      0.0000    766.1075     11.6796     44.1350
   123.5000      0.0000    736.4411     11.8774     44.6549
   123.7500      0.0000    695.6395     12.2583     45.5063
   124.0000      0.0000    655.9476     12.7963     46.7980
   124.2500      0.0000    626.6553     13.3074     49.0441
   124.5000      0.0000    605.2346     13.6341     52.5248
   124.7500      0.0000    578.1514     13.8103     56.7297
   125.0000      0.0000    534.5392     13.9755     60.6061
   125.2500      0.0000    479.5792     14.1858     63.5021
   125.5000      0.0000    432.4238     14.3819     65.6285
   125.7500      0.0000    411.6805     14.4985     67.4220
   126.0000      0.0000    422.7780     14.5438     68.8682
   126.2500      0.0000    454.8275     14.5870     69.8655
   126.5000      0.0000    488.0396     14.7008     70.9489
