~Version Information
VERS.                      2.0: CWLS Log ASCII Standard - VERSION 2.0
WRAP.                       NO: One line per depth step
~Well Information Block
STRT.FT                -7.5000: 
STOP.FT              2228.7500: 
STEP.FT                 0.2500: 
NULL.                -999.2500: 
COMP.          Pioneer Natural Resources: COMPANY
WELL.          McDonald 33-31 R: WELL
FLD.           Purgatorie River: FIELD
LOC.           1386' FSL & 1926' FEL: LOCATION
STAT.                       CO: State
CNTY.               Las Animas: COUNTY
CTRY.                      USA: Country
SECT.                       31: Section
TOWN.                      32S: Township
RANG.                      66W: Range
SRVC.          Patterson Wireline: SERVICE COMPANY
DATE.          Wed Sep 28 13:29:18 2005: LOG DATE
API.           05 071 08533 00: API#
~Curve Information Block
DEPT.FT            0 000 00 00: Depth
CCL.                          : Casing Collar Locator
TT3.usec                      : CBL 3' Travel Time
AMP3.mV                       : CBL 3' Amplitude
GR.GAPI                       : Gamma Ray
~Parameter Information Block
~A  Depth       CCL         TT3         AMP3         GR     
# ...
  1332.5000      0.0000    654.2392      7.2884    104.5595
  1332.7500      0.0000    621.2270      7.4493    100.4970
  1333.0000      0.0000    599.4850      7.4715     97.3231
  1333.2500      0.0000    600.3400      7.3866     94.9212
  1333.5000      0.0000    622.5231      7.2572     93.3135
  1333.7500      0.0000    653.0969      7.1334     93.1634
  1334.0000      0.0000    678.8292      7.0263     95.0142
  1334.2500      0.0000    693.8082      6.9202     98.2421
  1334.5000      0.0000    697.3566      6.8083    101.3559
  1334.7500      0.0000    689.8904      6.7104    103.4745
  1335.0000      0.0000    673.4352      6.6510    105.0917
  1335.2500      0.0000    654.1300      6.6298    107.1668
  1335.5000      0.0000    641.0248      6.6217    109.8389
  1335.7500      0.0000    641.0165      6.6033    112.3627
  1336.0000      0.0000    654.4814      6.5725    114.0356
  1336.2500      0.0000    675.2631      6.5454    114.7815
  1336.5000      0.0000    694.6620      6.5400    114.9144
  1336.7500      0.0000    705.8124      6.5629    114.6360
  1337.0000      0.0000    705.1970      6.6087    113.8346
  1337.2500      0.0000    691.9456      6.6710    112.2702
  1337.5000      0.0000    667.8144      6.7467    109.9136
  1337.7500      0.0000    637.8710      6.8279    107.1184
  1338.0000      0.0000    609.0851      6.8938    104.5270
  1338.2500      0.0000    586.6382      6.9213    102.8394
  1338.5000      0.0000    571.5673      6.9054    102.5204
  1338.7500      0.0000    561.6895      6.8667    103.6600
  1339.0000      0.0000    553.5346      6.8377    106.1978
  1339.2500      0.0000    543.2838      6.8408    110.0572
  1339.5000      0.0000    527.9263      6.8788    114.8105
  1339.7500      0.0000    507.5710      6.9454    119.5255
  1340.0000      0.0000    486.3420      7.0378    123.3292
  1340.2500      0.0000    469.5123      7.1573    125.9970
  1340.5000      0.0000    459.3467      7.2983    127.8501
  1340.7500      0.0000    454.1561      7.4419    129.2081
  1341.0000      0.0000    451.0321      7.5633    130.1877
  1341.2500      0.0000    448.5280      7.6444    131.1816
  1341.5000      0.0000    446.7208      7.6828    133.3230
  1341.7500      0.0000    445.9071      7.6879    137.7023
  1342.0000      0.0000    446.0720      7.6719    143.6155
  1342.2500      0.0000    447.4875      7.6437    148.0685
  1342.5000      0.0000    451.4254      7.6111    147.7140
  1342.7500      0.0000    460.2906      7.5856    141.4976
  1343.0000      0.0000    476.7949      7.5813    131.5987
  1343.2500      0.0000    502.2155      7.6088    122.0428
  1343.5000      0.0000    534.6243      7.6704    116.1862
  1343.7500      0.0000    568.9786      7.7613    114.8269
  1344.0000      0.0000    599.8639      7.8707    116.2632
  1344.2500      0.0000    624.5020      7.9811    118.3022
  1344.5000      0.0000    642.5681      8.0726    120.4992
  1344.7500      0.0000    652.7783      8.1333    124.2338
  1345.0000      0.0000    650.5115      8.1636    130.4294
  1345.2500      0.0000    630.3840      8.1656    137.5979
  1345.5000      0.0000    592.2167      8.1355    142.7457
  1345.7500      0.0000    544.0004      8.0729    144.1801
  1346.0000      0.0000    497.7471      7.9933    142.8275
  1346.2500      0.0000    462.1385      7.9213    140.5911
  1346.5000      0.0000    439.2608      7.8721    138.1107
  1346.7500      0.0000    426.8827      7.8464    134.7233
  1347.0000      0.0000    421.7149      7.8424    130.2603
  1347.2500      0.0000    420.7782      7.8643    126.0625
  1347.5000      0.0000    421.7621      7.9202    123.8459
  1347.7500      0.0000    423.3403      8.0117    123.8713
  1348.0000      0.0000    424.8164      8.1278    124.7309
  1348.2500      0.0000    425.2509      8.2459    124.9707
  1348.5000      0.0000    423.5874      8.3387    124.5452
  1348.7500      0.0000    419.8182      8.3846    124.4785
  1349.0000      0.0000    415.3507      8.3760    125.5243
  1349.2500      0.0000    411.8685      8.3128    127.5950
  1349.5000      0.0000    410.1995      8.1882    130.2408
  1349.7500      0.0000    410.4830      7.9773    133.0303
  1350.0000      0.0000    413.2608      7.6392    135.3765
  1350.2500      0.0000    420.3615      7.1361    136.6134
  1350.5000      0.0000    434.4250      6.4698    136.7115
  1350.7500      0.0000    456.4264      5.7181    136.6315
  1351.0000      0.0000    483.0222      5.0386    137.5013
  1351.2500      0.0000    508.1200      4.6128    139.4427
  1351.5000      0.0000    529.2888      4.5479    141.2048
  1351.7500      0.0000    550.9673      4.8007    140.7011
  1352.0000      0.0000    577.5579      5.2017    136.3452
  1352.2500      0.0000    604.6922      5.5720    128.7971
  1352.5000      0.0000    622.7762      5.8263    121.3740
  1352.7500      0.0000    629.1573      5.9733    117.8798
  1353.0000      0.0000    630.9135      6.0511    119.5464
  1353.2500      0.0000    634.5380      6.0907    124.2183
  1353.5000      0.0000    638.3761      6.1367    128.4312
  1353.7500      0.0000    636.4766      6.2650    130.1082
  1354.0000      0.0000    624.4030      6.5389    129.5169
  1354.2500      0.0000    599.6920      6.9456    128.2158
  1354.5000      0.0000    562.4323      7.3973    127.4080
  1354.7500      0.0000    518.6661      7.7975    127.0183
  1355.0000      0.0000    479.4249      8.0935    125.8171
  1355.2500      0.0000    453.1907      8.2789    122.4498
  1355.5000      0.0000    440.5075      8.3736    116.8750
  1355.7500      0.0000    436.4960      8.4066    110.9496
  1356.0000      0.0000    436.3217      8.4081    107.2402
  1356.2500      0.0000    437.2448      8.4020    107.1315
  1356.5000      0.0000    437.4925      8.3963    110.1983
  1356.7500      0.0000    435.5488      8.3853    115.2053
  1357.0000      0.0000    430.9035      8.3681    121.4015
  1357.2500      0.0000    424.6591      8.3610    128.6895
  1357.5000      0.0000    418.8292      8.3827    136.4801
  1357.7500      0.0000    415.0230      8.4303    142.8933
  1358.0000      0.0000    413.9056      8.4752    145.7283
  1358.2500      0.0000    415.7276      8.4794    144.2266
  1358.5000      0.0000    420.7226      8.4149    139.8556
  1358.7500      0.0000    428.2185      8.2795    135.5998
  1359.0000      0.0000    435.3721      8.0993    134.0373
  1359.2500      0.0000    438.1045      7.9160    135.3138
  1359.5000      0.0000    434.5841      7.7667    137.0525
  1359.7500      0.0000    427.5146      7.6722    136.8249
  1360.0000      0.0000    422.5108      7.6353    134.6254
  1360.2500      0.0000    424.6956      7.6414    132.5199
  1360.5000      0.0000    436.2774      7.6626    132.2224
  1360.7500      0.0000    454.9185      7.6695    133.5832
  1361.0000      0.0000    473.2510      7.6477    135.2478
  1361.2500      0.0000    481.9418      7.6016    136.2883
  1361.5000      0.0000    475.7655      7.5454    136.8559
  1361.7500      0.0000    457.4176      7.4922    137.0375
  1362.0000      0.0000    435.2556      7.4552    135.6097
  1362.2500      0.0000    417.6178      7.4509    130.9683
  1362.5000      0.0000    409.2513      7.4922    123.4277
  1362.7500      0.0000    411.5042      7.5724    115.6428
  1363.0000      0.0000    422.9474      7.6603    110.4279
  1363.2500      0.0000    438.2576      7.7159    108.7908
  1363.5000      0.0000    448.6278      7.7178    110.1220
  1363.7500      0.0000    447.0198      7.6787    113.4698
  1364.0000      0.0000    434.2852      7.6336    118.1344
  1364.2500      0.0000    418.9003      7.6133    123.3149
  1364.5000      0.0000    410.7987      7.6255    127.7975
  1364.7500      0.0000    416.0077      7.6584    130.4926
  1365.0000      0.0000    434.7240      7.6972    131.2298
  1365.2500      0.0000    461.3497      7.7328    130.7734
  1365.5000      0.0000    486.9678      7.7609    130.1829
  1365.7500      0.0000    504.0939      7.7784    130.2547
