~Version Information
VERS.                      2.0: CWLS Log ASCII Standard - VERSION 2.0
WRAP.                       NO: One line per depth step
~Well Information Block
STRT.FT                -7.0000: 
STOP.FT              3030.2500: 
STEP.FT                 0.2500: 
NULL.                -999.2500: 
COMP.          Pioneer Natural Resources: COMPANY
WELL.            Cleaver 24-12: WELL
FLD.           Purgatorie River: FIELD
LOC.           204' FSL & 2351' FWL--: LOCATION
CNTY.               Las Animas: COUNTY
SRVC.          Patterson Wireline: SERVICE COMPANY
DATE.          Thu Feb 02 12:17:57 2006: LOG DATE
UWI.           05 071 08634 00: UNIQUE WELL ID
STAT.                       CO: STATE
~Curve Information Block
DEPT.FT            0 000 00 00: Depth
CCL.                          : Casing Collar Locator
TT3.usec                      : CBL 3' Travel Time
AMP3.mV                       : CBL 3' Amplitude
GR.GAPI                       : Gamma Ray
~Parameter Information Block
~A  Depth       CCL         TT3         AMP3         GR     
# ...
  2606.0000      0.0000    309.3060     20.6836    100.9575
  2606.2500      0.0000    309.0189     19.4849    101.9094
  2606.5000      0.0000    310.9299     18.3624    103.7581
  2606.7500      0.0000    315.2792     17.4335    105.6934
  2607.0000      0.0000    321.7708     16.6753    106.7284
  2607.2500      0.0000    329.1292     16.0496    106.5108
  2607.5000      0.0000    335.5908     15.5419    105.4766
  2607.7500      0.0000    339.9845     15.1445    104.4229
  2608.0000      0.0000    342.2842     14.8406    103.8227
  2608.2500      0.0000    343.2099     14.6052    103.5199
  2608.5000      0.0000    343.5623     14.4150    103.0810
  2608.7500      0.0000    343.9738     14.2491    102.2220
  2609.0000      0.0000    345.1013     14.0860    100.8196
  2609.2500      0.0000    347.8170     13.9046     98.7827
  2609.5000      0.0000    352.9189     13.6945     96.1279
  2609.7500      0.0000    360.3298     13.4695     92.9951
  2610.0000      0.0000    368.5782     13.2623     89.4258
  2610.2500      0.0000    375.4208     13.1004     85.3347
  2610.5000      0.0000    379.3014     12.9832     80.8665
  2610.7500      0.0000    380.6079     12.8804     76.5213
  2611.0000      0.0000    382.1806     12.7447     72.5596
  2611.2500      0.0000    389.1880     12.5276     68.4277
  2611.5000      0.0000    408.1217     12.2074     63.2751
  2611.7500      0.0000    444.1176     11.8233     57.0383
  2612.0000      0.0000    496.7694     11.4820     50.6411
  2612.2500      0.0000    557.5410     11.3136     45.3003
  2612.5000      0.0000    612.8276     11.3997     42.0235
  2612.7500      0.0000    651.6016     11.7314     41.5830
  2613.0000      0.0000    671.0758     12.2289     44.2832
  2613.2500      0.0000    675.9976     12.7980     49.4299
  2613.5000      0.0000    673.4669     13.3777     55.4007
  2613.7500      0.0000    667.7939     13.9604     60.7060
  2614.0000      0.0000    657.9641     14.5851     65.1455
  2614.2500      0.0000    638.2760     15.3026     70.0000
  2614.5000      0.0000    602.3479     16.1188     76.9934
  2614.7500      0.0000    549.5001     16.9530     86.6942
  2615.0000      0.0000    488.7406     17.6548     97.6803
  2615.2500      0.0000    435.2817     18.0740    107.3875
  2615.5000      0.0000    401.7253     18.1378    113.8159
  2615.7500      0.0000    392.6865     17.8838    116.3603
  2616.0000      0.0000    406.9283     17.4303    115.4528
  2616.2500      0.0000    441.3818     16.9089    112.1797
  2616.5000      0.0000    490.6074     16.4084    108.2964
  2616.7500      0.0000    544.1353     15.9637    105.8622
  2617.0000      0.0000    588.5595     15.5774    106.1225
  2617.2500      0.0000    614.5964     15.2446    108.4429
  2617.5000      0.0000    622.4351     14.9632    110.5454
  2617.7500      0.0000    620.7191     14.7323    110.2447
  2618.0000      0.0000    620.0167     14.5475    107.0068
  2618.2500      0.0000    625.7281     14.3993    101.7497
  2618.5000      0.0000    636.2653     14.2771     95.7417
  2618.7500      0.0000    647.2455     14.1737     90.1679
  2619.0000      0.0000    655.9553     14.0878     86.0897
  2619.2500      0.0000    661.9824     14.0219     84.1530
  2619.5000      0.0000    665.7802     13.9801     84.5389
  2619.7500      0.0000    667.9031     13.9651     87.2451
  2620.0000      0.0000    668.9291     13.9766     91.9492
  2620.2500      0.0000    669.3772     14.0112     97.4876
  2620.5000      0.0000    669.5900     14.0624    101.9464
  2620.7500      0.0000    669.7447     14.1196    103.7832
  2621.0000      0.0000    669.9007     14.1713    102.9769
  2621.2500      0.0000    670.0565     14.2108    100.8985
  2621.5000      0.0000    670.1909     14.2389     99.0245
  2621.7500      0.0000    670.2892     14.2628     97.8528
  2622.0000      0.0000    670.3654     14.2906     96.8793
  2622.2500      0.0000    670.4606     14.3253     95.2904
  2622.5000      0.0000    670.5862     14.3602     92.5041
  2622.7500      0.0000    670.6455     14.3811     88.0704
  2623.0000      0.0000    670.2355     14.3761     81.5244
  2623.2500      0.0000    668.3308     14.3450     73.0288
  2623.5000      0.0000    662.9763     14.3000     64.0676
  2623.7500      0.0000    652.0034     14.2567     56.6696
  2624.0000      0.0000    635.6337     14.2206     51.7885
  2624.2500      0.0000    618.9305     14.1831     48.9739
  2624.5000      0.0000    609.3193     14.1389     47.5780
  2624.7500      0.0000    609.4354     14.1085     47.6337
  2625.0000      0.0000    613.9312     14.1307     49.3681
  2625.2500      0.0000    615.3202     14.2302     52.3460
  2625.5000      0.0000    611.5163     14.3928     55.6234
  2625.7500      0.0000    606.5967     14.5733     58.8350
  2626.0000      0.0000    606.4130     14.7182     62.8766
  2626.2500      0.0000    614.3290     14.7843     69.3290
  2626.5000      0.0000    629.0327     14.7473     79.0436
  2626.7500      0.0000    645.4178     14.6032     91.0147
  2627.0000      0.0000    658.3769     14.3713    102.5201
  2627.2500      0.0000    666.0252     14.0993    110.6515
  2627.5000      0.0000    669.4624     13.8564    114.1052
  2627.7500      0.0000    670.6221     13.7041    113.7895
  2628.0000      0.0000    670.8403     13.6614    111.8653
  2628.2500      0.0000    670.7314     13.6976    110.2127
  2628.5000      0.0000    670.5005     13.7592    109.6496
  2628.7500      0.0000    670.0422     13.8003    110.1167
  2629.0000      0.0000    668.7421     13.7979    111.1713
  2629.2500      0.0000    665.2464     13.7580    112.3990
  2629.5000      0.0000    658.0109     13.7162    113.5870
  2629.7500      0.0000    647.2221     13.7210    114.6214
  2630.0000      0.0000    636.6469     13.8066    115.4296
  2630.2500      0.0000    632.1248     13.9777    116.1133
  2630.5000      0.0000    636.5934     14.2184    116.8561
  2630.7500      0.0000    647.1346     14.5096    117.5459
  2631.0000      0.0000    657.9015     14.8345    117.8234
  2631.2500      0.0000    665.0881     15.1745    117.7169
  2631.5000      0.0000    668.4150     15.5080    117.7864
  2631.7500      0.0000    669.2076     15.8131    118.3539
  2632.0000      0.0000    668.3536     16.0703    119.0187
  2632.2500      0.0000    665.7619     16.2616    119.2890
  2632.5000      0.0000    661.0440     16.3718    119.1388
  2632.7500      0.0000    654.7051     16.3934    118.4396
  2633.0000      0.0000    648.7947     16.3293    116.3577
  2633.2500      0.0000    645.8816     16.1888    111.9125
  2633.5000      0.0000    646.8466     15.9789    104.9629
  2633.7500      0.0000    649.6962     15.7046     96.5015
  2634.0000      0.0000    650.8524     15.3789     88.1171
  2634.2500      0.0000    647.5015     15.0326     81.0316
  2634.5000      0.0000    638.0427     14.7103     75.4436
  2634.7500      0.0000    620.6453     14.4503     70.9336
  2635.0000      0.0000    593.6829     14.2602     67.4370
  2635.2500      0.0000    559.8314     14.1117     65.3839
  2635.5000      0.0000    528.4650     13.9674     64.8560
  2635.7500      0.0000    510.1934     13.8160     65.1385
  2636.0000      0.0000    507.6642     13.6808     65.3049
  2636.2500      0.0000    514.2808     13.5962     64.9312
  2636.5000      0.0000    523.6500     13.5804     64.2158
  2636.7500      0.0000    537.5159     13.6275     63.8651
  2637.0000      0.0000    561.2118     13.7170     64.8955
  2637.2500      0.0000    593.5775     13.8272     67.9705
  2637.5000      0.0000    625.6688     13.9405     72.6240
  2637.7500      0.0000    648.7175     14.0402     77.3584
  2638.0000      0.0000    660.0283     14.1109     80.7197
  2638.2500      0.0000    661.8478     14.1483     82.2981
  2638.5000      0.0000    658.0781     14.1652     82.7354
  2638.7500      0.0000    653.0521     14.1825     82.9713
  2639.0000      0.0000    650.8185     14.2106     83.6437
  2639.2500      0.0000    653.2281     14.2406     85.0404
