~Version Information
VERS.                      2.0: CWLS Log ASCII Standard - VERSION 2.0
WRAP.                       NO: One line per depth step
~Well Information Block
STRT.FT               875.0000: 
STOP.FT              2054.5000: 
STEP.FT                 0.2500: 
NULL.                -999.2500: 
COMP.          Pioneer Natural Resources: COMPANY
WELL.          Woodstock 43-19: WELL
FLD.           Purgatoire River: FIELD
LOC.           2195' FSL & 250' FEL: LOCATION
CNTY.               Las Animas: COUNTY
SRVC.                Patterson: SERVICE COMPANY
DATE.          Thu Feb 02 03:08:19 2006: LOG DATE
UWI.           05 071 08677 00: UNIQUE WELL ID
STAT.                 Colorado: STATE
~Curve Information Block
DEPT.FT            0 000 00 00: Depth
SN.Ohm-m                      : IEL Short Normal
SP.mV                         : IEL Spontaneous Potential
DIR.Ohm-m                     : IEL Induction Resistivity
GR.GAPI                       : Gamma Ray
~Parameter Information Block
~A  Depth        SN          SP         DIR          GR     
# ...
  1344.0000   2000.0000   2000.0000     20.1484     68.0132
  1344.2500   2000.0000   2000.0000     20.0262     68.0472
  1344.5000   2000.0000   2000.0000     19.9131     69.0057
  1344.7500   2000.0000   2000.0000     19.8388     69.8495
  1345.0000   2000.0000   2000.0000     19.8094     71.2649
  1345.2500   2000.0000   2000.0000     19.8086     72.4625
  1345.5000   2000.0000   2000.0000     19.8123     74.7551
  1345.7500   2000.0000   2000.0000     19.8047     76.3480
  1346.0000   2000.0000   2000.0000     19.7883     77.8478
  1346.2500   2000.0000   2000.0000     19.7807     77.6986
  1346.5000   2000.0000   2000.0000     19.8037     75.6043
  1346.7500   2000.0000   2000.0000     19.8711     73.5125
  1347.0000   2000.0000   2000.0000     19.9811     70.7605
  1347.2500   2000.0000   2000.0000     20.1162     69.6640
  1347.5000   2000.0000   2000.0000     20.2475     68.7335
  1347.7500   2000.0000   2000.0000     20.3454     67.9886
  1348.0000   2000.0000   2000.0000     20.3902     66.2404
  1348.2500   2000.0000   2000.0000     20.3791     65.0262
  1348.5000   2000.0000   2000.0000     20.3246     64.2008
  1348.7500   2000.0000   2000.0000     20.2497     64.6037
  1349.0000   2000.0000   2000.0000     20.1791     66.1141
  1349.2500   2000.0000   2000.0000     20.1314     67.1225
  1349.5000   2000.0000   2000.0000     20.1157     67.9836
  1349.7500   2000.0000   2000.0000     20.1366     68.1414
  1350.0000   2000.0000   2000.0000     20.1992     68.0359
  1350.2500   2000.0000   2000.0000     20.3070     67.7519
  1350.5000   2000.0000   2000.0000     20.4498     66.7938
  1350.7500   2000.0000   2000.0000     20.5965     65.7473
  1351.0000   2000.0000   2000.0000     20.7063     63.7761
  1351.2500   2000.0000   2000.0000     20.7569     62.4173
  1351.5000   2000.0000   2000.0000     20.7638     60.5680
  1351.7500   2000.0000   2000.0000     20.7713     59.3802
  1352.0000   2000.0000   2000.0000     20.8243     57.2104
  1352.2500   2000.0000   2000.0000     20.9455     55.3940
  1352.5000   2000.0000   2000.0000     21.1309     52.7487
  1352.7500   2000.0000   2000.0000     21.3565     51.7207
  1353.0000   2000.0000   2000.0000     21.5849     52.0341
  1353.2500   2000.0000   2000.0000     21.7689     53.3227
  1353.5000   2000.0000   2000.0000     21.8567     55.7726
  1353.7500   2000.0000   2000.0000     21.7981     57.0616
  1354.0000   2000.0000   2000.0000     21.5547     58.0754
  1354.2500   2000.0000   2000.0000     21.1071     58.5217
  1354.5000   2000.0000   2000.0000     20.4632     60.0727
  1354.7500   2000.0000   2000.0000     19.6632     62.2805
  1355.0000   2000.0000   2000.0000     18.7762     67.7349
  1355.2500   2000.0000   2000.0000     17.8855     72.8297
  1355.5000   2000.0000   2000.0000     17.0693     82.9478
  1355.7500   2000.0000   2000.0000     16.3874     91.7580
  1356.0000   2000.0000   2000.0000     15.8726    108.6411
  1356.2500   2000.0000   2000.0000     15.5244    122.0065
  1356.5000   2000.0000   2000.0000     15.3034    142.9284
  1356.7500   2000.0000   2000.0000     15.1340    155.5508
  1357.0000   2000.0000   2000.0000     14.9255    169.9144
  1357.2500   2000.0000   2000.0000     14.6045    175.9159
  1357.5000   2000.0000   2000.0000     14.1352    180.1308
  1357.7500   2000.0000   2000.0000     13.5105    180.4996
  1358.0000   2000.0000   2000.0000     12.7362    178.7527
  1358.2500   2000.0000   2000.0000     11.8387    176.7114
  1358.5000   2000.0000   2000.0000     10.8862    173.1255
  1358.7500   2000.0000   2000.0000      9.9845    170.7240
  1359.0000   2000.0000   2000.0000      9.2360    167.6429
  1359.2500   2000.0000   2000.0000      8.6999    166.2740
  1359.5000   2000.0000   2000.0000      8.3792    165.8638
  1359.7500   2000.0000   2000.0000      8.2321    166.9264
  1360.0000   2000.0000   2000.0000      8.1926    170.1907
  1360.2500   2000.0000   2000.0000      8.1939    172.7436
  1360.5000   2000.0000   2000.0000      8.1880    175.7061
  1360.7500   2000.0000   2000.0000      8.1473    176.7406
  1361.0000   2000.0000   2000.0000      8.0522    177.1515
  1361.2500   2000.0000   2000.0000      7.8783    176.9149
  1361.5000   2000.0000   2000.0000      7.5933    175.9696
  1361.7500   2000.0000   2000.0000      7.1554    175.1271
  1362.0000   2000.0000   2000.0000      6.5209    174.3278
  1362.2500   2000.0000   2000.0000      5.6846    174.6296
  1362.5000   2000.0000   2000.0000      4.7352    176.8029
  1362.7500   2000.0000   2000.0000      3.8305    179.4027
  1363.0000   2000.0000   2000.0000      3.0950    184.8610
  1363.2500   2000.0000   2000.0000      2.5659    189.1987
  1363.5000   2000.0000   2000.0000      2.2191    195.3228
  1363.7500   2000.0000   2000.0000      2.0126    198.0426
  1364.0000   2000.0000   2000.0000      1.9116    198.8594
  1364.2500   2000.0000   2000.0000      1.9016    197.1811
  1364.5000   2000.0000   2000.0000      1.9976    191.7255
  1364.7500   2000.0000   2000.0000      2.2588    186.2537
  1365.0000   2000.0000   2000.0000      2.8206    175.5259
  1365.2500   2000.0000   2000.0000      3.9672    167.1301
  1365.5000   2000.0000   2000.0000      6.1443    153.5845
  1365.7500   2000.0000   2000.0000      8.8160    143.9502
  1366.0000   2000.0000   2000.0000      8.4016    127.6734
  1366.2500   2000.0000   2000.0000      5.5657    115.3679
  1366.5000   2000.0000   2000.0000      3.5594     96.2789
  1366.7500   2000.0000   2000.0000      2.5202     84.8509
  1367.0000   2000.0000   2000.0000      2.0070     71.8970
  1367.2500   2000.0000   2000.0000      1.7839     66.2394
  1367.5000   2000.0000   2000.0000      1.7697     61.1321
  1367.7500   2000.0000   2000.0000      1.9988     59.2885
  1368.0000   2000.0000   2000.0000      2.7133     58.3563
  1368.2500   2000.0000   2000.0000      5.2018     58.8927
  1368.5000   2000.0000   2000.0000     81.7955     60.9537
  1368.7500   2000.0000   2000.0000 100000.0000     62.5002
  1369.0000   2000.0000   2000.0000 100000.0000     63.8299
  1369.2500   2000.0000   2000.0000 100000.0000     63.7158
  1369.5000   2000.0000   2000.0000 100000.0000     62.3596
  1369.7500   2000.0000   2000.0000 100000.0000     61.1726
  1370.0000   2000.0000   2000.0000 100000.0000     60.1761
  1370.2500   2000.0000   2000.0000      6.8656     60.9162
  1370.5000   2000.0000   2000.0000      2.5930     65.4882
  1370.7500   2000.0000   2000.0000      1.6681     71.0170
  1371.0000   2000.0000   2000.0000      1.3642     81.7194
  1371.2500   2000.0000   2000.0000      1.3095     89.0614
  1371.5000   2000.0000   2000.0000      1.4235     98.2533
  1371.7500   2000.0000   2000.0000      1.7303    102.6610
  1372.0000   2000.0000   2000.0000      2.3875    107.0741
  1372.2500   2000.0000   2000.0000      3.9783    109.0196
  1372.5000   2000.0000   2000.0000      9.8032    110.8128
  1372.7500   2000.0000   2000.0000 100000.0000    111.1993
  1373.0000   2000.0000   2000.0000 100000.0000    110.7128
  1373.2500   2000.0000   2000.0000 100000.0000    110.2064
  1373.5000   2000.0000   2000.0000 100000.0000    110.4045
  1373.7500   2000.0000   2000.0000     61.7339    111.5734
  1374.0000   2000.0000   2000.0000     13.4650    114.6736
  1374.2500   2000.0000   2000.0000      8.0018    117.2504
  1374.5000   2000.0000   2000.0000      6.1300    121.1117
  1374.7500   2000.0000   2000.0000      5.2833    123.1404
  1375.0000   2000.0000   2000.0000      4.8865    124.4183
  1375.2500   2000.0000   2000.0000      4.7796    123.9452
  1375.5000   2000.0000   2000.0000      4.9253    122.2171
  1375.7500   2000.0000   2000.0000      5.3190    121.3239
  1376.0000   2000.0000   2000.0000      5.9543    121.4299
  1376.2500   2000.0000   2000.0000      6.8104    122.5884
  1376.5000   2000.0000   2000.0000      7.8550    126.0483
  1376.7500   2000.0000   2000.0000      9.0460    129.6152
  1377.0000   2000.0000   2000.0000     10.3026    136.3173
  1377.2500   2000.0000   2000.0000     11.4569    140.6402
