~Version Information
VERS.                      2.0: CWLS Log ASCII Standard - VERSION 2.0
WRAP.                       NO: One line per depth step
~Well Information Block
STRT.FT                -8.2500: 
STOP.FT              2119.7500: 
STEP.FT                 0.2500: 
NULL.                -999.2500: 
COMP.          Pioneer Natural Resources: COMPANY
WELL.          Hemisphere 32-24: WELL
FLD.           Purgatorie River: FIELD
LOC.           1850' FNL & 2284' FEL--: LOCATION
PROV.                       CO: PROVINCE
CNTY.               Las Animas: COUNTRY
SRVC.          Patterson Wireline: SERVICE COMPANY
DATE.          Sat Aug 27 08:06:42 2005: LOG DATE
UWI.           05 071 08440 00: UNIQUE WELL ID
~Curve Information Block
DEPT.FT            0 000 00 00: Depth
CCL.                          : Casing Collar Locator
TT3.usec                      : CBL 3' Travel Time
AMP3.mV                       : CBL 3' Amplitude
GR.GAPI                       : Gamma Ray
~Parameter Information Block
~A  Depth       CCL         TT3         AMP3         GR     
    -8.2500   -999.2500   -999.2500   -999.2500     90.3417
    -8.0000   -999.2500   -999.2500   -999.2500     91.5789
    -7.7500   -999.2500   -999.2500   -999.2500     91.6863
    -7.5000   -999.2500   -999.2500   -999.2500     91.3728
    -7.2500   -999.2500   -999.2500   -999.2500     91.6471
    -7.0000   -999.2500   -999.2500   -999.2500     93.0536
    -6.7500   -999.2500   -999.2500   -999.2500     95.6246
    -6.5000   -999.2500   -999.2500   -999.2500     98.9565
    -6.2500   -999.2500   -999.2500   -999.2500    102.0589
    -6.0000   -999.2500   -999.2500   -999.2500    103.6155
    -5.7500   -999.2500   -999.2500   -999.2500    102.9379
    -5.5000   -999.2500   -999.2500   -999.2500    100.5643
    -5.2500   -999.2500   -999.2500   -999.2500     97.7047
    -5.0000   -999.2500   -999.2500   -999.2500     95.3667
    -4.7500   -999.2500   -999.2500   -999.2500     94.0930
    -4.5000   -999.2500   -999.2500   -999.2500     93.9326
    -4.2500   -999.2500   -999.2500   -999.2500     94.1596
    -4.0000   -999.2500   -999.2500   -999.2500     93.3733
    -3.7500   -999.2500   -999.2500   -999.2500     90.6042
    -3.5000   -999.2500   -999.2500   -999.2500     86.5502
    -3.2500   -999.2500   1149.0000      0.4695     83.3980
    -3.0000   -999.2500   1149.0000      0.4708     83.1439
    -2.7500   -999.2500   1149.0000      0.4700     85.9705
    -2.5000   -999.2500   1149.0000      0.4695     90.0857
    -2.2500   -999.2500   1149.0000      0.4694     93.0093
    -2.0000   -999.2500   1149.0000      0.4675     93.1642
    -1.7500   -999.2500   1149.0000      0.4609     90.5626
    -1.5000   -999.2500   1149.0000      0.4499     86.3096
    -1.2500   -999.2500   1149.0000      0.4380     81.6894
    -1.0000   -999.2500   1149.0000      0.4281     77.6229
    -0.7500   -999.2500   1149.0000      0.4211     74.5490
    -0.5000   -999.2500   1149.0000      0.4161     72.3559
    -0.2500   -999.2500   1149.0000      0.4125     70.2262
     0.0000   -999.2500   1149.0000      0.4103     66.8353
     0.2500   -999.2500   1149.0000      0.4108     53.5475
     0.5000   -999.2500   1149.0000      0.4139     45.3527
     0.7500   -999.2500   1149.0000      0.4191     38.6571
     1.0000   -999.2500   1149.0000      0.4255     35.1749
     1.2500   -999.2500   1149.0000      0.4319     35.7288
     1.5000   -999.2500   1149.0000      0.4379     40.1816
     1.7500   -999.2500   1149.0000      0.4433     47.5458
     2.0000   -999.2500   1149.0000      0.4461     56.0259
     2.2500      0.0000   1149.0000      0.4433     63.4239
     2.5000      0.0000   1149.0000      0.4332     68.1491
     2.7500      0.0000   1149.0000      0.4193     70.0472
     3.0000      0.0000   1149.0000      0.4092     70.2291
     3.2500      0.0000   1149.0000      0.4103     70.1511
     3.5000      0.0000   1149.0000      0.4221     70.6792
     3.7500      0.0000   1149.0000      0.4352     71.5945
     4.0000      0.0000   1149.0000      0.4391     71.7703
     4.2500      0.0000   1149.0000      0.4325     69.9140
     4.5000      0.0000   1149.0000      0.4236     65.3775
     4.7500      0.0000   1149.0000      0.4218     58.6225
     5.0000     -2.0000   1149.0000      0.4285     51.1682
     5.2500      2.0000   1149.0000      0.4380     45.1272
     5.5000      2.0000   1149.0000      0.4449     42.4443
     5.7500      0.0000   1149.0000      0.4489     43.9164
     6.0000      0.0000   1149.0000      0.4531     48.5273
     6.2500      0.0000   1149.0000      0.4585     53.9450
     6.5000      0.0000   1149.0000      0.4631     57.9843
     6.7500      0.0000   1149.0000      0.4648     59.6920
     7.0000      0.0000   1149.0000      0.4640     59.2946
     7.2500      0.0000   1149.0000      0.4622     57.5497
     7.5000      0.0000   1149.0000      0.4607     55.2803
     7.7500      0.0000   1149.0000      0.4600     53.2031
     8.0000      0.0000   1149.0000      0.4606     51.8166
     8.2500      0.0000   1149.0000      0.4614     51.3341
     8.5000      0.0000   1149.0000      0.4611     51.7825
     8.7500      0.0000   1149.0000      0.4600     53.1117
     9.0000      0.0000   1149.0000      0.4601     55.0645
     9.2500      0.0000   1149.0000      0.4623     56.9076
     9.5000      0.0000   1149.0000      0.4647     57.4964
     9.7500      0.0000   1149.0000      0.4653     56.0323
    10.0000      0.0000   1149.0000      0.4642     52.8719
    10.2500      0.0000   1149.0000      0.4624     49.3619
    10.5000      0.0000   1149.0000      0.4613     46.8529
    10.7500      0.0000   1149.0000      0.4620     46.0118
    11.0000      0.0000   1149.0000      0.4650     46.6857
    11.2500      0.0000   1149.0000      0.4688     48.0000
    11.5000      0.0000   1149.0000      0.4695     48.8850
    11.7500      0.0000   1149.0000      0.4646     49.0001
    12.0000      0.0000   1149.0000      0.4562     49.1078
    12.2500      0.0000   1149.0000      0.4486     50.1917
    12.5000      0.0000   1149.0000      0.4441     52.1661
    12.7500      0.0000   1149.0000      0.4412     53.8192
    13.0000      0.0000   1149.0000      0.4383     54.1898
    13.2500      0.0000   1149.0000      0.4363     53.6153
    13.5000      0.0000   1149.0000      0.4383     53.1220
    13.7500      0.0000   1149.0000      0.4464     53.1719
    14.0000      0.0000   1149.0000      0.4589     53.3591
    14.2500      0.0000   1149.0000      0.4714     53.0032
    14.5000      0.0000   1149.0000      0.4805     51.6666
    14.7500      0.0000   1149.0000      0.4854     49.3000
    15.0000      0.0000   1149.0000      0.4869     46.2599
    15.2500      0.0000   1149.0000      0.4861     43.4052
    15.5000      0.0000   1149.0000      0.4828     41.9950
    15.7500      0.0000   1149.0000      0.4774     43.0313
    16.0000      0.0000   1149.0000      0.4712     46.3607
    16.2500      0.0000   1149.0000      0.4670     50.5412
    16.5000      0.0000   1149.0000      0.4665     53.6908
    16.7500      0.0000   1149.0000      0.4675     54.3619
    17.0000      0.0000   1149.0000      0.4654     51.9741
    17.2500      0.0000   1149.0000      0.4579     47.2677
    17.5000      0.0000   1149.0000      0.4496     42.4801
    17.7500      0.0000   1149.0000      0.4482     40.2797
    18.0000      0.0000   1149.0000      0.4557     41.9493
    18.2500      0.0000   1149.0000      0.4659     46.6252
    18.5000      0.0000   1149.0000      0.4698     52.2898
    18.7500      0.0000   1149.0000      0.4639     57.3545
    19.0000      0.0000   1149.0000      0.4513     61.4254
    19.2500      0.0000   1149.0000      0.4380     65.0760
    19.5000      0.0000   1149.0000      0.4294     69.3651
    19.7500      0.0000   1149.0000      0.4279     75.3725
    20.0000      0.0000   1149.0000      0.4327     83.4484
    20.2500      0.0000   1149.0000      0.4410     92.4857
    20.5000      0.0000   1149.0000      0.4496    100.0774
    20.7500      0.0000   1149.0000      0.4566    103.8580
    21.0000      0.0000   1149.0000      0.4617    103.2299
    21.2500      0.0000   1149.0000      0.4663     99.9945
    21.5000      0.0000   1149.0000      0.4714     96.9806
    21.7500      0.0000   1149.0000      0.4760     95.7301
    22.0000      0.0000   1149.0000      0.4782     95.5168
    22.2500      0.0000   1149.0000      0.4774     94.6163
    22.5000      0.0000   1149.0000      0.4759     92.3578
    22.7500      0.0000   1149.0000      0.4776     89.7933
    23.0000      0.0000   1149.0000      0.4841     88.4943
    23.2500      0.0000   1149.0000      0.4930     88.9930
    23.5000      0.0000   1149.0000      0.4993     90.4826
    23.7500      0.0000   1149.0000      0.5003     92.0012
    24.0000      0.0000   1149.0000      0.4965     93.8217
    24.2500      0.0000   1149.0000      0.4899     97.2716
    24.5000      0.0000   1149.0000      0.4805    102.9354
    24.7500      0.0000   1149.0000      0.4670    109.4405
    25.0000      0.0000   1149.0000      0.4499    114.3177
