~Version Information
VERS.                      2.0: CWLS Log ASCII Standard - VERSION 2.0
WRAP.                       NO: One line per depth step
~Well Information Block
STRT.FT               -10.2500: 
STOP.FT              2871.7500: 
STEP.FT                 0.2500: 
NULL.                -999.2500: 
COMP.          Pioneer Natural Resources: COMPANY
WELL.          Grey Goose 33-30: WELL
FLD.           Purgatorie River: FIELD
LOC.           2136' FSL & 2065' FEL--: LOCATION
STAT.                       CO: State
CNTY.               Las Animas: COUNTY
CTRY. USA : Country
SECT. 30  : Section
TOWN. 32S : Township
RANG. 67W : Range
SRVC.          Patterson Wireline: SERVICE COMPANY
DATE.          Tue Dec 06 12:24:57 2005: LOG DATE
API.            05 071 0854600: UNIQUE WELL ID
~Curve Information Block
DEPT.FT            0 000 00 00: Depth
CCL.                          : Casing Collar Locator
TT3.usec                      : CBL 3' Travel Time
AMP3.mV                       : CBL 3' Amplitude
GR.GAPI                       : Gamma Ray
~Parameter Information Block
~A  Depth       CCL         TT3         AMP3         GR     
# ...
   927.7500      0.0000    748.6872     12.9997    158.0079
   928.0000      0.0000    743.1895     13.1205    150.8597
   928.2500      0.0000    740.7859     13.0691    143.7220
   928.5000      0.0000    742.1739     12.9187    138.3508
   928.7500      0.0000    745.4975     12.7824    136.3264
   929.0000      0.0000    747.3922     12.7434    138.2829
   929.2500      0.0000    745.3644     12.8104    143.4866
   929.5000      0.0000    739.6744     12.9256    150.1425
   929.7500      0.0000    732.8403     13.0115    156.0782
   930.0000      0.0000    727.6477     13.0168    159.2524
   930.2500      0.0000    725.8365     12.9346    158.3792
   930.5000      0.0000    727.7342     12.7901    153.9994
   930.7500      0.0000    732.1246     12.6166    148.6975
   931.0000      0.0000    736.6844     12.4364    145.2258
   931.2500      0.0000    739.3155     12.2584    144.2010
   931.5000      0.0000    739.4419     12.0926    144.3057
   931.7500      0.0000    738.2199     11.9657    144.6446
   932.0000      0.0000    737.5307     11.9120    145.9041
   932.2500      0.0000    738.4753     11.9447    149.0932
   932.5000      0.0000    740.6643     12.0394    154.3119
   932.7500      0.0000    742.9065     12.1545    161.1130
   933.0000      0.0000    744.3734     12.2651    168.6457
   933.2500      0.0000    745.0054     12.3708    174.7307
   933.5000      0.0000    745.1476     12.4736    176.2734
   933.7500      0.0000    745.1134     12.5667    171.7895
   934.0000      0.0000    745.0225     12.6488    162.8844
   934.2500      0.0000    744.8650     12.7381    152.7935
   934.5000      0.0000    744.6304     12.8619    144.1869
   934.7500      0.0000    744.3739     13.0327    138.4394
   935.0000      0.0000    744.1674     13.2326    135.8464
   935.2500      0.0000    744.0013     13.4160    135.7949
   935.5000      0.0000    743.7109     13.5279    137.1216
   935.7500      0.0000    742.9587     13.5294    138.6177
   936.0000      0.0000    741.3518     13.4168    139.1891
   936.2500      0.0000    738.7869     13.2220    137.8766
   936.5000      0.0000    735.7715     12.9913    134.2639
   936.7500      0.0000    733.2079     12.7649    129.0981
   937.0000      0.0000    731.7375     12.5798    124.3620
   937.2500      0.0000    731.4918     12.4842    122.2289
   937.5000      0.0000    732.2214     12.5339    123.2469
   937.7500      0.0000    732.9539     12.7606    125.4473
   938.0000      0.0000    731.3704     13.1355    125.9209
   938.2500      0.0000    724.6381     13.5628    123.6443
   938.5000      0.0000    712.3374     13.9170    120.2525
   938.7500      0.0000    698.8427     14.0961    117.7324
   939.0000      0.0000    691.0928     14.0542    115.9832
   939.2500      0.0000    692.4600     13.8062    113.0027
   939.5000      0.0000    699.8950     13.4185    107.0288
   939.7500      0.0000    708.1854     12.9924     98.2285
   940.0000      0.0000    715.2650     12.6341     88.6407
   940.2500      0.0000    722.0720     12.4135     80.8769
   940.5000      0.0000    728.9824     12.3322     76.8083
   940.7500      0.0000    734.1998     12.3292     76.9710
   941.0000      0.0000    734.9457     12.3255     80.5389
   941.2500      0.0000    729.5970     12.2765     85.5873
   941.5000      0.0000    719.9171     12.1934     89.8877
   941.7500      0.0000    712.0579     12.1213     92.1425
   942.0000      0.0000    713.0172     12.0947     92.6348
   942.2500      0.0000    723.5520     12.1101     92.5766
   942.5000      0.0000    735.4074     12.1374     92.8854
   942.7500      0.0000    737.9117     12.1575     93.7167
   943.0000      0.0000    727.7828     12.1815     95.0564
   943.2500      0.0000    712.3088     12.2252     97.2316
   943.5000      0.0000    703.1580     12.2693    100.4248
   943.7500      0.0000    706.7347     12.2646    104.0330
   944.0000      0.0000    720.0985     12.1800    107.1054
   944.2500      0.0000    735.3707     12.0373    109.3236
   944.5000      0.0000    746.3253     11.9031    111.0684
   944.7500      0.0000    750.8092     11.8576    112.7539
   945.0000      0.0000    749.6315     11.9600    114.6286
   945.2500      0.0000    745.2003     12.2192    116.9087
   945.5000      0.0000    740.5071     12.5896    119.6577
   945.7500      0.0000    737.9291     12.9942    122.7895
   946.0000      0.0000    738.1814     13.3525    126.2269
   946.2500      0.0000    740.3102     13.6003    129.6396
   946.5000      0.0000    742.7518     13.7066    132.2591
   946.7500      0.0000    744.5040     13.6861    133.5093
   947.0000      0.0000    745.4305     13.5915    133.6310
   947.2500      0.0000    745.8590     13.4828    133.2335
   947.5000      0.0000    746.1293     13.3984    132.4949
   947.7500      0.0000    746.4164     13.3399    131.3764
   948.0000      0.0000    746.7424     13.2757    130.4679
   948.2500      0.0000    747.0507     13.1638    130.9473
   948.5000      0.0000    747.2719     12.9819    133.6408
   948.7500      0.0000    747.3560     12.7414    138.4494
   949.0000      0.0000    747.2972     12.4830    144.4689
   949.2500      0.0000    747.1488     12.2632    150.3110
   949.5000      0.0000    747.0067     12.1321    154.7457
   949.7500      0.0000    746.9587     12.1076    157.4839
   950.0000      0.0000    747.0266     12.1698    159.1345
   950.2500      0.0000    747.1370     12.2820    160.3035
   950.5000      0.0000    747.1115     12.4104    161.0588
   950.7500      0.0000    746.6346     12.5228    161.1175
   951.0000      0.0000    745.1817     12.5834    159.9507
   951.2500      0.0000    742.0597     12.5617    156.6769
   951.5000      0.0000    736.8430     12.4468    150.3992
   951.7500      0.0000    730.1910     12.2550    140.9557
   952.0000      0.0000    724.2434     12.0259    129.1480
   952.2500      0.0000    721.6101     11.8075    116.0790
   952.5000      0.0000    723.3362     11.6343    102.4916
   952.7500      0.0000    727.7568     11.5155     88.8991
   953.0000      0.0000    731.5886     11.4440     75.9924
   953.2500      0.0000    732.4291     11.4141     64.5274
   953.5000      0.0000    730.5536     11.4296     55.1501
   953.7500      0.0000    728.5053     11.4980     48.6485
   954.0000      0.0000    728.7119     11.6230     45.8742
   954.2500      0.0000    731.1916     11.7993     46.8628
   954.5000      0.0000    733.6165     12.0110     50.2039
   954.7500      0.0000    733.7178     12.2295     53.6479
   955.0000      0.0000    731.6256     12.4145     55.4952
   955.2500      0.0000    729.9511     12.5241     55.4761
   955.5000      0.0000    731.6482     12.5279     54.4888
   955.7500      0.0000    737.7289     12.4199     53.7296
   956.0000      0.0000    746.7122     12.2277     53.9470
   956.2500      0.0000    755.6257     12.0064     55.0227
   956.5000      0.0000    761.3934     11.8160     56.0096
   956.7500      0.0000    762.2564     11.6944     55.8187
   957.0000      0.0000    758.8120     11.6468     54.1458
   957.2500      0.0000    753.5327     11.6423     51.7598
   957.5000      0.0000    748.8496     11.6166     49.7640
   957.7500      0.0000    745.6290     11.4939     48.4107
   958.0000      0.0000    743.1541     11.2337     46.7449
   958.2500      0.0000    739.9943     10.8597     43.7552
   958.5000      0.0000    734.9514     10.4401     40.0015
   958.7500      0.0000    727.8570     10.0477     37.7385
   959.0000      0.0000    719.8905      9.7393     39.1692
   959.2500      0.0000    713.0087      9.5546     44.5439
   959.5000      0.0000    708.8984      9.5095     51.9206
   959.7500      0.0000    708.3421      9.5878     58.7771
   960.0000      0.0000    711.0334      9.7506     64.0483
   960.2500      0.0000    715.4108      9.9566     68.7041
   960.5000      0.0000    719.0195     10.1693     74.4793
   960.7500      0.0000    720.1540     10.3531     82.2592
   961.0000      0.0000    719.5919     10.4781     91.6033
