~Version Information
 VERS.                                  2.0 : CWLS LAS VERSION
 WRAP.                                   NO : WRAPING MODE
 SWARE .                 MController 2.5.0N : SOFTWARE VERSION
~Well Information
 WELL.               Bear Cub Federal 11-23 : WELL
 COMP.    Pioneer Natural Resources USA Inc : COMPANY
 FLD.                      Purgatoire River : FIELD
 LOC.                 NW/NW Sec23 T33S R67W : LOCATION
 DATE.                          06/18-19/06 : DATE(S) LOGGED
 SRVC.       Blanco Geological Services LLC : SERVICE COMPANY
 STAT.                             Colorado : STATE
 CNTY.                           Las Animas : COUNTY
 CTRY.                                  USA : COUNTRY
 API.                       05-071-08509-00 : API NUMBER
 STRT.FT                             475.00 : START DEPTH
 STOP.FT                            2220.00 : STOP DEPTH
 STEP.FT                               1.00 : DEPTH INCREMENT
 NULL.                                -9999 : NULL VALUE
~Curve information
 DEPTH.FT                                   :
 ROP.MIN/FT                                 :
 GAS.UNITS                                  :
~ASCII Log data
# ...
      2075.0         0.23         64.0 
      2076.0         0.20         58.6 
      2077.0         0.23         56.7 
      2078.0         0.27         55.3 
      2079.0         0.17         64.9 
      2080.0         0.20         74.6 
      2081.0         0.23         73.2 
      2082.0         0.20         60.2 
      2083.0         0.23         53.1 
      2084.0         0.23         50.6 
      2085.0         0.20         46.9 
      2086.0         0.15         30.9 
      2087.0         0.17         28.1 
      2088.0         0.27         30.0 
      2089.0         0.27         34.1 
      2090.0         0.30         36.7 
      2091.0         0.27         37.8 
      2092.0         0.23         37.0 
      2093.0         0.27         36.5 
      2094.0         0.33         37.1 
      2095.0         0.60         55.7 
      2096.0         3.08        135.8 
      2097.0         0.37         71.7 
      2098.0         0.30       3746.7 
      2099.0         0.28       3990.3 
      2100.0         0.27       2484.7 
      2101.0         0.23       1189.5 
      2102.0         0.27       1164.5 
      2103.0         0.23       1040.6 
      2104.0         0.23        973.9 
      2105.0         0.23        949.8 
      2106.0         0.20        932.5 
      2107.0         0.20        918.9 
      2108.0         0.23        909.7 
      2109.0         0.27        906.9 
      2110.0         0.23        897.3 
      2111.0         0.23        880.0 
      2112.0         0.23        883.7 
      2113.0         0.25        882.5 
      2114.0         0.27        871.7 
      2115.0         0.20        860.6 
      2116.0         0.27        801.9 
      2117.0         0.23        575.8 
      2118.0         0.30        610.4 
      2119.0         0.23        637.9 
      2120.0         0.20        649.0 
      2121.0         0.20        675.9 
      2122.0         0.30        746.9 
      2123.0         0.27        833.4 
      2124.0         0.40       1028.3 
      2125.0         0.33       1176.2 
      2126.0         1.12       1270.1 
      2127.0         0.43        983.8 
      2128.0         0.43        872.9 
      2129.0         0.33        872.9 
      2130.0         0.37        880.6 
      2131.0         0.30        865.5 
      2132.0         0.33        822.0 
      2133.0         0.32        836.5 
      2134.0         0.30        835.9 
      2135.0         0.33        845.1 
      2136.0         0.27        838.3 
      2137.0         0.33        838.0 
      2138.0         0.30        825.7 
      2139.0         0.33        815.5 
      2140.0         0.40        815.5 
      2141.0         0.37        831.8 
      2142.0         0.33        832.8 
      2143.0         0.38        827.2 
      2144.0         0.37        823.2 
      2145.0         0.27        823.5 
      2146.0         0.30        819.8 
      2147.0         0.27        788.6 
      2148.0         0.27        754.6 
      2149.0         0.27        578.6 
      2150.0         0.27        604.2 
      2151.0         0.30        620.0 
      2152.0         0.27        667.2 
      2153.0         0.33        740.7 
      2154.0         0.28        812.4 
      2155.0         0.27        914.6 
      2156.0        15.23       1600.2 
      2157.0         0.52        918.3 
      2158.0         0.47        891.1 
      2159.0         0.40        865.8 
      2160.0         0.40        847.3 
      2161.0         0.43        831.2 
      2162.0         0.40        820.1 
      2163.0         0.40        813.9 
      2164.0         0.42        811.5 
      2165.0         0.43        808.1 
      2166.0         0.43        810.5 
      2167.0         0.43        787.7 
      2168.0         0.50        748.5 
      2169.0         0.47        867.4 
      2170.0         0.50        977.3 
      2171.0         2.38        985.6 
      2172.0         0.90        929.8 
      2173.0         0.52        867.7 
      2174.0         0.47        843.3 
      2175.0         0.47        826.3 
      2176.0         0.83        812.7 
      2177.0         0.50        797.6 
      2178.0         0.43        824.7 
      2179.0         0.50        806.5 
      2180.0         0.58        555.1 
      2181.0         0.77        543.7 
      2182.0         0.57        553.0 
      2183.0         0.37        508.5 
      2184.0         0.43        497.1 
      2185.0         0.40        462.8 
      2186.0         4.47        446.7 
      2187.0         0.23        107.8 
      2188.0         0.30        109.4 
      2189.0         0.37        118.2 
      2190.0         0.37        142.2 
      2191.0         0.30        127.0 
      2192.0         0.27        100.2 
      2193.0         0.27         86.1 
      2194.0         0.27         90.2 
      2195.0         0.95        101.2 
      2196.0         0.40        101.0 
      2197.0         0.37        100.6 
      2198.0         0.37        101.8 
      2199.0         0.27        101.4 
      2200.0         0.30         99.3 
      2201.0         0.33         99.2 
      2202.0         0.43         97.8 
      2203.0         0.28         98.7 
      2204.0         0.33         98.8 
      2205.0         0.27         98.3 
      2206.0         0.43         98.6 
      2207.0         0.30         99.1 
      2208.0         0.27         98.2 
      2209.0         0.33         99.7 
      2210.0         0.30        115.9 
      2211.0         0.30        140.8 
      2212.0         0.62        123.9 
      2213.0         0.37        103.8 
      2214.0         0.43        107.7 
      2215.0         0.33        107.7 
      2216.0         0.20        106.6 
      2217.0         0.43        104.3 
      2218.0         0.23        102.2 
      2219.0         0.20        103.3 
      2220.0         0.27        105.5 
