~Version Information
 VERS.                                  2.0 : CWLS LAS VERSION
 WRAP.                                   NO : WRAPING MODE
 SWARE .                 MController 2.5.0N : SOFTWARE VERSION
~Well Information
 WELL.                          Yoshi 14-30 : WELL
 COMP.    Pioneer Natural Resources USA Inc : COMPANY
 FLD.                      Purgatoire River : FIELD
 LOC.                 SW/SW Sec30 T32S R65W : LOCATION
 DATE.                             02/17/06 : DATE(S) LOGGED
 SRVC.       Blanco Geological Services LLC : SERVICE COMPANY
 STAT.                             Colorado : STATE
 CNTY.                           Las Animas : COUNTY
 CTRY.                                  USA : COUNTRY
 API.                       05-071-08699-00 : API NUMBER
 STRT.FT                             350.00 : START DEPTH
 STOP.FT                            1300.00 : STOP DEPTH
 STEP.FT                               1.00 : DEPTH INCREMENT
 NULL.                                -9999 : NULL VALUE
~Curve information
 DEPTH.FT                                   :
 ROP.MIN/FT                                 :
 GAS.UNITS                                  :
~ASCII Log data
       350.0     -9999.00          0.9 
       351.0         0.13          0.8 
       352.0         0.40          0.8 
       353.0         0.13          0.7 
       354.0         0.73          0.9 
       355.0         0.40          1.1 
       356.0         0.30          0.6 
       357.0         0.10          0.6 
       358.0         1.35          0.9 
       359.0         0.13          1.1 
       360.0         0.70          0.9 
       361.0         0.70          1.0 
       362.0         0.52          0.7 
       363.0         1.63          1.1 
       364.0         0.17          0.6 
       365.0         0.23          0.4 
       366.0         0.68          0.7 
       367.0         0.70          0.9 
       368.0         1.28          0.9 
       369.0         0.77          1.1 
       370.0         0.13          0.6 
       371.0         1.00          0.7 
       372.0         0.33          0.5 
       373.0         0.25          0.2 
       374.0         1.33          1.0 
       375.0         0.80          0.9 
       376.0         0.52          0.7 
       377.0         0.87          1.0 
       378.0         0.13          0.7 
       379.0         8.52          0.8 
       380.0         0.27          0.1 
       381.0         0.13          0.1 
       382.0         0.13          0.0 
       383.0         0.13          1.4 
       384.0         0.13          1.4 
       385.0         0.17          1.4 
       386.0         0.13          1.4 
       387.0         0.13          1.5 
       388.0         0.13          1.5 
       389.0         0.15          1.8 
       390.0         0.13          1.8 
       391.0         0.13          1.5 
       392.0         0.13          1.5 
       393.0         0.13          1.9 
       394.0         0.13          1.9 
       395.0         0.13          1.1 
       396.0         0.13          1.1 
       397.0        12.63          1.6 
       398.0         0.17          0.2 
       399.0         0.17          0.7 
       400.0         0.17          0.4 
       401.0         0.20          0.1 
       402.0         0.13          0.1 
       403.0         0.17          0.5 
       404.0         0.17          1.0 
       405.0         0.17          1.0 
       406.0         0.13          1.4 
       407.0         0.17          1.4 
       408.0         0.17          2.3 
       409.0         0.17          2.3 
       410.0         0.17          2.3 
       411.0         2.38          4.0 
       412.0         0.13          2.3 
       413.0         0.17          2.3 
       414.0         0.13          2.1 
       415.0         0.13          2.2 
       416.0         0.13          2.0 
       417.0         0.17          2.1 
       418.0         0.13          2.1 
       419.0         0.13          2.2 
       420.0         0.17          1.7 
       421.0         0.13          1.8 
       422.0         0.13          2.2 
       423.0         0.17          1.8 
       424.0         0.13          1.9 
       425.0         0.15          1.9 
       426.0         0.17          2.1 
       427.0         0.13          1.7 
       428.0         0.13          2.3 
       429.0         0.17          1.8 
       430.0         0.13          1.6 
       431.0         0.17          1.8 
       432.0         0.13          1.8 
       433.0         0.17          2.0 
       434.0         0.13          2.0 
       435.0         0.17          2.1 
       436.0         0.13          2.1 
       437.0         0.17          1.6 
       438.0         0.17          1.8 
       439.0         0.17          1.8 
       440.0         0.17          2.0 
       441.0         4.77          2.1 
       442.0         0.13          1.1 
       443.0         0.17          1.4 
       444.0         0.13          1.5 
       445.0         0.17          1.3 
       446.0         0.13          1.1 
       447.0         0.17          1.5 
       448.0         0.17          1.2 
       449.0         0.13          1.0 
       450.0         0.13          1.0 
       451.0         0.17          1.7 
       452.0         0.13          1.0 
       453.0         0.17          0.9 
       454.0         0.13          1.1 
       455.0         0.17          1.0 
       456.0         0.13          1.3 
       457.0         0.17          0.8 
       458.0         0.13          0.6 
       459.0         0.17          0.7 
       460.0         0.13          1.0 
       461.0         0.18          1.6 
       462.0         0.13          1.6 
       463.0         0.17          1.3 
       464.0         0.17          1.8 
       465.0         0.17          1.8 
       466.0         0.13          1.3 
       467.0         0.20          1.3 
       468.0         0.23          1.4 
       469.0         0.17          1.0 
       470.0         0.17          1.0 
       471.0         3.25          1.1 
       472.0         0.47          0.6 
       473.0         0.60          0.6 
       474.0         0.47          0.3 
       475.0         0.30          0.4 
       476.0         0.35          0.5 
       477.0         0.33          0.4 
       478.0         0.43          0.8 
       479.0         0.47          0.4 
       480.0         0.47          0.2 
       481.0         0.53          0.4 
       482.0         0.37          0.1 
       483.0         0.40          3.7 
       484.0         0.38          3.6 
       485.0         0.43          3.5 
       486.0         0.50          3.2 
       487.0         0.57          3.6 
       488.0         0.43          3.5 
       489.0         0.47          3.4 
       490.0         0.53          3.2 
       491.0         0.48          3.2 
       492.0         0.43          2.9 
       493.0         0.47          3.0 
       494.0         0.43          2.9 
       495.0         0.47          2.9 
       496.0         0.50          3.1 
       497.0         0.47          2.9 
       498.0         0.45          2.8 
       499.0         0.40          2.5 
       500.0         0.47          2.7 
       501.0         3.65          3.0 
       502.0         0.30          2.1 
       503.0         0.57          2.4 
       504.0         0.73         35.4 
       505.0         0.52        126.1 
       506.0         0.50        201.1 
       507.0         0.57         98.8 
       508.0         0.57         17.3 
       509.0         0.60          4.5 
       510.0         0.57          3.3 
       511.0         0.42          3.2 
       512.0         0.43          2.7 
       513.0         0.47          2.6 
       514.0         0.50          2.6 
       515.0         0.47          3.1 
       516.0         0.47          3.1 
       517.0         0.50          2.4 
       518.0         0.52          2.1 
       519.0         0.43          1.6 
       520.0         0.47          1.5 
       521.0         0.47          1.4 
       522.0         0.50          1.4 
       523.0         0.50          1.8 
       524.0         0.73          1.5 
       525.0         0.68          1.6 
       526.0         0.40          1.4 
       527.0         0.33          1.4 
       528.0         0.33          1.3 
       529.0         0.33          1.0 
       530.0         0.37          1.1 
       531.0         2.98          2.1 
       532.0         0.40          1.3 
       533.0         0.63          0.9 
       534.0         0.62          1.1 
       535.0         0.53          0.7 
       536.0         0.47          0.9 
       537.0         0.50          0.8 
       538.0         0.47          0.7 
       539.0         0.37          0.7 
       540.0         0.40          0.4 
       541.0         0.42          0.6 
       542.0         0.47          0.7 
       543.0         0.43          0.5 
       544.0         0.47          0.4 
       545.0         0.43          0.9 
       546.0         0.40          0.9 
       547.0         0.43          0.9 
       548.0         0.40          1.2 
       549.0         0.38          0.8 
