~Version Information
VERS.                      2.0: CWLS Log ASCII Standard - VERSION 2.0
WRAP.                       NO: One line per depth step
~Well Information Block
STRT.FT               -10.2500: 
STOP.FT              2871.7500: 
STEP.FT                 0.2500: 
NULL.                -999.2500: 
COMP.          Pioneer Natural Resources: COMPANY
WELL.          Grey Goose 33-30: WELL
FLD.           Purgatorie River: FIELD
LOC.           2136' FSL & 2065' FEL--: LOCATION
STAT.                       CO: State
CNTY.               Las Animas: COUNTY
CTRY. USA : Country
SECT. 30  : Section
TOWN. 32S : Township
RANG. 67W : Range
SRVC.          Patterson Wireline: SERVICE COMPANY
DATE.          Tue Dec 06 12:24:57 2005: LOG DATE
API.            05 071 0854600: UNIQUE WELL ID
~Curve Information Block
DEPT.FT            0 000 00 00: Depth
CCL.                          : Casing Collar Locator
TT3.usec                      : CBL 3' Travel Time
AMP3.mV                       : CBL 3' Amplitude
GR.GAPI                       : Gamma Ray
~Parameter Information Block
~A  Depth       CCL         TT3         AMP3         GR     
# ...
   190.7500      0.0000    282.0172     75.0912     77.4835
   191.0000      0.0000    282.0301     75.0702     82.3863
   191.2500      0.0000    282.0340     75.0656     86.8057
   191.5000      0.0000    282.0308     75.0707     88.9559
   191.7500      0.0000    282.0257     75.0676     88.8647
   192.0000      0.0000    282.0223     75.0543     87.9800
   192.2500      0.0000    282.0192     75.0518     87.8270
   192.5000      0.0000    282.0113     75.0856     88.9703
   192.7500      0.0000    281.9960     75.1616     90.8207
   193.0000      0.0000    281.9763     75.2596     92.1301
   193.2500      0.0000    281.9578     75.3493     91.8200
   193.5000      0.0000    281.9445     75.4110     89.7383
   193.7500      0.0000    281.9367     75.4457     86.7638
   194.0000      0.0000    281.9325     75.4705     84.1465
   194.2500      0.0000    281.9302     75.5057     82.8178
   194.5000      0.0000    281.9296     75.5585     83.1772
   194.7500      0.0000    281.9308     75.6169     85.0032
   195.0000      0.0000    281.9337     75.6599     87.3789
   195.2500      0.0000    281.9370     75.6766     88.9005
   195.5000      0.0000    281.9406     75.6609     88.1257
   195.7500      0.0000    281.9529     75.5767     84.2047
   196.0000      0.0000    282.0075     75.2880     77.6567
   196.2500      0.0000    282.1916     74.4898     70.5529
   196.5000      0.0000    282.6614     72.7185     65.2901
   196.7500      0.0000    283.5849     69.5718     62.8055
   197.0000      0.0000    284.9899     65.1295     62.3177
   197.2500      0.0000    286.6380     60.2338     62.8698
   197.5000      0.0000    288.1089     56.1721     64.4716
   197.7500      0.0000    289.0744     53.8441     67.4289
   198.0000      0.0000    289.4977     53.1960     71.3575
   198.2500      0.0000    289.5701     53.4743     75.5904
   198.5000      2.0000    289.5093     53.9060     80.0998
   198.7500      0.0000    289.4287     54.0918     85.3664
   199.0000      0.0000    289.3203     54.0254     91.6822
   199.2500      0.0000    289.0733     54.0502     98.9932
   199.5000      0.0000    288.5053     54.7703    106.9227
   199.7500      0.0000    287.4638     56.7104    114.4768
   200.0000      0.0000    285.9890     59.8989    120.2194
   200.2500      0.0000    284.3798     63.8379    123.2738
   200.5000      0.0000    283.0297     67.8359    123.7504
   200.7500      0.0000    282.1640     71.2902    121.8669
   201.0000      0.0000    281.7450     73.8183    117.3591
   201.2500      0.0000    281.5953     75.3531    110.2973
   201.5000      0.0000    281.5568     76.1177    101.8205
   201.7500      0.0000    281.5487     76.4337     93.5575
   202.0000      0.0000    281.5453     76.5416     86.8287
   202.2500      0.0000    281.5415     76.5629     82.6040
   202.5000      0.0000    281.5371     76.5489     81.6273
   202.7500      0.0000    281.5324     76.5189     84.1810
   203.0000      0.0000    281.5285     76.4802     89.7177
   203.2500      0.0000    281.5266     76.4376     96.7562
   203.5000      0.0000    281.5271     76.3978    103.3057
   203.7500      0.0000    281.5297     76.3682    107.7786
   204.0000      0.0000    281.5328     76.3533    109.8978
   204.2500      0.0000    281.5346     76.3546    110.8245
   204.5000      0.0000    281.5341     76.3695    112.1499
   204.7500      0.0000    281.5310     76.3903    114.5428
   205.0000      0.0000    281.5247     76.4069    117.3691
   205.2500      0.0000    281.5154     76.4138    119.4216
   205.5000      0.0000    281.5049     76.4135    119.7228
   205.7500      0.0000    281.4964     76.4104    117.9733
   206.0000      0.0000    281.4919     76.4048    114.9489
   206.2500      0.0000    281.4897     76.3947    112.5294
   206.5000      0.0000    281.4864     76.3836    112.7842
   206.7500      0.0000    281.4803     76.3792    116.4946
   207.0000      0.0000    281.4720     76.3859    122.2579
   207.2500      0.0000    281.4633     76.4035    127.1718
   207.5000      0.0000    281.4558     76.4325    128.8998
   207.7500      0.0000    281.4497     76.4753    127.2638
   208.0000      0.0000    281.4461     76.5273    123.8183
   208.2500      0.0000    281.4465     76.5727    120.2294
   208.5000      0.0000    281.4520     76.5946    117.4127
   208.7500      0.0000    281.4618     76.5881    115.7587
   209.0000      0.0000    281.4735     76.5606    115.4509
   209.2500      0.0000    281.4849     76.5206    116.4032
   209.5000      0.0000    281.4943     76.4726    118.0776
   209.7500      0.0000    281.4999     76.4249    119.6418
   210.0000      0.0000    281.4999     76.3941    120.4617
   210.2500      0.0000    281.4940     76.3952    120.2057
   210.5000      0.0000    281.4834     76.4274    118.4950
   210.7500      0.0000    281.4696     76.4747    115.2413
   211.0000      0.0000    281.4539     76.5186    111.6819
   211.2500      0.0000    281.4376     76.5478    110.3385
   211.5000      0.0000    281.4233     76.5577    113.1120
   211.7500      0.0000    281.4141     76.5484    119.4779
   212.0000      0.0000    281.4117     76.5292    126.9399
   212.2500      0.0000    281.4154     76.5175    132.9758
   212.5000      0.0000    281.4231     76.5250    136.1424
   212.7500      0.0000    281.4324     76.5422    135.9322
   213.0000      0.0000    281.4413     76.5475    132.7123
   213.2500      0.0000    281.4478     76.5328    127.8799
   213.5000      0.0000    281.4514     76.5124    123.2319
   213.7500      0.0000    281.4525     76.5059    119.9397
   214.0000      0.0000    281.4514     76.5175    118.5062
   214.2500      0.0000    281.4471     76.5364    119.4595
   214.5000      0.0000    281.4377     76.5523    123.2181
   214.7500      0.0000    281.4223     76.5658    129.0852
   215.0000      0.0000    281.4027     76.5817    135.1088
   215.2500      0.0000    281.3828     76.5978    139.4424
   215.5000      0.0000    281.3668     76.6013    141.4633
   215.7500      0.0000    281.3582     76.5766    141.3773
   216.0000      0.0000    281.3587     76.5180    139.4592
   216.2500      0.0000    281.3674     76.4385    136.0834
   216.5000      0.0000    281.3807     76.3633    131.8658
   216.7500      0.0000    281.3935     76.3137    127.5220
   217.0000      0.0000    281.4023     76.2948    124.0032
   217.2500      0.0000    281.4065     76.2960    122.4547
   217.5000      0.0000    281.4077     76.3037    123.2352
   217.7500      0.0000    281.4072     76.3179    125.1456
   218.0000      0.0000    281.4043     76.3542    126.4106
   218.2500      0.0000    281.3982     76.4264    126.2941
   218.5000      0.0000    281.3893     76.5294    125.1242
   218.7500      0.0000    281.3799     76.6373    123.0234
   219.0000      0.0000    281.3727     76.7174    119.4673
   219.2500      0.0000    281.3688     76.7459    114.1396
   219.5000      0.0000    281.3673     76.7197    107.6013
   219.7500      0.0000    281.3657     76.6587    100.9109
   220.0000      0.0000    281.3624     76.5953     94.8951
   220.2500      0.0000    281.3579     76.5570     89.9630
   220.5000      0.0000    281.3538     76.5573     86.4658
   220.7500      0.0000    281.3513     76.5953     84.9962
   221.0000      0.0000    281.3499     76.6577     86.1637
   221.2500      0.0000    281.3485     76.7216     89.9445
   221.5000      0.0000    281.3469     76.7656     95.1745
   221.7500      0.0000    281.3466     76.7817     99.7490
   222.0000      0.0000    281.3497     76.7763    101.6874
   222.2500      0.0000    281.3565     76.7606    100.4254
   222.5000      0.0000    281.3651     76.7420     97.1962
   222.7500      0.0000    281.3729     76.7256     94.0897
   223.0000      0.0000    281.3781     76.7179     92.6318
   223.2500      0.0000    281.3792     76.7248     92.9745
   223.5000      0.0000    281.3746     76.7471     94.2777
   223.7500      0.0000    281.3629     76.7794     95.7886
   224.0000      0.0000    281.3449     76.8151     97.2553
