~Version Information
VERS.                      2.0: CWLS Log ASCII Standard - VERSION 2.0
WRAP.                       NO: One line per depth step
~Well Information Block
STRT.FT                 0.0000: 
STOP.FT               968.2500: 
STEP.FT                 0.2500: 
NULL.                -999.2500: 
COMP.          Pioneer Natural Resources: COMPANY
WELL.              Atlas 32-18: WELL
FLD.           Purgatorie River: FIELD
LOC.           1892' FNL & 1456' FEL: LOCATION
PROV.                 Colorado: PROVINCE
CNTY.               Las Animas: COUNTRY
SRVC.                Patterson: SERVICE COMPANY
DATE.          Fri Dec 02 11:37:22 2005: LOG DATE
UWI.                          : UNIQUE WELL ID
~Curve Information Block
DEPT.FT            0 000 00 00: Depth
CCL.                          : Casing Collar Locator
TT3.usec                      : CBL 3' Travel Time
AMP3.mV                       : CBL 3' Amplitude
GR.GAPI                       : Gamma Ray
~Parameter Information Block
~A  Depth       CCL         TT3         AMP3         GR     
# ...
   703.5000      0.0000    698.8082      9.4569     36.7735
   703.7500      0.0000    693.6765      9.4000     35.2045
   704.0000      0.0000    690.5910      9.3364     35.0522
   704.2500      0.0000    693.7744      9.3165     35.3532
   704.5000      0.0000    698.8821      9.3549     35.7097
   704.7500      0.0000    698.8539      9.4163     36.6471
   705.0000      0.0000    693.7457      9.4502     38.8539
   705.2500      0.0000    690.6595      9.4315     42.2145
   705.5000      0.0000    694.1033      9.3696     45.6084
   705.7500      0.0000    700.6547      9.2846     47.4850
   706.0000      0.0000    704.6412      9.1858     46.7147
   706.2500      0.0000    705.5045      9.0984     43.3371
   706.5000      0.0000    704.6450      9.0762     38.6842
   706.7500      0.0000    700.2253      9.1465     34.4823
   707.0000      0.0000    691.8973      9.2791     31.6693
   707.2500      0.0000    683.8520      9.4384     30.1715
   707.5000      0.0000    679.2415      9.6270     29.5603
   707.7500      0.0000    677.4157      9.8581     29.4792
   708.0000      0.0000    676.7993     10.1268     29.5475
   708.2500      0.0000    676.7646     10.4259     29.3603
   708.5000      0.0000    677.3696     10.7634     28.7735
   708.7500      0.0000    679.3737     11.1445     28.0313
   709.0000      0.0000    684.3134     11.5337     27.5414
   709.2500      0.0000    692.3025     11.8559     27.6119
   709.5000      0.0000    699.0445     12.0219     28.3344
   709.7500      0.0000    698.9641     11.9670     29.5224
   710.0000      0.0000    693.0037     11.7303     30.7761
   710.2500      0.0000    688.2193     11.4724     31.7850
   710.5000      0.0000    688.4294     11.3457     32.5842
   710.7500      0.0000    690.7461     11.4026     33.4737
   711.0000      0.0000    692.8940     11.6090     34.7294
   711.2500      0.0000    697.4901     11.8716     36.4233
   711.5000      0.0000    705.6166     12.0929     38.4205
   711.7500      0.0000    713.4806     12.2152     40.4324
   712.0000      0.0000    718.0161     12.2053     42.1337
   712.2500      0.0000    719.7810     12.0729     43.5318
   712.5000      0.0000    720.3575     11.8945     45.4118
   712.7500      0.0000    720.5378     11.7605     49.2273
   713.0000      0.0000    720.5979     11.7276     56.2323
   713.2500      0.0000    720.6988     11.8136     66.3887
   713.5000      0.0000    720.8775     11.9840     77.8234
   713.7500      0.0000    721.0576     12.1660     87.4595
   714.0000      0.0000    721.1802     12.2850     92.7711
   714.2500      0.0000    721.2660     12.2830     93.4060
   714.5000      0.0000    721.3352     12.1487     91.1277
   714.7500      0.0000    721.3770     11.9314     88.1564
   715.0000      0.0000    721.4095     11.7032     85.7177
   715.2500      0.0000    721.4290     11.5062     84.0317
   715.5000      0.0000    721.3464     11.3486     82.9957
   715.7500      0.0000    721.1351     11.2443     82.5086
   716.0000      0.0000    720.9356     11.2051     82.4227
   716.2500      0.0000    720.8546     11.1965     82.5050
   716.5000      0.0000    720.7867     11.1510     82.4869
   716.7500      0.0000    720.4434     11.0239     82.3109
   717.0000      0.0000    719.0875     10.8297     82.4134
   717.2500      0.0000    715.2465     10.6237     83.4005
   717.5000      0.0000    708.4333     10.4614     85.1396
   717.7500      0.0000    702.2184     10.3771     86.4282
   718.0000      0.0000    702.1078     10.3660     85.9494
   718.2500      0.0000    708.4006     10.3844     83.5273
   718.5000      0.0000    715.7253     10.3945     80.3268
   718.7500      0.0000    720.0696     10.3933     77.9135
   719.0000      0.0000    721.5787     10.3863     77.1738
   719.2500      0.0000    721.5847     10.3660     77.9818
   719.5000      0.0000    720.1082     10.3283     79.6201
   719.7500      0.0000    715.3516     10.2844     81.3196
   720.0000      0.0000    704.5205     10.2468     82.5773
   720.2500      0.0000    685.4536     10.2265     83.3883
   720.5000      0.0000    659.6215     10.2427     84.2552
   720.7500      0.0000    634.4735     10.3168     85.6437
   721.0000      0.0000    619.0512     10.4384     87.1604
   721.2500      0.0000    619.7202     10.5380     87.4451
   721.5000      0.0000    637.6445     10.5443     85.1810
   721.7500      0.0000    663.9544     10.4630     80.3074
   722.0000      0.0000    687.5997     10.3496     74.2325
   722.2500      0.0000    704.7836     10.2490     69.0193
   722.5000      0.0000    715.4815     10.1811     66.4569
   722.7500      0.0000    720.3347     10.1322     67.4578
   723.0000      0.0000    720.6135     10.0633     71.6078
   723.2500      0.0000    717.0346      9.9393     77.0983
   723.5000      0.0000    710.3550      9.7451     81.4972
   723.7500      0.0000    702.5516      9.4956     82.8948
   724.0000      0.0000    694.8386      9.2262     80.5130
   724.2500      0.0000    687.0586      8.9562     74.6576
   724.5000      0.0000    680.5699      8.6895     66.4524
   724.7500      0.0000    677.8516      8.4508     57.4512
   725.0000      0.0000    680.0062      8.2724     49.1237
   725.2500      0.0000    686.0281      8.1553     42.5097
   725.5000      0.0000    693.3907      8.0625     38.1824
   725.7500      0.0000    700.7781      7.9224     36.2697
   726.0000      0.0000    708.3496      7.6356     36.4110
   726.2500      0.0000    713.7782      7.1411     37.9524
   726.5000      0.0000    713.2576      6.5398     40.3632
   726.7500      0.0000    711.0764      6.1038     43.3619
   727.0000      0.0000    726.8718      5.9871     46.5526
   727.2500      0.0000    781.4933      5.9849     49.0189
   727.5000      0.0000    868.8602      5.8883     49.5384
   727.7500      0.0000    951.2325      5.8524     47.5195
   728.0000      0.0000    995.4733      6.0497     43.8997
   728.2500     -2.0000   1007.8108      6.3741     40.9108
   728.5000      0.0000   1008.6492      6.6859     40.6013
   728.7500      0.0000   1000.0654      6.9705     43.5106
   729.0000      0.0000    984.8231      7.3010     48.9037
   729.2500      0.0000    964.8511      7.9129     56.1589
   729.5000      0.0000    919.9630      9.1351     65.5185
   729.7500      0.0000    843.2079     10.8706     77.2842
   730.0000      0.0000    768.6298     12.3259     90.4118
   730.2500      0.0000    728.5757     12.8573    102.1749
   730.5000      0.0000    718.8932     12.7362    109.5916
   730.7500      0.0000    719.6874     12.5233    111.4830
   731.0000      0.0000    720.3727     12.3822    109.1299
   731.2500      0.0000    718.8887     12.2713    104.8758
   731.5000      0.0000    714.0693     12.2005    100.3196
   731.7500      0.0000    705.1281     12.1757     95.9279
   732.0000      0.0000    695.1694     12.1592     91.8698
   732.2500      0.0000    690.6360     12.1028     88.5349
   732.5000      0.0000    694.8840     11.9533     86.1865
   732.7500      0.0000    703.5959     11.7151     84.5428
   733.0000      0.0000    708.1991     11.4861     82.9804
   733.2500      0.0000    704.2767     11.3571     81.1006
   733.5000      0.0000    696.2427     11.3394     78.9091
   733.7500      0.0000    692.9175     11.3798     76.4282
   734.0000      0.0000    698.0078     11.4060     73.3830
   734.2500      0.0000    707.1747     11.3749     69.5343
   734.5000      0.0000    715.3449     11.2912     65.2523
   734.7500      0.0000    721.0628     11.1927     61.4376
   735.0000      0.0000    723.6532     11.1181     58.8736
   735.2500      0.0000    723.4298     11.0904     57.9533
   735.5000      0.0000    722.3326     11.1006     58.9917
   735.7500      0.0000    721.5842     11.0923     62.3247
   736.0000      0.0000    721.3497     11.0068     67.8069
   736.2500      0.0000    722.2559     10.8451     74.2754
   736.5000      0.0000    725.7505     10.6571     79.6636
   736.7500      0.0000    732.1122     10.4772     81.9003
