~Version Information
VERS.                      2.0: CWLS Log ASCII Standard - VERSION 2.0
WRAP.                       NO: One line per depth step
~Well Information Block
STRT.FT               335.0000: 
STOP.FT              1154.7000: 
STEP.FT                 0.1000: 
NULL.                -999.2500: 
COMP.          Pioneer Natural Resources: COMPANY
WELL.             Croc 42-9 Tr: WELL
FLD.           Purgatoire River: FIELD
LOC.           2429' FNL & 315' FEL--: LOCATION
STAT.                 Colorado: State
CNTY.               Las Animas: COUNTY
CTRY. USA : Country
SECT. 9 : Section
TOWN. 32S : Township
RANG. 66W : Range
SRVC.                Patterson: SERVICE COMPANY
DATE.          Fri Oct 14 07:56:23 2005: LOG DATE
API.           05 071 08550 00: UNIQUE WELL ID
~Curve Information Block
DEPT.FT            0 000 00 00: Depth
DCAL.in                       : CDL Caliper
RHOB.g/cc                     : CDL Bulk Density
RHOC.g/cc                     : CDL Density Correction
DPOR.pu                       : CDL Density Porosity
NPOR.pu                       : Neutron Porosity
GR.GAPI                       : Gamma Ray
~Parameter Information Block
~A  Depth       DCAL        RHOB        RHOC        DPOR        NPOR         GR     
# ...
   805.4000      8.0189      2.5728      0.0260      4.6784     30.2173    148.4625
   805.5000      8.0212      2.5628      0.0466      5.2853     30.0960    144.1355
   805.6000      8.0212      2.5622      0.0396      5.3232     29.9519    145.9790
   805.7000      8.0212      2.5655      0.0616      5.1241     29.7232    149.2626
   805.8000      8.0218      2.5640      0.0567      5.2128     29.4435    149.5070
   805.9000      8.0218      2.5609      0.0094      5.3999     29.3121    145.9229
   806.0000      8.0209      2.5688      0.0326      4.9236     29.3291    140.5571
   806.1000      8.0209      2.5855      0.0375      3.9063     29.4374    136.6584
   806.2000      8.0209      2.5988      0.0530      3.1021     29.5433    134.8112
   806.3000      8.0200      2.6047      0.0580      2.7438     29.5700    134.3059
   806.4000      8.0200      2.6080      0.0417      2.5424     29.5681    133.6822
   806.5000      8.0198      2.6088      0.0647      2.4959     29.6765    130.6098
   806.6000      8.0198      2.6055      0.0593      2.6988     30.0896    127.4229
   806.7000      8.0198      2.6042      0.0225      2.7766     30.7348    128.6269
   806.8000      8.0194      2.6075      0.0220      2.5745     31.4788    133.9551
   806.9000      8.0194      2.6061      0.0412      2.6622     32.0912    138.9575
   807.0000      8.0197      2.5986     -0.0059      3.1162     32.2107    140.5858
   807.1000      8.0197      2.5916      0.0333      3.5404     31.9021    139.9846
   807.2000      8.0197      2.5787      0.0270      4.3198     31.5026    140.2007
   807.3000      8.0190      2.5607     -0.0020      5.4094     31.0431    141.3930
   807.4000      8.0190      2.5471      0.0513      6.2375     30.7278    141.2781
   807.5000      8.0161      2.5351      0.0084      6.9666     30.9852    141.2432
   807.6000      8.0161      2.5252      0.0163      7.5660     31.8431    141.6209
   807.7000      8.0161      2.5216      0.0568      7.7791     32.5949    142.1167
   807.8000      8.0142      2.5191      0.0572      7.9358     32.7277    144.5499
   807.9000      8.0142      2.5100      0.0460      8.4821     32.4479    148.4776
   808.0000      8.0149      2.4975      0.0292      9.2432     32.0568    151.3846
   808.1000      8.0149      2.4931      0.0213      9.5068     31.6720    151.0143
   808.2000      8.0149      2.4996      0.0472      9.1131     31.0692    145.5931
   808.3000      8.0170      2.5109      0.0526      8.4326     30.2499    136.9078
   808.4000      8.0170      2.5271      0.0554      7.4461     29.6529    128.4487
   808.5000      8.0202      2.5433      0.0933      6.4660     29.4095    122.3663
   808.6000      8.0202      2.5532      0.0184      5.8673     29.3730    122.6025
   808.7000      8.0202      2.5614      0.0648      5.3725     29.3554    130.6309
   808.8000      8.0216      2.5604      0.0652      5.4320     29.4565    139.7439
   808.9000      8.0216      2.5479      0.0451      6.1900     29.6458    142.4623
   809.0000      8.0215      2.5464      0.0267      6.2764     29.3187    138.0550
   809.1000      8.0215      2.5666      0.0995      5.0520     28.4730    132.9642
   809.2000      8.0215      2.5911      0.0711      3.5709     27.6915    131.8541
   809.3000      8.0203      2.6065      0.0817      2.6353     27.1406    131.4664
   809.4000      8.0203      2.6150      0.0603      2.1193     26.9532    127.8263
   809.5000      8.0190      2.6246      0.0602      1.5395     27.2344    123.2802
   809.6000      8.0190      2.6356      0.0814      0.8727     27.8650    122.4721
   809.7000      8.0190      2.6342      0.1051      0.9603     28.7586    123.8626
   809.8000      8.0197      2.6160      0.0531      2.0635     29.6031    125.4697
   809.9000      8.0197      2.5977      0.0302      3.1671     30.0012    129.8570
   810.0000      8.0187      2.5892      0.0614      3.6851     30.0376    136.4077
   810.1000      8.0187      2.5854      0.0572      3.9140     30.2223    141.3841
   810.2000      8.0187      2.5889      0.0479      3.7007     30.5675    146.6737
   810.3000      8.0149      2.5998      0.0780      3.0403     30.6517    155.3513
   810.4000      8.0149      2.6073      0.0664      2.5881     30.4726    161.3510
   810.5000      8.0143      2.6081      0.0645      2.5396     30.4018    156.9848
   810.6000      8.0143      2.6016      0.0859      2.9316     30.6349    146.5186
   810.7000      8.0143      2.5919      0.0441      3.5227     31.1571    138.6679
   810.8000      8.0179      2.5920      0.0579      3.5134     31.4436    135.6709
   810.9000      8.0179      2.6083      0.0467      2.5293     31.0730    133.2814
   811.0000      8.0199      2.6351      0.0712      0.9036     30.5657    129.7207
   811.1000      8.0199      2.6553      0.0780     -0.3202     30.3176    128.3003
   811.2000      8.0199      2.6502      0.0654     -0.0115     30.0236    130.7001
   811.3000      8.0202      2.6223      0.0299      1.6800     29.5330    134.2987
   811.4000      8.0202      2.6013     -0.0207      2.9518     29.3200    135.5168
   811.5000      8.0220      2.6110      0.0294      2.3609     29.5792    134.3829
   811.6000      8.0220      2.6349      0.0514      0.9156     29.9668    133.1375
   811.7000      8.0220      2.6449      0.0515      0.3089     30.1741    131.0702
   811.8000      8.0235      2.6439      0.0046      0.3698     29.8686    123.1220
   811.9000      8.0235      2.6500      0.0265     -0.0028     29.0756    108.5716
   812.0000      8.0222      2.6628      0.0346     -0.7729     28.2007     96.1528
   812.1000      8.0222      2.6708      0.0487     -1.2598     27.7469     93.6347
   812.2000      8.0222      2.6732      0.0187     -1.4068     27.9763    101.1815
   812.3000      8.0201      2.6737      0.0360     -1.4378     28.3419    113.3968
   812.4000      8.0201      2.6699      0.0116     -1.2054     28.2898    121.2945
   812.5000      8.0190      2.6630      0.0035     -0.7895     28.3995    119.2942
   812.6000      8.0190      2.6594     -0.0154     -0.5704     29.1248    113.2995
   812.7000      8.0190      2.6580      0.0013     -0.4872     29.6479    113.9788
   812.8000      8.0143      2.6530     -0.0237     -0.1829     29.5902    118.4978
   812.9000      8.0143      2.6417      0.0105      0.5013     29.5658    118.7621
   813.0000      8.0053      2.6280     -0.0316      1.3306     29.6656    116.7234
   813.1000      8.0053      2.6210     -0.0176      1.7580     29.6783    117.7900
   813.2000      8.0053      2.6255     -0.0088      1.4865     29.7663    122.4975
   813.3000      7.9972      2.6410      0.0269      0.5445     29.9193    127.2239
   813.4000      7.9972      2.6599      0.0333     -0.6019     30.0780    127.9828
   813.5000      7.9915      2.6694      0.0390     -1.1767     30.2546    126.7622
   813.6000      7.9915      2.6639      0.0551     -0.8407     30.2759    127.2208
   813.7000      7.9915      2.6460      0.0253      0.2426     29.9724    128.6978
   813.8000      7.9882      2.6213      0.0206      1.7375     29.4878    131.4573
   813.9000      7.9882      2.5985     -0.0050      3.1232     29.1236    132.9231
   814.0000      7.9880      2.5900     -0.0119      3.6334     28.7735    129.2622
   814.1000      7.9880      2.6044     -0.0019      2.7637     28.3111    124.7867
   814.2000      7.9880      2.6298      0.0545      1.2218     28.1115    123.7076
   814.3000      7.9888      2.6414      0.0613      0.5193     28.2011    124.5822
   814.4000      7.9888      2.6337      0.0534      0.9892     28.1958    125.0982
   814.5000      7.9888      2.6208      0.0334      1.7725     27.9856    124.9058
   814.6000      7.9888      2.6068      0.0858      2.6185     27.8270    125.8083
   814.7000      7.9888      2.5910      0.0357      3.5779     28.0593    125.3140
   814.8000      7.9887      2.5797      0.0734      4.2578     28.5298    121.0679
   814.9000      7.9887      2.5714      0.0744      4.7632     28.7229    117.9333
