~Version Information
VERS.                      2.0: CWLS Log ASCII Standard - VERSION 2.0
WRAP.                       NO: One line per depth step
~Well Information Block
STRT.FT               -10.0000: 
STOP.FT              2073.0000: 
STEP.FT                 0.2500: 
NULL.                -999.2500: 
COMP.          Pioneer Natural Resources: COMPANY
WELL.              Joplin 44-5: WELL
FLD.           Purgatorie River: FIELD
LOC.           262' FSL & 418' FEL--: LOCATION
PROV.                       CO: PROVINCE
CNTY.               Las Animas: COUNTRY
SRVC.          Patterson Wireline: SERVICE COMPANY
DATE.          Mon Dec 19 09:21:33 2005: LOG DATE
UWI.           05 071 08623 00: UNIQUE WELL ID
~Curve Information Block
DEPT.FT            0 000 00 00: Depth
CCL.                          : Casing Collar Locator
TT3.usec                      : CBL 3' Travel Time
AMP3.mV                       : CBL 3' Amplitude
GR.GAPI                       : Gamma Ray
~Parameter Information Block
~A  Depth       CCL         TT3         AMP3         GR     
# ...
   124.0000      0.0000    759.4360      8.0285     52.9923
   124.2500      0.0000    763.5486      7.8346     52.3455
   124.5000      0.0000    771.0668      7.6696     52.8197
   124.7500      0.0000    785.9080      7.5728     54.3703
   125.0000      0.0000    808.5099      7.5564     56.4509
   125.2500      0.0000    833.0845      7.6107     58.6953
   125.5000      0.0000    851.8262      7.7095     60.9725
   125.7500      0.0000    864.5385      7.8190     62.8342
   126.0000      0.0000    879.7813      7.9057     63.6520
   126.2500      0.0000    901.3382      7.9450     63.2811
   126.5000      0.0000    917.4177      7.9305     62.0995
   126.7500      0.0000    910.7146      7.8797     60.5193
   127.0000      0.0000    878.1773      7.8264     58.7536
   127.2500      0.0000    834.9757      7.7985     56.9863
   127.5000      0.0000    799.9704      7.7969     55.5297
   127.7500      0.0000    782.8901      7.7928     54.5941
   128.0000      0.0000    784.7191      7.7492     53.9349
   128.2500      0.0000    803.2333      7.6489     53.1680
   128.5000      0.0000    834.0746      7.5015     52.5454
   128.7500      0.0000    868.7736      7.3250     52.8365
   129.0000      0.0000    896.3513      7.1301     54.2819
   129.2500      0.0000    909.0209      6.9247     56.2497
   129.5000      0.0000    906.0927      6.7256     58.0255
   129.7500      0.0000    892.2357      6.5563     59.3665
   130.0000      0.0000    873.0824      6.4332     60.1729
   130.2500      0.0000    853.0369      6.3589     60.0930
   130.5000      0.0000    835.7592      6.3280     58.7598
   130.7500      0.0000    824.5703      6.3356     56.4112
   131.0000      0.0000    821.1852      6.3747     54.0574
   131.2500      0.0000    823.8585      6.4331     52.8034
   131.5000      0.0000    827.4865      6.4985     53.0443
   131.7500      0.0000    827.3841      6.5693     54.4652
   132.0000      0.0000    823.5905      6.6527     56.5462
   132.2500      0.0000    819.9376      6.7477     58.7318
   132.5000      0.0000    818.3433      6.8363     60.3356
   132.7500      0.0000    816.1534      6.8973     60.8838
   133.0000      0.0000    810.2822      6.9270     60.7881
   133.2500      0.0000    802.1047      6.9409     61.2820
   133.5000      0.0000    797.0729      6.9549     63.2100
   133.7500      0.0000    800.8307      6.9695     65.9059
   134.0000      0.0000    815.8664      6.9720     67.6347
   134.2500      0.0000    839.3060      6.9498     67.1273
   134.5000      0.0000    862.9131      6.9000     64.4157
   134.7500      0.0000    878.2952      6.8322     60.3983
   135.0000      0.0000    885.2070      6.7639     56.1257
   135.2500      0.0000    893.5551      6.7118     52.6107
   135.5000      0.0000    913.1333      6.6825     50.8722
   135.7500      0.0000    939.9764      6.6747     51.6512
   136.0000      0.0000    956.0146      6.6825     54.8659
   136.2500      0.0000    945.3516      6.6963     59.3565
   136.5000      0.0000    909.5910      6.7031     63.3436
   136.7500      0.0000    864.9640      6.6957     65.4262
   137.0000      0.0000    826.6991      6.6794     65.2999
   137.2500      0.0000    799.2792      6.6670     63.5736
   137.5000      0.0000    779.5231      6.6655     61.1131
   137.7500      0.0000    763.9440      6.6701     58.6342
   138.0000      0.0000    751.7964      6.6710     56.6594
   138.2500      0.0000    743.5891      6.6650     55.4945
   138.5000      0.0000    739.0592      6.6571     55.1534
   138.7500      0.0000    736.7977      6.6530     55.3903
   139.0000      0.0000    734.8774      6.6523     55.9783
   139.2500      0.0000    731.4512      6.6525     57.0290
   139.5000      0.0000    725.2701      6.6575     58.8282
   139.7500      0.0000    716.4039      6.6783     61.2889
   140.0000      0.0000    706.6490      6.7211     63.9542
   140.2500      0.0000    698.9537      6.7764     66.7492
   140.5000      0.0000    696.3331      6.8222     70.4228
   140.7500      0.0000    701.1836      6.8412     75.9660
   141.0000      0.0000    714.6419      6.8362     83.4403
   141.2500      0.0000    735.3678      6.8280     91.2244
   141.5000      0.0000    759.0999      6.8359     96.6846
   141.7500      0.0000    780.6367      6.8595     98.1521
   142.0000      0.0000    796.6682      6.8753     96.3294
   142.2500      0.0000    806.5573      6.8547     93.6347
   142.5000      0.0000    811.2637      6.7897     92.3812
   142.7500      0.0000    812.4130      6.7019     93.5933
   143.0000      0.0000    811.8034      6.6258     97.0019
   143.2500      0.0000    810.8308      6.5810    101.5922
   143.5000      0.0000    810.1422      6.5615    106.1077
   143.7500      0.0000    809.8106      6.5493    109.4241
   144.0000      0.0000    809.6934      6.5345    111.0520
   144.2500      0.0000    809.5963      6.5184    111.4250
   144.5000      0.0000    809.2086      6.5060    111.2148
   144.7500      0.0000    807.9138      6.4999    110.2271
   145.0000      0.0000    804.7449      6.5021    107.5255
   145.2500      0.0000    798.8668      6.5126    102.9070
   145.5000      0.0000    790.4742      6.5250     97.6882
   145.7500      0.0000    781.2214      6.5272     93.6494
   146.0000      0.0000    773.4493      6.5095     91.5438
   146.2500      0.0000    768.9116      6.4723     90.9850
   146.5000      0.0000    768.4532      6.4276     91.5076
   146.7500      0.0000    772.6292      6.3922     93.1647
   147.0000      0.0000    781.6011      6.3769     96.0567
   147.2500      0.0000    793.6734      6.3779     99.8929
   147.5000      0.0000    804.5314      6.3800    104.2179
   147.7500      0.0000    809.4542      6.3695    108.4230
   148.0000      0.0000    806.9548      6.3434    111.4881
   148.2500      0.0000    799.6774      6.3066    112.6415
   148.5000      0.0000    791.6102      6.2625    112.6302
   148.7500      0.0000    785.2827      6.2091    113.5897
   149.0000      0.0000    781.6852      6.1438    117.0595
   149.2500      0.0000    781.1701      6.0678    122.3029
   149.5000      0.0000    783.0091      5.9876    126.7673
   149.7500      0.0000    784.7942      5.9138    128.1313
   150.0000      0.0000    783.9518      5.8564    125.9638
   150.2500      0.0000    780.2721      5.8196    121.7174
   150.5000      0.0000    776.4193      5.7999    117.4193
   150.7500      0.0000    776.0292      5.7908    114.4430
   151.0000      0.0000    781.7296      5.7879    113.2864
   151.2500      0.0000    794.8154      5.7911    113.9045
   151.5000      0.0000    815.6509      5.8041    115.7603
   151.7500      0.0000    842.3765      5.8316    117.6422
   152.0000      0.0000    868.4639      5.8723    117.9938
   152.2500      0.0000    884.3372      5.9140    115.8830
   152.5000      0.0000    884.8887      5.9383    111.6788
   152.7500      0.0000    874.2074      5.9332    106.6759
   153.0000      0.0000    860.4780      5.9020    102.2001
   153.2500      0.0000    848.1424      5.8615     99.3161
   153.5000      0.0000    837.2922      5.8291     98.9056
   153.7500      0.0000    828.7522      5.8142    101.2128
   154.0000      0.0000    826.4478      5.8206    105.2415
   154.2500      0.0000    834.0215      5.8521    109.1035
   154.5000      0.0000    849.9182      5.9136    111.0556
   154.7500      0.0000    866.1951      6.0062    110.1757
   155.0000      0.0000    872.1719      6.1221    106.4679
   155.2500      0.0000    860.7448      6.2453    100.6453
   155.5000      0.0000    833.4809      6.3558     93.6095
   155.7500      0.0000    799.9624      6.4378     85.9748
   156.0000      0.0000    770.9995      6.4924     78.2053
   156.2500      0.0000    752.0891      6.5435     71.0678
   156.5000      0.0000    742.7755      6.6239     65.5557
   156.7500      0.0000    740.1669      6.7475     62.2558
   157.0000      0.0000    742.1011      6.8947     61.1214
   157.2500      0.0000    747.9426      7.0277     62.0374
