~Version Information
VERS.                      2.0: CWLS Log ASCII Standard - VERSION 2.0
WRAP.                       NO: One line per depth step
~Well Information Block
STRT.FT               245.0000: 
STOP.FT              1273.7000: 
STEP.FT                 0.1000: 
NULL.                -999.2500: 
COMP.          Pioneer Natural Resources: COMPANY
WELL.                 Ray 34-6: WELL
FLD.           Purgatoire River: FIELD
LOC.           684' FSL & 2254' FEL--: LOCATION
CNTY.               Las Animas: COUNTY
SRVC.                Patterson: SERVICE COMPANY
DATE.          Fri May 26 09:17:30 2006: LOG DATE
UWI.           05 071 08695 00: UNIQUE WELL ID
STAT.                 Colorado: STATE
~Curve Information Block
DEPT.FT            0 000 00 00: Depth
DCAL.in                       : CDL Caliper
RHOB.g/cc                     : CDL Bulk Density
RHOC.g/cc                     : CDL Density Correction
DPOR.pu                       : CDL Density Porosity
NPOR.pu                       : Neutron Porosity
GR.GAPI                       : Gamma Ray
~Parameter Information Block
~A  Depth       DCAL        RHOB        RHOC        DPOR        NPOR         GR     
# ...
   715.4000      8.0227      2.5485      0.0158      6.1543     25.5387    104.5428
   715.5000      8.0243      2.5445      0.0106      6.3934     25.0969    107.3052
   715.6000      8.0243      2.5565      0.0512      5.6695     24.8138    106.3270
   715.7000      8.0243      2.5632      0.0448      5.2576     24.5749    105.1715
   715.8000      8.0255      2.5534      0.0824      5.8558     24.3122    104.9941
   715.9000      8.0255      2.5348      0.0080      6.9827     24.0666    103.5567
   716.0000      8.0262      2.5311     -0.0045      7.2037     24.0117    100.7320
   716.1000      8.0262      2.5489      0.0519      6.1273     24.2621     97.4905
   716.2000      8.0262      2.5718      0.0642      4.7409     24.4170     93.0872
   716.3000      8.0272      2.5921      0.0604      3.5115     24.2071     88.8621
   716.4000      8.0272      2.6032      0.0869      2.8385     24.0449     86.5181
   716.5000      8.0286      2.5897      0.0353      3.6567     24.0731     83.7800
   716.6000      8.0286      2.5547      0.0462      5.7761     23.8426     78.8760
   716.7000      8.0286      2.5243     -0.0082      7.6207     23.3536     75.1160
   716.8000      8.0287      2.5182      0.0332      7.9896     23.0734     73.7714
   716.9000      8.0287      2.5264      0.0327      7.4932     22.9884     73.3205
   717.0000      8.0275      2.5228      0.0624      7.7121     22.7686     73.4405
   717.1000      8.0275      2.5043      0.0039      8.8298     22.4122     72.8052
   717.2000      8.0275      2.4956      0.0153      9.3552     22.2027     71.3346
   717.3000      8.0270      2.5043      0.0103      8.8277     22.1486     73.6004
   717.4000      8.0270      2.5099      0.0438      8.4937     22.0429     79.9244
   717.5000      8.0266      2.4932      0.0353      9.5056     21.8791     85.4166
   717.6000      8.0266      2.4700     -0.0409     10.9068     21.8264     89.2523
   717.7000      8.0266      2.4691      0.0501     10.9644     22.0167     92.0895
   717.8000      8.0250      2.4816      0.0407     10.2035     22.3262     91.6071
   717.9000      8.0250      2.4853      0.0430      9.9795     22.5578     87.0274
   718.0000      8.0220      2.4819      0.0355     10.1889     22.5643     82.2763
   718.1000      8.0220      2.4838      0.0515     10.0741     22.3855     79.2165
   718.2000      8.0220      2.4881      0.0693      9.8131     22.2884     77.6572
   718.3000      8.0202      2.4898      0.0346      9.7070     22.2767     78.8416
   718.4000      8.0202      2.5024      0.0104      8.9442     22.1824     81.5468
   718.5000      8.0210      2.5276      0.0911      7.4168     21.9787     84.4339
   718.6000      8.0210      2.5385      0.1131      6.7569     21.8688     86.4150
   718.7000      8.0210      2.5210      0.0500      7.8193     21.9769     86.1989
   718.8000      8.0218      2.4889      0.0449      9.7615     22.0561     85.6343
   718.9000      8.0218      2.4607      0.0079     11.4724     22.0545     86.8290
   719.0000      8.0219      2.4507      0.0203     12.0803     22.1269     89.2391
   719.1000      8.0219      2.4625     -0.0055     11.3636     22.2031     92.8687
   719.2000      8.0219      2.4840      0.0320     10.0607     22.3060     98.5710
   719.3000      8.0234      2.4934      0.0758      9.4905     22.4603    104.2796
   719.4000      8.0234      2.4767      0.0672     10.5030     22.4904    107.3307
   719.5000      8.0246      2.4495     -0.0212     12.1531     22.3887    107.5840
   719.6000      8.0246      2.4398      0.0061     12.7375     22.3403    105.2669
   719.7000      8.0246      2.4454      0.0419     12.4007     22.2912    101.9429
   719.8000      8.0254      2.4495      0.0337     12.1503     22.0507     99.7931
   719.9000      8.0254      2.4554      0.0277     11.7920     21.7148     98.1665
   720.0000      8.0269      2.4657      0.0278     11.1725     21.3903     95.9324
   720.1000      8.0269      2.4660      0.0617     11.1509     21.4076     92.6720
   720.2000      8.0269      2.4513      0.0298     12.0454     21.7850     89.7676
   720.3000      8.0284      2.4392      0.0141     12.7783     21.7827     89.5950
   720.4000      8.0284      2.4457      0.0173     12.3833     21.2785     90.8197
   720.5000      8.0299      2.4612      0.0562     11.4396     20.9208     90.3113
   720.6000      8.0299      2.4687      0.0277     10.9892     20.7587     87.2856
   720.7000      8.0299      2.4647      0.0362     11.2326     20.4191     83.2338
   720.8000      8.0328      2.4537      0.0413     11.8994     20.0428     80.4874
   720.9000      8.0328      2.4458      0.0157     12.3751     19.9556     81.3061
   721.0000      8.0368      2.4481      0.0550     12.2353     19.9990     85.0154
   721.1000      8.0368      2.4484      0.0750     12.2183     20.0899     87.0914
   721.2000      8.0368      2.4393      0.0259     12.7680     20.4077     85.3862
   721.3000      8.0384      2.4335      0.0441     13.1215     20.7679     84.9242
   721.4000      8.0384      2.4376      0.0381     12.8710     20.8301     89.3517
   721.5000      8.0376      2.4480      0.0318     12.2427     20.6394     94.6074
   721.6000      8.0376      2.4554      0.0568     11.7937     20.4636     95.2607
   721.7000      8.0376      2.4502      0.0720     12.1106     20.3998     91.3916
   721.8000      8.0360      2.4404     -0.0022     12.7015     20.4473     88.3475
   721.9000      8.0360      2.4409      0.0299     12.6732     20.5634     88.8073
   722.0000      8.0362      2.4458      0.0642     12.3780     20.6058     90.3100
   722.1000      8.0362      2.4454      0.0196     12.3998     20.3166     89.5156
   722.2000      8.0362      2.4465      0.0507     12.3339     19.7421     86.9894
   722.3000      8.0379      2.4562      0.0567     11.7446     19.4298     84.5270
   722.4000      8.0379      2.4708      0.0493     10.8598     19.5953     81.0322
   722.5000      8.0419      2.4788      0.0661     10.3751     19.9249     77.3910
   722.6000      8.0419      2.4749      0.0349     10.6119     20.2333     75.5664
   722.7000      8.0419      2.4663      0.0455     11.1328     20.4979     73.9145
   722.8000      8.0481      2.4612      0.0409     11.4445     20.7912     70.4439
   722.9000      8.0481      2.4682      0.0562     11.0199     21.0604     67.9239
   723.0000      8.0522      2.4846      0.0810     10.0262     21.1173     70.1991
   723.1000      8.0522      2.4920      0.0980      9.5768     21.0400     76.0001
   723.2000      8.0522      2.4925      0.0409      9.5474     21.1743     81.8888
   723.3000      8.0523      2.5099      0.0637      8.4936     21.7936     86.0566
   723.4000      8.0523      2.5362      0.1117      6.8986     22.9790     87.5448
   723.5000      8.0497      2.5370      0.1293      6.8474     24.4575     88.0486
   723.6000      8.0497      2.5113      0.0423      8.4085     25.5721     90.5984
   723.7000      8.0497      2.4885      0.0469      9.7882     25.8599     95.2038
   723.8000      8.0468      2.4795      0.0583     10.3356     25.7535     99.8713
   723.9000      8.0468      2.4781      0.0155     10.4189     26.0601    103.2522
   724.0000      8.0467      2.4827      0.0330     10.1386     26.7031    107.9223
   724.1000      8.0467      2.4948      0.0359      9.4064     27.1449    119.0010
   724.2000      8.0467      2.5130      0.0739      8.3057     27.1625    136.5142
   724.3000      8.0486      2.5237      0.1167      7.6527     26.8587    151.8227
   724.4000      8.0486      2.5221      0.1079      7.7544     26.6461    156.9680
   724.5000      8.0514      2.5307      0.0875      7.2279     26.8276    153.8943
   724.6000      8.0514      2.5559      0.2164      5.7049     27.3453    151.1251
   724.7000      8.0514      2.5643      0.1799      5.1930     27.9186    154.0605
   724.8000      8.0529      2.5398      0.1027      6.6781     28.0579    160.7624
   724.9000      8.0529      2.5009      0.0704      9.0394     27.4682    165.8751
