~Version Information
 VERS.                                  2.0 : CWLS LAS VERSION
 WRAP.                                   NO : WRAPING MODE
 SWARE .                 MController 2.5.0J : SOFTWARE VERSION
~Well Information
 WELL.                        Keiko 14-06Tr : WELL
 COMP.   Pioneer Natural Resources USA Inc. : COMPANY
 FLD.                      Purgatoire River : FIELD
 LOC.                 SW/SW Sec.6 T33S R66W : LOCATION
 DATE.                             12/30/05 : DATE(S) LOGGED
 SRVC.       BLANCO Geological Services LLC : SERVICE COMPANY
 STAT.                                   CO : STATE
 CNTY.                           Las Animas : COUNTY
 CTRY.                                  USA : COUNTRY
 API.                       05-071-08629-00 : API NUMBER
 STRT.FT                             481.00 : START DEPTH
 STOP.FT                            1290.00 : STOP DEPTH
 STEP.FT                               1.00 : DEPTH INCREMENT
 NULL.                                -9999 : NULL VALUE
~Curve information
 DEPTH.FT                                   :
 ROP.MIN/FT                                 :
 GAS.UNITS                                  :
~ASCII Log data
       481.0     -9999.00        101.3 
       482.0         0.03        101.3 
       483.0         0.13        101.3 
       484.0        10.50         53.4 
       485.0         1.33          5.1 
       486.0        19.38          5.9 
       487.0         8.00          5.2 
       488.0         0.10          4.4 
       489.0         0.10          4.4 
       490.0         0.10          5.0 
       491.0         0.07          5.0 
       492.0         1.68          5.0 
       493.0         0.10          4.9 
       494.0         0.10          4.9 
       495.0         0.07          4.9 
       496.0         0.10          4.8 
       497.0         0.10          4.8 
       498.0         0.07          4.8 
       499.0         0.10          4.8 
       500.0         0.27          4.4 
       501.0         2.62          4.9 
       502.0         0.23          4.8 
       503.0         0.27          4.9 
       504.0         0.27          5.0 
       505.0         0.20          4.7 
       506.0         0.20          4.6 
       507.0         0.20          4.8 
       508.0         0.22          4.6 
       509.0         0.17          4.6 
       510.0         0.20          4.6 
       511.0         0.20          5.0 
       512.0         0.23          4.4 
       513.0         0.20          4.4 
       514.0         0.23          4.2 
       515.0         0.23          4.6 
       516.0         0.23          4.2 
       517.0         0.23          4.3 
       518.0         0.20          4.6 
       519.0         0.20          4.4 
       520.0         0.20          4.4 
       521.0         0.20          4.4 
       522.0         0.20          4.7 
       523.0         0.20          4.1 
       524.0         0.18          4.3 
       525.0         0.20          4.3 
       526.0         0.17          4.4 
       527.0         0.20          4.2 
       528.0         0.50          4.2 
       529.0         0.27          4.4 
       530.0         0.27          4.2 
       531.0         6.87          5.3 
       532.0         0.83          4.8 
       533.0         0.28          5.0 
       534.0         0.27          4.6 
       535.0         0.27          4.7 
       536.0         0.27          4.5 
       537.0         0.23          4.8 
       538.0         0.23          4.8 
       539.0         0.23          4.4 
       540.0         0.23          4.6 
       541.0         0.23          4.6 
       542.0         0.23          4.5 
       543.0         0.23          4.6 
       544.0         0.20          4.9 
       545.0         0.20          4.9 
       546.0         0.23          4.7 
       547.0         0.22          5.1 
       548.0         0.20          4.6 
       549.0         0.17          4.6 
       550.0         0.27          4.4 
       551.0         0.23          4.3 
       552.0         0.20          4.5 
       553.0         0.17          4.4 
       554.0         0.20          4.5 
       555.0         0.23          4.0 
       556.0         0.20          4.0 
       557.0         0.17          4.1 
       558.0         0.17          4.8 
       559.0         0.27          4.9 
       560.0         0.27          4.5 
       561.0         4.77          5.2 
       562.0         0.20          0.1 
       563.0         0.23          4.1 
       564.0         0.37          3.7 
       565.0         0.53          3.9 
       566.0         0.53          3.7 
       567.0         0.48          3.7 
       568.0         0.43          3.6 
       569.0         0.33          3.7 
       570.0         0.33          3.6 
       571.0         0.33          3.8 
       572.0         0.33          3.7 
       573.0         0.40          3.4 
       574.0         0.30         58.4 
       575.0         0.33        191.0 
       576.0         0.27         25.5 
       577.0         0.28         13.8 
       578.0         0.27         12.3 
       579.0         0.20         12.4 
       580.0         0.23         13.4 
       581.0         0.27         12.9 
       582.0         0.30         11.8 
       583.0         0.37          9.3 
       584.0         0.27          5.1 
       585.0         0.30          3.7 
       586.0         0.30          3.0 
       587.0         0.27          2.9 
       588.0         0.30          2.7 
       589.0         0.23          2.5 
       590.0         0.12          2.1 
       591.0         3.58          5.3 
       592.0         0.33          4.0 
       593.0         0.33          4.1 
       594.0         0.23         11.2 
       595.0         0.20         11.6 
       596.0         0.33         12.4 
       597.0         0.30          7.5 
       598.0         0.23          7.3 
       599.0         0.23          6.5 
       600.0         0.23          8.2 
       601.0         0.20         20.9 
       602.0         0.35         22.6 
       603.0         0.33         23.2 
       604.0         0.33         17.1 
       605.0         0.50         11.0 
       606.0         0.43          6.7 
       607.0         0.37          6.3 
       608.0         0.30          5.8 
       609.0         0.27          6.0 
       610.0         0.30          5.2 
       611.0         0.27          5.3 
       612.0         0.32          5.2 
       613.0         0.27          4.7 
       614.0         0.30          4.8 
       615.0         0.30          4.8 
       616.0         0.33          4.6 
       617.0         0.30          4.8 
       618.0         0.30          4.9 
       619.0         0.20          4.9 
       620.0         0.10          4.9 
       621.0         3.55         12.4 
       622.0         0.43          4.7 
       623.0         0.58          4.2 
       624.0         0.50          3.9 
       625.0         0.50          4.3 
       626.0         0.53          4.1 
       627.0         0.50          4.3 
       628.0         0.37          4.1 
       629.0         0.30          4.0 
       630.0         0.30          4.5 
       631.0         0.38          4.3 
       632.0         0.37          3.8 
       633.0         0.30          3.4 
       634.0         0.33          3.4 
       635.0         0.30          3.4 
       636.0         0.33          3.1 
       637.0         0.33          3.5 
       638.0         0.40          4.6 
       639.0         0.47          4.5 
       640.0         0.38          4.2 
       641.0         0.47          4.4 
       642.0         0.53          4.2 
       643.0         0.40          3.6 
       644.0         0.30          6.5 
       645.0         0.27         10.0 
       646.0         0.27         11.4 
       647.0         0.30          9.7 
       648.0         0.30          8.6 
       649.0         0.23          5.8 
       650.0         0.12          5.8 
       651.0         4.05         10.5 
       652.0         0.33          4.5 
       653.0         0.30          3.9 
       654.0         0.37          4.0 
       655.0         0.37          4.3 
       656.0         0.40          3.7 
       657.0         0.43          4.2 
       658.0         0.42          3.9 
       659.0         0.43          3.6 
       660.0         0.40          3.7 
       661.0         0.43          3.7 
       662.0         0.43          3.7 
       663.0         0.43          3.2 
       664.0         0.47          3.2 
       665.0         0.40          3.3 
       666.0         0.45          3.8 
       667.0         0.43          3.6 
       668.0         0.43          3.5 
       669.0         0.43          3.6 
       670.0         0.47          3.3 
       671.0         0.43          3.3 
       672.0         0.47          3.3 
       673.0         0.42          3.0 
       674.0         0.40          2.9 
       675.0         0.40          3.2 
       676.0         0.43          3.2 
       677.0         0.40          3.3 
       678.0         0.47         20.8 
       679.0         0.27         43.1 
       680.0         0.27         49.9 
