~Version Information
VERS.                      2.0: CWLS Log ASCII Standard - VERSION 2.0
WRAP.                       NO: One line per depth step
~Well Information Block
STRT.FT               -14.7500: 
STOP.FT              1106.0000: 
STEP.FT                 0.2500: 
NULL.                -999.2500: 
COMP.          Pioneer Natural Resources: COMPANY
WELL.          Black Cat 13-32 Tr: WELL
FLD.           Purgatorie River: FIELD
LOC.           1679' FSL & 1150' FWL--: LOCATION
CNTY.               Las Animas: COUNTY
SRVC.          Patterson Wireline: SERVICE COMPANY
DATE.          Wed Mar 15 15:59:24 2006: LOG DATE
UWI.           05 071 08721 00: UNIQUE WELL ID
STAT.                       CO: STATE
~Curve Information Block
DEPT.FT            0 000 00 00: Depth
CCL.                          : Casing Collar Locator
TT3.usec                      : CBL 3' Travel Time
AMP3.mV                       : CBL 3' Amplitude
GR.GAPI                       : Gamma Ray
~Parameter Information Block
~A  Depth       CCL         TT3         AMP3         GR     
# ...
   621.7500      0.0000    715.6859      4.7530    170.4006
   622.0000      0.0000    707.0199      4.6441    171.2385
   622.2500      0.0000    705.8884      4.5859    174.4984
   622.5000      0.0000    709.2199      4.5881    179.5633
   622.7500      0.0000    713.6293      4.6398    184.8766
   623.0000      0.0000    717.1191      4.7122    188.9878
   623.2500      0.0000    719.1755      4.7754    191.1157
   623.5000      0.0000    719.9260      4.8147    191.1743
   623.7500      0.0000    719.8657      4.8313    189.7165
   624.0000      0.0000    719.9071      4.8366    187.8275
   624.2500      0.0000    720.7863      4.8485    186.5476
   624.5000      0.0000    722.3792      4.8873    186.2191
   624.7500      0.0000    723.9710      4.9638    186.5976
   625.0000      0.0000    725.0567      5.0709    187.3820
   625.2500      0.0000    725.7339      5.1857    188.0781
   625.5000      0.0000    726.6650      5.2767    187.7831
   625.7500      0.0000    729.1371      5.3158    186.0880
   626.0000      0.0000    735.0745      5.2920    184.0709
   626.2500      0.0000    746.2339      5.2174    183.3858
   626.5000      0.0000    762.4097      5.1156    184.2373
   626.7500      0.0000    780.1581      5.0070    185.0352
   627.0000      0.0000    793.8010      4.9057    184.1587
   627.2500      0.0000    798.3276      4.8225    181.3049
   627.5000      0.0000    792.1533      4.7598    176.9775
   627.7500      0.0000    778.3623      4.7088    171.6320
   628.0000      0.0000    763.5166      4.6565    165.7804
   628.2500      0.0000    753.7874      4.5962    160.3611
   628.5000      0.0000    751.3315      4.5284    156.5225
   628.7500      0.0000    754.6310      4.4573    154.8987
   629.0000      0.0000    761.3061      4.3902    154.8186
   629.2500      0.0000    768.8988      4.3390    154.1161
   629.5000      0.0000    773.9335      4.3159    150.3101
   629.7500      0.0000    773.2081      4.3263    142.4834
   630.0000      0.0000    767.0200      4.3655    131.9350
   630.2500      0.0000    759.7006      4.4217    121.0078
   630.5000      0.0000    755.7304      4.4813    111.5707
   630.7500      0.0000    755.9790      4.5338    104.4226
   631.0000      0.0000    758.8259      4.5754     99.5336
   631.2500      0.0000    763.7816      4.6104     96.5309
   631.5000      0.0000    771.7723      4.6468     95.0280
   631.7500      0.0000    782.3617      4.6914     94.7951
   632.0000      0.0000    793.0812      4.7477     95.8747
   632.2500      0.0000    801.7604      4.8144     98.3016
   632.5000      0.0000    807.9846      4.8836    101.4335
   632.7500      0.0000    811.9892      4.9448    103.9994
   633.0000      0.0000    813.1613      4.9944    105.2127
   633.2500      0.0000    809.6207      5.0374    105.4309
   633.5000      0.0000    799.2065      5.0806    105.2967
   633.7500      0.0000    782.1913      5.1246    104.5565
   634.0000      0.0000    764.0079      5.1642    102.2193
   634.2500      0.0000    753.5334      5.1917     98.0181
   634.5000      0.0000    756.2549      5.2000     93.4565
   634.7500      0.0000    769.4536      5.1850     90.9919
   635.0000      0.0000    785.2495      5.1491     91.8424
   635.2500      0.0000    797.4730      5.1019     94.7370
   635.5000      0.0000    804.9338      5.0583     97.2183
   635.7500      0.0000    809.5857      5.0336     97.9751
   636.0000      0.0000    813.2555      5.0360     97.5021
   636.2500      0.0000    816.2154      5.0590     97.0012
   636.5000      0.0000    817.8837      5.0839     97.3782
   636.7500      0.0000    818.0334      5.0933     98.7541
   637.0000      0.0000    817.2236      5.0855    100.1018
   637.2500      0.0000    816.1957      5.0725     99.7850
   637.5000      0.0000    814.8919      5.0670     97.1925
   637.7500      0.0000    812.1074      5.0696     93.6083
   638.0000      0.0000    806.4692      5.0661     90.9893
   638.2500      0.0000    797.6911      5.0362     90.1173
   638.5000      0.0000    786.4047      4.9677     90.3266
   638.7500      0.0000    773.0862      4.8664     90.8710
   639.0000      0.0000    758.4836      4.7513     91.8386
   639.2500      0.0000    745.1117      4.6399     93.2701
   639.5000      0.0000    736.3609      4.5410     93.8453
   639.7500      0.0000    733.4529      4.4560     91.3908
   640.0000      0.0000    734.7768      4.3812     84.9375
   640.2500      0.0000    738.4335      4.3097     75.7335
   640.5000      0.0000    743.5203      4.2404     66.1552
   640.7500      0.0000    748.8176      4.1870     58.2408
   641.0000      0.0000    752.2847      4.1701     53.1420
   641.2500      0.0000    752.5449      4.1910     50.9244
   641.5000      0.0000    750.0196      4.2154     50.5369
   641.7500      0.0000    747.2034      4.1916     50.6560
   642.0000      0.0000    748.1356      4.0943     50.7658
   642.2500      0.0000    755.5447      3.9505     51.0166
   642.5000      0.0000    767.2404      3.8206     51.3543
   642.7500      0.0000    777.0488      3.7501     51.5192
   643.0000      0.0000    781.0139      3.7422     51.5676
   643.2500      0.0000    781.7806      3.7734     51.5276
   643.5000     -2.0000    785.7191      3.8220     50.6854
   643.7500      2.0000    796.0222      3.8744     48.0623
   644.0000      0.0000    809.0557      3.9139     43.7748
   644.2500      0.0000    817.2740      3.9211     39.4543
   644.5000      0.0000    815.6368      3.8928     37.0960
   644.7500      0.0000    805.8690      3.8521     37.7033
   645.0000      0.0000    794.9949      3.8253     41.0628
   645.2500      0.0000    789.6427      3.8100     46.3097
   645.5000      0.0000    791.3524      3.7771     52.3193
   645.7500      0.0000    796.8607      3.7070     57.8417
   646.0000      0.0000    802.0029      3.6107     61.7278
   646.2500      0.0000    805.0693      3.5155     63.2278
   646.5000      0.0000    807.0192      3.4409     62.3244
   646.7500      0.0000    809.3104      3.3907     59.9919
   647.0000      0.0000    811.9257      3.3598     57.9169
   647.2500      0.0000    813.1724      3.3440     57.5665
   647.5000      0.0000    811.1558      3.3462     59.3565
   647.7500      0.0000    805.9349      3.3748     62.5160
   648.0000      0.0000    800.4088      3.4371     65.4629
   648.2500      0.0000    798.0733      3.5344     66.4892
   648.5000      0.0000    799.4240      3.6622     64.7733
   648.7500      0.0000    801.5881      3.8136     61.1292
   649.0000      0.0000    801.8477      3.9812     57.4608
   649.2500      0.0000    800.6944      4.1575     55.2684
   649.5000      0.0000    801.1355      4.3319     55.0069
   649.7500      0.0000    805.4170      4.4926     56.8162
   650.0000      0.0000    812.6958      4.6323     61.1225
   650.2500      0.0000    820.0308      4.7547     68.2645
   650.5000      0.0000    824.5732      4.8705     78.1020
   650.7500      0.0000    823.5934      4.9865     90.2779
   651.0000      0.0000    814.0701      5.1013    104.3510
   651.2500      0.0000    795.2672      5.2101    119.3324
   651.5000      0.0000    771.4753      5.3083    133.4561
   651.7500      0.0000    749.8386      5.3876    144.7385
   652.0000      0.0000    735.0093      5.4357    151.7459
   652.2500      0.0000    726.7268      5.4431    154.0202
   652.5000      0.0000    721.8122      5.4113    152.1798
   652.7500      0.0000    717.2704      5.3538    147.7480
   653.0000      0.0000    711.9542      5.2920    142.6158
   653.2500      0.0000    706.7538      5.2510    138.3393
   653.5000      0.0000    703.8853      5.2541    135.5189
   653.7500      0.0000    705.8840      5.3124    133.5577
   654.0000      0.0000    714.8030      5.4128    131.2256
   654.2500      0.0000    731.3316      5.5197    127.9022
   654.5000      0.0000    753.1967      5.5957    124.3930
   654.7500      0.0000    774.1220      5.6240    122.3106
   655.0000      0.0000    786.0393      5.6123    122.4897
