~Version Information
VERS.                      2.0: CWLS Log ASCII Standard - VERSION 2.0
WRAP.                       NO: One line per depth step
~Well Information Block
STRT.FT               660.0000: 
STOP.FT              2488.5000: 
STEP.FT                 0.1000: 
NULL.                -999.2500: 
COMP.          Petrogulf Corporation: COMPANY
WELL.          Montoya 18-11V-B: WELL
FLD.           Purgatorie River: FIELD
LOC.           848' FNL & 619' FWL: LOCATION
PROV.                 Colorado: PROVINCE
CNTY.               Las Animas: COUNTRY
SRVC.                Patterson: SERVICE COMPANY
DATE.          Wed Oct 05 07:28:13 2005: LOG DATE
UWI.                          : UNIQUE WELL ID
~Curve Information Block
DEPT.FT            0 000 00 00: Depth
DCAL.in                       : CDL Caliper
RHOB.g/cc                     : CDL Bulk Density
RHOC.g/cc                     : CDL Density Correction
DPOR.pu                       : CDL Density Porosity
GR.GAPI                       : Gamma Ray
NPOR.pu                       : Neutron Porosity
~Parameter Information Block
~A  Depth       DCAL        RHOB        RHOC        DPOR         GR         NPOR    
# ...
  1504.8000      7.9089      2.5585      0.0754      5.5440    133.8434     22.8647
  1504.9000      7.9089      2.5808      0.0965      4.1928    133.2197     22.3385
  1505.0000      7.8987      2.6097      0.1287      2.4410    130.6239     22.4420
  1505.1000      7.8987      2.6334      0.2050      1.0049    126.5855     22.9732
  1505.2000      7.8987      2.6432      0.1656      0.4147    123.2918     23.3586
  1505.3000      7.9055      2.6507      0.1488     -0.0412    123.4202     23.2691
  1505.4000      7.9055      2.6695      0.1493     -1.1816    125.7710     22.7380
  1505.5000      7.9016      2.6907      0.1909     -2.4660    126.3718     21.9644
  1505.6000      7.9016      2.6934      0.1990     -2.6332    124.2484     21.4490
  1505.7000      7.9016      2.6764      0.1071     -1.6020    120.6512     21.3734
  1505.8000      7.9021      2.6546      0.1154     -0.2809    118.0812     21.3511
  1505.9000      7.9021      2.6342      0.0734      0.9575    117.5096     21.0602
  1506.0000      7.8635      2.6156      0.0768      2.0833    117.3774     20.6842
  1506.1000      7.8635      2.6029      0.0510      2.8571    118.0065     20.6880
  1506.2000      7.8635      2.6003      0.0205      3.0132    119.9841     21.1328
  1506.3000      7.9469      2.6039      0.0330      2.7910    121.6616     21.4839
  1506.4000      7.9469      2.6028      0.0721      2.8579    123.0218     21.2551
  1506.5000      7.9689      2.5947      0.0107      3.3501    125.9629     20.6580
  1506.6000      7.9689      2.5872      0.0413      3.8080    129.9301     20.4655
  1506.7000      7.9689      2.5816      0.0149      4.1447    133.8461     21.0776
  1506.8000      7.9677      2.5773      0.0191      4.4053    138.7439     21.9723
  1506.9000      7.9677      2.5750      0.0378      4.5434    144.0879     22.4577
  1507.0000      7.9713      2.5720      0.0124      4.7265    145.6767     22.6050
  1507.1000      7.9713      2.5652      0.0153      5.1414    141.3897     22.6587
  1507.2000      7.9713      2.5553      0.0053      5.7408    135.2109     22.6157
  1507.3000      7.9701      2.5451      0.0240      6.3565    132.5542     22.6698
  1507.4000      7.9701      2.5380     -0.0249      6.7858    134.3810     23.0964
  1507.5000      7.9658      2.5418     -0.0078      6.5577    137.0125     23.7175
  1507.6000      7.9658      2.5646     -0.0418      5.1758    138.0754     23.8421
  1507.7000      7.9658      2.6009      0.0505      2.9750    136.6534     23.2362
  1507.8000      7.9724      2.6265      0.0827      1.4251    133.4902     22.5338
  1507.9000      7.9724      2.6227      0.0614      1.6568    133.4165     22.3196
  1508.0000      7.9729      2.5938      0.0046      3.4068    137.6131     22.4950
  1508.1000      7.9729      2.5597     -0.0111      5.4744    140.3393     22.6675
  1508.2000      7.9729      2.5420     -0.0379      6.5437    137.7331     22.6994
  1508.3000      7.9684      2.5485     -0.0121      6.1535    132.0203     22.5190
  1508.4000      7.9684      2.5648     -0.0174      5.1633    127.6803     22.1366
  1508.5000      7.9582      2.5701      0.0482      4.8439    127.8829     21.8363
  1508.6000      7.9582      2.5613     -0.0133      5.3783    132.2164     21.6621
  1508.7000      7.9582      2.5553     -0.0288      5.7379    135.7911     21.4439
  1508.8000      7.9607      2.5556      0.0130      5.7227    136.3610     21.1544
  1508.9000      7.9607      2.5536     -0.0175      5.8430    136.6045     20.9275
  1509.0000      7.9594      2.5508      0.0237      6.0137    137.9898     20.9284
  1509.1000      7.9594      2.5545     -0.0068      5.7896    140.5359     21.2879
  1509.2000      7.9594      2.5678      0.0091      4.9812    144.2351     21.7787
  1509.3000      7.9615      2.5797      0.0205      4.2619    147.1362     22.0169
  1509.4000      7.9615      2.5739      0.0307      4.6103    147.1322     22.1201
  1509.5000      7.9627      2.5538     -0.0421      5.8306    145.0918     22.2367
  1509.6000      7.9627      2.5428     -0.0095      6.4975    144.8280     22.3724
  1509.7000      7.9627      2.5552     -0.0234      5.7458    147.7476     22.5316
  1509.8000      7.9546      2.5787      0.0164      4.3225    150.0439     22.6014
  1509.9000      7.9546      2.5921      0.0293      3.5086    147.9292     22.5919
  1510.0000      7.9523      2.5972     -0.0041      3.1982    142.9622     22.5886
  1510.1000      7.9523      2.6036      0.0412      2.8135    137.9099     22.6874
  1510.2000      7.9523      2.6016      0.0549      2.9314    135.2520     22.8744
  1510.3000      7.9507      2.5874     -0.0110      3.7938    138.1128     23.0200
  1510.4000      7.9507      2.5737      0.0310      4.6268    141.6532     22.9888
  1510.5000      7.9480      2.5657      0.0100      5.1105    138.0542     22.7893
  1510.6000      7.9480      2.5639      0.0082      5.2170    129.5266     22.6528
  1510.7000      7.9480      2.5669      0.0281      5.0362    124.6084     22.6790
  1510.8000      7.9529      2.5731     -0.0070      4.6621    127.0605     22.7007
  1510.9000      7.9529      2.5889      0.0047      3.7000    131.3618     22.8404
  1511.0000      7.9613      2.6118     -0.0015      2.3161    131.5401     23.1685
  1511.1000      7.9613      2.6256      0.0622      1.4817    129.0655     23.2863
  1511.2000      7.9613      2.6230      0.0211      1.6349    127.3430     22.9732
  1511.3000      7.9599      2.6159      0.0545      2.0678    127.3246     22.5510
  1511.4000      7.9599      2.6124      0.0293      2.2768    128.8973     22.4225
  1511.5000      7.9655      2.6044      0.0380      2.7653    130.0791     22.4895
  1511.6000      7.9655      2.5870     -0.0073      3.8209    127.8486     22.5553
  1511.7000      7.9655      2.5759      0.0120      4.4939    123.3331     22.5540
  1511.8000      7.9768      2.5816      0.0246      4.1445    120.9251     22.4405
  1511.9000      7.9768      2.5887      0.0632      3.7160    121.4235     22.3956
  1512.0000      7.9511      2.5866      0.0082      3.8434    120.8036     22.4857
  1512.1000      7.9511      2.5877      0.0241      3.7740    118.1418     22.4611
  1512.2000      7.9511      2.5937      0.0832      3.4138    116.4886     22.1478
  1512.3000      7.9501      2.5844      0.0497      3.9779    115.0808     21.7285
  1512.4000      7.9501      2.5553      0.0087      5.7375    111.2445     21.6530
  1512.5000      7.9551      2.5334     -0.0174      7.0673    106.9146     22.0340
  1512.6000      7.9551      2.5318      0.0599      7.1631    105.4121     22.4770
  1512.7000      7.9551      2.5285      0.0268      7.3615    106.0530     22.8129
  1512.8000      7.9526      2.5164      0.0311      8.0992    105.3422     23.0237
  1512.9000      7.9526      2.5137      0.0222      8.2612    100.8600     22.9148
  1513.0000      7.9514      2.5247     -0.0109      7.5931     93.9555     22.4844
  1513.1000      7.9514      2.5281      0.0654      7.3899     89.3502     22.0485
  1513.2000      7.9514      2.5138     -0.0158      8.2523     89.3861     21.8184
  1513.3000      7.9526      2.5038     -0.0181      8.8597     91.9285     21.8062
  1513.4000      7.9526      2.5072      0.0330      8.6548     93.4468     22.1572
  1513.5000      7.9489      2.5061      0.0449      8.7213     92.1508     22.7041
  1513.6000      7.9489      2.4928      0.0280      9.5278     88.9289     22.9108
  1513.7000      7.9489      2.4826     -0.0005     10.1449     87.0880     22.5182
  1513.8000      7.9566      2.4879      0.0267      9.8248     88.3639     21.7461
  1513.9000      7.9566      2.4984      0.0493      9.1896     90.1387     21.1749
  1514.0000      7.9582      2.5028      0.0273      8.9201     90.8738     21.1310
  1514.1000      7.9582      2.5081      0.0246      8.6017     92.6241     21.3805
  1514.2000      7.9582      2.5164      0.0510      8.0997     95.8832     21.4165
  1514.3000      7.9549      2.5121      0.0581      8.3602     98.1258     21.1671
