~Version Information
 VERS.                                  2.0 : CWLS LAS VERSION
 WRAP.                                   NO : WRAPING MODE
 SWARE .                 MController 2.5.0J : SOFTWARE VERSION
~Well Information
 WELL.                     Collister 17-31R : WELL
 COMP.                Petrogulf Corporation : COMPANY
 FLD.                      Purgatoire River : FIELD
 LOC.                NW/NE Sec 17 T33S R67W : LOCATION
 DATE.                             09/25/05 : DATE(S) LOGGED
 SRVC.       BLANCO Geological Services LLC : SERVICE COMPANY
 STAT.                                   CO : STATE
 CNTY.                           Las Animas : COUNTY
 CTRY.                                  USA : COUNTRY
 API.                       05-071-08436-00 : API NUMBER
 STRT.FT                             861.00 : START DEPTH
 STOP.FT                            2010.00 : STOP DEPTH
 STEP.FT                               1.00 : DEPTH INCREMENT
 NULL.                                -9999 : NULL VALUE
~Curve information
 DEPTH.FT                                   :
 ROP.MIN/FT                                 :
 GAS.UNITS                                  :
~ASCII Log data
       861.0     -9999.00          7.1 
       862.0         4.53          7.5 
       863.0         0.10          5.9 
       864.0         0.10          5.6 
       865.0         0.17          6.0 
       866.0         0.10          5.4 
       867.0         1.20          5.8 
       868.0         0.10          4.7 
       869.0         0.13          4.6 
       870.0         0.13          5.4 
       871.0         0.10          4.7 
       872.0         0.13          4.9 
       873.0         0.23          5.0 
       874.0         0.10          4.8 
       875.0         0.10          4.7 
       876.0         0.12          4.8 
       877.0         0.07          5.0 
       878.0         0.10          4.7 
       879.0         0.07          4.5 
       880.0         0.10          4.5 
       881.0         0.17          4.4 
       882.0         0.07          4.8 
       883.0         0.10          4.5 
       884.0         0.13          4.5 
       885.0         0.07          5.5 
       886.0         0.10          7.1 
       887.0         0.07          7.4 
       888.0         0.13          8.3 
       889.0         0.10          8.2 
       890.0         0.27          8.0 
       891.0         0.10          4.8 
       892.0         0.07          4.4 
       893.0         0.10          4.4 
       894.0         0.07          4.2 
       895.0         0.10          4.0 
       896.0         0.07          4.0 
       897.0         1.32        109.4 
       898.0         0.17        110.0 
       899.0         0.30         89.9 
       900.0         0.23         39.8 
       901.0         0.20         23.7 
       902.0         0.17         14.5 
       903.0         0.17         10.4 
       904.0         0.10          8.7 
       905.0         0.07          7.7 
       906.0         0.10          8.0 
       907.0         0.10          7.6 
       908.0         0.10          7.0 
       909.0         0.10          7.6 
       910.0         0.23          7.1 
       911.0         0.10          7.1 
       912.0         0.10          7.6 
       913.0         0.07          8.0 
       914.0         0.10          8.7 
       915.0         0.07          8.5 
       916.0         0.12          8.2 
       917.0         0.13          8.1 
       918.0         0.27          7.9 
       919.0         0.13          8.1 
       920.0         0.23          7.6 
       921.0         0.23          7.6 
       922.0         0.27          7.9 
       923.0         0.27          8.1 
       924.0         0.27          7.8 
       925.0         0.27          8.4 
       926.0         0.20          8.5 
       927.0         0.23          9.3 
       928.0         1.18         17.4 
       929.0         0.17         14.4 
       930.0         0.13         13.6 
       931.0         0.17         12.5 
       932.0         0.20         12.1 
       933.0         0.23         12.1 
       934.0         0.17         12.2 
       935.0         0.17         11.6 
       936.0         0.13         11.8 
       937.0         0.13         11.6 
       938.0         0.17         10.9 
       939.0         0.20         11.0 
       940.0         0.38         10.8 
       941.0         0.20         10.6 
       942.0         0.33         10.9 
       943.0         0.33         10.3 
       944.0         0.23         10.8 
       945.0         0.50         10.8 
       946.0         0.23         10.9 
       947.0         0.27         11.2 
       948.0         0.13         11.4 
       949.0         0.13         12.6 
       950.0         0.20         16.9 
       951.0         0.23         19.7 
       952.0         0.22         19.9 
       953.0         0.17         18.2 
       954.0         0.13         15.4 
       955.0         0.13         14.4 
       956.0         0.13         14.0 
       957.0         0.10         13.6 
       958.0         2.15         18.6 
       959.0         0.17         17.6 
       960.0         0.10         16.7 
       961.0         0.17         15.8 
       962.0         0.20         14.5 
       963.0         0.20         14.9 
       964.0         0.20         15.2 
       965.0         0.33         14.8 
       966.0         0.27         12.8 
       967.0         0.20         13.3 
       968.0         0.27         13.1 
       969.0         0.37         12.8 
       970.0         0.35         12.9 
       971.0         0.27         13.1 
       972.0         0.47         13.0 
       973.0         0.30         12.9 
       974.0         0.33         12.7 
       975.0         0.30         13.0 
       976.0         0.37         12.3 
       977.0         0.30         12.8 
       978.0         0.17         12.5 
       979.0         0.23         13.0 
       980.0         0.38         13.0 
       981.0         0.53         13.2 
       982.0         0.43         13.7 
       983.0         0.40         14.2 
       984.0         0.40         13.8 
       985.0         0.13         12.8 
       986.0         0.20         13.4 
       987.0         0.23         13.4 
       988.0         2.15         16.7 
       989.0         0.40         14.0 
       990.0         0.47         14.0 
       991.0         0.37         14.2 
       992.0         0.37         14.0 
       993.0         0.23         13.6 
       994.0         0.28         13.9 
       995.0         0.27         13.6 
       996.0         0.30         13.8 
       997.0         0.27         13.3 
       998.0         0.23         13.5 
       999.0         0.30         13.7 
      1000.0         0.30         13.8 
      1001.0         0.30         14.0 
      1002.0         0.27         13.8 
      1003.0         0.23         13.7 
      1004.0         0.27         14.0 
      1005.0         0.23         14.0 
      1006.0         0.22         14.1 
      1007.0         0.23         13.9 
      1008.0         0.23         14.4 
      1009.0         0.20         14.5 
      1010.0         0.27         13.8 
      1011.0         0.20         14.4 
      1012.0         0.27         15.4 
      1013.0         0.23         14.9 
      1014.0         0.20         15.3 
      1015.0         0.20         15.6 
      1016.0         0.17         16.5 
      1017.0         0.23         17.1 
      1018.0         1.25         19.4 
      1019.0         0.30         15.1 
      1020.0         0.27         15.3 
      1021.0         0.37         14.9 
      1022.0         0.27         14.2 
      1023.0         0.27         14.5 
      1024.0         0.37         14.3 
      1025.0         0.43         14.7 
      1026.0         0.33         14.5 
      1027.0         0.35         14.5 
      1028.0         0.30         14.7 
      1029.0         0.30         14.8 
      1030.0         0.20         14.9 
      1031.0         0.27         15.0 
      1032.0         0.27         14.1 
      1033.0         0.23         14.9 
      1034.0         0.27         15.5 
      1035.0         0.23         15.4 
      1036.0         0.23         14.9 
      1037.0         0.23         15.2 
      1038.0         0.20         15.3 
      1039.0         0.23         15.2 
      1040.0         0.28         15.3 
      1041.0         0.23         15.4 
      1042.0         0.23         15.6 
      1043.0         0.20         15.7 
      1044.0         0.27         15.1 
      1045.0         0.27         14.6 
      1046.0         0.23         14.3 
      1047.0         0.23         15.1 
      1048.0         1.55         18.2 
      1049.0         0.23         15.0 
      1050.0         0.20         15.0 
      1051.0         0.33         15.0 
      1052.0         0.37         16.6 
      1053.0         0.30         17.2 
      1054.0         0.27         16.2 
      1055.0         0.23         15.9 
      1056.0         0.10         15.3 
      1057.0         0.17         15.6 
      1058.0         0.30         15.9 
      1059.0         0.35         16.3 
      1060.0         0.33         17.0 
