~Version Information
VERS.                      2.0: CWLS Log ASCII Standard - VERSION 2.0
WRAP.                       NO: One line per depth step
~Well Information Block
STRT.FT                -7.7500: 
STOP.FT              2446.5000: 
STEP.FT                 0.2500: 
NULL.                -999.2500: 
COMP.          XTO Energy Inc.: COMPANY
WELL.          Hill Ranch 15-09: WELL
FLD.           Purgatoire River: FIELD
LOC.           1816' FSL & 521' FEL: LOCATION
STAT.                 Colorado: State
CNTY.               Las Animas: COUNTY
CTRY. USA : Country
SECT. 15 : Section
TOWN. 35S : Township
RANG. 67W : Range
SRVC.          Patterson Wireline: SERVICE COMPANY
DATE.          Fri Dec 09 17:49:58 2005: LOG DATE
API. 05-071-08474                          : UNIQUE WELL ID
~Curve Information Block
DEPT.FT            0 000 00 00: Depth
CCL.                          : Casing Collar Locator
TT3.usec                      : CBL 3' Travel Time
AMP3.mV                       : CBL 3' Amplitude
AMP5.mV                       : CBL 5' Amplitude
GR.GAPI                       : Gamma Ray
~Parameter Information Block
~A  Depth       CCL         TT3         AMP3        AMP5         GR     
# ...
   636.2500      0.0000    760.9368      7.5309      1.3651    127.6078
   636.5000      0.0000    758.9708      7.5854      1.3648    126.4187
   636.7500      0.0000    757.6716      7.7074      1.4002    122.6804
   637.0000      0.0000    756.7943      7.8815      1.4832    119.1662
   637.2500      0.0000    756.1038      8.0662      1.6167    118.4074
   637.5000      0.0000    755.3356      8.2111      1.7975    120.7252
   637.7500      0.0000    753.8825      8.2838      1.9968    124.5332
   638.0000      0.0000    750.2813      8.2945      2.1578    128.3092
   638.2500      0.0000    742.0562      8.2865      2.2372    131.6714
   638.5000      0.0000    726.8865      8.2962      2.2463    134.3317
   638.7500      0.0000    705.0002      8.3298      2.2385    135.0205
   639.0000      0.0000    680.5940      8.3818      2.2643    132.5986
   639.2500      0.0000    660.1080      8.4625      2.3476    127.9059
   639.5000      0.0000    648.7961      8.5947      2.4813    123.4781
   639.7500      0.0000    648.9939      8.7893      2.6313    121.3433
   640.0000      0.0000    660.4365      9.0280      2.7597    121.6512
   640.2500      0.0000    680.1848      9.2719      2.8558    123.3861
   640.5000      0.0000    702.2438      9.4819      2.9333    125.6047
   640.7500      0.0000    719.4542      9.6332      3.0009    127.4888
   641.0000      0.0000    727.5494      9.7132      3.0511    127.8264
   641.2500      0.0000    727.7154      9.7130      3.0769    125.4856
   641.5000      0.0000    725.2876      9.6290      3.0843    120.6470
   641.7500      0.0000    725.8069      9.4733      3.0848    115.2785
   642.0000      0.0000    731.3391      9.2792      3.0823    112.1545
   642.2500      0.0000    739.7818      9.0869      3.0668    113.1637
   642.5000      0.0000    747.5153      8.9202      3.0219    118.1871
   642.7500      0.0000    752.4696      8.7759      2.9355    125.4033
   643.0000      0.0000    754.8023      8.6369      2.7970    132.7518
   643.2500      0.0000    755.6331      8.4967      2.5892    139.2076
   643.5000      0.0000    755.8641      8.3650      2.3022    144.5565
   643.7500      0.0000    755.8896      8.2523      1.9662    148.0167
   644.0000      0.0000    755.8113      8.1640      1.6610    147.8525
   644.2500      0.0000    755.6511      8.1175      1.4777    143.1163
   644.5000      0.0000    755.4478      8.1465      1.4646    135.2864
   644.7500      0.0000    755.2459      8.2769      1.6015    127.2336
   645.0000      0.0000    755.0994      8.5061      1.8138    120.7931
   645.2500      0.0000    755.0234      8.8105      2.0094    116.0632
   645.5000      0.0000    754.7797      9.1613      2.1169    112.7589
   645.7500      0.0000    753.3644      9.5199      2.1062    111.4019
   646.0000      0.0000    748.5203      9.8273      1.9885    112.9748
   646.2500      0.0000    737.5106     10.0144      1.8028    117.6864
   646.5000      0.0000    719.7207     10.0355      1.5988    124.2010
   646.7500      0.0000    698.8237      9.8983      1.4254    130.1683
   647.0000      0.0000    681.2935      9.6664      1.3253    133.8112
   647.2500      0.0000    672.3448      9.4293      1.3262    135.0396
   647.5000      0.0000    673.7717      9.2596      1.4367    134.8420
   647.7500      0.0000    684.3885      9.1886      1.6485    133.8469
   648.0000      0.0000    700.3298      9.2096      1.9329    131.9111
   648.2500      0.0000    715.3401      9.2985      2.2321    128.8348
   648.5000      0.0000    723.6431      9.4305      2.4695    124.9353
   648.7500      0.0000    723.5645      9.5846      2.5814    121.2174
   649.0000      0.0000    717.2326      9.7435      2.5490    119.4198
   649.2500      0.0000    707.0503      9.8917      2.4078    121.2566
   649.5000      0.0000    694.1616     10.0139      2.2288    126.7744
   649.7500      0.0000    680.1856     10.0941      2.0700    133.7626
   650.0000      0.0000    668.4628     10.1207      1.9345    139.4040
   650.2500      0.0000    662.8449     10.0979      1.7934    142.4117
   650.5000      0.0000    665.8416     10.0529      1.6506    143.4056
   650.7500      0.0000    677.5040     10.0262      1.5695    143.6088
   651.0000      0.0000    694.8713     10.0514      1.6269    143.7262
   651.2500      0.0000    713.0341     10.1388      1.8498    143.9773
   651.5000      0.0000    728.0444     10.2784      2.1852    144.3903
   651.7500      0.0000    738.7247     10.4582      2.5168    144.4940
   652.0000      0.0000    745.6544     10.6808      2.7219    143.2797
   652.2500      0.0000    749.3124     10.9586      2.7361    140.2738
   652.5000      0.0000    749.3612     11.2854      2.5938    136.5244
   652.7500      0.0000    744.6212     11.6125      2.4220    133.9344
   653.0000      0.0000    733.6212     11.8645      2.3740    133.4771
   653.2500      0.0000    716.4240     11.9918      2.5178    134.2854
   653.5000      0.0000    696.8259     12.0080      2.7665    134.5082
   653.7500      0.0000    682.1468     11.9720      2.9297    132.9626
   654.0000      0.0000    679.2913     11.9332      2.8617    129.8932
   654.2500      0.0000    689.8207     11.8950      2.5751    126.2559
   654.5000      0.0000    708.5306     11.8230      2.2237    122.6676
   654.7500      0.0000    727.0423     11.6817      1.9769    119.2542
   655.0000      0.0000    738.8513     11.4631      1.9095    116.2330
   655.2500      0.0000    741.3619     11.1882      1.9854    114.2353
   655.5000      0.0000    734.6952     10.8825      2.1077    113.9772
   655.7500      0.0000    720.3872     10.5544      2.1715    115.6611
   656.0000      0.0000    701.4133     10.1964      2.1125    118.6138
   656.2500      0.0000    682.0120      9.8041      1.9429    121.4502
   656.5000      0.0000    666.0388      9.3910      1.7473    122.9316
   656.7500      0.0000    654.9725      8.9908      1.6327    123.0065
   657.0000      0.0000    647.6669      8.6531      1.6700    122.8765
   657.2500      0.0000    642.2784      8.4242      1.8635    123.9053
   657.5000      0.0000    638.4146      8.3218      2.1505    126.6070
   657.7500      0.0000    637.6177      8.3286      2.4231    130.4945
   658.0000      0.0000    642.3430      8.4110      2.5722    134.2297
   658.2500      0.0000    654.3419      8.5381      2.5420    135.8912
   658.5000      0.0000    672.9913      8.6823      2.3626    133.9712
   658.7500      0.0000    694.7858      8.8142      2.1341    128.6876
   659.0000      0.0000    715.1082      8.9039      1.9686    122.0456
   659.2500      0.0000    730.9860      8.9340      1.9254    116.1711
   659.5000      0.0000    742.3212      8.9170      1.9786    111.5017
   659.7500      0.0000    751.1548      8.8975      2.0409    106.6871
   660.0000      0.0000    760.1502      8.9276      2.0396    100.2007
   660.2500      0.0000    771.1799      9.0268      1.9804     91.8805
   660.5000      0.0000    784.2575      9.1623      1.9231     83.1366
   660.7500      0.0000    797.1564      9.2713      1.8956     76.0846
   661.0000      0.0000    805.8926      9.3065      1.8625     72.2705
   661.2500      0.0000    806.4623      9.2655      1.7888     71.5709
   661.5000      0.0000    797.6569      9.1789      1.7052     72.1751
   661.7500      0.0000    782.9399      9.0742      1.6818     71.9239
   662.0000      0.0000    768.7878      8.9539      1.7460     69.8478
   662.2500      0.0000    760.2721      8.8104      1.8522     66.5890
   662.5000      0.0000    758.1171      8.6547      1.9262     63.6078
   662.7500      0.0000    759.7106      8.5187      1.9173     62.0444
   663.0000      0.0000    761.8320      8.4271      1.8186     62.0254
   663.2500      0.0000    762.2762      8.3758      1.6727     62.6638
   663.5000      0.0000    760.3578      8.3432      1.5618     62.6736
   663.7500      0.0000    756.7380      8.3124      1.5615     61.3050
   664.0000      0.0000    752.3397      8.2762      1.6870     58.8197
