~Version Information
VERS.                      2.0: CWLS Log ASCII Standard - VERSION 2.0
WRAP.                       NO: One line per depth step
~Well Information Block
STRT.FT               875.0000: 
STOP.FT              2054.5000: 
STEP.FT                 0.2500: 
NULL.                -999.2500: 
COMP.          Pioneer Natural Resources: COMPANY
WELL.          Woodstock 43-19: WELL
FLD.           Purgatoire River: FIELD
LOC.           2195' FSL & 250' FEL: LOCATION
CNTY.               Las Animas: COUNTY
SRVC.                Patterson: SERVICE COMPANY
DATE.          Thu Feb 02 03:08:19 2006: LOG DATE
UWI.           05 071 08677 00: UNIQUE WELL ID
STAT.                 Colorado: STATE
~Curve Information Block
DEPT.FT            0 000 00 00: Depth
SN.Ohm-m                      : IEL Short Normal
SP.mV                         : IEL Spontaneous Potential
DIR.Ohm-m                     : IEL Induction Resistivity
GR.GAPI                       : Gamma Ray
~Parameter Information Block
~A  Depth        SN          SP         DIR          GR     
# ...
  1645.5000     11.8046     71.1288      9.0657    122.7628
  1645.7500     11.4454     71.1104      8.6115    122.8165
  1646.0000     11.1374     71.0675      8.2150    122.8264
  1646.2500     10.8366     71.0093      7.8637    122.9189
  1646.5000     10.5476     70.9533      7.5501    123.3857
  1646.7500     10.3189     70.9245      7.2697    124.2100
  1647.0000     10.0707     70.9457      7.0195    126.4482
  1647.2500      9.7269     71.0273      6.7991    128.1926
  1647.5000      9.4015     71.1619      6.6112    129.8518
  1647.7500      9.2196     71.3291      6.4607    129.9025
  1648.0000      9.1342     71.5035      6.3528    129.0997
  1648.2500      9.0233     71.6657      6.2903    128.7796
  1648.5000      8.8702     71.8097      6.2715    129.1240
  1648.7500      8.8006     71.9436      6.2901    129.4280
  1649.0000      8.8915     72.0843      6.3363    128.7289
  1649.2500      9.0223     72.2505      6.3991    127.0536
  1649.5000      9.0391     72.4544      6.4687    122.8820
  1649.7500      8.9590     72.6947      6.5386    119.5047
  1650.0000      8.9436     72.9540      6.6052    114.5435
  1650.2500      9.0890     73.2052      6.6678    111.6439
  1650.5000      9.2935     73.4222      6.7277    108.0784
  1650.7500      9.4466     73.5916      6.7886    106.3407
  1651.0000      9.5561     73.7174      6.8558    105.1379
  1651.2500      9.6074     73.8161      6.9339    105.5008
  1651.5000      9.5951     73.9040      7.0247    107.6543
  1651.7500      9.5987     73.9874      7.1260    109.6390
  1652.0000      9.6145     74.0610      7.2336    111.9845
  1652.2500      9.5515     74.1132      7.3450    112.3183
  1652.5000      9.4425     74.1362      7.4627    110.5690
  1652.7500      9.4082     74.1325      7.5954    108.4805
  1653.0000      9.4945     74.1141      7.7563    105.6312
  1653.2500      9.6998     74.0942      7.9599    104.4925
  1653.5000     10.0367     74.0790      8.2195    103.4659
  1653.7500     10.4921     74.0648      8.5446    102.5369
  1654.0000     11.0082     74.0425      8.9392    100.1407
  1654.2500     11.5265     74.0058      9.4012     98.0062
  1654.5000     12.0122     73.9577      9.9243     94.2255
  1654.7500     12.4945     73.9144     10.5040     90.9840
  1655.0000     13.1044     73.9005     11.1458     83.8424
  1655.2500     13.9842     73.9375     11.8674     77.1072
  1655.5000     15.2154     74.0324     12.6928     64.6960
  1655.7500     16.9337     74.1753     13.6386     56.0487
  1656.0000     19.4051     74.3447     14.7069     44.7260
  1656.2500     22.8533     74.5133     15.8909     39.0942
  1656.5000     27.1847     74.6548     17.1905     33.8347
  1656.7500     31.8427     74.7535     18.6196     32.1893
  1657.0000     36.0201     74.8114     20.1941     31.7557
  1657.2500     39.1703     74.8456     21.9047     32.3573
  1657.5000     41.2307     74.8758     23.6912     33.8678
  1657.7500     42.3806     74.9137     25.4392     34.9093
  1658.0000     42.8402     74.9615     27.0071     35.9854
  1658.2500     42.8618     75.0149     28.2748     36.1537
  1658.5000     42.6578     75.0676     29.1867     35.5771
  1658.7500     42.3206     75.1109     29.7647     34.9418
  1659.0000     41.8710     75.1341     30.0861     34.3241
  1659.2500     41.3016     75.1258     30.2445     34.3212
  1659.5000     40.5880     75.0804     30.3146     34.6664
  1659.7500     39.7551     75.0037     30.3354     34.8751
  1660.0000     38.8899     74.9123     30.3133     34.9324
  1660.2500     38.0950     74.8263     30.2401     34.7288
  1660.5000     37.4793     74.7594     30.1102     33.9079
  1660.7500     37.0768     74.7119     29.9241     33.0887
  1661.0000     36.7823     74.6708     29.6797     32.1562
  1661.2500     36.4851     74.6174     29.3667     32.2339
  1661.5000     36.1765     74.5381     28.9768     33.5650
  1661.7500     35.8862     74.4287     28.5229     34.8384
  1662.0000     35.6550     74.2906     28.0477     36.3719
  1662.2500     35.5176     74.1224     27.6044     36.8446
  1662.5000     35.3853     73.9191     27.2252     36.8502
  1662.7500     35.0702     73.6833     26.9023     36.7229
  1663.0000     34.4689     73.4319     26.5969     37.0240
  1663.2500     33.6148     73.1934     26.2687     37.7764
  1663.5000     32.5948     72.9979     25.9065     39.5411
  1663.7500     31.5212     72.8699     25.5384     40.7965
  1664.0000     30.5334     72.8220     25.2189     42.2884
  1664.2500     29.7031     72.8522     25.0036     42.9297
  1664.5000     29.0365     72.9455     24.9273     43.4839
  1664.7500     28.5745     73.0790     24.9924     43.7277
  1665.0000     28.3165     73.2283     25.1614     44.2319
  1665.2500     28.1674     73.3757     25.3544     44.8246
  1665.5000     28.0730     73.5172     25.4619     46.0876
  1665.7500     28.0088     73.6648     25.3879     46.9752
  1666.0000     27.8731     73.8383     25.1093     47.9443
  1666.2500     27.6400     74.0547     24.7006     48.1722
  1666.5000     27.4814     74.3190     24.2972     47.7143
  1666.7500     27.5171     74.6197     24.0234     46.7981
  1667.0000     27.6431     74.9293     23.9349     44.4408
  1667.2500     27.7267     75.2119     24.0004     42.3431
  1667.5000     27.7707     75.4355     24.1233     39.1413
  1667.7500     27.8503     75.5870     24.1914     37.5849
  1668.0000     28.0304     75.6804     24.1206     36.9086
  1668.2500     28.3042     75.7527     23.8553     37.6337
  1668.5000     28.5653     75.8437     23.3400     40.0781
  1668.7500     28.7164     75.9775     22.5123     42.3694
  1669.0000     28.7177     76.1564     21.3436     46.7201
  1669.2500     28.4640     76.3654     19.8843     50.3276
  1669.5000     27.7390     76.5800     18.2571     57.0072
  1669.7500     26.3382     76.7774     16.6029     62.3940
  1670.0000     24.2710     76.9476     15.0322     71.7577
  1670.2500     21.8365     77.0930     13.6102     78.4793
  1670.5000     19.4235     77.2179     12.3661     88.2239
  1670.7500     17.2967     77.3188     11.3059     94.0090
  1671.0000     15.5646     77.3854     10.4210    101.5917
  1671.2500     14.1954     77.4090      9.6938    106.2209
  1671.5000     13.0927     77.3924      9.1026    112.6681
  1671.7500     12.2232     77.3527      8.6260    116.2952
  1672.0000     11.6082     77.3166      8.2463    120.0132
  1672.2500     11.2334     77.3101      7.9480    121.2616
  1672.5000     11.0403     77.3471      7.7160    121.7095
  1672.7500     10.9364     77.4235      7.5338    121.2847
  1673.0000     10.8187     77.5195      7.3852    119.3691
  1673.2500     10.6338     77.6058      7.2584    116.8592
  1673.5000     10.3901     77.6533      7.1508    110.8547
  1673.7500     10.1101     77.6426      7.0688    105.6261
  1674.0000      9.8019     77.5738      7.0232     97.3091
  1674.2500      9.4842     77.4694      7.0235     92.5824
  1674.5000      9.2043     77.3677      7.0747     88.7472
  1674.7500      9.0560     77.3063      7.1773     89.2087
  1675.0000      9.1723     77.3070      7.3279     94.4889
  1675.2500      9.5771     77.3690      7.5198    100.1468
  1675.5000     10.0945     77.4740      7.7415    109.4989
  1675.7500     10.5417     77.5951      7.9727    115.1887
  1676.0000     10.8960     77.7078      8.1839    121.7985
  1676.2500     11.1732     77.7985      8.3403    124.5338
  1676.5000     11.3013     77.8660      8.4129    125.8301
  1676.7500     11.2276     77.9173      8.3911    125.0449
  1677.0000     11.0240     77.9593      8.2883    122.4806
  1677.2500     10.7908     77.9955      8.1357    120.6430
  1677.5000     10.5740     78.0262      7.9700    118.7911
  1677.7500     10.4197     78.0513      7.8218    118.4706
  1678.0000     10.3913     78.0706      7.7123    119.3023
  1678.2500     10.4759     78.0845      7.6535    120.3931
  1678.5000     10.5370     78.0952      7.6514    121.7985
  1678.7500     10.4687     78.1045      7.7073    121.9915
