~Version Information
VERS.                      2.0: CWLS Log ASCII Standard - VERSION 2.0
WRAP.                       NO: One line per depth step
~Well Information Block
STRT.FT               840.0000: 
STOP.FT              1912.0000: 
STEP.FT                 0.1000: 
NULL.                -999.2500: 
COMP.          Petrogulf Corporation: COMPANY
WELL.             Kraft 17-23R: WELL
FLD.           Purgatorie River: FIELD
LOC.           1509' FSL & 1673' FWL: LOCATION
PROV.                 Colorado: PROVINCE
CNTY.               Las Animas: COUNTRY
SRVC.                Patterson: SERVICE COMPANY
DATE.          Wed Oct 12 07:01:14 2005: LOG DATE
UWI.                          : UNIQUE WELL ID
~Curve Information Block
DEPT.FT            0 000 00 00: Depth
DCAL.in                       : CDL Caliper
RHOB.g/cc                     : CDL Bulk Density
RHOC.g/cc                     : CDL Density Correction
DPOR.pu                       : CDL Density Porosity
GR.GAPI                       : Gamma Ray
NPOR.pu                       : Neutron Porosity
~Parameter Information Block
~A  Depth       DCAL        RHOB        RHOC        DPOR         GR         NPOR    
# ...
  1051.2000      7.9229      2.5639      0.0459      5.2204    157.8524     23.1908
  1051.3000      7.9248      2.5644      0.0467      5.1872    153.9713     23.4195
  1051.4000      7.9248      2.5678      0.0482      4.9820    154.2978     23.5598
  1051.5000      7.9246      2.5718      0.0481      4.7415    159.3945     23.6834
  1051.6000      7.9246      2.5724      0.0883      4.7052    162.4409     24.0372
  1051.7000      7.9246      2.5697      0.1103      4.8657    160.0121     24.3594
  1051.8000      7.9149      2.5639      0.0671      5.2204    154.1381     24.3217
  1051.9000      7.9149      2.5572      0.0700      5.6255    146.7389     24.3307
  1052.0000      7.9102      2.5549      0.0343      5.7610    139.9938     24.6106
  1052.1000      7.9102      2.5620      0.0354      5.3328    137.0613     24.5343
  1052.2000      7.9102      2.5796      0.0261      4.2685    137.6377     23.9258
  1052.3000      7.9139      2.6016      0.0776      2.9335    139.9762     23.4794
  1052.4000      7.9139      2.6132      0.1048      2.2331    142.6833     23.5230
  1052.5000      7.9074      2.6114      0.1134      2.3420    143.2418     23.5561
  1052.6000      7.9074      2.6124      0.0993      2.2813    141.4010     23.3166
  1052.7000      7.9074      2.6210      0.0861      1.7565    137.7106     23.1439
  1052.8000      7.8985      2.6194      0.0768      1.8546    131.5891     23.1695
  1052.9000      7.8985      2.5920      0.0547      3.5168    126.5759     23.2004
  1053.0000      7.8905      2.5509     -0.0184      6.0032    127.3299     23.1831
  1053.1000      7.8905      2.5289     -0.0581      7.3383    132.1897     23.2925
  1053.2000      7.8905      2.5401     -0.0149      6.6591    136.4320     23.5885
  1053.3000      7.8830      2.5688      0.0284      4.9220    138.4169     23.9159
  1053.4000      7.8830      2.5970      0.0032      3.2137    140.1571     24.0540
  1053.5000      7.8765      2.6172      0.0514      1.9880    143.1229     23.8725
  1053.6000      7.8765      2.6229      0.1012      1.6410    145.5231     23.6338
  1053.7000      7.8765      2.6128      0.0887      2.2562    145.5314     23.6349
  1053.8000      7.8582      2.5992      0.0302      3.0764    147.5642     23.7383
  1053.9000      7.8582      2.5894      0.0405      3.6753    154.3714     23.7666
  1054.0000      7.8665      2.5685      0.0167      4.9385    159.3237     23.6628
  1054.1000      7.8665      2.5341     -0.0036      7.0258    157.4778     23.3206
  1054.2000      7.8665      2.5143     -0.0612      8.2254    151.2476     22.8823
  1054.3000      7.9076      2.5233      0.0233      7.6793    143.4975     22.6453
  1054.4000      7.9076      2.5415      0.0344      6.5783    137.5838     22.5701
  1054.5000      7.9056      2.5537      0.0444      5.8335    132.9207     22.4026
  1054.6000      7.9056      2.5616      0.0414      5.3604    125.0817     22.0272
  1054.7000      7.9056      2.5729      0.0091      4.6704    115.0292     21.3160
  1054.8000      7.8995      2.5953      0.0585      3.3149    105.7362     20.2109
  1054.9000      7.8995      2.6235      0.0550      1.6037     96.2580     18.9314
  1055.0000      7.8776      2.6446      0.0936      0.3251     85.2222     17.5659
  1055.1000      7.8776      2.6487      0.0876      0.0778     75.2618     16.1610
  1055.2000      7.8776      2.6351      0.0495      0.9023     68.6748     14.8701
  1055.3000      7.8852      2.6124      0.0229      2.2761     64.2699     13.6896
  1055.4000      7.8852      2.5942     -0.0350      3.3795     62.0044     12.7198
  1055.5000      7.9060      2.5907     -0.0025      3.5960     62.7701     12.1517
  1055.6000      7.9060      2.5964      0.0343      3.2513     64.8589     11.9025
  1055.7000      7.9060      2.5976      0.0052      3.1778     65.7117     11.6880
  1055.8000      7.9230      2.5934      0.0165      3.4324     65.6650     11.3768
  1055.9000      7.9230      2.5942      0.0114      3.3822     66.1284     11.0739
  1056.0000      7.9187      2.6005      0.0832      2.9993     66.9177     10.9353
  1056.1000      7.9187      2.5983      0.0564      3.1363     68.5920     11.1402
  1056.2000      7.9187      2.5829      0.0428      4.0668     73.5571     11.7839
  1056.3000      7.9156      2.5638      0.0386      5.2223     80.5055     12.7191
  1056.4000      7.9156      2.5486      0.0666      6.1476     85.9077     13.7444
  1056.5000      7.9125      2.5357      0.0259      6.9283     92.7451     14.8763
  1056.6000      7.9125      2.5253      0.0068      7.5549    103.6052     15.9994
  1056.7000      7.9125      2.5235      0.0213      7.6650    112.9622     16.8573
  1056.8000      7.9004      2.5306      0.0479      7.2391    120.2114     17.4874
  1056.9000      7.9004      2.5437      0.1134      6.4424    130.2218     18.0002
  1057.0000      7.9115      2.5690      0.0944      4.9092    138.9059     18.5299
  1057.1000      7.9115      2.6076      0.1470      2.5675    139.4830     19.2933
  1057.2000      7.9115      2.6352      0.2081      0.8987    134.4519     20.4688
  1057.3000      7.9253      2.6347      0.1119      0.9283    131.4238     21.7485
  1057.4000      7.9253      2.6281      0.1148      1.3248    135.8958     22.4630
  1057.5000      7.9347      2.6306      0.1391      1.1744    146.0916     22.6370
  1057.6000      7.9347      2.6252      0.1166      1.5040    153.7461     22.8321
  1057.7000      7.9347      2.6041      0.0741      2.7807    154.7037     23.0876
  1057.8000      7.9481      2.5836      0.0425      4.0223    152.2864     22.9759
  1057.9000      7.9481      2.5755      0.0471      4.5130    148.9060     22.6029
  1058.0000      7.9513      2.5730      0.0909      4.6653    143.3256     22.6013
  1058.1000      7.9513      2.5675      0.0411      5.0002    137.8915     23.1072
  1058.2000      7.9513      2.5621      0.0133      5.3291    137.3557     23.6868
  1058.3000      7.9532      2.5609      0.0267      5.3984    142.7162     23.9959
  1058.4000      7.9532      2.5586      0.0527      5.5422    150.8565     24.1137
  1058.5000      7.9449      2.5545      0.0019      5.7906    156.2152     24.3418
  1058.6000      7.9449      2.5652      0.0034      5.1367    155.5601     24.6028
  1058.7000      7.9449      2.5948      0.0348      3.3450    153.6327     24.5038
  1058.8000      7.9472      2.6247      0.0762      1.5349    155.5348     24.1605
  1058.9000      7.9472      2.6442      0.0771      0.3529    159.1559     24.0404
  1059.0000      7.9435      2.6587      0.0762     -0.5303    162.5569     24.0845
  1059.1000      7.9435      2.6709      0.0904     -1.2658    166.7590     23.9259
  1059.2000      7.9435      2.6682      0.1071     -1.1025    169.9949     23.7656
  1059.3000      7.9411      2.6427      0.0851      0.4425    167.5662     24.0647
  1059.4000      7.9411      2.6090      0.0502      2.4853    160.4809     24.7152
  1059.5000      7.9343      2.5848     -0.0073      3.9530    156.1573     25.4077
  1059.6000      7.9343      2.5703      0.0160      4.8305    156.2442     25.9655
  1059.7000      7.9343      2.5640     -0.0295      5.2106    155.3016     26.1760
  1059.8000      7.9298      2.5685      0.1156      4.9377    151.6674     25.9721
  1059.9000      7.9298      2.5780      0.0641      4.3634    150.0408     25.6874
  1060.0000      7.9247      2.5892      0.1050      3.6826    153.0678     25.6636
  1060.1000      7.9247      2.5967      0.1115      3.2289    156.3909     25.7259
  1060.2000      7.9247      2.5898      0.1356      3.6510    156.4519     25.6279
  1060.3000      7.9205      2.5635      0.1253      5.2426    154.9413     25.4295
  1060.4000      7.9205      2.5265      0.0603      7.4824    154.9617     25.2577
  1060.5000      7.9230      2.5003      0.0098      9.0698    155.8834     25.1234
  1060.6000      7.9230      2.4951      0.0240      9.3902    154.6774     25.0728
  1060.7000      7.9230      2.4962      0.0783      9.3204    152.2749     25.0838
