~Version Information
VERS.                      2.0: CWLS Log ASCII Standard - VERSION 2.0
WRAP.                       NO: One line per depth step
~Well Information Block
STRT.FT                -6.7500: 
STOP.FT              1121.2500: 
STEP.FT                 0.2500: 
NULL.                -999.2500: 
COMP.          Pioneer Natural Resources: COMPANY
WELL.              Draco 31-21: WELL
FLD.           Purgatorie River: FIELD
LOC.           491' FNL & 2446' FEL--: LOCATION
CNTY.               Las Animas: COUNTY
SRVC.          Patterson Wireline: SERVICE COMPANY
DATE.          Mon Feb 06 09:50:04 2006: LOG DATE
UWI.           05 071 08672 00: UNIQUE WELL ID
STAT.                       CO: STATE
~Curve Information Block
DEPT.FT            0 000 00 00: Depth
CCL.                          : Casing Collar Locator
TT3.usec                      : CBL 3' Travel Time
AMP3.mV                       : CBL 3' Amplitude
GR.GAPI                       : Gamma Ray
~Parameter Information Block
~A  Depth       CCL         TT3         AMP3         GR     
# ...
   495.7500      0.0000    304.8053     23.5405     95.3383
   496.0000      0.0000    304.7332     23.4569     88.0091
   496.2500      0.0000    304.6501     23.4842     81.1270
   496.5000      0.0000    304.5408     23.6655     77.1433
   496.7500      0.0000    304.4089     23.9812     75.9518
   497.0000      0.0000    304.2741     24.3600     76.2266
   497.2500      0.0000    304.1602     24.7146     77.4663
   497.5000      0.0000    304.0805     24.9837     80.3616
   497.7500      0.0000    304.0345     25.1532     85.5427
   498.0000      0.0000    304.0163     25.2448     92.4390
   498.2500      0.0000    304.0251     25.2857     99.2025
   498.5000      0.0000    304.0642     25.2888    103.4589
   498.7500      0.0000    304.1329     25.2558    103.4735
   499.0000      0.0000    304.2232     25.1903     99.1023
   499.2500      0.0000    304.3258     25.0966     91.7128
   499.5000      0.0000    304.4350     24.9716     83.0600
   499.7500      0.0000    304.5470     24.8106     74.2816
   500.0000      0.0000    304.6550     24.6273     65.9393
   500.2500      0.0000    304.7453     24.4672     58.5720
   500.5000      0.0000    304.8007     24.3933     52.7230
   500.7500      0.0000    304.8156     24.4476     48.5731
   501.0000      0.0000    304.8195     24.6156     45.8361
   501.2500      0.0000    304.9376     24.8239     43.8443
   501.5000      0.0000    305.5386     24.9620     41.7678
   501.7500      0.0000    307.4323     24.8962     39.2263
   502.0000      0.0000    311.8389     24.4675     36.7046
   502.2500      0.0000    319.6231     23.5524     35.0046
   502.5000      0.0000    330.0547     22.2122     34.4156
   502.7500      0.0000    340.5974     20.7443     34.6846
   503.0000      0.0000    348.5984     19.4571     35.4729
   503.2500      0.0000    353.1488     18.4014     36.5051
   503.5000      0.0000    355.0017     17.4445     37.5298
   503.7500      0.0000    355.5979     16.5540     38.5097
   504.0000      0.0000    357.1276     15.8410     39.7954
   504.2500      0.0000    363.2117     15.3644     41.9289
   504.5000     -2.0000    377.7899     15.0498     45.3136
   504.7500      2.0000    401.0019     14.7961     50.1473
   505.0000      0.0000    425.0381     14.5987     56.3648
   505.2500      0.0000    436.5971     14.5914     63.3149
   505.5000      0.0000    427.0749     14.9935     69.7753
   505.7500      0.0000    400.2341     15.9611     74.7880
   506.0000      0.0000    368.2486     17.4512     78.4043
   506.2500      0.0000    341.5584     19.2438     81.2067
   506.5000      0.0000    323.7560     21.0570     83.2565
   506.7500      0.0000    313.5421     22.6301     84.0109
   507.0000      0.0000    308.3353     23.7917     83.1608
   507.2500      0.0000    306.0049     24.5293     80.9994
   507.5000      0.0000    305.1132     24.9739     77.9979
   507.7500      0.0000    304.8088     25.2957     74.5889
   508.0000      0.0000    304.6517     25.6179     71.4816
   508.2500      0.0000    304.4880     25.9971     69.6994
   508.5000      0.0000    304.3112     26.4354     69.9832
   508.7500      0.0000    304.1771     26.8955     72.1686
   509.0000      0.0000    304.1271     27.3231     75.1329
   509.2500      0.0000    304.1550     27.6666     77.4179
   509.5000      0.0000    304.2220     27.8922     78.1212
   509.7500      0.0000    304.2927     27.9953     77.3971
   510.0000      0.0000    304.3501     28.0067     76.2378
   510.2500      0.0000    304.3861     27.9832     75.6371
   510.5000      0.0000    304.3926     27.9808     75.6689
   510.7500      0.0000    304.3641     28.0267     75.4099
   511.0000      0.0000    304.3048     28.1125     73.9445
   511.2500      0.0000    304.2292     28.2124     71.2557
   511.5000      0.0000    304.1571     28.3088     67.9375
   511.7500      0.0000    304.1061     28.4011     64.4127
   512.0000      0.0000    304.0846     28.4986     60.8046
   512.2500      0.0000    304.0892     28.6075     57.2748
   512.5000      0.0000    304.1089     28.7258     54.0620
   512.7500      0.0000    304.1320     28.8494     51.4060
   513.0000      0.0000    304.1505     28.9804     49.8194
   513.2500      0.0000    304.1606     29.1236     50.1005
   513.5000      0.0000    304.1621     29.2716     52.5001
   513.7500      0.0000    304.1586     29.3964     56.0813
   514.0000      0.0000    304.1553     29.4662     59.4019
   514.2500      0.0000    304.1558     29.4716     61.8146
   514.5000      0.0000    304.1593     29.4318     63.8820
   514.7500      0.0000    304.1623     29.3747     66.4732
   515.0000      0.0000    304.1618     29.3124     69.4687
   515.2500      0.0000    304.1592     29.2357     71.5278
   515.5000      0.0000    304.1608     29.1272     71.3126
   515.7500      0.0000    304.1737     28.9786     68.8965
   516.0000      0.0000    304.2014     28.7987     65.9952
   516.2500      0.0000    304.2428     28.6095     64.9135
   516.5000      0.0000    304.2945     28.4335     66.9358
   516.7500      0.0000    304.3548     28.2795     71.1773
   517.0000      0.0000    304.4243     28.1325     75.0576
   517.2500      0.0000    304.5054     27.9599     76.3221
   517.5000      0.0000    304.6002     27.7340     74.6747
   517.7500      0.0000    304.7069     27.4514     71.5255
   518.0000      0.0000    304.8172     27.1338     68.6074
   518.2500      0.0000    304.9193     26.8139     66.9781
   518.5000      0.0000    305.0016     26.5249     66.7471
   518.7500      0.0000    305.0548     26.2973     67.1469
   519.0000      0.0000    305.0737     26.1544     66.9598
   519.2500      0.0000    305.0606     26.0977     65.3298
   519.5000      0.0000    305.0285     26.0982     62.3874
   519.7500      0.0000    304.9978     26.1074     59.1015
   520.0000      0.0000    304.9873     26.0835     56.6354
   520.2500      0.0000    305.0071     26.0124     55.8897
   520.5000      0.0000    305.0550     25.9056     57.4106
   520.7500      0.0000    305.1200     25.7809     61.2314
   521.0000      0.0000    305.1885     25.6468     66.4779
   521.2500      0.0000    305.2510     25.5026     71.3595
   521.5000      0.0000    305.3046     25.3461     74.0899
   521.7500      0.0000    305.3498     25.1820     74.0207
   522.0000      0.0000    305.3850     25.0270     71.7412
   522.2500      0.0000    305.4050     24.9076     68.3302
   522.5000      0.0000    305.4072     24.8424     64.8963
   522.7500      0.0000    305.3987     24.8220     62.4442
   523.0000      0.0000    305.3943     24.8093     61.4557
   523.2500      0.0000    305.4041     24.7724     61.5408
   523.5000      0.0000    305.4210     24.7208     61.8950
   523.7500      0.0000    305.4264     24.6985     62.1529
   524.0000      0.0000    305.4091     24.7397     62.6252
   524.2500      0.0000    305.3763     24.8366     63.7053
   524.5000      0.0000    305.3432     24.9541     65.1110
   524.7500      0.0000    305.3149     25.0756     65.7472
   525.0000      0.0000    305.2800     25.2276     64.5586
   525.2500      0.0000    305.2244     25.4540     61.7940
   525.5000      0.0000    305.1498     25.7589     59.2943
   525.7500      0.0000    305.0755     26.0776     59.1782
   526.0000      0.0000    305.0241     26.3149     61.9795
   526.2500      0.0000    305.0055     26.4176     65.9681
   526.5000      0.0000    305.0114     26.4122     68.3754
   526.7500      0.0000    305.0229     26.3725     67.4842
   527.0000      0.0000    305.0262     26.3553     63.5925
   527.2500      0.0000    305.0238     26.3604     58.1378
   527.5000      0.0000    305.0296     26.3446     52.5139
   527.7500      0.0000    305.0539     26.2703     47.9241
   528.0000      0.0000    305.0917     26.1442     45.5009
   528.2500      0.0000    305.1284     26.0112     45.7152
   528.5000      0.0000    305.1529     25.9167     47.8222
   528.7500      0.0000    305.1648     25.8756     50.3588
   529.0000      0.0000    305.1691     25.8769     52.2096
