~Version Information
VERS.                      2.0: CWLS Log ASCII Standard - VERSION 2.0
WRAP.                       NO: One line per depth step
~Well Information Block
STRT.FT               745.0000: 
STOP.FT              1985.0000: 
STEP.FT                 0.1000: 
NULL.                -999.2500: 
COMP.          Pioneer Natural Resources: COMPANY
WELL.          Lorencito 15-36-33-67: WELL
FLD.           Purgatoire River: FIELD
LOC.           38' FSL & 1446' FEL: LOCATION
STAT.                 Colorado: State
CNTY.               Las Animas: COUNTY
CTRY. USA : Country
SECT. 36 : Section
TOWN. 33S : Township
RANG. 67W : Range
SRVC.                Patterson: SERVICE COMPANY
DATE.          Thu Oct 13 10:16:17 2005: LOG DATE
API.           05 071 08515 00: UNIQUE WELL ID
~Curve Information Block
DEPT.FT            0 000 00 00: Depth
DCAL.in                       : CDL Caliper
RHOB.g/cc                     : CDL Bulk Density
RHOC.g/cc                     : CDL Density Correction
DPOR.pu                       : CDL Density Porosity
GR.GAPI                       : Gamma Ray
NPOR.pu                       : Neutron Porosity
~Parameter Information Block
~A  Depth       DCAL        RHOB        RHOC        DPOR         GR         NPOR    
# ...
   994.6000      8.0959      2.5108      0.0320      8.4360    165.1479     27.4886
   994.7000      8.0959      2.4896     -0.0065      9.7238    165.7239     27.9830
   994.8000      8.0963      2.4694      0.0038     10.9426    168.7702     28.7517
   994.9000      8.0963      2.4586     -0.0180     11.6027    173.1504     28.9076
   995.0000      8.1021      2.4616     -0.0027     11.4177    174.5957     28.5446
   995.1000      8.1021      2.4810     -0.0050     10.2421    171.4383     28.3902
   995.2000      8.1021      2.5002      0.0509      9.0812    168.2423     28.5326
   995.3000      8.1032      2.4999      0.0253      9.0998    170.3274     28.6381
   995.4000      8.1032      2.4913     -0.0111      9.6197    176.6534     28.3630
   995.5000      8.0968      2.4912     -0.0133      9.6234    179.0732     27.7306
   995.6000      8.0968      2.4920      0.0169      9.5770    169.9688     27.2991
   995.7000      8.0968      2.4814      0.0198     10.2198    155.5489     27.2823
   995.8000      8.0914      2.4657      0.0074     11.1721    149.7174     27.2076
   995.9000      8.0914      2.4603      0.0073     11.4967    153.6951     27.0067
   996.0000      8.0940      2.4687      0.0193     10.9908    157.2716     26.9964
   996.1000      8.0940      2.4877      0.0173      9.8392    158.1728     27.0901
   996.2000      8.0940      2.5150      0.0390      8.1823    161.4750     27.1586
   996.3000      8.0927      2.5370      0.0847      6.8507    163.5056     27.2741
   996.4000      8.0927      2.5434      0.0450      6.4576    158.9715     27.3092
   996.5000      8.0946      2.5469      0.0098      6.2488    153.6937     27.0186
   996.6000      8.0946      2.5509      0.0976      6.0052    154.1157     26.8880
   996.7000      8.0946      2.5408      0.0309      6.6166    156.0404     27.5436
   996.8000      8.0957      2.5263     -0.0053      7.4978    154.5161     28.5843
   996.9000      8.0957      2.5339      0.0018      7.0391    154.3503     29.2911
   997.0000      8.0941      2.5605      0.0171      5.4232    157.1803     29.7991
   997.1000      8.0941      2.5757      0.0478      4.5011    158.0374     30.4004
   997.2000      8.0941      2.5634      0.0240      5.2511    155.4522     30.8539
   997.3000      8.0994      2.5468     -0.0257      6.2574    152.5694     30.9959
   997.4000      8.0994      2.5549     -0.0119      5.7642    152.8975     30.8110
   997.5000      8.0925      2.5787      0.0188      4.3208    152.9654     30.2734
   997.6000      8.0925      2.5966     -0.0069      3.2349    150.0339     29.6892
   997.7000      8.0925      2.6052      0.0279      2.7137    146.6140     29.4045
   997.8000      8.0859      2.6064      0.0174      2.6412    142.0508     29.0192
   997.9000      8.0859      2.6002      0.0216      3.0201    137.2952     27.9870
   998.0000      8.0908      2.5852      0.0138      3.9253    136.0611     26.5555
   998.1000      8.0908      2.5620     -0.0081      5.3359    138.0024     25.3928
   998.2000      8.0908      2.5413     -0.0152      6.5850    138.2183     25.0075
   998.3000      8.0931      2.5372     -0.0022      6.8343    135.3858     25.3986
   998.4000      8.0931      2.5459     -0.0051      6.3076    132.9816     25.8980
   998.5000      8.0908      2.5519      0.0672      5.9481    132.9202     25.9544
   998.6000      8.0908      2.5496      0.0558      6.0832    135.4792     25.7144
   998.7000      8.0908      2.5450      0.0583      6.3626    141.0640     25.4567
   998.8000      8.0898      2.5375      0.0589      6.8155    148.2130     25.2374
   998.9000      8.0898      2.5230      0.0525      7.6972    156.2773     24.9870
   999.0000      8.0913      2.5055      0.0537      8.7555    165.7596     24.5420
   999.1000      8.0913      2.5003      0.0360      9.0722    174.4101     24.0408
   999.2000      8.0913      2.5166      0.0441      8.0864    178.6446     23.9580
   999.3000      8.0943      2.5386      0.0973      6.7536    179.0932     24.2833
   999.4000      8.0943      2.5443      0.1238      6.4058    176.8917     24.5102
   999.5000      8.0919      2.5348      0.1083      6.9797    172.2284     24.5245
   999.6000      8.0919      2.5240      0.1228      7.6380    168.6424     24.7434
   999.7000      8.0919      2.5205      0.0879      7.8467    167.8178     25.3963
   999.8000      8.0941      2.5282      0.0617      7.3835    167.3912     26.1646
   999.9000      8.0941      2.5403      0.0948      6.6459    167.3942     26.3877
  1000.0000      8.0908      2.5461      0.0680      6.2941    167.9520     26.0592
  1000.1000      8.0908      2.5450      0.0626      6.3659    164.9877     26.0362
  1000.2000      8.0908      2.5455      0.0309      6.3339    158.3810     26.5811
  1000.3000      8.0924      2.5538      0.0371      5.8283    153.7677     26.9592
  1000.4000      8.0924      2.5575      0.0688      5.6034    151.6242     26.8964
  1000.5000      8.0893      2.5449      0.0318      6.3697    151.1846     26.8614
  1000.6000      8.0893      2.5303      0.0088      7.2525    154.4382     26.9491
  1000.7000      8.0893      2.5291      0.0089      7.3244    158.2564     27.3104
  1000.8000      8.0874      2.5338      0.0060      7.0430    157.2124     27.8754
  1000.9000      8.0874      2.5291      0.0206      7.3267    148.6399     27.8814
  1001.0000      8.0888      2.5142     -0.0129      8.2299    138.0128     27.3297
  1001.1000      8.0888      2.5015     -0.0375      8.9984    132.6560     27.1503
  1001.2000      8.0888      2.4972     -0.0276      9.2595    133.1103     27.5103
  1001.3000      8.0859      2.5024     -0.0253      8.9484    137.1182     27.7104
  1001.4000      8.0859      2.5196     -0.0177      7.9032    140.8338     27.5235
  1001.5000      8.0868      2.5395     -0.0001      6.6974    141.2003     27.1553
  1001.6000      8.0868      2.5458      0.0117      6.3132    137.0817     26.6414
  1001.7000      8.0868      2.5471     -0.0204      6.2390    127.5800     26.4811
  1001.8000      8.0879      2.5661     -0.0022      5.0829    117.8570     27.1370
  1001.9000      8.0879      2.5960      0.0423      3.2722    115.1337     27.9765
  1002.0000      8.0858      2.6090      0.0259      2.4868    119.4623     28.2512
  1002.1000      8.0858      2.6013     -0.0119      2.9540    123.5761     28.2564
  1002.2000      8.0858      2.5940      0.0055      3.3934    120.5123     28.4797
  1002.3000      8.0824      2.5991     -0.0238      3.0835    113.5114     28.7766
  1002.4000      8.0824      2.6069      0.0120      2.6108    110.2197     28.6917
  1002.5000      8.0690      2.6060      0.0316      2.6676    110.3645     28.0249
  1002.6000      8.0690      2.5983      0.0079      3.1360    110.1548     27.2023
  1002.7000      8.0690      2.5878     -0.0222      3.7710    108.6341     27.0233
  1002.8000      8.0740      2.5738      0.0208      4.6211    107.2990     27.4071
  1002.9000      8.0740      2.5607     -0.0120      5.4141    106.3201     27.7552
  1003.0000      8.0701      2.5639     -0.0290      5.2172    105.0597     28.1107
  1003.1000      8.0701      2.5879      0.0428      3.7628    105.3371     28.5591
  1003.2000      8.0701      2.6107      0.0674      2.3836    106.6815     28.8554
  1003.3000      8.0594      2.6100      0.0686      2.4236    107.7076     28.8289
  1003.4000      8.0594      2.5922     -0.0144      3.5014    108.7480     28.4057
  1003.5000      8.0591      2.5814      0.0195      4.1548    108.7794     27.5358
  1003.6000      8.0591      2.5870      0.0382      3.8211    109.2224     26.5700
  1003.7000      8.0591      2.5966      0.0246      3.2352    112.7324     26.0887
  1003.8000      8.0748      2.5927     -0.0134      3.4735    114.8676     25.9639
  1003.9000      8.0748      2.5733     -0.0115      4.6489    111.9649     25.6756
  1004.0000      8.0665      2.5525     -0.0013      5.9112    108.6941     25.5398
  1004.1000      8.0665      2.5424     -0.0182      6.5233    105.1310     25.9699
