~Version Information
VERS.                      2.0: CWLS Log ASCII Standard - VERSION 2.0
WRAP.                       NO: One line per depth step
~Well Information Block
STRT.FT               686.2000: 
STOP.FT              1252.7000: 
STEP.FT                 0.1000: 
NULL.                -999.2500: 
COMP.          Pioneer Natural Resources: COMPANY
WELL.          Rock Island 44-24 Tr: WELL
FLD.           Purgatoire River: FIELD
LOC.           814' FSL & 761' FEL--: LOCATION
CNTY.               Las Animas: COUNTY
SRVC.                Patterson: SERVICE COMPANY
DATE.          Thu Apr 20 08:34:45 2006: LOG DATE
UWI.           05 071 08680 00: UNIQUE WELL ID
STAT.                 Colorado: STATE
~Curve Information Block
DEPT.FT            0 000 00 00: Depth
DCAL.in                       : CDL Caliper
RHOB.g/cc                     : CDL Bulk Density
RHOC.g/cc                     : CDL Density Correction
DPOR.pu                       : CDL Density Porosity
GR.GAPI                       : Gamma Ray
~Parameter Information Block
~A  Depth       DCAL        RHOB        RHOC        DPOR         GR     
# ...
   910.2000      7.9101      2.6759      0.0493     -1.5671     65.4045
   910.3000      7.9101      2.6615      0.0067     -0.6955     69.1772
   910.4000      7.9101      2.6595      0.0775     -0.5760     72.3226
   910.5000      7.9077      2.6539      0.0679     -0.2335     71.1667
   910.6000      7.9077      2.6399      0.0469      0.6148     65.7888
   910.7000      7.9077      2.6291      0.0832      1.2684     59.9943
   910.8000      7.9064      2.6250      0.0687      1.5167     56.5193
   910.9000      7.9064      2.6287      0.0664      1.2896     54.9671
   911.0000      7.9059      2.6481      0.0775      0.1128     54.1708
   911.1000      7.9059      2.6849      0.0728     -2.1178     54.2740
   911.2000      7.9059      2.7276      0.1234     -4.7002     55.4773
   911.3000      7.9079      2.7598      0.1391     -6.6571     57.2157
   911.4000      7.9079      2.7763      0.1496     -7.6539     59.0326
   911.5000      7.9090      2.7791      0.1322     -7.8255     60.0487
   911.6000      7.9090      2.7639      0.1307     -6.9005     59.5698
   911.7000      7.9090      2.7319      0.0682     -4.9625     58.4582
   911.8000      7.9050      2.7014      0.0578     -3.1165     59.3770
   911.9000      7.9050      2.6859      0.0309     -2.1775     63.2856
   912.0000      7.8931      2.6822      0.0476     -1.9528     66.0149
   912.1000      7.8931      2.6781      0.0458     -1.7001     63.6556
   912.2000      7.8931      2.6698      0.0133     -1.1989     60.6300
   912.3000      7.8706      2.6648      0.0255     -0.8982     62.3709
   912.4000      7.8706      2.6675      0.0458     -1.0621     67.2704
   912.5000      7.8500      2.6726      0.1029     -1.3703     71.8059
   912.6000      7.8500      2.6672      0.1086     -1.0406     74.7178
   912.7000      7.8500      2.6503      0.0549     -0.0167     76.6758
   912.8000      7.8634      2.6349      0.0682      0.9132     79.0968
   912.9000      7.8634      2.6207      0.0658      1.7744     84.0378
   913.0000      7.9126      2.6036      0.0019      2.8094     93.1187
   913.1000      7.9126      2.5941     -0.0061      3.3882    102.0335
   913.2000      7.9126      2.5920      0.0162      3.5167    105.0756
   913.3000      7.9536      2.5855      0.0583      3.9116    105.5516
   913.4000      7.9536      2.5776      0.0298      4.3852    108.1513
   913.5000      7.9643      2.5770      0.0541      4.4272    111.0221
   913.6000      7.9643      2.5781      0.0550      4.3564    112.3394
   913.7000      7.9643      2.5675      0.0995      5.0014    114.7705
   913.8000      7.9627      2.5419      0.0522      6.5493    120.3723
   913.9000      7.9627      2.5250      0.0333      7.5779    123.7922
   914.0000      7.9623      2.5329      0.0421      7.0962    121.8300
   914.1000      7.9623      2.5439      0.1096      6.4315    119.2669
   914.2000      7.9623      2.5383      0.0531      6.7719    117.4755
   914.3000      7.9625      2.5245      0.1037      7.6088    115.7971
   914.4000      7.9625      2.5077      0.0705      8.6232    117.1839
   914.5000      7.9656      2.4849      0.0822     10.0055    121.2933
   914.6000      7.9656      2.4537      0.0728     11.8971    123.8385
   914.7000      7.9656      2.4187      0.0155     14.0201    123.1969
   914.8000      7.9798      2.3919     -0.0015     15.6439    120.8032
   914.9000      7.9798      2.3731      0.0224     16.7848    118.2725
   915.0000      8.0026      2.3535      0.0040     17.9675    116.1132
   915.1000      8.0026      2.3353     -0.0044     19.0743    115.3492
   915.2000      8.0026      2.3255      0.0093     19.6695    118.5614
   915.3000      8.0182      2.3272     -0.0069     19.5655    122.4952
   915.4000      8.0182      2.3406      0.0090     18.7519    123.5031
   915.5000      8.0093      2.3673      0.0339     17.1315    124.7625
   915.6000      8.0093      2.4061      0.0616     14.7813    128.7223
   915.7000      8.0093      2.4431      0.1258     12.5376    132.9818
   915.8000      7.9824      2.4646      0.1106     11.2370    132.2122
   915.9000      7.9824      2.4801      0.0544     10.2977    125.2870
   916.0000      7.9656      2.5044      0.0970      8.8212    120.7036
   916.1000      7.9656      2.5260      0.1317      7.5144    124.8366
   916.2000      7.9656      2.5253      0.1375      7.5584    130.7429
   916.3000      7.9608      2.5043      0.0675      8.8280    130.4616
   916.4000      7.9608      2.4843      0.0389     10.0451    128.6271
   916.5000      7.9581      2.4795      0.0630     10.3336    129.1695
   916.6000      7.9581      2.4909      0.0615      9.6427    128.1576
   916.7000      7.9581      2.5166      0.0378      8.0868    123.5215
   916.8000      7.9538      2.5445      0.1368      6.3928    119.9417
   916.9000      7.9538      2.5578      0.0905      5.5898    120.3083
   917.0000      7.9504      2.5607      0.0587      5.4102    121.2994
   917.1000      7.9504      2.5686      0.0748      4.9351    121.5239
   917.2000      7.9504      2.5811      0.0802      4.1769    124.5972
   917.3000      7.9541      2.5879      0.0893      3.7608    130.5966
   917.4000      7.9541      2.5851      0.0924      3.9317    133.3067
   917.5000      7.9608      2.5762      0.0622      4.4731    129.1358
   917.6000      7.9608      2.5671      0.0801      5.0241    124.0767
   917.7000      7.9608      2.5644      0.0234      5.1895    125.9834
   917.8000      7.9640      2.5687      0.0488      4.9279    131.6542
   917.9000      7.9640      2.5694      0.0499      4.8850    133.5632
   918.0000      7.9640      2.5588      0.0355      5.5303    127.9986
   918.1000      7.9640      2.5415      0.0134      6.5730    116.8048
   918.2000      7.9640      2.5297      0.0246      7.2911    106.5352
   918.3000      7.9622      2.5332      0.0036      7.0777    101.5848
   918.4000      7.9622      2.5439      0.0491      6.4300    103.0952
   918.5000      7.9615      2.5450      0.0266      6.3625    107.3521
   918.6000      7.9615      2.5402      0.0369      6.6521    110.4780
   918.7000      7.9615      2.5413      0.0229      6.5901    114.0337
   918.8000      7.9630      2.5437      0.0572      6.4396    118.1683
   918.9000      7.9630      2.5324      0.0482      7.1283    120.4341
   919.0000      7.9635      2.5140      0.0025      8.2430    122.5531
   919.1000      7.9635      2.5167      0.0184      8.0761    125.9002
   919.2000      7.9635      2.5392      0.0351      6.7126    126.2082
   919.3000      7.9645      2.5491      0.0895      6.1165    123.9485
   919.4000      7.9645      2.5425      0.0106      6.5125    124.3443
   919.5000      7.9658      2.5480      0.0067      6.1799    127.4234
   919.6000      7.9658      2.5662      0.0668      5.0794    127.8521
   919.7000      7.9658      2.5712      0.0358      4.7787    123.9019
   919.8000      7.9642      2.5558      0.0484      5.7083    121.8382
   919.9000      7.9642      2.5344      0.0214      7.0082    125.8313
   920.0000      7.9608      2.5219      0.0330      7.7640    130.7122
   920.1000      7.9608      2.5193      0.0280      7.9226    129.8336
   920.2000      7.9608      2.5195      0.0329      7.9072    124.4626
   920.3000      7.9606      2.5236      0.0284      7.6612    121.1829
   920.4000      7.9606      2.5305      0.0496      7.2399    122.4744
   920.5000      7.9616      2.5361      0.0337      6.9039    124.7084
   920.6000      7.9616      2.5492      0.0323      6.1073    124.5308
   920.7000      7.9616      2.5786      0.0474      4.3298    121.6334
   920.8000      7.9588      2.6081      0.0954      2.5405    117.6538
   920.9000      7.9588      2.6127      0.0932      2.2600    116.1894
   921.0000      7.9563      2.5940      0.0735      3.3934    117.7448
   921.1000      7.9563      2.5723      0.0906      4.7063    119.5490
   921.2000      7.9563      2.5552      0.0689      5.7442    119.1212
   921.3000      7.9564      2.5434      0.0485      6.4592    114.7218
