~Version Information
VERS.                      2.0: CWLS Log ASCII Standard - VERSION 2.0
WRAP.                       NO: One line per depth step
~Well Information Block
STRT.FT               570.0000: 
STOP.FT              2094.0000: 
STEP.FT                 0.2500: 
NULL.                -999.2500: 
COMP.          XTO Energy Inc.: COMPANY
WELL.          Golden Eagle 19-10: WELL
FLD.           Purgatoire River: FIELD
LOC.           2684' FSL & 1825' FEL: LOCATION
CNTY.               Las Animas: COUNTY
CTRY.                      USA: COUNTRY
API.               05 071 08697:  
SRVC.                Patterson: SERVICE COMPANY
DATE.          Sun Mar 05 02:13:24 2006: LOG DATE
UWI.           05 071 08697 00: UNIQUE WELL ID
STAT.                 Colorado: STATE
~Curve Information Block
DEPT.FT            0 000 00 00: Depth
SP.mV                         : DIL Spontaneous Potential
RILD.Ohm-m                    : DIL Deep Resistivity
RILM.Ohm-m                    : DIL Medium Resistivity
RLL3.Ohm-m                    : DIL Shallow Resistivity
GR.GAPI                       : Gamma Ray
~Parameter Information Block
~A  Depth        SP         RILD        RILM        RLL3         GR     
# ...
  1858.0000     57.3696     15.9557     15.9271     18.3771     68.8208
  1858.2500     57.1403     16.0309     15.9080     18.5138     67.8067
  1858.5000     56.8954     16.1013     15.8988     18.6062     67.1412
  1858.7500     56.6371     16.1819     15.9050     18.6587     67.4721
  1859.0000     56.3831     16.2825     15.9330     18.6567     68.4472
  1859.2500     56.1609     16.4058     15.9893     18.5844     68.8782
  1859.5000     55.9974     16.5477     16.0789     18.4589     68.9652
  1859.7500     55.9097     16.6961     16.2032     18.3649     68.9897
  1860.0000     55.8990     16.8303     16.3577     18.4565     69.5635
  1860.2500     55.9509     16.9278     16.5313     18.8920     70.1715
  1860.5000     56.0447     16.9742     16.7070     19.7153     70.4988
  1860.7500     56.1655     16.9714     16.8655     20.7652     69.9348
  1861.0000     56.3094     16.9339     16.9896     21.7076     68.1929
  1861.2500     56.4768     16.8789     17.0681     22.2028     66.9968
  1861.5000     56.6645     16.8182     17.0978     22.0978     66.0462
  1861.7500     56.8649     16.7594     17.0833     21.4960     66.1534
  1862.0000     57.0706     16.7116     17.0340     20.6610     67.0511
  1862.2500     57.2750     16.6874     16.9616     19.8516     67.7573
  1862.5000     57.4707     16.6954     16.8777     19.2197     68.6534
  1862.7500     57.6474     16.7303     16.7925     18.8083     69.1923
  1863.0000     57.7928     16.7698     16.7146     18.5976     69.9013
  1863.2500     57.8934     16.7830     16.6504     18.5437     70.0874
  1863.5000     57.9406     16.7462     16.6040     18.6011     69.6013
  1863.7500     57.9404     16.6546     16.5770     18.7359     68.8289
  1864.0000     57.9178     16.5229     16.5684     18.9312     67.3828
  1864.2500     57.9070     16.3737     16.5744     19.1787     66.4020
  1864.5000     57.9349     16.2260     16.5894     19.4629     65.0793
  1864.7500     58.0094     16.0912     16.6069     19.7561     64.4185
  1865.0000     58.1188     15.9801     16.6204     20.0251     63.9850
  1865.2500     58.2411     15.9086     16.6250     20.2360     64.1158
  1865.5000     58.3549     15.8931     16.6174     20.3538     64.7793
  1865.7500     58.4452     15.9381     16.5966     20.3505     65.3457
  1866.0000     58.5049     16.0272     16.5630     20.2192     66.1004
  1866.2500     58.5340     16.1292     16.5186     19.9796     66.4551
  1866.5000     58.5370     16.2147     16.4666     19.6741     66.6826
  1866.7500     58.5159     16.2698     16.4115     19.3690     66.5779
  1867.0000     58.4678     16.2966     16.3595     19.1423     65.9678
  1867.2500     58.3912     16.3051     16.3176     19.0466     65.2716
  1867.5000     58.2930     16.3039     16.2933     19.0786     63.8887
  1867.7500     58.1900     16.2971     16.2925     19.1932     62.8082
  1868.0000     58.1026     16.2852     16.3184     19.3421     61.0914
  1868.2500     58.0482     16.2684     16.3707     19.4954     60.0533
  1868.5000     58.0348     16.2485     16.4464     19.6382     59.1549
  1868.7500     58.0542     16.2277     16.5410     19.7656     59.2602
  1869.0000     58.0795     16.2064     16.6495     19.8852     60.4499
  1869.2500     58.0771     16.1827     16.7675     20.0135     61.5636
  1869.5000     58.0316     16.1576     16.8905     20.1625     62.8577
  1869.7500     57.9611     16.1389     17.0126     20.3310     63.1696
  1870.0000     57.9058     16.1382     17.1257     20.5108     62.9654
  1870.2500     57.9030     16.1598     17.2193     20.7064     62.7426
  1870.5000     57.9706     16.1896     17.2806     20.9425     62.9884
  1870.7500     58.1020     16.1961     17.2962     21.2420     63.9034
  1871.0000     58.2674     16.1460     17.2534     21.5834     66.7502
  1871.2500     58.4219     16.0237     17.1429     21.8833     69.4198
  1871.5000     58.5214     15.8400     16.9612     22.0274     73.2774
  1871.7500     58.5395     15.6221     16.7125     21.9115     74.8097
  1872.0000     58.4752     15.3991     16.4102     21.4529     74.9315
  1872.2500     58.3481     15.1923     16.0756     20.6003     74.0959
  1872.5000     58.1854     15.0141     15.7340     19.3829     72.9696
  1872.7500     58.0095     14.8684     15.4098     17.9693     72.7529
  1873.0000     57.8326     14.7509     15.1226     16.6452     72.9498
  1873.2500     57.6606     14.6495     14.8841     15.6864     73.0779
  1873.5000     57.5008     14.5497     14.6981     15.2199     72.9879
  1873.7500     57.3663     14.4425     14.5623     15.1922     72.7147
  1874.0000     57.2733     14.3303     14.4718     15.4502     71.8260
  1874.2500     57.2276     14.2281     14.4216     15.8443     70.7868
  1874.5000     57.2125     14.1575     14.4102     16.2808     68.6776
  1874.7500     57.1935     14.1381     14.4401     16.7200     67.2522
  1875.0000     57.1396     14.1808     14.5166     17.1524     65.7223
  1875.2500     57.0434     14.2851     14.6462     17.5743     65.2121
  1875.5000     56.9212     14.4427     14.8334     17.9718     64.8788
  1875.7500     56.8015     14.6423     15.0787     18.3257     64.6812
  1876.0000     56.7149     14.8723     15.3769     18.6337     64.2695
  1876.2500     56.6850     15.1183     15.7159     18.9219     64.0489
  1876.5000     56.7198     15.3588     16.0759     19.2166     64.1129
  1876.7500     56.8081     15.5655     16.4294     19.5136     64.4127
  1877.0000     56.9256     15.7119     16.7431     19.7872     64.7558
  1877.2500     57.0448     15.7858     16.9819     20.0187     64.6099
  1877.5000     57.1452     15.7948     17.1165     20.1895     64.0065
  1877.7500     57.2210     15.7577     17.1305     20.2478     63.8799
  1878.0000     57.2816     15.6891     17.0252     20.1051     64.9431
  1878.2500     57.3408     15.5914     16.8183     19.6924     66.5013
  1878.5000     57.4072     15.4599     16.5382     19.0297     69.2742
  1878.7500     57.4807     15.2926     16.2167     18.2397     70.7481
  1879.0000     57.5578     15.0962     15.8825     17.4772     71.7731
  1879.2500     57.6364     14.8823     15.5580     16.8346     71.9060
  1879.5000     57.7177     14.6609     15.2585     16.3205     72.4159
  1879.7500     57.8039     14.4360     14.9933     15.9190     73.4135
  1880.0000     57.8947     14.2089     14.7668     15.6397     75.3671
  1880.2500     57.9847     13.9814     14.5795     15.5110     76.1545
  1880.5000     58.0651     13.7575     14.4292     15.5581     75.7244
  1880.7500     58.1293     13.5412     14.3112     15.7859     74.6610
  1881.0000     58.1747     13.3352     14.2193     16.1441     73.1900
  1881.2500     58.2013     13.1415     14.1460     16.4979     72.8342
  1881.5000     58.2085     12.9633     14.0838     16.6851     73.1253
  1881.7500     58.1950     12.8046     14.0263     16.6410     73.3936
  1882.0000     58.1586     12.6674     13.9690     16.4433     73.2565
  1882.2500     58.0943     12.5503     13.9099     16.2048     72.7854
  1882.5000     57.9965     12.4515     13.8492     15.9577     71.9280
  1882.7500     57.8605     12.3712     13.7880     15.6775     71.5720
  1883.0000     57.6845     12.3110     13.7264     15.3933     71.7365
  1883.2500     57.4714     12.2698     13.6611     15.2360     72.2730
  1883.5000     57.2309     12.2399     13.5851     15.3664     73.1140
  1883.7500     56.9796     12.2097     13.4885     15.8284     73.2188
  1884.0000     56.7369     12.1710     13.3618     16.4309     72.3987
  1884.2500     56.5166     12.1235     13.2010     16.7867     71.5846
  1884.5000     56.3195     12.0750     13.0113     16.5424     71.0778
  1884.7500     56.1343     12.0371     12.8075     15.6400     71.5925
  1885.0000     55.9449     12.0217     12.6111     14.3782     73.4766
  1885.2500     55.7411     12.0380     12.4446     13.2251     75.0937
  1885.5000     55.5272     12.0896     12.3262     12.5435     77.1977
  1885.7500     55.3273     12.1704     12.2671     12.4229     77.9129
