~Version Information
VERS.                      2.0: CWLS Log ASCII Standard - VERSION 2.0
WRAP.                       NO: One line per depth step
~Well Information Block
STRT.FT               310.0000: 
STOP.FT               815.0000: 
STEP.FT                 0.2500: 
NULL.                -999.2500: 
COMP.          Pioneer Natural Resources: COMPANY
WELL.           Weissach 32-32: WELL
FLD.           Purgatorie River: FIELD
LOC.           2193' FNL & 2256' FEL: LOCATION
STAT.                 Colorado: State
CNTY.               Las Animas: COUNTY
CTRY. USA : Country
SECT. 32 : Section
TOWN. 33S : Township
RANG. 65W : Range
SRVC.                Patterson: SERVICE COMPANY
DATE.          Mon Sep 26 09:20:51 2005: LOG DATE
API. 05-071-08523                         : UNIQUE WELL ID
~Curve Information Block
DEPT.FT            0 000 00 00: Depth
SN.Ohm-m                      : IEL Short Normal
SP.mV                         : IEL Spontaneous Potential
DIR.Ohm-m                     : IEL Induction Resistivity
GR.GAPI                       : Gamma Ray
~Parameter Information Block
~A  Depth        SN          SP         DIR          GR     
# ...
   444.0000     73.2922    127.3820     37.9008     59.6373
   444.2500     82.3483    128.4183     39.5214     52.6134
   444.5000     76.3172    129.5759     44.5093     45.2575
   444.7500     76.9515    129.6127     42.4970     40.5954
   445.0000     70.8599    129.7942     58.9419     46.5241
   445.2500     61.2907    130.2426     37.9934     46.8224
   445.5000     59.4356    130.0516     35.6732     54.0923
   445.7500     67.0730    130.3464     36.6239     64.7341
   446.0000     65.3119    130.4741     41.4317     59.9464
   446.2500     61.5277    130.0651     36.0705     60.1527
   446.5000     57.7755    129.5316     35.1024     49.6309
   446.7500     52.7263    129.3284     35.5137     56.3806
   447.0000     53.8265    129.4317     34.5364     71.3299
   447.2500     55.6481    128.5739     35.3685     57.7638
   447.5000     53.1036    127.9041     36.5825     46.5832
   447.7500     51.4156    126.6158     32.0269     58.1619
   448.0000     48.7603    125.5796     30.4880     50.2717
   448.2500     44.8400    124.2524     26.9801     57.6045
   448.5000     39.7224    122.7057     24.5744     46.6625
   448.7500     37.1226    121.3856     21.4018     58.4867
   449.0000     39.5196    120.6946     19.2533     48.3137
   449.2500     38.7300    120.4988     16.7020     49.0976
   449.5000     27.7548    119.3602     15.1317     61.7026
   449.7500     21.0241    118.4153     14.0598     63.9715
   450.0000     15.8885    118.0316     13.8019     57.9104
   450.2500     14.2318    117.8441     14.0095     66.4984
   450.5000     13.6661    117.3071     12.3736     65.3345
   450.7500     12.6425    117.3789     11.8273     62.4958
   451.0000     11.9603    117.3810     11.6287     58.9703
   451.2500     11.7785    117.7031     11.5375     66.6502
   451.5000     11.1882    118.1103     11.3905     72.7268
   451.7500     10.7355    118.5852     11.0656     93.5406
   452.0000     10.5634    118.5759     10.6339     85.8607
   452.2500     11.1641    119.1322     10.4328     85.4157
   452.5000     11.6504    119.9187     10.0576     93.8134
   452.7500     11.7528    119.7610      9.8361    106.7884
   453.0000     12.5903    120.3423      9.9087     99.4201
   453.2500     11.9747    121.0125     10.1851    114.4885
   453.5000     12.2856    121.2262     10.7020     92.8579
   453.7500     12.1654    121.7283     11.8197     85.9036
   454.0000     12.7338    122.3660     10.9797     83.4941
   454.2500     13.2817    123.0374     11.3441     72.4104
   454.5000     12.3750    123.7333     12.1251     73.0122
   454.7500     11.8882    124.4912     14.0847     77.6524
   455.0000     11.7917    125.5324     13.0367     82.5735
   455.2500     11.6901    126.4501     15.5359     77.5611
   455.5000     10.8693    127.0591     14.6566     85.9928
   455.7500     10.8486    127.6167     12.8676    119.3646
   456.0000     11.4340    128.1199     14.3911    126.9779
   456.2500     10.8773    127.4205     14.2761     96.6656
   456.5000     10.7195    127.1292     11.1909     98.7733
   456.7500     10.7038    127.0779     10.9290    116.6326
   457.0000     10.8986    127.3461     11.7538    120.5165
   457.2500     10.9180    127.7445     13.7705    127.6988
   457.5000     10.9193    128.0349     11.4219    119.6222
   457.7500     10.4148    128.2109     13.0501    118.9406
   458.0000     10.0707    128.5355     11.2850    106.8778
   458.2500     10.3856    128.7977     12.0050    120.2107
   458.5000     10.9096    129.3058     15.6063    113.8546
   458.7500     10.6280    129.7312     11.5477    115.9759
   459.0000     10.8702    130.1352     11.3542     95.4456
   459.2500     11.3071    130.7349     11.1914     96.3869
   459.5000     11.2108    131.0831     10.9931     99.6837
   459.7500     11.8282    131.4340     11.0243    102.0925
   460.0000     12.1705    131.8692     11.1837    102.9915
   460.2500     10.8890    132.1902     11.1975    102.1939
   460.5000     11.2456    132.3223     11.1496    105.0505
   460.7500     11.7053    131.8358     11.2363     97.6809
   461.0000     12.2435    131.5634     11.4480    100.8182
   461.2500     12.1604    131.4946     11.5054     87.5875
   461.5000     13.1112    130.9830     11.8232     97.0797
   461.7500     11.7064    130.8398     12.1553    107.3051
   462.0000     11.9470    130.5267     13.5000     98.9228
   462.2500     13.7938    129.6324     12.6622     97.8062
   462.5000     13.4221    129.3777     12.3874     93.0637
   462.7500     12.0895    129.6031     12.6566    102.5443
   463.0000     12.2236    129.6769     12.9373    102.9515
   463.2500     14.4711    129.5407     13.1539     93.1579
   463.5000     16.2560    129.8281     13.5461     94.4910
   463.7500     15.2426    129.7155     14.6673     98.2083
   464.0000     14.9443    130.3564     17.8637     81.4222
   464.2500     14.0323    130.9819     14.0174     81.3103
   464.5000     15.5719    130.8621     13.7433     88.0199
   464.7500     18.2833    131.0828     13.9079     60.7998
   465.0000     16.6744    131.1977     13.7789     66.1875
   465.2500     15.5432    131.1520     13.6628     65.4515
   465.5000     14.6944    130.8964     14.0567     81.3530
   465.7500     14.7371    130.5115     13.7087     72.8449
   466.0000     14.0839    129.9688     12.0316     88.1042
   466.2500     12.7474    129.3188     11.3145     97.3575
   466.5000     11.9431    128.6456     11.0819     90.6301
   466.7500     10.9514    128.0405     11.4449    101.7476
   467.0000      9.7415    127.5523     10.7793    101.1285
   467.2500      9.2952    127.2122     11.9732    108.9754
   467.5000      8.5875    127.2068      9.5615     90.7134
   467.7500      7.9567    127.4044      9.2638     83.0547
   468.0000      7.8746    127.0672      9.5790     87.9038
   468.2500      8.3561    127.1400      8.6113     95.0629
   468.5000      7.9342    127.4059      8.5536    114.6361
   468.7500      7.5697    127.8226      8.7819    129.6263
   469.0000      7.6553    128.5939      9.6658    122.7135
   469.2500      7.7212    129.8314      9.2188    103.0110
   469.5000      7.5534    131.3134     10.8128    122.9087
   469.7500      8.0937    132.3556     10.2159    134.7040
   470.0000      8.5692    133.0218     11.2894    126.9294
   470.2500      9.5177    133.5825     10.5849    110.5222
   470.5000      9.1275    134.2600     13.4554    100.1800
   470.7500      9.4984    135.1730     13.5865    110.0052
   471.0000      9.4746    136.0701     10.1778    101.5469
   471.2500     10.0180    137.0296     10.2077     91.8056
   471.5000     10.7845    137.8853     11.3087    111.8902
   471.7500     11.1079    138.2890     11.5741     91.3487
   472.0000     11.9161    138.9790     11.0780    106.5712
   472.2500     10.9133    139.9361     11.1574     99.6297
   472.5000     11.3576    141.0877     11.6857     97.3712
   472.7500     11.7101    141.9169     12.1895     94.9617
   473.0000     11.7724    143.2614     12.7144    107.5792
   473.2500     11.7240    143.2119     12.9099     97.7907
   473.5000     12.5953    143.8761     13.4083     96.0381
   473.7500     12.2689    144.8779     13.7852    104.1921
   474.0000     12.1679    145.3847     16.0900     86.0689
   474.2500     11.8565    146.2605     13.7088     89.0099
   474.5000     10.8034    147.2454     14.6284    122.4339
   474.7500     10.7830    148.0533     19.4417    121.0830
   475.0000     11.1535    147.9139     13.3616     99.7787
   475.2500     11.7422    147.7240     12.5394     96.9675
   475.5000     11.1999    147.9203     12.2932     74.1833
   475.7500     13.0807    147.4404     12.5952     62.5842
   476.0000     14.0977    147.5226     13.0726     68.1823
   476.2500     14.1276    147.2160     14.7511     69.8590
   476.5000     13.3903    147.1041     12.7188     93.7439
   476.7500     13.6134    146.4912     12.6737    103.8720
   477.0000     13.4153    146.6050     13.3197    103.7564
   477.2500     12.7169    147.1550     13.1623    118.5236
