~Version Information
VERS.                      2.0: CWLS Log ASCII Standard - VERSION 2.0
WRAP.                       NO: One line per depth step
~Well Information Block
STRT.FT               621.2500: 
STOP.FT               951.7500: 
STEP.FT                 0.2500: 
NULL.                -999.2500: 
COMP.          Pioneer Natural Resources: COMPANY
WELL.          Screamin 12-29 Tr: WELL
FLD.           Purgatoire River: FIELD
LOC.           1979' FNL & 532' FWL--: LOCATION
CNTY.               Las Animas: COUNTY
SRVC.                Patterson: SERVICE COMPANY
DATE.          Fri Mar 31 01:01:50 2006: LOG DATE
UWI.           05 071 08660 00: UNIQUE WELL ID
STAT.                 Colorado: STATE
~Curve Information Block
DEPT.FT            0 000 00 00: Depth
SN.Ohm-m                      : IEL Short Normal
SP.mV                         : IEL Spontaneous Potential
DIR.Ohm-m                     : IEL Induction Resistivity
GR.GAPI                       : Gamma Ray
~Parameter Information Block
~A  Depth        SN          SP         DIR          GR     
# ...
   688.2500    423.9303   -555.3309     10.7769    133.2240
   688.5000    387.1145   -555.3453     10.7770    133.4258
   688.7500    344.6103   -555.3554     10.8046    133.1600
   689.0000    306.2328   -555.3626     10.8670    132.2342
   689.2500    276.7694   -555.3683     10.9710    131.6564
   689.5000    257.6016   -555.3737     11.1232    131.6691
   689.7500    250.2518   -555.3796     11.3275    132.3364
   690.0000    259.1364   -555.3869     11.5820    133.5025
   690.2500    286.7752   -555.3958     11.8778    133.6301
   690.5000    323.9966   -555.4064     12.2026    131.8017
   690.7500    349.2574   -555.4182     12.5461    129.1510
   691.0000    344.1472   -555.4305     12.9022    124.0159
   691.2500    311.1323   -555.4426     13.2628    120.6962
   691.5000    272.6690   -555.4531     13.6041    116.8510
   691.7500    252.1336   -555.4614     13.8735    115.1766
   692.0000    258.7702   -555.4665     13.9900    113.9684
   692.2500    290.1379   -555.4679     13.8709    113.9348
   692.5000    341.3151   -555.4655     13.4815    114.3213
   692.7500    406.2428   -555.4591     12.8728    114.1628
   693.0000    473.8740   -555.4493     12.1738    112.5463
   693.2500    530.3914   -555.4367     11.5483    110.7419
   693.5000    567.3107   -555.4217     11.1695    107.7260
   693.7500    585.5051   -555.4049     11.2619    105.6554
   694.0000    591.1746   -555.3867     12.2859    102.0916
   694.2500    589.8738   -555.3675     15.7006     99.2146
   694.5000    584.7385   -555.3474     30.5775     94.2062
   694.7500    578.4103   -555.3267 100000.0000     90.6165
   695.0000    574.1978   -555.3057 100000.0000     85.5986
   695.2500    574.3099   -555.2850 100000.0000     83.2737
   695.5000    577.2438   -555.2648 100000.0000     83.0079
   695.7500    576.8223   -555.2451 100000.0000     85.7062
   696.0000    562.8588   -555.2257 100000.0000     93.9735
   696.2500    523.7990   -555.2058 100000.0000    101.3327
   696.5000    453.2569   -555.1849 100000.0000    112.5203
   696.7500    358.2458   -555.1625 100000.0000    118.5898
   697.0000    260.5267   -555.1392 100000.0000    124.2703
   697.2500    186.8440   -555.1167     24.4825    125.9638
   697.5000    156.5820   -555.0980     11.9834    126.8141
   697.7500    176.1315   -555.0867      8.1512    127.1651
   698.0000    237.9077   -555.0869      6.0852    128.3582
   698.2500    320.9406   -555.1014      4.7545    129.7987
   698.5000    398.2008   -555.1314      3.9463    132.6257
   698.7500    450.4639   -555.1752      3.6269    134.4117
   699.0000    474.0356   -555.2288      3.9238    135.7819
   699.2500    475.3191   -555.2862      5.6428    135.3964
   699.5000    461.6589   -555.3405     19.2622    133.1081
   699.7500    438.9529   -555.3852 100000.0000    131.1605
   700.0000    412.3958   -555.4155 100000.0000    129.1046
   700.2500    382.7437   -555.4288 100000.0000    128.6764
   700.5000    343.2202   -555.4249 100000.0000    128.5946
   700.7500    286.6861   -555.4059     64.3327    127.9588
   701.0000    217.2482   -555.3753      1.4279    124.8926
   701.2500    150.6589   -555.3374      0.4291    121.1304
   701.5000    101.5440   -555.2966      0.1448    112.6757
   701.7500     72.0839   -555.2567      0.0495    105.1506
   702.0000     53.7525   -555.2209      0.0218     91.8864
   702.2500     37.8050   -555.1915      0.0144     83.0281
   702.5000     22.3039   -555.1694      0.0150     72.6621
   702.7500     10.4511   -555.1552      0.0247     68.9360
   703.0000      6.0548   -555.1481      0.0626     68.1574
   703.2500     13.0033   -555.1470      0.2053     69.6954
   703.5000     38.0385   -555.1498      0.7303     72.2447
   703.7500     90.7017   -555.1542     16.7099     72.6082
   704.0000    176.4707   -555.1582 100000.0000     69.7292
   704.2500    287.4584   -555.1602 100000.0000     65.6151
   704.5000    401.5415   -555.1594 100000.0000     57.7430
   704.7500    494.4273   -555.1563 100000.0000     52.6600
   705.0000    554.1825   -555.1516 100000.0000     46.9854
   705.2500    584.4890   -555.1461 100000.0000     44.8236
   705.5000    596.5833   -555.1400 100000.0000     43.6108
   705.7500    600.3743   -555.1325 100000.0000     43.7713
   706.0000    601.3063   -555.1219 100000.0000     45.0942
   706.2500    601.4857   -555.1057 100000.0000     46.5929
   706.5000    601.5111   -555.0815 100000.0000     49.2544
   706.7500    601.5111   -555.0480 100000.0000     50.7082
   707.0000    601.5111   -555.0052 100000.0000     51.4120
   707.2500    601.5111   -554.9553 100000.0000     50.7908
   707.5000    601.5111   -554.9025 100000.0000     49.1446
   707.7500    601.5111   -554.8527 100000.0000     48.3344
   708.0000    601.5111   -554.8124 100000.0000     48.0349
   708.2500    601.5111   -554.7880 100000.0000     48.0592
   708.5000    601.5111   -554.7838      2.6381     47.6047
   708.7500    601.5054   -554.8020      0.8238     47.0397
   709.0000    601.4739   -554.8416      0.3245     46.8761
   709.2500    601.3224   -554.8990      0.1203     47.9583
   709.5000    600.7610   -554.9686      0.0419     52.2963
   709.7500    599.1871   -555.0438      0.0163     57.3864
   710.0000    595.8669   -555.1181      0.0078     68.7915
   710.2500    590.6914   -555.1857      0.0047     78.8617
   710.5000    584.8958   -555.2421      0.0034     96.5195
   710.7500    580.4888   -555.2849      0.0029    108.6753
   711.0000    578.2977   -555.3132      0.0029    124.8461
   711.2500    576.6105   -555.3283      0.0033    132.9685
   711.5000    571.3980   -555.3329      0.0044    139.8453
   711.7500    557.8884   -555.3310      0.0072    140.7384
   712.0000    534.0513   -555.3265      0.0146    137.4794
   712.2500    504.9728   -555.3235      0.0367    133.3226
   712.5000    482.5099   -555.3248      0.1042    126.1560
   712.7500    477.3251   -555.3318      0.2781    121.7920
   713.0000    490.4492   -555.3448      0.6587    117.1404
   713.2500    513.3397   -555.3624      1.5633    115.5623
   713.5000    535.7011   -555.3828      3.9338    114.8192
   713.7500    552.6224   -555.4037      8.0880    114.6054
   714.0000    565.0790   -555.4234      8.0269    113.6193
   714.2500    575.6298   -555.4406      5.3657    112.4987
   714.5000    585.0653   -555.4550      3.8758    111.0781
   714.7500    592.5770   -555.4669      3.3401    110.9079
   715.0000    597.4557   -555.4770      3.4704    111.7775
   715.2500    599.9231   -555.4858      4.4631    112.3011
   715.5000    600.6706   -555.4933      8.0328    111.2810
   715.7500    600.1685   -555.4983     68.5493    108.9544
   716.0000    598.4659   -555.4982 100000.0000    103.7450
   716.2500    595.6755   -555.4887 100000.0000    100.0912
   716.5000    592.5937   -555.4644 100000.0000     95.7287
   716.7500    590.6017   -555.4196 100000.0000     93.7994
   717.0000    590.7115   -555.3489 100000.0000     91.8858
   717.2500    592.7302   -555.2487 100000.0000     90.8100
   717.5000    595.4297   -555.1174 100000.0000     88.9784
   717.7500    597.0925   -554.9561 100000.0000     87.5918
   718.0000    595.2494   -554.7676 100000.0000     85.7326
   718.2500    585.3906   -554.5570 100000.0000     85.0813
   718.5000    560.4225   -554.3312 100000.0000     85.6294
   718.7500    514.0638   -554.0989 100000.0000     87.1832
   719.0000    448.5530   -553.8719 100000.0000     91.2081
   719.2500    380.3356   -553.6644 100000.0000     94.7426
   719.5000    335.1086   -553.4932     59.3518    100.3696
   719.7500    332.1326   -553.3754     21.3829    103.5609
   720.0000    369.1128   -553.3259     15.5435    106.3801
   720.2500    420.3413   -553.3537     13.8977    106.8213
   720.5000    451.7188   -553.4594     13.6784    106.2104
   720.7500    443.1579   -553.6336     14.0704    105.7345
   721.0000    402.2484   -553.8582     14.6319    105.6438
   721.2500    359.0206   -554.1094     15.0365    105.8148
   721.5000    345.5964   -554.3624     15.0880    105.7072
