~Version Information
VERS.                      2.0: CWLS Log ASCII Standard - VERSION 2.0
WRAP.                       NO: One line per depth step
~Well Information Block
STRT.FT               860.0000: 
STOP.FT              2360.5000: 
STEP.FT                 0.1000: 
NULL.                -999.2500: 
COMP.          Pioneer Natural Resources: COMPANY
WELL.            Cayenne 23-23: WELL
FLD.           Purgatoire River: FIELD
LOC.           2555' FSL & 2386' FWL: LOCATION
PROV.                 Colorado: PROVINCE
CNTY.               Las Animas: COUNTRY
SRVC.                Patterson: SERVICE COMPANY
DATE.          Wed Aug 17 08:28:25 2005: LOG DATE
UWI.           05 071 08476 00: UNIQUE WELL ID
~Curve Information Block
DEPT.FT            0 000 00 00: Depth
DCAL.in                       : CDL Caliper
RHOB.g/cc                     : CDL Bulk Density
RHOC.g/cc                     : CDL Density Correction
DPOR.pu                       : CDL Density Porosity
GR.GAPI                       : Gamma Ray
NPOR.pu                       : Neutron Porosity
~Parameter Information Block
~A  Depth       DCAL        RHOB        RHOC        DPOR         GR         NPOR    
# ...
  1752.8000      8.6741      2.3307      0.1407     19.3532    147.8203     28.9287
  1752.9000      8.6741      2.3025      0.1202     21.0588    152.6474     30.1014
  1753.0000      8.5024      2.2871      0.1475     21.9940    155.8481     30.1176
  1753.1000      8.5024      2.2950      0.2066     21.5160    152.3817     29.6054
  1753.2000      8.5024      2.3128      0.2465     20.4349    146.1551     29.5586
  1753.3000      8.5290      2.3285      0.2292     19.4852    145.0790     29.9286
  1753.4000      8.5290      2.3476      0.2332     18.3288    147.2691     29.8388
  1753.5000      8.5894      2.3758      0.2616     16.6208    149.4717     29.0822
  1753.6000      8.5894      2.4182      0.2158     14.0471    150.8447     28.2356
  1753.7000      8.5894      2.4854      0.2680      9.9771    147.4421     27.7873
  1753.8000      8.7629      2.5687      0.2830      4.9288    140.8041     27.7090
  1753.9000      8.7629      2.6375      0.3325      0.7570    140.9440     28.3562
  1754.0000      8.8138      2.6726      0.2905     -1.3704    150.0401     29.7038
  1754.1000      8.8138      2.6828      0.2466     -1.9906    156.8498     30.2616
  1754.2000      8.8138      2.6817      0.2527     -1.9196    154.2711     29.3789
  1754.3000      8.4400      2.6548      0.3210     -0.2899    150.3324     28.4106
  1754.4000      8.4400      2.5820      0.2151      4.1238    152.2285     28.2951
  1754.5000      8.3829      2.4881      0.0265      9.8143    156.8193     29.0483
  1754.6000      8.3829      2.4215     -0.0238     13.8487    161.1181     30.0764
  1754.7000      8.3829      2.3997     -0.0324     15.1700    162.4525     30.4196
  1754.8000      8.3165      2.4037      0.0493     14.9252    156.0269     30.1111
  1754.9000      8.3165      2.4140      0.0363     14.3009    145.0070     29.5297
  1755.0000      8.2167      2.4332      0.1362     13.1397    138.9988     28.6616
  1755.1000      8.2167      2.4598      0.2489     11.5245    143.0738     28.1394
  1755.2000      8.2167      2.4790      0.2602     10.3648    153.0722     28.6315
  1755.3000      8.1836      2.4777      0.2816     10.4416    161.5095     29.0633
  1755.4000      8.1836      2.4490      0.2209     12.1816    164.6549     28.4803
  1755.5000      8.2168      2.4057      0.1933     14.8090    161.9094     28.0405
  1755.6000      8.2168      2.3755      0.1716     16.6372    156.9370     28.6043
  1755.7000      8.2168      2.3583      0.2488     17.6776    156.1650     29.3738
  1755.8000      8.2799      2.3317      0.2025     19.2902    160.4798     29.7043
  1755.9000      8.2799      2.3039      0.1949     20.9730    165.0396     29.8626
  1756.0000      8.2958      2.2974      0.2354     21.3721    167.3866     29.6757
  1756.1000      8.2958      2.3084      0.2580     20.7042    168.1374     28.9446
  1756.2000      8.2958      2.3313      0.2289     19.3124    166.3399     28.4415
  1756.3000      8.3465      2.3729      0.2415     16.7940    162.3292     28.5591
  1756.4000      8.3465      2.4197      0.3078     13.9595    156.2980     28.6667
  1756.5000      8.5188      2.4363      0.3365     12.9522    145.8796     28.2015
  1756.6000      8.5188      2.4072      0.3122     14.7131    138.8927     27.3724
  1756.7000      8.5188      2.3528      0.2207     18.0104    143.9860     27.2032
  1756.8000      8.5341      2.3026      0.1891     21.0522    154.1542     28.1709
  1756.9000      8.5341      2.2624      0.1842     23.4908    160.0168     29.3363
  1757.0000      8.5199      2.2252      0.1714     25.7459    161.0330     29.9291
  1757.1000      8.5199      2.2060      0.0869     26.9092    158.4306     30.0756
  1757.2000      8.5199      2.2270      0.1996     25.6390    152.7802     29.8463
  1757.3000      8.5246      2.2809      0.2517     22.3667    146.1800     29.6306
  1757.4000      8.5246      2.3407      0.3110     18.7443    141.3710     30.0868
  1757.5000      8.5137      2.3743      0.3903     16.7084    141.5496     31.2166
  1757.6000      8.5137      2.3560      0.3443     17.8190    146.3667     32.1556
  1757.7000      8.5137      2.2897      0.2657     21.8381    150.7246     32.0301
  1757.8000      8.6741      2.2090      0.2443     26.7294    151.9444     31.1438
  1757.9000      8.6741      2.1422      0.2255     30.7777    151.6958     30.4281
  1758.0000      8.5694      2.0884      0.2295     34.0348    152.3638     30.0915
  1758.1000      8.5694      2.0435      0.1682     36.7590    156.9124     29.4930
  1758.2000      8.5694      2.0415      0.0173     36.8781    167.7318     28.4831
  1758.3000      8.6790      2.1208      0.0923     32.0725    177.0885     27.6368
  1758.4000      8.6790      2.2450      0.3166     24.5468    170.3258     27.3850
  1758.5000      8.6830      2.3340      0.3792     19.1507    149.5149     28.2007
  1758.6000      8.6830      2.3558      0.4199     17.8314    132.6626     30.2341
  1758.7000      8.6830      2.3272      0.4017     19.5639    129.2504     31.7359
  1758.8000      8.6122      2.2732      0.3347     22.8353    133.8842     30.9309
  1758.9000      8.6122      2.2101      0.2250     26.6610    134.6969     29.0807
  1759.0000      8.6393      2.1544      0.1219     30.0345    127.0983     28.4224
  1759.1000      8.6393      2.1305      0.0887     31.4830    118.6069     29.0140
  1759.2000      8.6393      2.1536      0.0800     30.0862    116.9335     29.4676
  1759.3000      8.6149      2.2171      0.1286     26.2367    121.1361     29.4415
  1759.4000      8.6149      2.2958      0.1923     21.4680    127.4982     29.5178
  1759.5000      8.5609      2.3629      0.1792     17.3974    132.9079     29.8451
  1759.6000      8.5609      2.4057      0.2290     14.8039    136.9944     30.4939
  1759.7000      8.5609      2.4229      0.1916     13.7665    141.1480     31.0746
  1759.8000      8.2809      2.4281      0.1422     13.4482    142.4208     30.9648
  1759.9000      8.2809      2.4355      0.0647     12.9985    141.1025     30.2306
  1760.0000      8.2504      2.4476      0.0151     12.2659    142.7262     29.2451
  1760.1000      8.2504      2.4633      0.1012     11.3156    149.8011     28.3841
  1760.2000      8.2504      2.4855      0.1223      9.9700    162.7410     27.6806
  1760.3000      8.3303      2.5279      0.1103      7.4022    174.0539     26.9783
  1760.4000      8.3303      2.5902      0.2417      3.6264    176.5340     26.4004
  1760.5000      8.3379      2.6437      0.2500      0.3830    176.2118     26.0791
  1760.6000      8.3379      2.6680      0.2556     -1.0926    177.8665     25.7442
  1760.7000      8.3379      2.6658      0.2238     -0.9583    179.2676     25.3044
  1760.8000      8.2658      2.6442      0.1968      0.3487    179.5589     25.3300
  1760.9000      8.2658      2.6107      0.1144      2.3813    178.8679     25.8706
  1761.0000      8.2368      2.5809      0.1249      4.1906    175.2796     26.4118
  1761.1000      8.2368      2.5647      0.0805      5.1693    166.4983     27.0001
  1761.2000      8.2368      2.5596      0.0701      5.4792    156.3021     28.0390
  1761.3000      8.3204      2.5575      0.0820      5.6055    153.2992     29.1371
  1761.4000      8.3204      2.5482      0.0488      6.1679    158.6743     29.3328
  1761.5000      8.2178      2.5258     -0.0122      7.5259    162.7008     28.5966
  1761.6000      8.2178      2.4945      0.0091      9.4214    160.2297     27.6760
  1761.7000      8.2178      2.4656      0.0023     11.1775    154.3019     27.3496
  1761.8000      8.2363      2.4439      0.0088     12.4913    149.3334     27.9507
  1761.9000      8.2363      2.4208     -0.0102     13.8929    151.7151     28.7105
  1762.0000      8.2381      2.3869     -0.0377     15.9444    161.0177     28.7481
  1762.1000      8.2381      2.3487     -0.0406     18.2633    163.4835     28.4100
  1762.2000      8.2381      2.3282     -0.0783     19.5004    153.4363     28.3051
  1762.3000      8.2308      2.3431     -0.0400     18.5976    140.5389     28.1620
