~Version Information
 VERS.                                  2.0 : CWLS LAS VERSION
 WRAP.                                   NO : WRAPING MODE
 SWARE .                 MController 2.5.0J : SOFTWARE VERSION
~Well Information
 WELL.                      Buffet 41-36 Tr : WELL
 COMP.    Pioneer Natural Resources USA Inc : COMPANY
 FLD.                      Purgatoire River : FIELD
 LOC.                NE/NE Sec 36 T32S R67W : LOCATION
 DATE.                             12/28/05 : DATE(S) LOGGED
 SRVC.       BLANCO Geological Services LLC : SERVICE COMPANY
 STAT.                                   CO : STATE
 CNTY.                           Las Animas : COUNTY
 CTRY.                                  USA : COUNTRY
 API.                       05-071-08627-00 : API NUMBER
 STRT.FT                             287.00 : START DEPTH
 STOP.FT                            1373.00 : STOP DEPTH
 STEP.FT                               1.00 : DEPTH INCREMENT
 NULL.                                -9999 : NULL VALUE
~Curve information
 DEPTH.FT                                   :
 ROP.MIN/FT                                 :
 GAS.UNITS                                  :
~ASCII Log data
# ...
      1087.0         0.58        992.9 
      1088.0         0.63        992.6 
      1089.0         0.60        989.4 
      1090.0         0.57        976.4 
      1091.0         0.60        961.5 
      1092.0         0.78        958.3 
      1093.0         0.53       1054.5 
      1094.0         0.53       1062.4 
      1095.0         0.60       1038.3 
      1096.0         0.57        995.5 
      1097.0         0.50        941.2 
      1098.0         0.52        887.2 
      1099.0         0.57        863.4 
      1100.0         0.53        865.0 
      1101.0         0.50        858.0 
      1102.0         3.88       2408.8 
      1103.0         0.67       1537.9 
      1104.0         0.58       1589.6 
      1105.0         0.57       1586.4 
      1106.0         0.53       1428.1 
      1107.0         0.47       1238.3 
      1108.0         0.43       1143.0 
      1109.0         0.43       1117.3 
      1110.0         0.30       1082.1 
      1111.0         0.25       1016.4 
      1112.0         0.23        984.4 
      1113.0         0.20       1013.6 
      1114.0         0.20       1063.7 
      1115.0         0.20       1092.6 
      1116.0         0.20       1106.5 
      1117.0         0.20       1109.4 
      1118.0         0.20       1087.5 
      1119.0         0.30       1066.9 
      1120.0         0.27       1104.3 
      1121.0         0.37       1141.1 
      1122.0         0.33       1148.4 
      1123.0         0.27       1131.9 
      1124.0         0.28       1099.9 
      1125.0         0.37       1053.9 
      1126.0         0.33       1020.5 
      1127.0         0.47       1013.2 
      1128.0         0.37       1019.0 
      1129.0         0.30       1014.5 
      1130.0         0.30       1015.5 
      1131.0         0.27       1013.6 
      1132.0         5.47       2488.1 
      1133.0         0.43       1685.1 
      1134.0         0.63       1688.0 
      1135.0         0.40       1550.2 
      1136.0         0.48       1429.0 
      1137.0         0.47       1238.3 
      1138.0         0.43       1079.9 
      1139.0         0.53       1031.3 
      1140.0         0.37       1188.1 
      1141.0         0.40       1266.5 
      1142.0         0.33       1267.5 
      1143.0         0.40       1268.7 
      1144.0         0.38       1269.4 
      1145.0         0.37       1236.4 
      1146.0         0.43       1175.7 
      1147.0         0.40       1126.2 
      1148.0         0.37       1079.3 
      1149.0         0.37       1005.3 
      1150.0         0.40        950.4 
      1151.0         0.37        922.5 
      1152.0         0.38        901.8 
      1153.0         0.37        879.6 
      1154.0         0.47        851.7 
      1155.0         0.53        859.0 
      1156.0         0.40        858.4 
      1157.0         0.40        842.2 
      1158.0         0.37        822.5 
      1159.0         0.43        801.9 
      1160.0         0.42        793.6 
      1161.0         0.40        785.4 
      1162.0         5.38       2289.4 
      1163.0         0.65       1683.2 
      1164.0         0.43       1528.4 
      1165.0         0.30       1419.5 
      1166.0         0.33       1331.3 
      1167.0         0.33       1283.0 
      1168.0         0.40       1257.3 
      1169.0         0.33       1220.8 
      1170.0         0.33       1164.3 
      1171.0         0.30       1099.9 
      1172.0         0.28       1025.3 
      1173.0         0.27        999.0 
      1174.0         0.27       1024.3 
      1175.0         0.23       1043.4 
      1176.0         0.23       1050.4 
      1177.0         0.23       1060.8 
      1178.0         0.23       1084.0 
      1179.0         0.43       1188.1 
      1180.0         0.20       1196.1 
      1181.0         0.27       1189.7 
      1182.0         0.32       1134.2 
      1183.0         0.33       1131.0 
      1184.0         0.27       1132.6 
      1185.0         0.30       1119.6 
      1186.0         0.30       1085.9 
      1187.0         0.47       1042.4 
      1188.0         0.43       1037.0 
      1189.0         0.42       1039.6 
      1190.0         0.47       1040.5 
      1191.0         0.53       1033.6 
      1192.0         5.53       3306.6 
      1193.0         0.57       1934.0 
      1194.0         0.50       1704.5 
      1195.0         0.50       1540.1 
      1196.0         0.45       1386.2 
      1197.0         0.43       1250.6 
      1198.0         0.33       1253.2 
      1199.0         0.37       1304.6 
      1200.0         0.43       1399.8 
      1201.0         0.53       1503.9 
      1202.0         0.53       1479.8 
      1203.0         0.52       1364.9 
      1204.0         0.47       1311.3 
      1205.0         0.43       1327.1 
      1206.0         0.50       1321.4 
      1207.0         0.53       1283.3 
      1208.0         0.47       1234.5 
      1209.0         0.40       1174.2 
      1210.0         0.42       1077.3 
      1211.0         0.40       1072.0 
      1212.0         0.50       1132.9 
      1213.0         0.43       1152.6 
      1214.0         0.37       1131.3 
      1215.0         0.47       1068.5 
      1216.0         0.40       1038.6 
      1217.0         0.42       1024.3 
      1218.0         0.47       1016.4 
      1219.0         0.47       1010.7 
      1220.0         0.47       1008.8 
      1221.0         0.37        924.1 
      1222.0         5.13       3619.0 
      1223.0         0.50       2238.3 
      1224.0         0.27       1988.6 
      1225.0         0.33       1839.7 
      1226.0         0.32       1834.3 
      1227.0         0.23       1833.4 
      1228.0         0.47       1791.1 
      1229.0         0.50       1749.6 
      1230.0         0.53       1631.5 
      1231.0         0.75       1384.6 
      1232.0         0.87       1123.7 
      1233.0         0.63       1107.5 
      1234.0         0.57       1204.0 
      1235.0         0.57       1236.0 
      1236.0         0.58       1235.7 
      1237.0         0.53       1238.6 
      1238.0         0.50       1239.5 
      1239.0         0.47       1263.0 
      1240.0         0.47       1284.0 
      1241.0         0.45       1337.0 
      1242.0         0.33       1353.2 
      1243.0         0.27       1337.9 
      1244.0         0.37       1273.2 
      1245.0         0.43       1313.8 
      1246.0         0.50       1317.0 
      1247.0         0.50       1294.4 
      1248.0         0.52       1256.7 
      1249.0         0.43       1212.6 
      1250.0         0.30       1190.3 
      1251.0         0.50       1147.8 
      1252.0         4.32       3437.7 
      1253.0         0.75       2275.8 
      1254.0         0.57       2250.1 
      1255.0         0.57       2003.2 
      1256.0         0.60       1725.4 
      1257.0         0.53       1540.7 
      1258.0         0.45       1400.4 
      1259.0         0.30       1332.2 
      1260.0         0.27       1321.7 
      1261.0         0.33       1409.3 
      1262.0         0.63       1780.4 
      1263.0         0.47       1830.8 
      1264.0         0.47       1854.9 
      1265.0         0.98       1855.3 
      1266.0         0.47       1025.6 
      1267.0         0.47       1184.6 
      1268.0         0.40       1205.9 
      1269.0         0.43       1199.9 
      1270.0         0.43       1216.7 
      1271.0         0.43       1244.6 
      1272.0         0.35       1239.8 
      1273.0         0.40       1196.1 
      1274.0         0.37       1224.6 
      1275.0         0.30       1239.5 
      1276.0         0.37       1268.1 
      1277.0         0.37       1335.4 
      1278.0         0.37       1389.0 
      1279.0         0.37       1393.8 
      1280.0         0.37       1384.3 
      1281.0         0.48       1365.2 
      1282.0         3.78       4315.6 
      1283.0         0.57       2617.3 
      1284.0         0.57       1795.9 
      1285.0         0.60       2331.6 
      1286.0         0.53       2344.7 
