~Version Information
 VERS.                                  2.0 : CWLS LAS VERSION
 WRAP.                                   NO : WRAPING MODE
 SWARE .                 MController 2.5.0J : SOFTWARE VERSION
~Well Information
 WELL.                         Norton 9-14R : WELL
 COMP.                Petrogulf Corporation : COMPANY
 FLD.                       Purgatoire River: FIELD
 LOC.                SW/SW Sec 9 T33S R67W  : LOCATION
 DATE.                            10/5-6/05 : DATE(S) LOGGED
 SRVC.       BLANCO Geological Services LLC : SERVICE COMPANY
 STAT.                                   CO : STATE
 CNTY.                           Las Animas : COUNTY
 CTRY.                                  USA : COUNTRY
 API.                       05-071-08444-00 : API NUMBER
 STRT.FT                              56.00 : START DEPTH
 STOP.FT                            1880.00 : STOP DEPTH
 STEP.FT                               1.00 : DEPTH INCREMENT
 NULL.                                -9999 : NULL VALUE
~Curve information
 DEPTH.FT                                   :
 ROP.MIN/FT                                 :
 GAS.UNITS                                  :
~ASCII Log data
# ...
       856.0         0.40         49.4 
       857.0         0.30         49.0 
       858.0         0.40         50.2 
       859.0         0.27         50.7 
       860.0         0.40         50.8 
       861.0         0.27         50.8 
       862.0         0.37         50.5 
       863.0         0.20         50.1 
       864.0         0.27         49.4 
       865.0         0.23         48.7 
       866.0         3.90        161.7 
       867.0         0.17        113.5 
       868.0         0.13        109.1 
       869.0         0.17        107.5 
       870.0         0.20        104.9 
       871.0         0.47         98.8 
       872.0         0.30         83.2 
       873.0         0.33         73.6 
       874.0         0.33         64.2 
       875.0         0.35         57.2 
       876.0         0.37         51.9 
       877.0         0.37         48.6 
       878.0         0.40         48.8 
       879.0         0.40         49.4 
       880.0         0.40         49.3 
       881.0         0.40         47.7 
       882.0         0.37         48.0 
       883.0         0.28         48.8 
       884.0         0.33         48.9 
       885.0         0.33         48.5 
       886.0         0.30         48.5 
       887.0         0.37         47.7 
       888.0         0.30         47.5 
       889.0         0.30         47.6 
       890.0         0.33         47.4 
       891.0         0.33         46.8 
       892.0         0.30         46.9 
       893.0         0.35         47.3 
       894.0         0.30         47.4 
       895.0         0.33         48.3 
       896.0         3.25        166.9 
       897.0         0.33        100.2 
       898.0         0.30         88.6 
       899.0         0.27         76.6 
       900.0         0.27         66.4 
       901.0         0.17         59.5 
       902.0         0.13         57.2 
       903.0         0.30         56.1 
       904.0         0.33         52.7 
       905.0         0.27         50.5 
       906.0         0.32         49.8 
       907.0         0.43         48.9 
       908.0         0.63         49.1 
       909.0         0.27         49.2 
       910.0         0.83         54.9 
       911.0         0.47         55.7 
       912.0         0.30         54.7 
       913.0         0.28         55.3 
       914.0         0.27         56.4 
       915.0         0.27         56.9 
       916.0         0.27         56.9 
       917.0         0.27         56.9 
       918.0         0.30         57.1 
       919.0         0.33         56.7 
       920.0         0.30         55.9 
       921.0         0.30         54.5 
       922.0         0.37         52.5 
       923.0         0.27         49.2 
       924.0         0.30         47.9 
       925.0         0.28         45.5 
       926.0         2.70        175.2 
       927.0         0.38        110.6 
       928.0         0.30         93.3 
       929.0         0.47         82.6 
       930.0         0.47         63.8 
       931.0         0.33         51.7 
       932.0         0.30         47.9 
       933.0         0.23         46.3 
       934.0         0.13         46.7 
       935.0         0.27         47.5 
       936.0         0.33         47.7 
       937.0         0.42         47.5 
       938.0         0.37         47.8 
       939.0         0.27         46.9 
       940.0         0.27         46.6 
       941.0         0.23         46.1 
       942.0         0.27         45.9 
       943.0         0.37         45.6 
       944.0         0.33         45.3 
       945.0         0.13         46.1 
       946.0         0.13         47.3 
       947.0         0.43         48.9 
       948.0         0.27         49.1 
       949.0         0.32         49.3 
       950.0         0.33         48.8 
       951.0         0.23         48.5 
       952.0         0.37         48.1 
       953.0         0.30         47.4 
       954.0         0.30         46.6 
       955.0         0.40         46.4 
       956.0         3.05        175.4 
       957.0         0.20         83.1 
       958.0         0.17         75.6 
       959.0         0.20         73.8 
       960.0         0.27         74.0 
       961.0         0.50         72.2 
       962.0         0.38         60.8 
       963.0         0.43         54.1 
       964.0         0.43         49.4 
       965.0         0.30         48.1 
       966.0         0.37         46.7 
       967.0         0.30         46.0 
       968.0         0.30         45.8 
       969.0         0.30         45.7 
       970.0         0.23         46.5 
       971.0         0.27         47.2 
       972.0         0.32         47.2 
       973.0         0.30         47.4 
       974.0         0.27         46.6 
       975.0         0.20         47.8 
       976.0         0.10         50.0 
       977.0         0.13         53.4 
       978.0         0.30         57.3 
       979.0         0.37         58.1 
       980.0         0.30         57.4 
       981.0         0.37         55.4 
       982.0         0.42         52.3 
       983.0         0.33         49.0 
       984.0         0.27         47.9 
       985.0         0.17         46.1 
       986.0         0.23         43.6 
       987.0         0.30         39.1 
       988.0         0.30         39.6 
       989.0         0.23         42.0 
       990.0         0.33         45.4 
       991.0         0.23         48.4 
       992.0         0.27         51.2 
       993.0         0.37         63.1 
       994.0         0.32         62.9 
       995.0         0.37         56.2 
       996.0         0.37         48.3 
       997.0         0.30         44.7 
       998.0         0.40         44.8 
       999.0         0.37         46.1 
      1000.0         0.47         46.9 
      1001.0         0.40         47.5 
      1002.0         0.40         50.4 
      1003.0       724.83        195.4 
      1004.0         0.30          3.7 
      1005.0         0.17          4.1 
      1006.0         0.25          4.5 
      1007.0         0.13          4.7 
      1008.0         0.10          4.5 
      1009.0         0.27          4.8 
      1010.0         0.10          4.9 
      1011.0         0.10          4.6 
      1012.0         0.10          5.0 
      1013.0         0.17          4.9 
      1014.0         0.10          5.1 
      1015.0         0.23          9.5 
      1016.0         0.27         11.1 
      1017.0         0.30         10.5 
      1018.0         0.77         18.2 
      1019.0         0.32        126.0 
      1020.0         0.30        122.3 
      1021.0         0.23         31.1 
      1022.0         0.20         10.8 
      1023.0         0.17          5.8 
      1024.0         0.17          4.9 
      1025.0         0.23          3.4 
      1026.0         0.23          2.6 
      1027.0         0.20          2.3 
      1028.0         0.17          2.1 
      1029.0         0.23          1.9 
      1030.0         0.25          2.0 
      1031.0         0.20          1.9 
      1032.0         0.17          2.0 
      1033.0         0.17          2.4 
      1034.0         0.17          2.1 
      1035.0         0.30          2.4 
      1036.0         0.23          2.0 
      1037.0         0.10          2.1 
      1038.0         0.13          2.2 
      1039.0         0.20          2.3 
      1040.0         0.13          2.3 
      1041.0         0.08          2.5 
      1042.0         0.10          2.6 
      1043.0         0.10          3.0 
      1044.0         0.20          3.1 
      1045.0         0.13          3.3 
      1046.0         2.50          4.9 
      1047.0         0.18          4.8 
      1048.0         0.33          4.7 
      1049.0         0.30          5.7 
      1050.0         0.13          6.6 
      1051.0         0.20          7.0 
      1052.0         0.20          6.5 
      1053.0         0.23          5.7 
      1054.0         0.30          5.4 
      1055.0         0.27          5.0 
