~Version Information
VERS.                      2.0: CWLS Log ASCII Standard - VERSION 2.0
WRAP.                       NO: One line per depth step
~Well Information Block
STRT.FT                -6.7500: 
STOP.FT              1661.0000: 
STEP.FT                 0.2500: 
NULL.                -999.2500: 
COMP.          Pioneer Natural Resources: COMPANY
WELL.           Pedri 42-33 Tr: WELL
FLD.           Purgatorie River: FIELD
LOC.           1933'' FNL & 662' FEL--: LOCATION
PROV.                       CO: PROVINCE
CNTY.               Las Animas: COUNTRY
SRVC.          Patterson Wireline: SERVICE COMPANY
DATE.          Tue Dec 27 08:53:52 2005: LOG DATE
UWI.           05 071 08640 00: UNIQUE WELL ID
~Curve Information Block
DEPT.FT            0 000 00 00: Depth
CCL.                          : Casing Collar Locator
TT3.usec                      : CBL 3' Travel Time
AMP3.mV                       : CBL 3' Amplitude
GR.GAPI                       : Gamma Ray
~Parameter Information Block
~A  Depth       CCL         TT3         AMP3         GR     
# ...
  1534.2500      0.0000    608.9745      5.9458     92.2019
  1534.5000      0.0000    619.0426      6.0410     96.2940
  1534.7500      0.0000    633.6038      6.1931    101.4824
  1535.0000      0.0000    648.6978      6.3847    107.7346
  1535.2500      0.0000    660.8721      6.5858    115.1310
  1535.5000      0.0000    668.7199      6.7640    123.4058
  1535.7500      0.0000    672.7765      6.8962    131.7795
  1536.0000      0.0000    674.3962      6.9854    139.4123
  1536.2500      0.0000    674.8074      7.0822    145.6706
  1536.5000      0.0000    674.7665      7.2900    149.7436
  1536.7500      0.0000    673.7460      7.7306    150.4344
  1537.0000      0.0000    667.9833      8.4758    146.8374
  1537.2500      0.0000    649.6886      9.4922    139.0920
  1537.5000      0.0000    611.3047     10.6530    128.3243
  1537.7500      0.0000    553.2505     11.8082    116.2742
  1538.0000      0.0000    486.6902     12.8518    105.1803
  1538.2500      0.0000    426.9191     13.7312     97.4878
  1538.5000      0.0000    383.9605     14.4155     94.9208
  1538.7500      0.0000    358.9973     14.8785     97.6242
  1539.0000      0.0000    347.5356     15.1158    104.2227
  1539.2500      0.0000    344.6917     15.1553    112.7029
  1539.5000      0.0000    348.9213     15.0144    121.4143
  1539.7500      0.0000    363.2021     14.6496    129.6235
  1540.0000      0.0000    393.2670     13.9828    137.3109
  1540.2500      0.0000    442.6054     12.9995    144.6348
  1540.5000      0.0000    506.9228     11.8091    151.6322
  1540.7500      0.0000    573.4383     10.5986    158.2310
  1541.0000      0.0000    627.0667      9.5295    164.4295
  1541.2500      0.0000    658.0674      8.6729    170.3334
  1541.5000      0.0000    664.9322      8.0192    175.6192
  1541.7500      0.0000    652.6713      7.5293    178.8541
  1542.0000      0.0000    630.1375      7.1723    178.0519
  1542.2500      0.0000    607.4061      6.9317    172.7239
  1542.5000      0.0000    592.5184      6.7938    165.2064
  1542.7500      0.0000    588.8017      6.7385    159.1502
  1543.0000      0.0000    594.4145      6.7382    156.4063
  1543.2500      0.0000    603.4517      6.7611    155.5870
  1543.5000      0.0000    607.6606      6.7718    153.4821
  1543.7500      0.0000    599.6752      6.7270    147.6855
  1544.0000      0.0000    577.7991      6.5811    138.3039
  1544.2500      0.0000    548.7289      6.3185    127.8153
  1544.5000      0.0000    524.4743      5.9974    119.4633
  1544.7500      0.0000    515.0370      5.7441    115.6521
  1545.0000      0.0000    523.1622      5.6606    117.0922
  1545.2500      0.0000    544.6476      5.7242    122.4515
  1545.5000      0.0000    570.6074      5.8177    128.7839
  1545.7500      0.0000    589.0449      5.8741    133.0696
  1546.0000      0.0000    589.3152      5.9480    133.8036
  1546.2500      0.0000    570.5887      6.1222    131.2977
  1546.5000      0.0000    546.3126      6.3937    127.1100
  1546.7500      2.0000    536.4675      6.6752    123.5762
  1547.0000      0.0000    552.0482      6.8735    123.0142
  1547.2500      0.0000    586.5930      6.9538    126.2118
  1547.5000      0.0000    623.4436      6.9624    131.5364
  1547.7500      0.0000    650.4367      7.0032    135.8000
  1548.0000      0.0000    666.9207      7.1664    136.0504
  1548.2500      0.0000    678.6077      7.4686    131.0761
  1548.5000      0.0000    689.0672      7.8596    122.1671
  1548.7500      0.0000    696.5192      8.2671    112.6343
  1549.0000      0.0000    695.8876      8.6321    105.8842
  1549.2500      0.0000    682.6567      8.9258    103.3532
  1549.5000      0.0000    656.4630      9.1533    104.0264
  1549.7500      0.0000    622.0352      9.3408    105.7004
  1550.0000      0.0000    585.9078      9.5166    106.7364
  1550.2500      0.0000    552.5977      9.6951    106.9033
  1550.5000      0.0000    523.9938      9.8712    106.9081
  1550.7500      0.0000    499.7789     10.0288    107.5143
  1551.0000      0.0000    476.8969     10.1540    109.1626
  1551.2500      0.0000    451.3353     10.2392    111.8626
  1551.5000      0.0000    423.0025     10.2777    115.1300
  1551.7500      0.0000    397.4201     10.2609    118.3521
  1552.0000      0.0000    381.1184     10.1834    121.2415
  1552.2500      0.0000    376.6471     10.0473    123.6832
  1552.5000      0.0000    383.3856      9.8653    125.4625
  1552.7500      0.0000    401.8935      9.6560    126.6266
  1553.0000      0.0000    434.8345      9.4351    127.7721
  1553.2500      0.0000    481.9793      9.2111    129.5247
  1553.5000      0.0000    534.6705      8.9914    132.0799
  1553.7500      0.0000    577.6432      8.7907    135.5765
  1554.0000      0.0000    599.1907      8.6296    140.4531
  1554.2500      0.0000    601.1127      8.5200    146.9034
  1554.5000      0.0000    598.2728      8.4542    154.1390
  1554.7500      0.0000    606.7503      8.4087    160.7320
  1555.0000      0.0000    631.0970      8.3617    165.6532
  1555.2500      0.0000    662.5431      8.3091    168.5223
  1555.5000      0.0000    688.3940      8.2685    168.9026
  1555.7500      0.0000    702.1279      8.2712    165.9615
  1556.0000      0.0000    705.6629      8.3467    159.1318
  1556.2500      0.0000    704.0139      8.5074    148.9660
  1556.5000      0.0000    699.1865      8.7423    137.3277
  1556.7500      0.0000    690.0714      9.0201    126.9315
  1557.0000      0.0000    677.6972      9.2990    120.4813
  1557.2500      0.0000    667.7708      9.5350    119.4153
  1557.5000      0.0000    665.9950      9.6893    123.0203
  1557.7500      0.0000    672.5115      9.7392    129.1545
  1558.0000      0.0000    682.6674      9.6919    136.0918
  1558.2500      0.0000    691.4383      9.5890    143.4311
  1558.5000      0.0000    695.3309      9.4878    151.4118
  1558.7500      0.0000    691.7681      9.4259    159.8753
  1559.0000      0.0000    679.2326      9.3957    167.8099
  1559.2500      0.0000    658.3138      9.3550    173.6628
  1559.5000      0.0000    632.1389      9.2658    176.2842
  1559.7500      0.0000    606.2682      9.1242    175.6056
  1560.0000      0.0000    587.3120      8.9524    172.0690
  1560.2500      0.0000    578.5120      8.7698    165.6266
  1560.5000      0.0000    576.5341      8.5789    156.0410
  1560.7500      0.0000    576.1927      8.3758    144.2070
  1561.0000      0.0000    578.1472      8.1665    132.4288
  1561.2500      0.0000    587.1957      7.9737    123.0016
  1561.5000      0.0000    602.8235      7.8345    116.8451
  1561.7500      0.0000    617.0327      7.7898    113.5157
  1562.0000      0.0000    623.2930      7.8631    112.0093
  1562.2500      0.0000    623.3415      8.0441    111.4008
  1562.5000      0.0000    622.9324      8.2918    111.2227
  1562.7500      0.0000    623.2852      8.5609    111.4237
  1563.0000      0.0000    618.9933      8.8285    111.7369
  1563.2500      0.0000    603.5582      9.0953    111.2048
  1563.5000      0.0000    576.0419      9.3651    108.6986
  1563.7500      0.0000    544.5694      9.6259    103.9908
  1564.0000      0.0000    525.0582      9.8514     98.2245
  1564.2500      0.0000    532.9224     10.0163     93.2754
  1564.5000      0.0000    571.0176     10.1081     90.5356
  1564.7500      0.0000    625.2169     10.1240     90.3119
  1565.0000      0.0000    674.0854     10.0644     92.5949
  1565.2500      0.0000    703.8436      9.9368     98.0737
  1565.5000      0.0000    714.6620      9.7630    107.5911
  1565.7500      0.0000    715.4563      9.5732    120.4344
  1566.0000      0.0000    715.1260      9.3866    133.7208
  1566.2500      0.0000    717.5157      9.2044    143.8425
  1566.5000      0.0000    721.7080      9.0239    148.5874
  1566.7500      0.0000    725.2556      8.8567    148.1688
  1567.0000      0.0000    727.1208      8.7260    144.7948
  1567.2500      0.0000    728.1524      8.6484    141.3584
  1567.5000      0.0000    729.2703      8.6220    140.0648
