~Version Information
VERS.                      2.0: CWLS Log ASCII Standard - VERSION 2.0
WRAP.                       NO: One line per depth step
~Well Information Block
STRT.FT               550.0000: 
STOP.FT              1981.5000: 
STEP.FT                 0.2500: 
NULL.                -999.2500: 
COMP.          Pioneer Natural Resources: COMPANY
WELL.          Flying Horse 12-11 Tr: WELL
FLD.           Purgatoire River: FIELD
LOC.           2459' FNL & 410' FWL: LOCATION
STAT.                 Colorado: State
CNTY.               Las Animas: COUNTY
CTRY. USA : Country
SECT. 11 : Section
TOWN. 32S : Township
RANG. 66W : Range
SRVC.                Patterson: SERVICE COMPANY
DATE.          Sat Sep 03 20:17:31 2005: LOG DATE
API.           05 071 08485 00: UNIQUE WELL ID
~Curve Information Block
DEPT.FT            0 000 00 00: Depth
SN.Ohm-m                      : IEL Short Normal
SP.mV                         : IEL Spontaneous Potential
DIR.Ohm-m                     : IEL Induction Resistivity
GR.GAPI                       : Gamma Ray
~Parameter Information Block
~A  Depth        SN          SP         DIR          GR     
# ...
  1957.0000     10.1334    232.8874      7.5127    131.9996
  1957.2500     10.4475    236.8282      7.5466    129.6040
  1957.5000     10.6315    238.8886      7.6245    128.1687
  1957.7500     10.6904    238.7304      7.7597    129.0327
  1958.0000     10.6170    236.4618      7.9658    132.6389
  1958.2500     10.4110    232.9327      8.2545    135.8220
  1958.5000     10.1200    229.6534      8.6327    140.4541
  1958.7500      9.9410    228.1842      9.0983    143.0585
  1959.0000     10.1130    229.3448      9.6382    146.0265
  1959.2500     10.6647    232.8496     10.2300    147.0484
  1959.5000     11.4316    237.6085     10.8476    145.6192
  1959.7500     12.2846    242.3490     11.4697    141.5263
  1960.0000     13.3147    246.1102     12.0862    129.6436
  1960.2500     14.8477    248.4546     12.7033    118.4703
  1960.5000     17.2845    249.4148     13.3464     99.8419
  1960.7500     20.8246    249.2390     14.0602     88.4772
  1961.0000     25.2230    248.1559     14.9021     75.9067
  1961.2500     29.8303    246.3782     15.9289     70.5815
  1961.5000     33.9787    244.2585     17.1806     64.1936
  1961.7500     37.3590    242.2984     18.6607     58.4936
  1962.0000     39.9665    240.9153     20.3122     45.3473
  1962.2500     41.8413    240.2286     21.9917     34.3014
  1962.5000     43.0107    240.1252     23.4613     18.3925
  1962.7500     43.5075    240.4940     24.4265     10.4189
  1963.0000     43.3220    241.3396     24.6425      3.4617
  1963.2500     42.4379    242.7104     24.0435      1.3945
  1963.5000     40.9471    244.6048     22.7862      0.2706
  1963.7500     38.9846    246.9667     21.1556      0.0746
  1964.0000     36.5433    249.7186     19.4225      0.0071
  1964.2500     33.5368    252.7552     17.7629      0.0000
  1964.5000     30.0409    255.9067     16.2544   -999.2500
  1964.7500     26.3396    258.9339     14.9099   -999.2500
  1965.0000     22.7653    261.5869     13.7107   -999.2500
  1965.2500     19.5882    263.6865     12.6318   -999.2500
  1965.5000     16.9917    265.1728     11.6560   -999.2500
  1965.7500     15.0216    266.1285     10.7786   -999.2500
  1966.0000     13.5603    266.8005     10.0048   -999.2500
  1966.2500     12.3820    267.5549      9.3401   -999.2500
  1966.5000     11.2328    268.6812      8.7827   -999.2500
  1966.7500      9.9741    270.1528      8.3198   -999.2500
  1967.0000      8.7540    271.6113      7.9314   -999.2500
  1967.2500      7.8854    272.6563      7.5985   -999.2500
  1967.5000      7.4708    273.1791      7.3090   -999.2500
  1967.7500      7.3435    273.4087      7.0603   -999.2500
  1968.0000      7.3442    273.6674      6.8558   -999.2500
  1968.2500      7.4427    274.1331      6.6998   -999.2500
  1968.5000      7.6156    274.8269      6.5620   -999.2500
  1968.7500      7.7523    275.7375      6.5031   -999.2500
  1969.0000      7.7731    276.8854      6.4824   -999.2500
  1969.2500      7.7219    278.2618      6.4888   -999.2500
  1969.5000      7.6300    279.7274      6.5094   -999.2500
  1969.7500      7.4911    281.0057      6.5320   -999.2500
  1970.0000      7.3724    281.8293      6.5480   -999.2500
  1970.2500      7.3517    282.1588      6.5546   -999.2500
  1970.5000      7.3922    282.3012      6.5565   -999.2500
  1970.7500      7.3580    282.7901      6.5681   -999.2500
  1971.0000      7.1865    284.0591      6.6169   -999.2500
  1971.2500      6.9957    286.1369      6.7527   -999.2500
  1971.5000      6.9066    288.6035      7.0580   -999.2500
  1971.7500      6.8584    290.8218      7.6636   -999.2500
  1972.0000      6.7818    292.2515      8.8401   -999.2500
  1972.2500      6.8049    292.6520     10.8120   -999.2500
  1972.5000      7.0296    292.1154     14.1718   -999.2500
  1972.7500      7.2889    290.9506     19.7199   -999.2500
  1973.0000      7.3988    289.4567     28.2896   -999.2500
  1973.2500      7.4424    287.6794     39.7647   -999.2500
  1973.5000      7.5935    285.3125     51.8224   -999.2500
  1973.7500      7.8505    281.8491     61.1678   -999.2500
  1974.0000      8.0814    276.8810     66.8325   -999.2500
  1974.2500      8.1886    270.3339     70.3143   -999.2500
  1974.5000      8.1514    262.5274     73.4970   -999.2500
  1974.7500      8.0251    254.1034     77.7891   -999.2500
  1975.0000      7.9098    245.8714 100000.0000   -999.2500
  1975.2500      7.8174    238.5894 100000.0000   -999.2500
  1975.5000      7.6486    232.7327 100000.0000   -999.2500
  1975.7500      7.3656    228.3748 100000.0000   -999.2500
  1976.0000      7.0876    225.2714 100000.0000   -999.2500
  1976.2500      6.9995    223.0695 100000.0000   -999.2500
  1976.5000      7.2047    221.4486 100000.0000   -999.2500
  1976.7500      7.6432    219.9476 100000.0000   -999.2500
  1977.0000      8.1283    217.4042 100000.0000   -999.2500
  1977.2500      8.4607    211.1417 100000.0000   -999.2500
  1977.5000      8.5685    196.7786 100000.0000   -999.2500
  1977.7500      8.4500    170.1920 100000.0000   -999.2500
  1978.0000      7.9072    131.5817 100000.0000   -999.2500
  1978.2500      6.5526     87.8370 100000.0000   -999.2500
  1978.5000      4.2909     49.2207 100000.0000   -999.2500
  1978.7500      1.7426     22.6694 100000.0000   -999.2500
  1979.0000     -0.1736      8.4518 100000.0000   -999.2500
  1979.2500     -1.1217      2.5230 100000.0000   -999.2500
  1979.5000     -1.4271      0.5976 100000.0000   -999.2500
  1979.7500     -1.4907      0.1106 100000.0000   -999.2500
  1980.0000     -1.4993      0.0147 100000.0000   -999.2500
  1980.2500   -999.2500   -999.2500 100000.0000   -999.2500
  1980.5000   -999.2500   -999.2500 100000.0000   -999.2500
  1980.7500   -999.2500   -999.2500 100000.0000   -999.2500
  1981.0000   -999.2500   -999.2500 100000.0000   -999.2500
  1981.2500   -999.2500   -999.2500 100000.0000   -999.2500
  1981.5000   -999.2500   -999.2500 100000.0000   -999.2500
