~Version Information
VERS.                      2.0: CWLS Log ASCII Standard - VERSION 2.0
WRAP.                       NO: One line per depth step
~Well Information Block
STRT.FT               -10.0000: 
STOP.FT              1935.0000: 
STEP.FT                 0.2500: 
NULL.                -999.2500: 
COMP.          Pioneer Natural Resources: COMPANY
WELL.           Willys 32-8 Tr: WELL
FLD.           Purgatorie River: FIELD
LOC.           1843' FNL & 2355' FEL--: LOCATION
CNTY.               Las Animas: COUNTY
SRVC.          Patterson Wireline: SERVICE COMPANY
DATE.          Wed Feb 15 13:29:41 2006: LOG DATE
UWI.           05 071 08688 00: UNIQUE WELL ID
STAT.                       CO: STATE
~Curve Information Block
DEPT.FT            0 000 00 00: Depth
CCL.                          : Casing Collar Locator
TT3.usec                      : CBL 3' Travel Time
AMP3.mV                       : CBL 3' Amplitude
GR.GAPI                       : Gamma Ray
~Parameter Information Block
~A  Depth       CCL         TT3         AMP3         GR     
# ...
  1899.5000      0.0000    415.0623      7.2702    137.9873
  1899.7500      0.0000    402.9853      6.7590    127.4776
  1900.0000      0.0000    400.7828      6.3436    119.5314
  1900.2500      0.0000    403.0278      6.1614    114.6414
  1900.5000      0.0000    405.8984      6.2106    111.9713
  1900.7500      0.0000    407.3176      6.3805    110.5031
  1901.0000      0.0000    406.5452      6.5786    109.4296
  1901.2500      0.0000    403.9079      6.7905    107.9188
  1901.5000      0.0000    400.6448      7.0390    105.3293
  1901.7500      0.0000    398.3911      7.3348    101.8936
  1902.0000      0.0000    398.8098      7.6657     98.6638
  1902.2500      0.0000    404.0071      8.0122     96.5424
  1902.5000      0.0000    417.1231      8.3705     95.8889
  1902.7500      0.0000    441.4353      8.7420     97.1698
  1903.0000      0.0000    476.7783      9.0803    101.3635
  1903.2500      0.0000    515.4861      9.2869    109.3636
  1903.5000      0.0000    544.1357      9.3191    121.1175
  1903.7500      0.0000    554.2281      9.2610    135.0772
  1904.0000      0.0000    552.4993      9.2262    148.3242
  1904.2500      0.0000    556.9065      9.2322    157.8683
  1904.5000      0.0000    580.1326      9.2169    162.5532
  1904.7500      0.0000    618.8105      9.1337    163.6145
  1905.0000      0.0000    659.1865      8.9894    163.0482
  1905.2500      0.0000    690.0145      8.8211    161.8653
  1905.5000      0.0000    708.5430      8.6700    160.2726
  1905.7500      0.0000    717.4855      8.5668    158.7757
  1906.0000      0.0000    719.7189      8.5194    158.2267
  1906.2500      0.0000    715.3318      8.5079    158.8324
  1906.5000      0.0000    701.5280      8.4977    159.6532
  1906.7500      0.0000    674.9124      8.4654    159.3033
  1907.0000      0.0000    634.5623      8.4118    157.1210
  1907.2500      0.0000    583.9356      8.3506    153.5314
  1907.5000      0.0000    531.2585      8.2900    149.2053
  1907.7500      0.0000    488.6952      8.2282    144.0866
  1908.0000      0.0000    469.0438      8.1653    137.6906
  1908.2500      0.0000    479.2423      8.1114    130.3719
  1908.5000      0.0000    513.2533      8.0837    123.6685
  1908.7500      0.0000    550.8551      8.0965    118.8627
  1909.0000      0.0000    567.6934      8.1496    115.5057
  1909.2500      0.0000    551.3852      8.2257    112.0607
  1909.5000      0.0000    509.2838      8.2977    107.8746
  1909.7500      0.0000    460.6453      8.3424    103.8309
  1910.0000      0.0000    422.0452      8.3503    100.9672
  1910.2500      0.0000    399.4434      8.3281     99.1560
  1910.5000      0.0000    390.0411      8.2923     97.5761
  1910.7500      0.0000    388.0310      8.2571     96.0084
  1911.0000      0.0000    388.7423      8.2286     95.1287
  1911.2500      0.0000    390.0002      8.2091     95.6934
  1911.5000      0.0000    391.9435      8.2003     97.8979
  1911.7500      0.0000    396.8368      8.2014    101.5679
  1912.0000      0.0000    409.3986      8.2071    106.5191
  1912.2500      0.0000    436.3356      8.2129    112.4014
  1912.5000      0.0000    482.7670      8.2191    118.3399
  1912.7500      0.0000    546.2410      8.2298    123.1634
  1913.0000      0.0000    614.3462      8.2469    126.2552
  1913.2500      0.0000    671.0555      8.2651    128.3075
  1913.5000      0.0000    707.1710      8.2744    131.1905
  1913.7500      0.0000    724.4816      8.2681    136.6282
  1914.0000      0.0000    730.5981      8.2484    144.3746
  1914.2500      0.0000    731.1431      8.2227    151.4771
  1914.5000      0.0000    725.5653      8.1975    153.7252
  1914.7500      0.0000    707.5016      8.1779    148.5998
  1915.0000      0.0000    669.1450      8.1682    137.3436
  1915.2500      0.0000    608.6255      8.1684    124.1645
  1915.5000      0.0000    535.1639      8.1720    113.1987
  1915.7500      0.0000    465.6021      8.1676    106.0224
  1916.0000      0.0000    414.3217      8.1441    101.6497
  1916.2500      0.0000    385.9819      8.0985     98.3204
  1916.5000      0.0000    376.2713      8.0437     95.0807
  1916.7500      0.0000    377.2264      8.0048     92.0609
  1917.0000      0.0000    381.9509      7.9990     89.8192
  1917.2500      0.0000    386.8430      8.0215     88.7104
  1917.5000      0.0000    391.8093      8.0544     88.8052
  1917.7500      0.0000    399.5659      8.0874     90.1662
  1918.0000      0.0000    414.7750      8.1234     93.1670
  1918.2500      0.0000    442.6070      8.1667     98.3841
  1918.5000      0.0000    485.7287      8.2123    105.9315
  1918.7500      0.0000    540.4791      8.2502    114.9356
  1919.0000      0.0000    595.5723      8.2781    123.8565
  1919.2500      0.0000    635.6776      8.3083    131.3491
  1919.5000      0.0000    647.7956      8.3626    136.9650
  1919.7500      0.0000    626.6797      8.4568    141.3321
  1920.0000      0.0000    577.8279      8.5865    145.3882
  1920.2500      0.0000    516.5557      8.7271    148.6739
  1920.5000      0.0000    461.0121      8.8502    148.1785
  1920.7500      0.0000    422.6059      8.9395    139.4784
  1921.0000      0.0000    402.1067      8.9911    119.8342
  1921.2500      0.0000    393.7980      9.0038     91.0229
  1921.5000      0.0000    391.7344      8.9728     59.4273
  1921.7500      0.0000    392.7168      8.8962     32.5661
  1922.0000      0.0000    395.9974      8.7844     14.6985
  1922.2500      0.0000    401.7717      8.6602      5.3854
  1922.5000      0.0000    409.7104      8.5483      1.5841
  1922.7500      0.0000    418.2775      8.4604      0.3703
  1923.0000      0.0000    425.5273      8.3876      0.0678
  1923.2500      0.0000    430.8254      8.3095      0.0087
  1923.5000      0.0000    436.0880      8.2148      0.0000
  1923.7500      0.0000    444.8379      8.1124   -999.2500
  1924.0000      0.0000    458.3547      8.0236   -999.2500
  1924.2500      0.0000    471.9477      7.9685   -999.2500
  1924.5000      0.0000    477.6607      7.9546   -999.2500
  1924.7500      0.0000    474.0887      7.9689   -999.2500
  1925.0000      0.0000    472.5338      7.9832   -999.2500
  1925.2500      0.0000    489.0865      7.9704   -999.2500
  1925.5000      0.0000    527.8008      7.9015   -999.2500
  1925.7500      0.0000    570.5214      7.7041   -999.2500
  1926.0000      0.0000    583.5194      7.2271   -999.2500
  1926.2500      0.0000    538.1411      6.3022   -999.2500
  1926.5000      0.0000    432.0500      4.9117   -999.2500
  1926.7500      0.0000    294.1637      3.3005   -999.2500
  1927.0000      0.0000    166.4141      1.8585   -999.2500
  1927.2500      0.0000     76.9748      0.8588   -999.2500
  1927.5000      0.0000     28.7523      0.3209   -999.2500
  1927.7500      0.0000      8.5910      0.0959   -999.2500
  1928.0000      0.0000      2.0351      0.0227   -999.2500
  1928.2500      0.0000      0.3767      0.0042   -999.2500
  1928.5000      0.0000      0.0501      0.0006   -999.2500
  1928.7500      0.0000   -999.2500   -999.2500   -999.2500
  1929.0000      0.0000   -999.2500   -999.2500   -999.2500
  1929.2500      0.0000   -999.2500   -999.2500   -999.2500
  1929.5000      0.0000   -999.2500   -999.2500   -999.2500
  1929.7500      0.0000   -999.2500   -999.2500   -999.2500
  1930.0000      0.0000   -999.2500   -999.2500   -999.2500
  1930.2500      0.0000   -999.2500   -999.2500   -999.2500
  1930.5000      0.0000   -999.2500   -999.2500   -999.2500
  1930.7500      0.0000   -999.2500   -999.2500   -999.2500
  1931.0000      0.0000   -999.2500   -999.2500   -999.2500
  1931.2500      0.0000   -999.2500   -999.2500   -999.2500
  1931.5000      0.0000   -999.2500   -999.2500   -999.2500
  1931.7500      0.0000   -999.2500   -999.2500   -999.2500
  1932.0000      0.0000   -999.2500   -999.2500   -999.2500
  1932.2500      0.0000   -999.2500   -999.2500   -999.2500
  1932.5000      0.0000   -999.2500   -999.2500   -999.2500
  1932.7500      0.0000   -999.2500   -999.2500   -999.2500
