~Version Information
VERS.                      2.0: CWLS Log ASCII Standard - VERSION 2.0
WRAP.                       NO: One line per depth step
~Well Information Block
STRT.FT               -10.2500: 
STOP.FT              2871.7500: 
STEP.FT                 0.2500: 
NULL.                -999.2500: 
COMP.          Pioneer Natural Resources: COMPANY
WELL.          Grey Goose 33-30: WELL
FLD.           Purgatorie River: FIELD
LOC.           2136' FSL & 2065' FEL--: LOCATION
STAT.                       CO: State
CNTY.               Las Animas: COUNTY
CTRY. USA : Country
SECT. 30  : Section
TOWN. 32S : Township
RANG. 67W : Range
SRVC.          Patterson Wireline: SERVICE COMPANY
DATE.          Tue Dec 06 12:24:57 2005: LOG DATE
API.            05 071 0854600: UNIQUE WELL ID
~Curve Information Block
DEPT.FT            0 000 00 00: Depth
CCL.                          : Casing Collar Locator
TT3.usec                      : CBL 3' Travel Time
AMP3.mV                       : CBL 3' Amplitude
GR.GAPI                       : Gamma Ray
~Parameter Information Block
~A  Depth       CCL         TT3         AMP3         GR     
# ...
  2066.7500      0.0000    748.2239      5.7424     72.0080
  2067.0000      0.0000    755.1328      5.8040     67.2762
  2067.2500      0.0000    762.4049      5.8803     63.0392
  2067.5000      0.0000    768.2578      5.8992     60.2354
  2067.7500      0.0000    773.0388      5.8159     59.5529
  2068.0000      0.0000    778.0123      5.6376     61.9211
  2068.2500      0.0000    783.6630      5.4091     68.5861
  2068.5000      0.0000    788.1636      5.1824     80.2205
  2068.7500      0.0000    786.2473      4.9971     95.8376
  2069.0000      0.0000    770.7045      4.8746    112.7666
  2069.2500      0.0000    739.0927      4.8197    128.1395
  2069.5000      0.0000    701.2910      4.8248    140.7098
  2069.7500      0.0000    676.9206      4.8726    150.9144
  2070.0000      0.0000    680.0617      4.9416    158.8843
  2070.2500      0.0000    706.3143      5.0162    163.0551
  2070.5000      0.0000    737.1807      5.0900    161.5134
  2070.7500      0.0000    755.5715      5.1589    154.4980
  2071.0000      0.0000    754.3681      5.2168    144.8007
  2071.2500      0.0000    733.0997      5.2606    135.7110
  2071.5000      0.0000    693.1081      5.2915    129.1918
  2071.7500      0.0000    638.8623      5.3077    125.9372
  2072.0000      0.0000    581.4645      5.3028    126.0020
  2072.2500      0.0000    537.2720      5.2728    128.5610
  2072.5000      0.0000    521.0907      5.2224    131.5900
  2072.7500      0.0000    538.7556      5.1641    132.7712
  2073.0000      0.0000    582.3796      5.1133    131.2822
  2073.2500      0.0000    630.8228      5.0828    128.7266
  2073.5000      0.0000    658.8984      5.0800    128.0780
  2073.7500      0.0000    652.6885      5.1071    131.3454
  2074.0000      0.0000    618.4221      5.1599    137.7762
  2074.2500      0.0000    575.5742      5.2262    144.0909
  2074.5000      0.0000    541.2178      5.2888    146.8983
  2074.7500      0.0000    520.9461      5.3305    145.3487
  2075.0000      0.0000    511.7061      5.3405    141.3850
  2075.2500      0.0000    509.3864      5.3195    137.5939
  2075.5000      0.0000    513.4907      5.2832    135.1181
  2075.7500      0.0000    527.0930      5.2595    133.1918
  2076.0000      0.0000    553.3192      5.2773    130.0304
  2076.2500      0.0000    590.9274      5.3541    124.4985
  2076.5000      0.0000    632.9333      5.4879    117.3537
  2076.7500      0.0000    670.4283      5.6576    110.3564
  2077.0000      0.0000    698.0164      5.8293    104.0763
  2077.2500      0.0000    715.7540      5.9684     97.5089
  2077.5000      0.0000    727.0819      6.0551     90.0509
  2077.7500      0.0000    735.8197      6.0915     82.6719
  2078.0000      0.0000    744.2292      6.0958     76.7211
  2078.2500      0.0000    752.4819      6.0889     72.6838
  2078.5000      0.0000    759.4606      6.0835     70.5339
  2078.7500      0.0000    764.1219      6.0783     70.2206
  2079.0000      0.0000    766.1793      6.0608     71.4110
  2079.2500      0.0000    765.7192      6.0181     73.8210
  2079.5000      0.0000    762.7068      5.9471     78.2343
  2079.7500      0.0000    757.2743      5.8571     86.1973
  2080.0000      0.0000    750.3503      5.7625     97.8533
  2080.2500      0.0000    743.3257      5.6755    110.5022
  2080.5000      0.0000    737.1260      5.6032    120.0730
  2080.7500      0.0000    732.7344      5.5484    124.2213
  2081.0000      0.0000    732.5454      5.5137    123.8989
  2081.2500      0.0000    739.0288      5.5063    122.0113
  2081.5000      0.0000    751.1285      5.5405    120.7102
  2081.7500      0.0000    763.7810      5.6302    119.8502
  2082.0000      0.0000    772.1022      5.7772    117.7958
  2082.2500      0.0000    775.0565      5.9637    113.6556
  2082.5000      0.0000    774.7737      6.1587    108.5312
  2082.7500      0.0000    773.6959      6.3371    104.3378
  2083.0000      0.0000    773.0862      6.4897    101.6961
  2083.2500      0.0000    773.3110      6.6124     99.5578
  2083.5000      0.0000    774.3716      6.6914     96.7534
  2083.7500      0.0000    775.6536      6.7082     93.1655
  2084.0000      0.0000    775.2671      6.6549     89.3360
  2084.2500      0.0000    770.5092      6.5396     85.9044
  2084.5000      0.0000    759.9622      6.3783     83.9031
  2084.7500      0.0000    744.7354      6.1918     85.0325
  2085.0000      0.0000    726.2502      6.0076     90.9574
  2085.2500      0.0000    703.2417      5.8536    102.0589
  2085.5000      0.0000    673.9008      5.7444    116.7372
  2085.7500      0.0000    642.4091      5.6749    131.8031
  2086.0000      0.0000    620.6625      5.6291    143.6952
  2086.2500      0.0000    619.7033      5.5917    150.1907
  2086.5000      0.0000    638.9675      5.5503    151.9793
  2086.7500      0.0000    665.6961      5.4903    152.6600
  2087.0000      0.0000    685.2119      5.4038    156.3113
  2087.2500      0.0000    690.9583      5.3115    164.2746
  2087.5000      0.0000    685.7603      5.2623    173.9206
  2087.7500      0.0000    676.1931      5.2978    180.4989
  2088.0000      0.0000    667.2111      5.4220    180.7109
  2088.2500      0.0000    661.2960      5.6089    175.0661
  2088.5000      0.0000    660.3202      5.8252    166.7031
  2088.7500      0.0000    666.4865      6.0459    158.1869
  2089.0000      2.0000    680.4836      6.2608    150.2245
  2089.2500      2.0000    698.2562      6.4642    143.2071
  2089.5000      0.0000    711.3284      6.6454    138.6132
  2089.7500      0.0000    712.9045      6.8040    138.1908
  2090.0000      0.0000    703.8068      6.9593    142.1912
  2090.2500      0.0000    691.0609      7.1103    149.0966
  2090.5000      0.0000    680.8124      7.2063    157.0155
  2090.7500      0.0000    673.3140      7.2103    164.5470
  2091.0000      0.0000    664.3643      7.1702    170.0784
  2091.2500      0.0000    651.0399      7.1707    171.5445
  2091.5000      0.0000    637.0340      7.2332    168.1901
  2091.7500      0.0000    632.6869      7.3132    162.1414
  2092.0000      0.0000    647.4320      7.3711    157.0724
  2092.2500      0.0000    680.2793      7.4057    155.2412
  2092.5000      0.0000    718.3638      7.4331    156.2072
  2092.7500      0.0000    745.8256      7.4628    157.9310
  2093.0000      0.0000    754.0135      7.4911    158.3179
  2093.2500      0.0000    744.6714      7.5038    156.2285
  2093.5000      0.0000    726.4323      7.4841    152.3291
  2093.7500      0.0000    709.1383      7.4188    149.1518
  2094.0000      0.0000    699.1445      7.3018    149.4233
  2094.2500      0.0000    697.2049      7.1380    153.9766
  2094.5000      0.0000    699.4667      6.9453    161.2997
  2094.7500      0.0000    700.8660      6.7522    168.6637
  2095.0000      0.0000    698.9782      6.5861    173.5358
  2095.2500      0.0000    695.5549      6.4559    174.8414
  2095.5000      0.0000    694.3297      6.3435    173.5889
  2095.7500      0.0000    697.0530      6.2182    171.7648
  2096.0000      0.0000    700.9877      6.0605    170.1177
  2096.2500      0.0000    700.2070      5.8725    167.5374
  2096.5000      0.0000    690.6476      5.6687    163.0686
  2096.7500      0.0000    674.7897      5.4681    157.7820
  2097.0000      0.0000    659.9127      5.2976    153.7163
  2097.2500      0.0000    650.4766      5.1927    151.3485
  2097.5000      0.0000    644.0688      5.1790    149.1343
  2097.7500      0.0000    636.8680      5.2469    145.5881
  2098.0000      0.0000    630.9415      5.3512    141.2090
  2098.2500      0.0000    632.8167      5.4418    138.3660
  2098.5000      0.0000    645.6785      5.4966    139.5344
  2098.7500      0.0000    666.0702      5.5282    145.1123
  2099.0000      0.0000    687.7352      5.5688    152.3493
  2099.2500      0.0000    705.6524      5.6510    156.8555
  2099.5000      0.0000    716.4342      5.7991    155.9190
  2099.7500      0.0000    718.3547      6.0279    150.4365
  2100.0000      0.0000    712.8069      6.3343    143.6100
