~Version Information
VERS.                      2.0: CWLS Log ASCII Standard - VERSION 2.0
WRAP.                       NO: One line per depth step
~Well Information Block
STRT.FT               315.0000: 
STOP.FT              1292.5000: 
STEP.FT                 0.1000: 
NULL.                -999.2500: 
COMP.          Pioneer Natural Resources: COMPANY
WELL.          Hot Tomatoes 22-20: WELL
FLD.           Purgatoire River: FIELD
LOC.           2120' FNL & 2585' FWL: LOCATION
CNTY.               Las Animas: COUNTY
SRVC.                Patterson: SERVICE COMPANY
DATE.          Mon Feb 27 07:06:41 2006: LOG DATE
UWI.           05 071 08701 00: UNIQUE WELL ID
STAT.                 Colorado: STATE
~Curve Information Block
DEPT.FT            0 000 00 00: Depth
DCAL.in                       : CDL Caliper
RHOB.g/cc                     : CDL Bulk Density
RHOC.g/cc                     : CDL Density Correction
DPOR.pu                       : CDL Density Porosity
GR.GAPI                       : Gamma Ray
NPOR.pu                       : Neutron Porosity
~Parameter Information Block
~A  Depth       DCAL        RHOB        RHOC        DPOR         GR         NPOR    
# ...
   823.8000      7.9303      2.5915      0.0750      3.5476    128.8335     20.7119
   823.9000      7.9303      2.6092      0.0729      2.4729    125.6255     21.1539
   824.0000      7.9273      2.6295      0.0725      1.2437    120.9899     21.3253
   824.1000      7.9273      2.6457      0.0804      0.2623    121.7747     21.2882
   824.2000      7.9273      2.6407      0.0631      0.5647    124.2006     21.3202
   824.3000      7.9226      2.6201     -0.0190      1.8150    119.2025     21.6173
   824.4000      7.9226      2.6117      0.0736      2.3238    109.8874     22.4700
   824.5000      7.9252      2.6282      0.0052      1.3193    107.7218     23.4403
   824.6000      7.9252      2.6625      0.0667     -0.7577    109.8279     23.5299
   824.7000      7.9252      2.7012      0.0433     -3.1056    109.1643     22.9714
   824.8000      7.9299      2.7307      0.0911     -4.8932    109.6807     22.6067
   824.9000      7.9299      2.7344      0.0641     -5.1168    109.6432     22.1675
   825.0000      7.9378      2.7107     -0.0178     -3.6771    104.8437     21.3732
   825.1000      7.9378      2.6730      0.0070     -1.3955    101.5514     20.9770
   825.2000      7.9378      2.6355     -0.0454      0.8793    102.6873     21.3485
   825.3000      7.9456      2.6068     -0.0180      2.6165     99.8516     21.8847
   825.4000      7.9456      2.5877     -0.0380      3.7757     92.5714     21.9202
   825.5000      7.9522      2.5700     -0.0197      4.8462     90.3618     21.1604
   825.6000      7.9522      2.5408      0.0146      6.6179     92.6034     20.3396
   825.7000      7.9522      2.5083     -0.1019      8.5849     96.3185     20.8298
   825.8000      7.9600      2.5006     -0.0566      9.0542    103.0301     22.0599
   825.9000      7.9600      2.5194     -0.0387      7.9137    109.6010     22.2508
   826.0000      7.9577      2.5412      0.0682      6.5960    113.7528     21.5579
   826.1000      7.9577      2.5500     -0.0146      6.0591    115.0632     21.3825
   826.2000      7.9577      2.5471      0.0377      6.2381    113.8673     22.5205
   826.3000      7.9556      2.5416     -0.0035      6.5701    113.6865     24.2405
   826.4000      7.9556      2.5434      0.0379      6.4632    117.2698     24.6923
   826.5000      7.9430      2.5488      0.0272      6.1349    122.1000     23.2944
   826.6000      7.9430      2.5509      0.0484      6.0080    125.7552     21.4539
   826.7000      7.9430      2.5536      0.0107      5.8434    132.3623     20.5185
   826.8000      7.9356      2.5560      0.0667      5.6979    139.7842     20.5530
   826.9000      7.9356      2.5513      0.0402      5.9788    140.2789     21.2751
   827.0000      7.9351      2.5518     -0.0190      5.9535    134.1346     22.3605
   827.1000      7.9351      2.5713      0.0344      4.7717    126.6087     22.9405
   827.2000      7.9351      2.5977      0.0794      3.1688    122.5484     22.5483
   827.3000      7.9381      2.6100      0.0466      2.4230    123.6231     22.1673
   827.4000      7.9381      2.6001      0.0683      3.0246    123.2490     22.6815
   827.5000      7.9456      2.5771      0.0477      4.4209    119.5933     23.5855
   827.6000      7.9456      2.5574      0.0330      5.6110    118.5059     24.6559
   827.7000      7.9456      2.5494      0.0562      6.0942    117.6000     25.5866
   827.8000      7.9415      2.5566      0.0017      5.6601    117.0498     25.2681
   827.9000      7.9415      2.5729      0.0671      4.6720    123.2486     23.9191
   828.0000      7.9472      2.5776      0.0564      4.3868    130.0747     22.7671
   828.1000      7.9472      2.5609      0.0151      5.4021    127.0262     22.2487
   828.2000      7.9472      2.5323      0.0427      7.1327    119.8947     22.4622
   828.3000      7.9434      2.5030      0.0511      8.9065    122.0514     22.9208
   828.4000      7.9434      2.4846     -0.0176     10.0235    131.7921     22.7900
   828.5000      7.9437      2.4935     -0.0426      9.4836    138.3185     22.3165
   828.6000      7.9437      2.5277      0.0466      7.4101    139.6987     22.1973
   828.7000      7.9437      2.5568      0.0928      5.6491    139.1508     22.4703
   828.8000      7.9460      2.5608      0.0457      5.4077    136.3956     22.8444
   828.9000      7.9460      2.5522      0.0452      5.9264    133.8354     22.9713
   829.0000      7.9381      2.5477      0.0415      6.2005    137.7518     22.9570
   829.1000      7.9381      2.5552      0.0367      5.7484    148.4272     22.8714
   829.2000      7.9381      2.5748      0.0735      4.5549    157.2691     22.5402
   829.3000      7.9360      2.5878      0.0924      3.7684    158.0818     22.3332
   829.4000      7.9360      2.5776      0.0498      4.3868    155.9438     22.3968
   829.5000      7.9424      2.5600      0.0357      5.4536    155.9705     22.1641
   829.6000      7.9424      2.5571      0.0360      5.6277    154.5019     21.7289
   829.7000      7.9424      2.5609      0.0614      5.3974    150.1376     21.8802
   829.8000      7.9431      2.5483      0.0611      6.1631    146.1137     22.6229
   829.9000      7.9431      2.5242      0.0117      7.6272    140.0586     22.8254
   830.0000      7.9419      2.5166     -0.0029      8.0851    130.5028     22.2019
   830.1000      7.9419      2.5356     -0.0157      6.9355    121.9578     21.4854
   830.2000      7.9419      2.5618      0.0553      5.3445    118.9229     21.1575
   830.3000      7.9427      2.5669      0.0356      5.0379    123.9668     21.6401
   830.4000      7.9427      2.5469      0.0246      6.2488    130.7714     22.7584
   830.5000      7.9398      2.5296     -0.0294      7.2941    126.5770     23.1397
   830.6000      7.9398      2.5330     -0.0035      7.0924    113.7574     22.0688
   830.7000      7.9398      2.5420      0.0806      6.5466    106.8190     20.7043
   830.8000      7.9374      2.5417      0.0208      6.5626    108.3711     20.2278
   830.9000      7.9374      2.5378      0.0123      6.8029    109.2128     20.8423
   831.0000      7.9412      2.5384     -0.0124      6.7656    107.8840     21.6141
   831.1000      7.9412      2.5421      0.0270      6.5380    109.9952     21.5324
   831.2000      7.9412      2.5471      0.0252      6.2359    113.9526     20.8490
   831.3000      7.9458      2.5566      0.0429      5.6584    114.4047     20.2463
   831.4000      7.9458      2.5614      0.0676      5.3679    110.3611     19.9675
   831.5000      7.9385      2.5459      0.0767      6.3102    107.5312     20.1875
   831.6000      7.9385      2.5183      0.0118      7.9837    111.7477     20.5172
   831.7000      7.9385      2.5043      0.0028      8.8321    117.9707     20.4745
   831.8000      7.9351      2.5110      0.0049      8.4241    119.3817     20.4422
   831.9000      7.9351      2.5240      0.0427      7.6343    119.9497     20.4959
   832.0000      7.9378      2.5351     -0.0450      6.9658    124.8162     20.0628
   832.1000      7.9378      2.5432      0.0695      6.4745    130.9465     18.9486
   832.2000      7.9378      2.5495     -0.0019      6.0906    133.5451     17.8839
   832.3000      7.9369      2.5646      0.0339      5.1762    130.2742     18.4319
   832.4000      7.9369      2.5819      0.0708      4.1259    124.2929     20.8074
   832.5000      7.9369      2.5817      0.0472      4.1387    121.7414     22.6145
   832.6000      7.9369      2.5654      0.0364      5.1257    123.5193     22.3788
   832.7000      7.9369      2.5524     -0.0114      5.9177    128.2555     21.4881
   832.8000      7.9352      2.5466      0.0626      6.2656    135.2051     21.0592
   832.9000      7.9352      2.5352      0.0451      6.9575    138.8495     21.0256
   833.0000      7.9167      2.5232     -0.0117      7.6850    134.0947     21.0611
   833.1000      7.9167      2.5245     -0.0024      7.6066    128.8695     20.9072
   833.2000      7.9167      2.5292      0.0360      7.3207    130.0489     20.5214
   833.3000      7.9443      2.5201      0.0235      7.8703    132.6292     19.9263
