~Version Information
VERS.                      2.0: CWLS Log ASCII Standard - VERSION 2.0
WRAP.                       NO: One line per depth step
~Well Information Block
STRT.FT                -8.5000: 
STOP.FT              2591.0000: 
STEP.FT                 0.2500: 
NULL.                -999.2500: 
COMP.          Pioneer Natural Resources: COMPANY
WELL.             Aviator 12-4: WELL
FLD.           Purgatorie River: FIELD
LOC.           1969' FNL & 732' FWL--: LOCATION
CNTY.               Las Animas: COUNTY
SRVC.          Patterson Wireline: SERVICE COMPANY
DATE.          Wed Apr 19 09:09:26 2006: LOG DATE
UWI.           05 071 08714 00: UNIQUE WELL ID
STAT.                       CO: STATE
~Curve Information Block
DEPT.FT            0 000 00 00: Depth
CCL.                          : Casing Collar Locator
TT3.usec                      : CBL 3' Travel Time
AMP3.mV                       : CBL 3' Amplitude
GR.GAPI                       : Gamma Ray
~Parameter Information Block
~A  Depth       CCL         TT3         AMP3         GR     
# ...
   695.0000      0.0000    696.7959     12.3528    100.4756
   695.2500      0.0000    709.0775     12.1173    100.3922
   695.5000     -2.0000    704.1823     11.9734     98.2206
   695.7500      0.0000    683.4387     11.8945     94.1908
   696.0000      0.0000    649.4360     11.9743     89.1132
   696.2500      0.0000    606.6960     12.3599     84.1471
   696.5000      0.0000    561.3279     13.0867     80.1640
   696.7500      0.0000    520.7523     13.9384     77.3317
   697.0000      0.0000    491.8298     14.5421     75.5919
   697.2500      0.0000    474.4570     14.6780     75.0227
   697.5000      0.0000    458.8281     14.4476     75.2031
   697.7500      0.0000    435.1059     14.1101     74.9356
   698.0000      0.0000    404.5202     13.8325     73.3098
   698.2500      0.0000    376.6805     13.6323     70.6680
   698.5000      0.0000    358.6352     13.4726     68.1380
   698.7500      0.0000    350.3087     13.3341     66.5120
   699.0000      0.0000    348.4562     13.2167     65.7258
   699.2500      0.0000    351.8332     13.1194     65.2017
   699.5000      0.0000    363.6986     13.0382     64.5423
   699.7500      0.0000    390.6825     12.9688     63.9339
   700.0000      0.0000    436.6474     12.9041     63.9579
   700.2500      0.0000    493.7607     12.8326     65.0053
   700.5000      0.0000    541.8833     12.7455     66.8805
   700.7500      0.0000    563.2253     12.6443     69.0871
   701.0000      0.0000    558.5641     12.5393     71.3518
   701.2500      0.0000    545.3464     12.4418     73.5133
   701.5000      0.0000    542.6008     12.3577     74.9597
   701.7500      0.0000    562.0360     12.2842     74.7606
   702.0000      0.0000    606.6549     12.2130     72.6702
   702.2500      0.0000    668.3983     12.1393     69.7958
   702.5000      0.0000    729.9748     12.0685     68.0168
   702.7500      0.0000    775.9059     12.0147     68.5546
   703.0000      0.0000    801.9552     11.9911     70.9734
   703.2500      0.0000    813.3911     11.9990     73.6853
   703.5000      0.0000    817.4915     12.0262     75.5843
   703.7500      0.0000    818.9868     12.0537     77.1559
   704.0000      0.0000    819.8388     12.0670     79.9991
   704.2500      0.0000    820.5182     12.0630     85.3504
   704.5000      0.0000    821.0396     12.0469     92.8482
   704.7500      0.0000    821.3829     12.0259    100.2532
   705.0000      0.0000    821.5679     12.0045    104.4093
   705.2500      0.0000    821.6489     11.9848    103.3781
   705.5000      0.0000    821.6990     11.9650     98.2552
   705.7500      0.0000    821.7996     11.9366     92.4869
   706.0000      0.0000    822.0101     11.8828     89.0583
   706.2500      0.0000    822.3254     11.7847     88.6113
   706.5000      0.0000    822.6471     11.6326     90.0625
   706.7500      0.0000    822.7191     11.4319     92.1332
   707.0000      0.0000    821.9268     11.1986     94.2041
   707.2500      0.0000    818.9825     10.9519     96.4313
   707.5000      0.0000    812.0049     10.7131     99.2154
   707.7500      0.0000    799.9380     10.5050    102.3346
   708.0000      0.0000    784.9936     10.3463    104.7456
   708.2500      0.0000    773.2689     10.2419    105.2378
   708.5000      0.0000    770.9811     10.1833    103.0797
   708.7500      0.0000    778.9478     10.1564     98.3490
   709.0000      0.0000    791.4000     10.1496     92.1168
   709.2500      0.0000    800.8169     10.1524     86.0763
   709.5000      0.0000    803.6860     10.1514     81.4101
   709.7500      0.0000    801.8536     10.1339     77.8122
   710.0000      0.0000    799.5029     10.0964     73.8520
   710.2500      0.0000    799.6747     10.0475     68.5905
   710.5000      0.0000    802.9926     10.0010     62.7525
   710.7500      0.0000    808.2740      9.9648     58.0861
   711.0000      0.0000    813.6924      9.9347     55.8026
   711.2500      0.0000    817.7772      9.8979     55.8955
   711.5000      0.0000    819.7847      9.8387     57.5219
   711.7500      0.0000    819.1545      9.7433     59.4831
   712.0000      0.0000    815.1204      9.5997     60.6182
   712.2500      0.0000    808.0242      9.3993     60.4534
   712.5000      0.0000    800.8464      9.1437     59.7455
   712.7500      0.0000    797.5917      8.8484     60.0804
   713.0000      0.0000    799.2420      8.5322     62.5809
   713.2500      0.0000    802.2683      8.2030     67.0152
   713.5000      0.0000    801.5784      7.8573     72.2701
   713.7500      0.0000    794.3378      7.4951     77.4692
   714.0000      0.0000    781.2277      7.1306     82.5396
   714.2500      0.0000    765.3464      6.7898     87.9400
   714.5000      0.0000    750.4566      6.5012     93.9338
   714.7500      0.0000    739.6077      6.2878     99.9678
   715.0000      0.0000    734.4869      6.1628    104.7770
   715.2500      0.0000    735.4305      6.1303    107.5157
   715.5000      0.0000    741.4515      6.1921    109.0149
   715.7500      0.0000    750.1327      6.3498    111.5515
   716.0000      0.0000    758.7278      6.5983    116.9822
   716.2500      0.0000    766.8393      6.9196    125.0958
   716.5000      0.0000    777.4663      7.2932    133.6086
   716.7500      0.0000    793.5262      7.7124    139.5635
   717.0000      0.0000    813.2921      8.1813    141.2130
   717.2500      0.0000    830.8691      8.6901    139.2201
   717.5000      0.0000    841.2866      9.1978    135.9386
   717.7500      0.0000    843.9269      9.6475    133.3027
   718.0000      0.0000    841.3712      9.9994    131.8128
   718.2500      0.0000    836.6663     10.2502    131.5371
   718.5000      0.0000    831.9911     10.4240    133.1539
   718.7500      0.0000    828.4945     10.5478    137.3875
   719.0000      0.0000    826.3989     10.6324    143.6883
   719.2500      0.0000    825.3257     10.6738    149.7686
   719.5000      0.0000    824.7856     10.6720    152.7667
   719.7500      0.0000    824.4456     10.6516    151.3810
   720.0000      0.0000    824.0987     10.6608    146.8714
   720.2500      0.0000    823.5342     10.7474    141.7530
   720.5000      0.0000    822.4536     10.9284    137.8647
   720.7500      0.0000    820.5519     11.1816    135.8002
   721.0000      0.0000    817.9348     11.4613    135.2181
   721.2500      0.0000    815.5510     11.7231    135.0127
   721.5000      0.0000    814.8286     11.9413    133.6920
   721.7500      0.0000    816.4477     12.1116    130.1445
   722.0000      0.0000    819.6046     12.2421    123.8431
   722.2500      0.0000    822.7426     12.3397    114.4909
   722.5000      0.0000    824.8168     12.3996    102.3728
   722.7500      0.0000    825.7331     12.4028     89.1526
   723.0000      0.0000    825.9411     12.3240     77.3848
   723.2500      0.0000    825.9219     12.1486     68.7736
   723.5000      0.0000    825.9453     11.8852     63.3997
   723.7500      0.0000    826.0461     11.5624     60.7424
   724.0000      0.0000    826.0640     11.2145     60.7415
   724.2500      0.0000    825.6183     10.8717     63.5451
   724.5000      0.0000    823.9964     10.5605     68.6177
   724.7500      0.0000    820.2595     10.3042     74.4218
   725.0000      0.0000    814.0431     10.1178     79.1416
   725.2500      0.0000    806.7858     10.0029     81.9818
   725.5000      0.0000    801.7935      9.9486     83.6954
   725.7500      0.0000    802.0024      9.9389     85.6867
   726.0000      0.0000    807.3003      9.9618     88.6924
   726.2500      0.0000    814.5847     10.0115     92.6283
   726.5000      0.0000    820.5182     10.0839     97.4748
   726.7500      0.0000    823.7646     10.1755    103.4433
   727.0000      0.0000    824.8619     10.2894    109.8054
   727.2500      0.0000    824.9040     10.4354    114.3484
   727.5000      0.0000    824.6588     10.6178    115.0987
   727.7500      0.0000    824.4339     10.8250    112.5773
   728.0000      0.0000    824.2650     11.0332    109.5776
   728.2500      0.0000    824.1136     11.2192    108.5181
