~Version Information
VERS.                      2.0: CWLS Log ASCII Standard - VERSION 2.0
WRAP.                       NO: One line per depth step
~Well Information Block
STRT.FT               555.0000: 
STOP.FT              2286.5000: 
STEP.FT                 0.1000: 
NULL.                -999.2500: 
COMP.          Pioneer Natural Resources: COMPANY
WELL.          Roadster 41-33 Kv: WELL
FLD.           Purgatoire River: FIELD
LOC.           903' FNL & 248' FEL: LOCATION
PROV.                 Colorado: PROVINCE
CNTY.               Las Animas: COUNTRY
SRVC.                Patterson: SERVICE COMPANY
DATE.          Thu Dec 15 10:28:25 2005: LOG DATE
UWI.           05 071 08615 00: UNIQUE WELL ID
~Curve Information Block
DEPT.FT            0 000 00 00: Depth
DCAL.in                       : CDL Caliper
RHOB.g/cc                     : CDL Bulk Density
RHOC.g/cc                     : CDL Density Correction
DPOR.pu                       : CDL Density Porosity
GR.GAPI                       : Gamma Ray
NPOR.pu                       : Neutron Porosity
~Parameter Information Block
~A  Depth       DCAL        RHOB        RHOC        DPOR         GR         NPOR    
# ...
   785.4000      7.9310      2.4947      0.0013      9.4112     65.3515     18.1627
   785.5000      7.9325      2.4785     -0.0166     10.3951     68.2173     18.5435
   785.6000      7.9325      2.4615      0.0166     11.4214     74.4761     19.1968
   785.7000      7.9325      2.4444     -0.0114     12.4626     76.1554     19.9508
   785.8000      7.9365      2.4431     -0.0314     12.5384     71.2026     20.4628
   785.9000      7.9365      2.4654      0.0386     11.1900     66.0733     20.8741
   786.0000      7.9446      2.4973      0.0124      9.2553     66.2824     21.4596
   786.1000      7.9446      2.5228      0.0543      7.7066     67.0414     22.0797
   786.2000      7.9446      2.5364      0.0313      6.8821     64.8322     22.3175
   786.3000      7.9454      2.5481      0.0549      6.1780     65.0007     22.0594
   786.4000      7.9454      2.5656      0.0526      5.1175     70.1705     21.3710
   786.5000      7.9488      2.5823      0.0617      4.1054     74.1395     20.6420
   786.6000      7.9488      2.5927      0.0353      3.4704     74.6945     20.1316
   786.7000      7.9488      2.5985      0.0486      3.1198     74.1785     19.6712
   786.8000      7.9536      2.6033      0.0084      2.8329     74.2603     19.2392
   786.9000      7.9536      2.6073      0.0680      2.5872     75.4398     18.7448
   787.0000      7.9544      2.6013      0.0634      2.9543     76.9076     17.8996
   787.1000      7.9544      2.5800      0.0434      4.2437     77.9705     17.0047
   787.2000      7.9544      2.5538      0.0446      5.8288     75.7957     16.6478
   787.3000      7.9541      2.5336      0.0292      7.0571     69.6784     16.7274
   787.4000      7.9541      2.5185      0.0380      7.9671     63.6048     16.6915
   787.5000      7.9535      2.5006      0.0221      9.0570     58.4141     16.5857
   787.6000      7.9535      2.4761      0.0071     10.5407     52.7176     16.5248
   787.7000      7.9535      2.4537     -0.0085     11.8956     48.0765     16.2520
   787.8000      7.9545      2.4504     -0.0144     12.0980     46.4062     16.0215
   787.9000      7.9545      2.4655      0.0541     11.1839     47.7130     16.0448
   788.0000      7.9556      2.4752      0.0308     10.5954     49.9644     15.8264
   788.1000      7.9556      2.4730      0.0178     10.7301     50.3147     15.1029
   788.2000      7.9556      2.4719      0.0497     10.7967     47.4843     14.6385
   788.3000      7.9556      2.4734      0.0237     10.7057     44.7982     15.1575
   788.4000      7.9556      2.4675      0.0282     11.0583     44.9375     16.0213
   788.5000      7.9551      2.4514      0.0311     12.0342     45.4108     16.1960
   788.6000      7.9551      2.4390      0.0163     12.7875     45.7090     15.7400
   788.7000      7.9551      2.4444      0.0318     12.4610     47.6835     15.1640
   788.8000      7.9559      2.4640      0.0703     11.2715     50.2627     14.8902
   788.9000      7.9559      2.4841      0.0545     10.0529     54.4251     15.1655
   789.0000      7.9560      2.4951      0.0503      9.3875     61.9835     15.4874
   789.1000      7.9560      2.4933      0.0700      9.4967     69.3939     15.4945
   789.2000      7.9560      2.4767      0.0698     10.5000     70.0483     15.4132
   789.3000      7.9579      2.4511      0.0497     12.0565     63.6033     15.2340
   789.4000      7.9579      2.4336      0.0435     13.1155     57.2021     14.8664
   789.5000      7.9564      2.4298      0.0615     13.3456     53.4958     14.3505
   789.6000      7.9564      2.4247      0.0024     13.6548     50.7389     13.8034
   789.7000      7.9564      2.4022      0.0125     15.0187     49.5177     13.2118
   789.8000      7.9593      2.3508      0.0042     18.1324     50.3029     12.5088
   789.9000      7.9593      2.2671     -0.0169     23.2063     52.2742     11.8906
   790.0000      7.9650      2.1545     -0.0217     30.0280     55.1905     11.5501
   790.1000      7.9650      2.0138     -0.0127     38.5568     59.0903     11.2777
   790.2000      7.9650      1.8520     -0.0686     48.3621     62.6182     11.2264
   790.3000      7.9813      1.7080     -0.1840     57.0939     65.3004     11.9982
   790.4000      7.9813      1.6295     -0.1659     61.8488     68.5541     13.6602
   790.5000      7.9834      1.6318     -0.1341     61.7074     72.0531     15.5253
   790.6000      7.9834      1.7060     -0.0512     57.2118     75.8490     17.1833
   790.7000      7.9834      1.8400      0.0931     49.0923     81.8635     19.1112
   790.8000      7.9863      2.0118      0.3193     38.6809     88.8050     21.1424
   790.9000      7.9863      2.1812      0.4971     28.4146     92.8909     22.7196
   791.0000      7.9965      2.3184      0.4844     20.0962     94.0948     24.1537
   791.1000      7.9965      2.4252      0.4342     13.6247     96.1958     25.4698
   791.2000      7.9965      2.5048      0.3636      8.7987    100.8451     26.4441
   791.3000      7.9943      2.5522      0.2766      5.9297    104.7081     27.4269
   791.4000      7.9943      2.5720      0.1734      4.7298    105.0282     28.8007
   791.5000      7.9879      2.5800      0.1286      4.2411    106.0543     30.1353
   791.6000      7.9879      2.5901      0.1496      3.6299    111.7680     30.6213
   791.7000      7.9879      2.5958      0.1289      3.2867    115.6756     29.9816
   791.8000      7.9781      2.5776      0.1474      4.3850    111.3994     28.4490
   791.9000      7.9781      2.5342      0.0969      7.0168    104.6052     26.6593
   792.0000      7.9495      2.4909      0.0264      9.6436    103.2002     25.3839
   792.1000      7.9495      2.4731      0.0407     10.7185    103.7882     24.9717
   792.2000      7.9495      2.4800      0.0757     10.3043    101.8117     25.0998
   792.3000      7.9278      2.4959      0.0413      9.3389     99.3872     25.0939
   792.4000      7.9278      2.5146      0.0154      8.2038     99.9653     24.6443
   792.5000      7.9264      2.5306      0.0658      7.2391    105.8022     24.3702
   792.6000      7.9264      2.5328      0.0705      7.1025    115.1248     24.7455
   792.7000      7.9264      2.5260      0.0076      7.5144    124.6141     24.7056
   792.8000      7.9308      2.5244      0.0281      7.6119    132.5981     23.9256
   792.9000      7.9308      2.5216      0.0463      7.7809    136.7157     23.5236
   793.0000      7.9917      2.5023      0.0073      8.9506    134.5532     23.8222
   793.1000      7.9917      2.4746     -0.0243     10.6299    128.7356     24.3993
   793.2000      7.9917      2.4604     -0.0233     11.4902    123.1444     24.8144
   793.3000      7.9990      2.4660     -0.0103     11.1503    120.4329     25.1424
   793.4000      7.9990      2.4793      0.0124     10.3440    125.2357     25.8154
   793.5000      7.9975      2.4824      0.0331     10.1576    135.5541     26.7248
   793.6000      7.9975      2.4714     -0.0175     10.8269    141.9951     27.4478
   793.7000      7.9975      2.4632     -0.0264     11.3220    139.1600     27.8929
   793.8000      7.9968      2.4635      0.0035     11.3039    131.6193     28.2643
   793.9000      7.9968      2.4507      0.0565     12.0801    129.0639     28.1420
   794.0000      7.9968      2.4098     -0.0024     14.5564    132.9622     27.0955
   794.1000      7.9968      2.3545     -0.0318     17.9062    136.8795     25.8254
   794.2000      7.9968      2.3053     -0.0465     20.8888    138.6063     24.8710
   794.3000      7.9946      2.2743     -0.0783     22.7682    137.5949     24.1326
   794.4000      7.9946      2.2679     -0.0632     23.1590    131.9684     23.5528
   794.5000      7.9876      2.2793     -0.0363     22.4674    124.5634     23.0812
   794.6000      7.9876      2.2945     -0.0360     21.5429    122.4921     22.5670
   794.7000      7.9876      2.3102      0.0241     20.5920    130.6156     21.8985
   794.8000      7.9652      2.3296      0.0614     19.4188    143.5261     21.2201
   794.9000      7.9652      2.3569      0.1376     17.7647    150.7716     20.6358
