~Version Information
VERS.                      2.0: CWLS Log ASCII Standard - VERSION 2.0
WRAP.                       NO: One line per depth step
~Well Information Block
STRT.FT                -8.0000: 
STOP.FT              1323.7500: 
STEP.FT                 0.2500: 
NULL.                -999.2500: 
COMP.          Pioneer Natural Resources: COMPANY
WELL.              Geyser 41-2: WELL
FLD.           Purgatorie River: FIELD
LOC.           506' FNL & 1127' FEL--: LOCATION
PROV.                       CO: PROVINCE
CNTY.               Las Animas: COUNTRY
SRVC.          Patterson Wireline: SERVICE COMPANY
DATE.          Tue Dec 06 09:28:14 2005: LOG DATE
UWI.           08 071 08598 00: UNIQUE WELL ID
~Curve Information Block
DEPT.FT            0 000 00 00: Depth
CCL.                          : Casing Collar Locator
TT3.usec                      : CBL 3' Travel Time
AMP3.mV                       : CBL 3' Amplitude
GR.GAPI                       : Gamma Ray
~Parameter Information Block
~A  Depth       CCL         TT3         AMP3         GR     
# ...
  1198.0000      0.0000    776.2166      7.9266     79.0249
  1198.2500      0.0000    780.3541      7.9160     74.9348
  1198.5000      0.0000    782.4810      7.9407     69.8021
  1198.7500      0.0000    783.1426      7.9884     64.6123
  1199.0000      0.0000    783.1470      8.0450     60.1664
  1199.2500      0.0000    783.0170      8.0995     56.9590
  1199.5000      0.0000    782.8894      8.1503     54.8734
  1199.7500      0.0000    782.5906      8.2010     53.4078
  1200.0000      0.0000    781.6284      8.2507     52.3081
  1200.2500      0.0000    779.1714      8.2930     51.8281
  1200.5000      0.0000    774.4364      8.3272     52.3064
  1200.7500      0.0000    767.6004      8.3650     53.5266
  1201.0000      0.0000    760.4612      8.4251     54.5705
  1201.2500      0.0000    755.8343      8.5213     54.4659
  1201.5000      0.0000    755.8328      8.6563     53.1127
  1201.7500      0.0000    760.4293      8.8242     51.4420
  1202.0000      0.0000    767.5116      9.0163     50.5456
  1202.2500      0.0000    774.3455      9.2244     50.7799
  1202.5000      0.0000    779.1959      9.4398     51.7914
  1202.7500      0.0000    781.8882      9.6549     53.3017
  1203.0000      0.0000    783.2883      9.8623     55.6045
  1203.2500      0.0000    784.5483     10.0568     59.1520
  1203.5000      0.0000    786.6155     10.2366     63.7904
  1203.7500      0.0000    789.8839     10.3953     68.7181
  1204.0000      0.0000    794.3889     10.4966     73.3021
  1204.2500      0.0000    801.4974     10.4590     77.7641
  1204.5000      0.0000    816.2833     10.1947     82.7353
  1204.7500      0.0000    846.0355      9.6959     87.9149
  1205.0000      0.0000    892.8903      9.0857     91.3936
  1205.2500      0.0000    947.7590      8.5594     90.7529
  1205.5000      0.0000    995.1932      8.2529     85.0969
  1205.7500      0.0000   1026.0757      8.1602     76.0595
  1206.0000      2.0000   1043.8608      8.1695     66.7170
  1206.2500      0.0000   1057.0527      8.1538     59.3360
  1206.5000      0.0000   1066.4926      8.0342     54.2712
  1206.7500      0.0000   1061.9391      7.8135     51.0014
  1207.0000      0.0000   1032.3080      7.6050     49.5084
  1207.2500      0.0000    978.5305      7.6044     50.1743
  1207.5000      0.0000    915.1870      7.9503     52.8616
  1207.7500      0.0000    860.1188      8.5803     56.8160
  1208.0000      0.0000    823.4173      9.2566     61.3056
  1208.2500      0.0000    804.8815      9.7487     65.7761
  1208.5000      0.0000    798.5616      9.9758     69.5163
  1208.7500      0.0000    797.8577      9.9989     71.8293
  1209.0000      0.0000    798.0982      9.9276     72.7667
  1209.2500      0.0000    797.1708      9.8464     73.2888
  1209.5000      0.0000    795.1501      9.7930     74.2688
  1209.7500      0.0000    793.0645      9.7731     75.4112
  1210.0000      0.0000    791.6429      9.7832     75.5547
  1210.2500      0.0000    790.9369      9.8224     74.0205
  1210.5000      0.0000    790.6714      9.8888     71.2449
  1210.7500      0.0000    790.6089      9.9714     68.2822
  1211.0000      0.0000    790.6293     10.0489     66.2508
  1211.2500      0.0000    790.6755     10.0993     65.9403
  1211.5000      0.0000    790.7242     10.1114     67.2096
  1211.7500      0.0000    790.7748     10.0880     68.9815
  1212.0000      0.0000    790.7972     10.0383     70.2854
  1212.2500      0.0000    790.6398      9.9673     71.0424
  1212.5000      0.0000    789.9897      9.8738     71.7577
  1212.7500      0.0000    788.5193      9.7562     72.8743
  1213.0000      0.0000    786.2748      9.6178     74.5008
  1213.2500      0.0000    784.0033      9.4659     76.4930
  1213.5000      0.0000    782.8355      9.3106     78.6726
  1213.7500      0.0000    783.3371      9.1693     80.7835
  1214.0000      0.0000    784.9658      9.0675     82.2039
  1214.2500      0.0000    786.6386      9.0283     82.0578
  1214.5000      0.0000    787.6655      9.0555     79.8623
  1214.7500      0.0000    788.0264      9.1244     76.0885
  1215.0000      0.0000    788.0286      9.1912     72.1458
  1215.2500      0.0000    787.9469      9.2126     69.6760
  1215.5000      0.0000    787.9023      9.1645     69.3659
  1215.7500      0.0000    787.8967      9.0492     70.2537
  1216.0000      0.0000    787.8909      8.8891     70.6393
  1216.2500      0.0000    787.8763      8.7141     69.9115
  1216.5000      0.0000    787.9014      8.5515     69.1221
  1216.7500      0.0000    788.0579      8.4229     69.6581
  1217.0000      0.0000    788.4589      8.3435     71.8961
  1217.2500      0.0000    789.2610      8.3199     75.3217
  1217.5000      0.0000    790.7732      8.3521     79.3646
  1217.7500      0.0000    793.5475      8.4338     83.7796
  1218.0000      0.0000    798.1588      8.5506     88.4996
  1218.2500      0.0000    804.5829      8.6812     93.1757
  1218.5000      0.0000    811.7627      8.8075     96.6966
  1218.7500      0.0000    818.0862      8.9272     97.4897
  1219.0000      0.0000    822.4729      9.0546     94.7202
  1219.2500      0.0000    824.9242      9.2071     89.1444
  1219.5000      0.0000    826.1180      9.3922     82.7209
  1219.7500      0.0000    826.7368      9.6074     77.5170
  1220.0000      0.0000    827.1803      9.8463     74.8545
  1220.2500      0.0000    827.6154     10.1000     75.0352
  1220.5000      0.0000    828.0497     10.3518     77.6277
  1220.7500      0.0000    828.3270     10.5743     81.8773
  1221.0000      0.0000    828.1191     10.7325     86.7192
  1221.2500      0.0000    827.0757     10.7974     90.6698
  1221.5000      0.0000    825.1945     10.7649     92.2857
  1221.7500      0.0000    823.1068     10.6629     90.9980
  1222.0000      0.0000    821.7005     10.5321     87.5488
  1222.2500      0.0000    821.2338     10.3978     83.6501
  1222.5000      0.0000    821.1293     10.2644     80.9540
  1222.7500      0.0000    820.9064     10.1364     80.0755
  1223.0000      0.0000    820.8506     10.0343     80.7379
  1223.2500      0.0000    821.3029      9.9845     82.8102
  1223.5000      0.0000    821.7858      9.9982     86.5018
  1223.7500      0.0000    821.5312     10.0649     91.2606
  1224.0000      0.0000    820.6964     10.1667     95.2964
  1224.2500      0.0000    820.4175     10.2946     96.9623
  1224.5000      0.0000    821.5530     10.4513     96.3766
  1224.7500      0.0000    823.7981     10.6389     94.9289
  1225.0000      0.0000    826.1614     10.8432     93.2467
  1225.2500      0.0000    827.9409     11.0302     90.6361
  1225.5000      0.0000    829.0491     11.1621     86.6734
  1225.7500      0.0000    829.7303     11.2175     82.0910
  1226.0000      0.0000    830.2365     11.1981     77.7394
  1226.2500      0.0000    830.6960     11.1177     73.8128
  1226.5000      0.0000    831.1118     10.9910     70.4237
  1226.7500      0.0000    831.4193     10.8278     67.8993
  1227.0000      0.0000    831.5464     10.6324     66.2202
  1227.2500      0.0000    831.4307     10.4088     64.9041
  1227.5000      0.0000    831.0294     10.1687     63.6138
  1227.7500      0.0000    830.3252      9.9301     62.4370
  1228.0000      0.0000    829.2797      9.7082     61.6266
  1228.2500      0.0000    827.7283      9.5102     61.4166
  1228.5000      0.0000    825.3201      9.3399     61.9396
  1228.7500      0.0000    821.5817      9.2014     62.9839
  1229.0000      0.0000    815.9271      9.0976     63.9068
  1229.2500      0.0000    807.5649      9.0259     64.1166
  1229.5000      0.0000    796.1825      8.9744     63.6928
  1229.7500      0.0000    783.8776      8.9224     63.2640
  1230.0000      0.0000    775.8990      8.8464     63.1346
  1230.2500      0.0000    777.1418      8.7322     62.7377
  1230.5000      0.0000    786.9914      8.5897     61.2222
  1230.7500      0.0000    798.8947      8.4565     58.5212
  1231.0000      0.0000    805.6973      8.3794     55.6343
  1231.2500      0.0000    805.1047      8.3854     53.8708
