~Version Information
VERS.                      2.0: CWLS Log ASCII Standard - VERSION 2.0
WRAP.                       NO: One line per depth step
~Well Information Block
STRT.FT               335.0000: 
STOP.FT              1013.5000: 
STEP.FT                 0.1000: 
NULL.                -999.2500: 
COMP.          Pioneer Natural Resources: COMPANY
WELL.             Giggle 21-22: WELL
FLD.           Purgatoire River: FIELD
LOC.           950' FNL & 2094' FWL: LOCATION
CNTY.               Las Animas: COUNTY
SRVC.                Patterson: SERVICE COMPANY
DATE.          Thu Apr 13 09:31:38 2006: LOG DATE
UWI.           05 071 08726 00: UNIQUE WELL ID
STAT.                 Colorado: STATE
~Curve Information Block
DEPT.FT            0 000 00 00: Depth
DCAL.in                       : CDL Caliper
RHOB.g/cc                     : CDL Bulk Density
RHOC.g/cc                     : CDL Density Correction
DPOR.pu                       : CDL Density Porosity
GR.GAPI                       : Gamma Ray
NPOR.pu                       : Neutron Porosity
~Parameter Information Block
~A  Depth       DCAL        RHOB        RHOC        DPOR         GR         NPOR    
# ...
   421.4000      8.0751      2.6698      0.1222     -1.1978    107.6621     25.8236
   421.5000      8.0743      2.6579      0.0853     -0.4796    108.8227     25.3433
   421.6000      8.0743      2.6279      0.0525      1.3387    110.3390     25.2005
   421.7000      8.0743      2.6095      0.0423      2.4566    111.0473     25.0297
   421.8000      8.0728      2.6207      0.0168      1.7780    112.9140     24.6848
   421.9000      8.0728      2.6512      0.0538     -0.0720    116.6393     24.5549
   422.0000      8.0730      2.6627      0.0806     -0.7698    122.3004     24.7729
   422.1000      8.0730      2.6362      0.0315      0.8358    129.3953     25.0553
   422.2000      8.0730      2.5958      0.0426      3.2870    133.0834     25.1001
   422.3000      8.0742      2.5599      0.0761      5.4579    131.2936     24.7528
   422.4000      8.0742      2.5291      0.0154      7.3279    129.2774     24.5265
   422.5000      8.0744      2.5102     -0.0086      8.4701    130.1049     25.0750
   422.6000      8.0744      2.5072     -0.0112      8.6524    130.6523     25.9783
   422.7000      8.0744      2.5108      0.0305      8.4364    129.9510     26.4631
   422.8000      8.0749      2.5143      0.0010      8.2223    130.7540     26.4960
   422.9000      8.0749      2.5185      0.0645      7.9699    133.3098     26.3127
   423.0000      8.0740      2.5190      0.0477      7.9367    135.9815     26.3205
   423.1000      8.0740      2.5187      0.0568      7.9548    138.8645     26.6302
   423.2000      8.0740      2.5352      0.0488      6.9594    144.2601     26.5235
   423.3000      8.0732      2.5763      0.0830      4.4677    150.6320     25.7943
   423.4000      8.0732      2.6140      0.1485      2.1821    151.2470     25.2039
   423.5000      8.0747      2.6210      0.1180      1.7595    145.8418     25.1892
   423.6000      8.0747      2.6122      0.0952      2.2932    140.5821     25.3714
   423.7000      8.0747      2.6032      0.1453      2.8341    139.9562     25.1497
   423.8000      8.0735      2.5835      0.1316      4.0299    146.6568     24.2934
   423.9000      8.0735      2.5581      0.0546      5.5673    156.5917     23.3260
   424.0000      8.0723      2.5407      0.0652      6.6266    160.3371     22.9053
   424.1000      8.0723      2.5132      0.0961      8.2902    153.7391     22.9695
   424.2000      8.0723      2.4597      0.0540     11.5339    142.0864     22.6121
   424.3000      8.0767      2.3956      0.0027     15.4156    135.2727     21.6324
   424.4000      8.0767      2.3481     -0.0060     18.2959    138.7454     21.2700
   424.5000      8.0752      2.3292     -0.0227     19.4453    148.0109     21.9545
   424.6000      8.0752      2.3332     -0.0116     19.1982    154.0143     22.7998
   424.7000      8.0752      2.3512     -0.0316     18.1083    153.1413     23.4823
   424.8000      8.0756      2.3690      0.0202     17.0302    149.3723     24.4441
   424.9000      8.0756      2.3659      0.0582     17.2195    146.3265     25.3633
   425.0000      8.0746      2.3426      0.0117     18.6315    142.7426     25.5774
   425.1000      8.0746      2.3216      0.0690     19.9053    137.9561     25.0265
   425.2000      8.0746      2.3129      0.0681     20.4286    135.1917     24.2434
   425.3000      8.0756      2.3185     -0.0720     20.0892    137.7091     23.7784
   425.4000      8.0756      2.3389     -0.0300     18.8549    144.6315     23.7375
   425.5000      8.0771      2.3593      0.0380     17.6201    150.6619     23.7348
   425.6000      8.0771      2.3724      0.0309     16.8230    150.0414     23.4909
   425.7000      8.0771      2.3931      0.0797     15.5721    144.4678     23.4251
   425.8000      8.0748      2.4213      0.0548     13.8585    140.8003     23.6694
   425.9000      8.0748      2.4405      0.0762     12.6941    138.5335     23.6313
   426.0000      8.0749      2.4521      0.0702     11.9969    133.9525     23.0709
   426.1000      8.0749      2.4674      0.1118     11.0666    127.8193     22.5781
   426.2000      8.0749      2.4874      0.0876      9.8540    121.0763     22.4217
   426.3000      8.0742      2.5080      0.1062      8.6039    115.5138     22.4607
   426.4000      8.0742      2.5209      0.2000      7.8267    115.0784     22.8308
   426.5000      8.0723      2.5201      0.1530      7.8732    120.9768     23.1139
   426.6000      8.0723      2.5098      0.1394      8.4940    128.7452     22.5773
   426.7000      8.0723      2.4910      0.1007      9.6360    132.6247     21.6272
   426.8000      8.0715      2.4602      0.0718     11.5018    131.3376     21.0670
   426.9000      8.0715      2.4211      0.0203     13.8702    129.2772     21.2021
   427.0000      8.0710      2.3869      0.0342     15.9452    130.6196     21.8464
   427.1000      8.0710      2.3681     -0.0150     17.0841    134.1494     22.4719
   427.2000      8.0710      2.3662      0.0006     17.2007    137.5505     22.8464
   427.3000      8.0687      2.3743      0.0395     16.7120    140.2706     23.0166
   427.4000      8.0687      2.3861      0.0096     15.9934    141.3597     23.0189
   427.5000      8.0744      2.3934      0.0244     15.5499    141.2501     22.9684
   427.6000      8.0744      2.3855      0.0197     16.0328    139.7337     23.2031
   427.7000      8.0744      2.3782     -0.0329     16.4744    134.9538     24.0147
   427.8000      8.0742      2.3988     -0.0020     15.2242    131.4629     25.1279
   427.9000      8.0742      2.4467      0.0377     12.3220    137.0422     25.9178
   428.0000      8.0748      2.4982      0.1026      9.1991    147.2054     26.1755
   428.1000      8.0748      2.5255      0.1228      7.5448    154.6173     26.1256
   428.2000      8.0748      2.5189      0.1215      7.9444    160.4878     25.8543
   428.3000      8.0761      2.4953      0.1197      9.3772    166.0444     25.6063
   428.4000      8.0761      2.4802      0.0659     10.2895    167.5294     25.8468
   428.5000      8.0744      2.4874      0.1111      9.8566    164.0305     26.2633
   428.6000      8.0744      2.5048      0.1092      8.7987    161.8046     26.1961
   428.7000      8.0744      2.5029      0.0668      8.9164    162.4432     25.8770
   428.8000      8.0734      2.4685      0.0803     11.0011    163.2508     25.8658
   428.9000      8.0734      2.4262     -0.0083     13.5647    164.7004     26.0752
   429.0000      8.0756      2.4048     -0.0258     14.8628    164.4423     26.0662
   429.1000      8.0756      2.4016      0.0222     15.0571    160.5941     25.8379
   429.2000      8.0756      2.4029      0.0592     14.9755    155.9847     25.4823
   429.3000      8.0765      2.4149     -0.0103     14.2503    153.2881     24.9550
   429.4000      8.0765      2.4411      0.0956     12.6596    153.6708     24.3759
   429.5000      8.0748      2.4591      0.1216     11.5669    156.8766     24.0380
   429.6000      8.0748      2.4616      0.0845     11.4192    159.2923     24.0378
   429.7000      8.0748      2.4628      0.1256     11.3439    157.0601     24.0492
   429.8000      8.0758      2.4612      0.1617     11.4453    151.3023     23.8810
   429.9000      8.0758      2.4480      0.1298     12.2410    148.0358     23.6954
   430.0000      8.0743      2.4290      0.1224     13.3941    150.0540     23.6541
   430.1000      8.0743      2.4186      0.0792     14.0240    157.3121     23.7405
   430.2000      8.0743      2.4251      0.1208     13.6311    168.9095     23.8345
   430.3000      8.0744      2.4351      0.2121     13.0233    177.1672     23.9829
   430.4000      8.0744      2.4387      0.1116     12.8069    176.9854     24.4984
   430.5000      8.0752      2.4539      0.0664     11.8860    174.3345     25.3909
   430.6000      8.0752      2.4852      0.1207      9.9896    172.2769     26.2301
   430.7000      8.0752      2.5116      0.1218      8.3896    165.3545     26.8635
   430.8000      8.0745      2.5288      0.0899      7.3448    152.6543     27.1427
   430.9000      8.0745      2.5449      0.1471      6.3706    143.0911     27.1432
