~Version Information
VERS.                      2.0: CWLS Log ASCII Standard - VERSION 2.0
WRAP.                       NO: One line per depth step
~Well Information Block
STRT.FT               262.8000: 
STOP.FT              1134.7000: 
STEP.FT                 0.1000: 
NULL.                -999.2500: 
COMP.          Pioneer Natural Resources: COMPANY
WELL.          Black Cat 13-32 Tr: WELL
FLD.           Purgatoire River: FIELD
LOC.           1679' FSL & 1150' FWL--: LOCATION
CNTY.               Las Animas: COUNTY
SRVC.                Patterson: SERVICE COMPANY
DATE.          Tue Mar 07 12:42:54 2006: LOG DATE
UWI.           05 071 08721 00: UNIQUE WELL ID
STAT.                 Colorado: STATE
~Curve Information Block
DEPT.FT            0 000 00 00: Depth
DCAL.in                       : CDL Caliper
RHOB.g/cc                     : CDL Bulk Density
RHOC.g/cc                     : CDL Density Correction
DPOR.pu                       : CDL Density Porosity
GR.GAPI                       : Gamma Ray
~Parameter Information Block
~A  Depth       DCAL        RHOB        RHOC        DPOR         GR     
# ...
   990.8000      7.8706      2.5685      0.0870      4.9374     64.0303
   990.9000      7.8706      2.5619      0.0727      5.3385     66.3419
   991.0000      7.8749      2.5448      0.0372      6.3779     69.9985
   991.1000      7.8749      2.5213      0.0811      7.8024     74.1770
   991.2000      7.8749      2.4962      0.0027      9.3190     80.2350
   991.3000      7.8812      2.4852      0.0138      9.9869     89.7227
   991.4000      7.8812      2.5006      0.0001      9.0536     99.8343
   991.5000      7.8827      2.5360      0.0479      6.9106    109.6064
   991.6000      7.8827      2.5673      0.0771      5.0132    119.7868
   991.7000      7.8827      2.5788      0.0422      4.3170    126.3733
   991.8000      7.8826      2.5736      0.0547      4.6278    124.4726
   991.9000      7.8826      2.5589      0.0576      5.5204    117.3299
   992.0000      7.8833      2.5433      0.0221      6.4688    111.8081
   992.1000      7.8833      2.5370      0.0165      6.8494    111.0303
   992.2000      7.8833      2.5409      0.0112      6.6148    116.1520
   992.3000      7.8845      2.5477      0.0147      6.1990    124.1680
   992.4000      7.8845      2.5520      0.0387      5.9415    128.1122
   992.5000      7.8860      2.5550      0.0244      5.7593    126.8899
   992.6000      7.8860      2.5661      0.0515      5.0876    126.5650
   992.7000      7.8860      2.5852      0.0587      3.9256    127.3885
   992.8000      7.8854      2.5986      0.0973      3.1124    126.1992
   992.9000      7.8854      2.6019      0.0567      2.9164    125.4720
   993.0000      7.8789      2.6000      0.0882      3.0319    127.5695
   993.1000      7.8789      2.5757      0.1186      4.5016    129.2890
   993.2000      7.8789      2.5136      0.0304      8.2683    125.3538
   993.3000      7.8660      2.4410      0.0106     12.6647    115.6559
   993.4000      7.8660      2.3941     -0.0303     15.5097    105.5113
   993.5000      7.8525      2.3785      0.0137     16.4537     98.5930
   993.6000      7.8525      2.3867     -0.0159     15.9589     94.9108
   993.7000      7.8525      2.4184      0.0483     14.0384     95.9983
   993.8000      7.8430      2.4703      0.0699     10.8908    102.3400
   993.9000      7.8430      2.5313      0.1227      7.1928    109.2664
   994.0000      7.8380      2.5885      0.1430      3.7283    113.8022
   994.1000      7.8380      2.6250      0.1872      1.5155    117.8614
   994.2000      7.8380      2.6295      0.1647      1.2448    122.4304
   994.3000      7.8353      2.6215      0.0867      1.7297    124.6973
   994.4000      7.8353      2.6310      0.1392      1.1516    123.0227
   994.5000      7.8365      2.6550      0.1392     -0.3050    119.6478
   994.6000      7.8365      2.6709      0.1093     -1.2696    116.8554
   994.7000      7.8365      2.6699      0.0796     -1.2043    113.1840
   994.8000      7.8485      2.6643      0.0421     -0.8695    108.2925
   994.9000      7.8485      2.6658      0.0719     -0.9567    103.8849
   995.0000      7.8645      2.6699      0.0465     -1.2061     99.9821
   995.1000      7.8645      2.6748      0.0471     -1.5037     95.3299
   995.2000      7.8645      2.6778      0.0832     -1.6877     89.2271
   995.3000      7.8664      2.6679      0.0382     -1.0875     85.3333
   995.4000      7.8664      2.6407      0.0353      0.5622     86.3824
   995.5000      7.8621      2.6036      0.0216      2.8091     87.1908
   995.6000      7.8621      2.5751     -0.0323      4.5415     84.2359
   995.7000      7.8621      2.5679      0.0020      4.9765     81.6135
   995.8000      7.8608      2.5697      0.0070      4.8678     81.4597
   995.9000      7.8608      2.5588      0.0534      5.5247     81.2343
   996.0000      7.8601      2.5438     -0.0268      6.4374     79.3768
   996.1000      7.8601      2.5559      0.0179      5.7026     78.4137
   996.2000      7.8601      2.5923      0.0528      3.4953     81.8394
   996.3000      7.8629      2.6131      0.1169      2.2362     87.8538
   996.4000      7.8629      2.5991      0.0701      3.0862     90.1274
   996.5000      7.8639      2.5765      0.0318      4.4568     85.4976
   996.6000      7.8639      2.5721      0.0913      4.7233     79.7866
   996.7000      7.8639      2.5794      0.1152      4.2806     80.3617
   996.8000      7.8532      2.5838      0.0886      4.0122     87.0923
   996.9000      7.8532      2.5852      0.0745      3.9294     93.0809
   997.0000      7.8421      2.5850      0.1078      3.9373     93.0230
   997.1000      7.8421      2.5850      0.0810      3.9415     90.1056
   997.2000      7.8421      2.5905      0.0770      3.6038     90.0726
   997.3000      7.8419      2.5993      0.0774      3.0735     93.4134
   997.4000      7.8419      2.6036      0.1007      2.8122     97.1436
   997.5000      7.8531      2.6005      0.0375      2.9977     99.3601
   997.6000      7.8531      2.5876      0.0720      3.7829    100.2510
   997.7000      7.8531      2.5664      0.0293      5.0683     98.2446
   997.8000      7.8692      2.5536     -0.0067      5.8407     92.3384
   997.9000      7.8692      2.5550      0.0325      5.7557     86.1084
   998.0000      7.8827      2.5603     -0.0412      5.4390     83.3224
   998.1000      7.8827      2.5672      0.0427      5.0180     83.7373
   998.2000      7.8827      2.5681      0.0630      4.9610     85.3012
   998.3000      7.8878      2.5588      0.0068      5.5255     85.4317
   998.4000      7.8878      2.5507      0.0266      6.0201     82.4912
   998.5000      7.8889      2.5467      0.0121      6.2591     78.0190
   998.6000      7.8889      2.5461      0.0375      6.2981     74.0717
   998.7000      7.8889      2.5524      0.0302      5.9122     70.7566
   998.8000      7.8898      2.5645      0.0581      5.1812     68.6842
   998.9000      7.8898      2.5769      0.0671      4.4288     69.3318
   999.0000      7.8891      2.5796      0.0761      4.2677     70.5835
   999.1000      7.8891      2.5627      0.0590      5.2909     68.6384
   999.2000      7.8891      2.5407     -0.0119      6.6245     63.3310
   999.3000      7.8867      2.5360     -0.0020      6.9107     56.7580
   999.4000      7.8867      2.5419      0.0634      6.5486     50.9967
   999.5000      7.8858      2.5442      0.0309      6.4116     49.1063
   999.6000      7.8858      2.5469      0.0065      6.2510     52.8009
   999.7000      7.8858      2.5562      0.0354      5.6831     58.1896
   999.8000      7.8874      2.5725      0.0440      4.6995     60.8435
   999.9000      7.8874      2.5883      0.0751      3.7398     60.6240
  1000.0000      7.8875      2.5893      0.0709      3.6789     58.6096
  1000.1000      7.8875      2.5725      0.0824      4.6946     56.5630
  1000.2000      7.8875      2.5493      0.0251      6.1000     54.8396
  1000.3000      7.8854      2.5305      0.0199      7.2453     51.8059
  1000.4000      7.8854      2.5149      0.0612      8.1873     48.5138
  1000.5000      7.8846      2.5077     -0.0295      8.6270     48.4360
  1000.6000      7.8846      2.5184      0.0214      7.9731     52.2631
  1000.7000      7.8846      2.5311      0.0410      7.2073     56.0363
  1000.8000      7.8854      2.5263      0.0252      7.4951     56.6757
  1000.9000      7.8854      2.5076      0.0278      8.6275     56.4851
  1001.0000      7.8851      2.4808      0.0479     10.2552     57.3654
  1001.1000      7.8851      2.4508      0.0020     12.0742     58.0671
  1001.2000      7.8851      2.4268      0.0466     13.5266     59.9927
  1001.3000      7.8789      2.4127      0.0264     14.3795     64.3518
  1001.4000      7.8789      2.4209     -0.0035     13.8872     65.3943
  1001.5000      7.8626      2.4659      0.0118     11.1600     60.0743
  1001.6000      7.8626      2.5300      0.1000      7.2714     54.9532
  1001.7000      7.8626      2.5707      0.1538      4.8032     55.1991
  1001.8000      7.8456      2.5739      0.1364      4.6139     60.2453
  1001.9000      7.8456      2.5590      0.1037      5.5152     68.2336
