~Version Information
VERS.                      2.0: CWLS Log ASCII Standard - VERSION 2.0
WRAP.                       NO: One line per depth step
~Well Information Block
STRT.FT               340.0000: 
STOP.FT              2342.7000: 
STEP.FT                 0.1000: 
NULL.                -999.2500: 
COMP.          Pioneer Natural Resources: COMPANY
WELL.          Pinkerton 41-12: WELL
FLD.           Purgatoire River: FIELD
LOC.           1222' FNL & 670' FEL--: LOCATION
CNTY.               Las Animas: COUNTY
SRVC.                Patterson: SERVICE COMPANY
DATE.          Thu Mar 16 06:39:17 2006: LOG DATE
UWI.           05 071 08500 00: UNIQUE WELL ID
STAT.                 Colorado: STATE
~Curve Information Block
DEPT.FT            0 000 00 00: Depth
DCAL.in                       : CDL Caliper
RHOB.g/cc                     : CDL Bulk Density
RHOC.g/cc                     : CDL Density Correction
DPOR.pu                       : CDL Density Porosity
NPOR.pu                       : Neutron Porosity
GR.GAPI                       : Gamma Ray
~Parameter Information Block
~A  Depth       DCAL        RHOB        RHOC        DPOR        NPOR         GR     
# ...
  1386.4000      7.8296      2.6006      0.0231      2.9956     23.7662    114.4820
  1386.5000      7.8434      2.6060      0.0517      2.6659     22.9027    121.7940
  1386.6000      7.8434      2.6176      0.0487      1.9630     21.8153    123.7559
  1386.7000      7.8434      2.6304      0.0666      1.1873     21.3943    121.2237
  1386.8000      7.8421      2.6261      0.1030      1.4456     21.5561    124.7303
  1386.9000      7.8421      2.5945      0.0480      3.3645     21.8966    132.1586
  1387.0000      7.8372      2.5612      0.0018      5.3805     22.4901    135.5774
  1387.1000      7.8372      2.5554     -0.0077      5.7320     23.0107    135.2422
  1387.2000      7.8372      2.5710      0.0257      4.7859     22.8591    134.0558
  1387.3000      7.8354      2.5917      0.0339      3.5304     22.3803    132.3986
  1387.4000      7.8354      2.6135      0.0729      2.2110     22.1953    132.3714
  1387.5000      7.8358      2.6363      0.0422      0.8308     22.0226    135.2112
  1387.6000      7.8358      2.6596      0.0582     -0.5848     21.3763    135.8303
  1387.7000      7.8358      2.6785      0.0788     -1.7281     20.4395    129.1023
  1387.8000      7.8309      2.6955      0.0486     -2.7553     19.7708    117.2184
  1387.9000      7.8309      2.7119      0.1191     -3.7500     19.5044    104.7115
  1388.0000      7.8186      2.7141      0.0391     -3.8874     19.5083     95.0646
  1388.1000      7.8186      2.7107     -0.0256     -3.6804     19.6376     88.3315
  1388.2000      7.8186      2.7213      0.0214     -4.3233     19.4418     81.5664
  1388.3000      7.8094      2.7374      0.0245     -5.2951     18.7896     74.9101
  1388.4000      7.8094      2.7450      0.0214     -5.7552     18.2590     70.6859
  1388.5000      7.8077      2.7455      0.0291     -5.7904     18.0173     70.5239
  1388.6000      7.8077      2.7364      0.0530     -5.2338     17.6951     74.0045
  1388.7000      7.8077      2.7055      0.0361     -3.3630     17.4195     76.9437
  1388.8000      7.8084      2.6516      0.0202     -0.0954     17.4297     76.5770
  1388.9000      7.8084      2.5938     -0.0478      3.4086     17.6508     78.0764
  1389.0000      7.8080      2.5581     -0.0396      5.5674     18.1556     84.6790
  1389.1000      7.8080      2.5545     -0.0505      5.7865     18.9054     89.6930
  1389.2000      7.8080      2.5657     -0.0275      5.1069     19.7455     89.8756
  1389.3000      7.8070      2.5632     -0.0170      5.2628     20.5763     91.4094
  1389.4000      7.8070      2.5490     -0.0437      6.1219     21.1732     96.5500
  1389.5000      7.8069      2.5500     -0.0029      6.0618     21.2761    100.6141
  1389.6000      7.8069      2.5674      0.0328      5.0039     20.8578    101.7859
  1389.7000      7.8069      2.5824      0.0538      4.0982     20.4661    103.2015
  1389.8000      7.8093      2.5843      0.0370      3.9790     20.6334    108.8398
  1389.9000      7.8093      2.5682      0.0703      4.9604     21.1677    118.9145
  1390.0000      7.8121      2.5356      0.0209      6.9303     21.7075    129.0409
  1390.1000      7.8121      2.5103      0.0206      8.4638     22.1986    134.0790
  1390.2000      7.8121      2.5086      0.0613      8.5672     22.4611    133.2478
  1390.3000      7.8117      2.5218      0.0346      7.7703     22.4661    131.5623
  1390.4000      7.8117      2.5385      0.0599      6.7554     22.5846    132.2009
  1390.5000      7.8083      2.5496      0.0618      6.0841     22.6005    134.1744
  1390.6000      7.8083      2.5520      0.0258      5.9402     22.0878    136.4945
  1390.7000      7.8083      2.5574      0.0305      5.6151     21.3508    138.6295
  1390.8000      7.8060      2.5738      0.0461      4.6177     20.8091    139.5387
  1390.9000      7.8060      2.5900      0.0844      3.6348     20.8289    140.3805
  1391.0000      7.8070      2.5959      0.0688      3.2779     21.6929    139.4077
  1391.1000      7.8070      2.6000      0.0562      3.0275     22.6743    131.6143
  1391.2000      7.8070      2.6092      0.0952      2.4740     23.0350    122.6895
  1391.3000      7.8064      2.6146      0.0667      2.1468     23.1531    121.1940
  1391.4000      7.8064      2.6098      0.0358      2.4362     23.2391    125.7490
  1391.5000      7.8005      2.6006      0.0045      2.9931     23.0184    131.9135
  1391.6000      7.8005      2.5915      0.0604      3.5433     22.6705    135.1032
  1391.7000      7.8005      2.5816      0.0522      4.1448     22.4998    130.1879
  1391.8000      7.7915      2.5738      0.0117      4.6152     22.5253    121.2592
  1391.9000      7.7915      2.5760      0.0500      4.4843     22.7716    118.3543
  1392.0000      7.7855      2.5913      0.0682      3.5601     23.0987    122.9456
  1392.1000      7.7855      2.6103      0.0455      2.4053     23.2728    128.0560
  1392.2000      7.7855      2.6181      0.0665      1.9339     23.1096    128.8904
  1392.3000      7.7845      2.6097      0.0524      2.4426     22.4425    126.1585
  1392.4000      7.7845      2.5969      0.0779      3.2163     21.5892    123.4067
  1392.5000      7.7895      2.5918      0.0829      3.5262     21.1271    122.6336
  1392.6000      7.7895      2.5957      0.0473      3.2917     21.1534    121.7239
  1392.7000      7.7895      2.6023      0.0524      2.8882     21.3428    120.4136
  1392.8000      7.8000      2.5988      0.0745      3.1005     21.4113    118.7429
  1392.9000      7.8000      2.5851      0.0188      3.9349     21.4011    117.2384
  1393.0000      7.8112      2.5860     -0.0107      3.8772     21.4602    121.1294
  1393.1000      7.8112      2.6065      0.0452      2.6380     21.4468    131.4655
  1393.2000      7.8112      2.6163      0.0598      2.0401     21.3744    140.6416
  1393.3000      7.8229      2.6037      0.0622      2.8083     21.3293    140.8656
  1393.4000      7.8229      2.5906      0.0194      3.6006     21.1098    132.4608
  1393.5000      7.8335      2.5961      0.0679      3.2654     20.7259    124.5215
  1393.6000      7.8335      2.6041      0.0799      2.7842     20.6521    125.3791
  1393.7000      7.8335      2.5930      0.0603      3.4572     21.0029    131.7641
  1393.8000      7.8333      2.5807     -0.0124      4.1975     21.2768    132.4585
  1393.9000      7.8333      2.5943      0.0676      3.3784     21.3472    125.4986
  1394.0000      7.8248      2.6231      0.0418      1.6284     21.4407    118.7475
  1394.1000      7.8248      2.6441      0.0838      0.3557     21.4904    115.8832
  1394.2000      7.8248      2.6482      0.0602      0.1070     21.3646    116.6793
  1394.3000      7.8126      2.6374      0.0684      0.7660     21.3004    119.7058
  1394.4000      7.8126      2.6227      0.0561      1.6531     21.4363    121.3146
  1394.5000      7.7990      2.6233      0.0201      1.6193     21.5152    120.2951
  1394.6000      7.7990      2.6389      0.0904      0.6708     21.3574    117.1088
  1394.7000      7.7990      2.6438      0.0788      0.3762     21.0652    112.7960
  1394.8000      7.7929      2.6293      0.0324      1.2533     20.9117    113.9807
  1394.9000      7.7929      2.6156      0.0266      2.0842     21.1552    121.6891
  1395.0000      7.7961      2.6152      0.0234      2.1073     21.5377    127.7151
  1395.1000      7.7961      2.6255      0.0222      1.4827     21.5375    125.4078
  1395.2000      7.7961      2.6422      0.0192      0.4754     21.0868    115.4441
  1395.3000      7.8041      2.6577      0.0633     -0.4691     20.7298    107.3295
  1395.4000      7.8041      2.6546      0.1063     -0.2784     20.8699    108.4542
  1395.5000      7.8121      2.6275      0.0517      1.3664     21.1415    112.6941
  1395.6000      7.8121      2.6028     -0.0282      2.8618     21.2061    113.4392
  1395.7000      7.8121      2.5994      0.0258      3.0648     21.0622    115.8774
  1395.8000      7.8154      2.6044      0.0436      2.7620     20.9590    123.8135
  1395.9000      7.8154      2.6164     -0.0174      2.0352     21.0775    128.2446
