~Version Information
VERS.                      2.0: CWLS Log ASCII Standard - VERSION 2.0
WRAP.                       NO: One line per depth step
~Well Information Block
STRT.FT               970.0000: 
STOP.FT              1882.0000: 
STEP.FT                 0.2500: 
NULL.                -999.2500: 
COMP.          Petrogulf Corporation: COMPANY
WELL.             Norton 9-14R: WELL
FLD.           Purgatorie River: FIELD
LOC.           725' FSL & 1103' FWL: LOCATION
PROV.                 Colorado: PROVINCE
CNTY.               Las Animas: COUNTRY
SRVC.                Patterson: SERVICE COMPANY
DATE.          Thu Oct 06 16:10:47 2005: LOG DATE
UWI.                          : UNIQUE WELL ID
~Curve Information Block
DEPT.FT            0 000 00 00: Depth
SP.mV                         : DIL Spontaneous Potential
RILD.Ohm-m                    : DIL Deep Resistivity
RILM.Ohm-m                    : DIL Medium Resistivity
RLL3.Ohm-m                    : DIL Shallow Resistivity
GR.GAPI                       : Gamma Ray
~Parameter Information Block
~A  Depth        SP         RILD        RILM        RLL3         GR     
# ...
  1278.0000    195.5716     11.8477     12.5825     14.2061    125.0769
  1278.2500    195.6955     11.4246     12.1150     14.4661    124.1496
  1278.5000    195.8158     11.0333     11.6379     14.3435    122.1324
  1278.7500    195.8807     10.6752     11.1582     13.7528    120.7930
  1279.0000    195.8381     10.3517     10.6872     12.8333    119.8523
  1279.2500    195.6457     10.0618     10.2371     11.8499    120.2936
  1279.5000    195.2738      9.8011      9.8185     11.0223    122.2227
  1279.7500    194.7081      9.5631      9.4385     10.4291    123.7742
  1280.0000    193.9539      9.3417      9.1012     10.0325    125.7229
  1280.2500    193.0395      9.1348      8.8082      9.7597    126.7425
  1280.5000    192.0151      8.9453      8.5603      9.5629    128.1410
  1280.7500    190.9494      8.7803      8.3581      9.4229    128.9852
  1281.0000    189.9227      8.6470      8.2027      9.3187    130.0134
  1281.2500    189.0172      8.5486      8.0955      9.2123    130.8332
  1281.5000    188.3093      8.4813      8.0371      9.0807    133.1512
  1281.7500    187.8644      8.4353      8.0270      8.9789    135.3111
  1282.0000    187.7335      8.3981      8.0617      9.0761    137.4252
  1282.2500    187.9484      8.3591      8.1342      9.5977    136.6030
  1282.5000    188.5156      8.3122      8.2331     10.6526    130.9563
  1282.7500    189.4072      8.2562      8.3428     12.0499    124.6468
  1283.0000    190.5493      8.1921      8.4459     13.3060    113.1188
  1283.2500    191.8138      8.1222      8.5248     13.9331    105.6419
  1283.5000    193.0289      8.0487      8.5654     13.7941     98.0992
  1283.7500    194.0170      7.9733      8.5592     13.1760     96.9953
  1284.0000    194.6502      7.8976      8.5042     12.5156    101.1455
  1284.2500    194.8913      7.8219      8.4041     12.0606    106.2308
  1284.5000    194.7904      7.7449      8.2666     11.7597    114.2538
  1284.7500    194.4418      7.6639      8.1020     11.4074    119.0787
  1285.0000    193.9368      7.5771      7.9213     10.8659    125.8665
  1285.2500    193.3430      7.4853      7.7354     10.1865    130.0474
  1285.5000    192.7094      7.3936      7.5545      9.5578    134.1427
  1285.7500    192.0767      7.3097      7.3874      9.1454    134.4556
  1286.0000    191.4821      7.2413      7.2416      8.9699    131.8502
  1286.2500    190.9597      7.1942      7.1237      8.9220    129.5725
  1286.5000    190.5301      7.1716      7.0389      8.8779    127.8259
  1286.7500    190.1852      7.1762      6.9919      8.8021    128.1976
  1287.0000    189.8843      7.2114      6.9869      8.7656    129.8836
  1287.2500    189.5754      7.2819      7.0275      8.8789    130.5762
  1287.5000    189.2283      7.3923      7.1171      9.1930    129.5524
  1287.7500    188.8490      7.5450      7.2588      9.6502    127.4606
  1288.0000    188.4585      7.7400      7.4555     10.1398    123.2759
  1288.2500    188.0552      7.9759      7.7099     10.6074    120.7500
  1288.5000    187.5950      8.2523      8.0250     11.1016    119.2522
  1288.7500    187.0108      8.5716      8.4033     11.7119    120.6236
  1289.0000    186.2534      8.9376      8.8478     12.4801    125.6938
  1289.2500    185.3243      9.3538      9.3609     13.3820    129.3055
  1289.5000    184.2746      9.8195      9.9443     14.3591    131.3645
  1289.7500    183.1767     10.3283     10.5986     15.3379    129.4780
  1290.0000    182.0959     10.8683     11.3221     16.2406    123.0820
  1290.2500    181.0747     11.4217     12.1084     17.0300    118.2964
  1290.5000    180.1273     11.9643     12.9437     17.7494    113.0186
  1290.7500    179.2391     12.4635     13.8011     18.4815    111.2406
  1291.0000    178.3774     12.8776     14.6350     19.2605    110.2604
  1291.2500    177.5155     13.1594     15.3766     20.0533    109.8344
  1291.5000    176.6549     13.2652     15.9360     20.8255    108.5299
  1291.7500    175.8280     13.1702     16.2166     21.5831    107.1292
  1292.0000    175.0824     12.8811     16.1429     22.3208    104.3461
  1292.2500    174.4587     12.4377     15.6916     22.9317    101.8455
  1292.5000    173.9713     11.9003     14.9087     23.1654     96.7046
  1292.7500    173.5984     11.3302     13.8969     22.6908     92.6745
  1293.0000    173.2928     10.7769     12.7815     21.2652     87.5313
  1293.2500    173.0117     10.2730     11.6757     18.9280     85.8068
  1293.5000    172.7437      9.8358     10.6600     16.0616     86.4834
  1293.7500    172.5029      9.4710      9.7797     13.2283     88.8569
  1294.0000    172.3004      9.1763      9.0528     10.8974     94.4623
  1294.2500    172.1261      8.9433      8.4796      9.2689     98.8956
  1294.5000    171.9645      8.7600      8.0514      8.2918    104.8486
  1294.7500    171.8238      8.6127      7.7554      7.8121    107.2481
  1295.0000    171.7472      8.4888      7.5776      7.7363    107.7233
  1295.2500    171.7996      8.3802      7.5035      8.1258    106.4186
  1295.5000    172.0482      8.2853      7.5181      9.1685    103.4506
  1295.7500    172.5515      8.2096      7.6050     11.0244    101.3817
  1296.0000    173.3518      8.1648      7.7467     13.6390     98.6173
  1296.2500    174.4592      8.1658      7.9256     16.6279     97.2579
  1296.5000    175.8273      8.2286      8.1265     19.2735     96.6037
  1296.7500    177.3391      8.3684      8.3397     20.7062     97.4252
  1297.0000    178.8244      8.5974      8.5630     20.3466    100.5817
  1297.2500    180.1079      8.9224      8.8025     18.3865    103.7276
  1297.5000    181.0639      9.3412      9.0702     15.7954    109.7245
  1297.7500    181.6509      9.8398      9.3806     13.7245    114.6635
  1298.0000    181.9099     10.3914      9.7466     12.8525    123.5687
  1298.2500    181.9266     10.9614     10.1776     13.1996    130.0553
  1298.5000    181.7835     11.5178     10.6778     14.3516    138.7509
  1298.7500    181.5290     12.0424     11.2476     15.7685    142.5279
  1299.0000    181.1819     12.5366     11.8851     17.0199    143.6239
  1299.2500    180.7587     13.0198     12.5899     17.9335    141.2945
  1299.5000    180.2932     13.5214     13.3653     18.6393    134.8268
  1299.7500    179.8290     14.0715     14.2197     19.5119    130.0988
  1300.0000    179.3909     14.6944     15.1653     21.0417    124.9687
  1300.2500    178.9673     15.4047     16.2153     23.6311    123.5639
  1300.5000    178.5299     16.2070     17.3791     27.3400    123.3733
  1300.7500    178.0717     17.0975     18.6588     31.7423    122.7270
  1301.0000    177.6188     18.0648     20.0461     36.0703    117.9374
  1301.2500    177.1983     19.0907     21.5224     39.5693    111.6461
  1301.5000    176.7941     20.1494     23.0610     41.8062     99.2573
  1301.7500    176.3302     21.2084     24.6310     42.8149     90.8916
  1302.0000    175.6962     22.2336     26.2021     43.0935     81.1071
  1302.2500    174.7940     23.1982     27.7468     43.3695     77.2093
  1302.5000    173.5732     24.0916     29.2421     44.1116     74.6577
  1302.7500    172.0400     24.9197     30.6701     45.1414     74.1455
  1303.0000    170.2490     25.6990     32.0184     45.7836     73.7347
  1303.2500    168.2840     26.4486     33.2823     45.4858     73.2244
  1303.5000    166.2381     27.1857     34.4648     44.3251     71.5083
  1303.7500    164.1986     27.9248     35.5765     42.9695     69.5737
  1304.0000    162.2421     28.6746     36.6325     42.2273     65.9532
  1304.2500    160.4306     29.4360     37.6488     42.6193     63.6278
  1304.5000    158.8074     30.2010     38.6379     44.2197     61.0328
  1304.7500    157.3958     30.9570     39.6075     46.7205     60.0895
  1305.0000    156.2093     31.6912     40.5596     49.6036     59.8641
  1305.2500    155.2619     32.3936     41.4926     52.3390     60.3460
  1305.5000    154.5677     33.0567     42.4018     54.5401     61.5645
  1305.7500    154.1322     33.6767     43.2808     56.0297     62.5618
