~Version Information
VERS.                      2.0: CWLS Log ASCII Standard - VERSION 2.0
WRAP.                       NO: One line per depth step
~Well Information Block
STRT.FT                 0.0000: 
STOP.FT              2062.2500: 
STEP.FT                 0.2500: 
NULL.                -999.2500: 
COMP.          Petrogulf Corporation: COMPANY
WELL.           Montoya 12-44R: WELL
FLD.           Purgatorie River: FIELD
LOC.           713' FSL & 798' FEL: LOCATION
PROV.                 Colorado: PROVINCE
CNTY.               Las Animas: COUNTRY
SRVC.                Patterson: SERVICE COMPANY
DATE.          Wed Nov 09 13:30:24 2005: LOG DATE
UWI.           05-071-08538               : UNIQUE WELL ID
~Curve Information Block
DEPT.FT            0 000 00 00: Depth
CCL.                          : Casing Collar Locator
TT3.usec                      : CBL 3' Travel Time
AMP3.mV                       : CBL 3' Amplitude
GR.GAPI                       : Gamma Ray
~Parameter Information Block
~A  Depth       CCL         TT3         AMP3         GR     
# ...
  1507.5000      0.0000    582.9544      9.4714    124.2999
  1507.7500      0.0000    598.5696      8.8080    116.1835
  1508.0000      0.0000    628.5447      7.7485    109.4034
  1508.2500      0.0000    651.6349      6.5278    103.7324
  1508.5000      0.0000    664.4492      5.4274    100.1729
  1508.7500      0.0000    672.1407      4.6198    100.2211
  1509.0000      0.0000    676.6448      4.1484    104.1924
  1509.2500      0.0000    678.1543      3.9604    110.5389
  1509.5000      0.0000    677.3102      3.9725    116.5254
  1509.7500      0.0000    674.8300      4.1257    119.6353
  1510.0000      0.0000    671.4122      4.3745    118.8800
  1510.2500      0.0000    667.2043      4.6740    115.0699
  1510.5000      0.0000    662.3106      4.9960    109.9698
  1510.7500      0.0000    658.7660      5.3113    105.3101
  1511.0000      0.0000    660.1391      5.5946    102.3371
  1511.2500      0.0000    668.9058      5.8905    101.7125
  1511.5000      0.0000    681.6904      6.2986    103.5174
  1511.7500      0.0000    686.2587      6.9221    107.3033
  1512.0000      0.0000    669.5937      7.8488    112.2738
  1512.2500      0.0000    625.6401      9.1088    117.7568
  1512.5000      0.0000    554.9195     10.6758    123.5815
  1512.7500      0.0000    471.8378     12.5140    129.7776
  1513.0000      0.0000    402.4382     14.5318    135.9705
  1513.2500      0.0000    361.5363     16.4622    141.3249
  1513.5000      0.0000    345.4806     17.8583    144.9962
  1513.7500      0.0000    344.2079     18.3476    146.6358
  1514.0000      0.0000    348.8904     17.9200    146.7230
  1514.2500      0.0000    354.4968     16.9010    146.3055
  1514.5000      0.0000    360.5692     15.6803    146.0514
  1514.7500      0.0000    372.5559     14.4806    145.3990
  1515.0000      0.0000    404.9743     13.2587    142.6632
  1515.2500      0.0000    468.9742     11.8358    136.1460
  1515.5000      0.0000    549.2993     10.2026    125.4380
  1515.7500      0.0000    614.3289      8.6109    111.8555
  1516.0000      0.0000    651.6221      7.3450     97.8674
  1516.2500      0.0000    671.8591      6.5203     86.3621
  1516.5000      0.0000    685.9514      6.1281     80.1125
  1516.7500      0.0000    697.7050      6.1971     80.8312
  1517.0000      0.0000    707.8110      6.8404     87.7871
  1517.2500      0.0000    711.3005      8.1311     97.4750
  1517.5000      0.0000    695.7390      9.9875    105.5748
  1517.7500      0.0000    645.3789     12.2408    109.9044
  1518.0000      0.0000    555.1398     14.8240    111.4279
  1518.2500      0.0000    448.1089     17.7819    112.3191
  1518.5000      0.0000    363.0213     20.9794    113.4211
  1518.7500      0.0000    317.6357     23.8990    113.8756
  1519.0000      0.0000    301.2607     25.8414    112.9206
  1519.2500      0.0000    297.2893     26.4309    111.3666
  1519.5000      0.0000    296.8340     25.9808    110.8994
  1519.7500      0.0000    297.0692     25.1993    112.3937
  1520.0000      0.0000    297.3652     24.5338    115.6461
  1520.2500      0.0000    297.6944     23.9837    120.4001
  1520.5000      0.0000    298.0712     23.4609    126.4142
  1520.7500      0.0000    298.3130     23.0819    132.4405
  1521.0000      0.0000    298.2085     23.0537    136.3008
  1521.2500      0.0000    297.7803     23.4592    136.4729
  1521.5000      0.0000    297.2247     24.2787    133.2445
  1521.7500      0.0000    296.6888     25.4843    128.3721
  1522.0000      0.0000    296.2129     27.0367    123.9457
  1522.2500      0.0000    295.7856     28.8614    121.3304
  1522.5000      0.0000    295.4073     30.7633    120.6316
  1522.7500      0.0000    295.0948     32.4437    120.8672
  1523.0000      0.0000    294.6829     33.8122    120.6843
  1523.2500      0.0000    293.3885     35.1487    119.2410
  1523.5000      0.0000    289.6170     36.7573    116.7897
  1523.7500      0.0000    282.2960     38.5421    114.4034
  1524.0000      0.0000    273.1442     40.0814    113.0113
  1524.2500      0.0000    265.8104     41.0958    112.6923
  1524.5000      0.0000    262.2211     41.6546    112.7332
  1524.7500      0.0000    262.1130     41.8950    112.2608
  1525.0000      0.0000    265.5477     41.7298    111.0355
  1525.2500      0.0000    272.8669     40.9187    109.7408
  1525.5000      0.0000    282.1364     39.3515    109.3275
  1525.7500      0.0000    289.6370     37.2416    110.0532
  1526.0000      0.0000    293.5647     35.0368    111.3686
  1526.2500      0.0000    294.9335     33.0580    112.6924
  1526.5000      0.0000    295.3300     31.2635    114.0477
  1526.7500      0.0000    295.5866     29.4663    115.9926
  1527.0000      0.0000    295.9370     27.6668    119.1799
  1527.2500      0.0000    296.3824     26.0446    123.8207
  1527.5000      0.0000    297.0259     24.7137    129.2565
  1527.7500      0.0000    298.5468     23.6054    134.1786
  1528.0000      0.0000    302.3500     22.5916    137.3972
  1528.2500      0.0000    309.2693     21.6153    138.2434
  1528.5000      0.0000    317.6289     20.6667    136.5431
  1528.7500      0.0000    324.2112     19.7637    132.8536
  1529.0000      0.0000    327.5712     18.9635    128.7430
  1529.2500      0.0000    328.6803     18.2856    126.2141
  1529.5000      0.0000    328.9464     17.6717    126.4252
  1529.7500      0.0000    329.0905     17.0836    128.9074
  1530.0000      0.0000    329.3149     16.5408    131.9643
  1530.2500      0.0000    329.6627     16.0499    133.7817
  1530.5000      0.0000    330.1189     15.6287    133.4346
  1530.7500      0.0000    330.5637     15.3818    131.3302
  1531.0000      0.0000    330.8189     15.4179    128.9114
  1531.2500      0.0000    330.7927     15.7332    127.6966
  1531.5000      0.0000    330.5329     16.3050    128.1213
  1531.7500      0.0000    330.0085     17.2202    129.0752
  1532.0000      0.0000    328.5886     18.5666    128.7419
  1532.2500      0.0000    324.8042     20.2525    126.1860
  1532.5000      0.0000    317.7178     21.9979    122.2539
  1532.7500      0.0000    309.2577     23.4049    118.8446
  1533.0000      0.0000    303.6634     24.0869    117.2433
  1533.2500      0.0000    303.9276     23.8847    117.2612
  1533.5000      0.0000    309.7406     22.9472    117.8621
  1533.7500      0.0000    317.8654     21.6376    118.2052
  1534.0000      0.0000    324.3743     20.4133    118.0840
  1534.2500      0.0000    327.6812     19.6035    117.7761
  1534.5000      0.0000    328.7958     19.1548    117.6531
  1534.7500      0.0000    329.2177     18.7088    117.7907
  1535.0000      0.0000    330.1497     17.9771    117.9360
  1535.2500      0.0000    334.6138     16.9177    117.8679
  1535.5000      0.0000    352.4084     15.6171    117.4804
  1535.7500      0.0000    402.0825     14.1740    116.4222
  1536.0000      0.0000    495.4516     12.7029    114.1180
  1536.2500      0.0000    610.9829     11.3747    110.4258
  1536.5000      0.0000    701.9866     10.3571    105.9502
  1536.7500      0.0000    744.2129      9.6436    101.5595
  1537.0000      0.0000    752.2078      9.0211     97.9168
  1537.2500      0.0000    748.1485      8.3014     95.4230
  1537.5000      0.0000    740.6042      7.5223     94.0246
  1537.7500      0.0000    728.1318      6.8944     92.9089
  1538.0000      0.0000    708.3849      6.6180     90.8656
  1538.2500      0.0000    685.7233      6.7430     87.3095
  1538.5000      0.0000    669.0092      7.1686     83.0046
  1538.7500      0.0000    662.0759      7.7781     79.9155
  1539.0000      0.0000    659.6373      8.5424     80.3649
  1539.2500      0.0000    647.9246      9.4373     85.7933
  1539.5000      0.0000    615.3344     10.3207     95.6546
  1539.7500      0.0000    572.6508     11.0110    107.2186
  1540.0000      0.0000    543.8422     11.5030    116.6447
  1540.2500      0.0000    539.5812     11.8764    120.8116
  1540.5000      0.0000    564.0933     11.8804    118.7393
  1540.7500      0.0000    615.8028     11.1925    111.7964
