~Version Information
VERS.                      2.0: CWLS Log ASCII Standard - VERSION 2.0
WRAP.                       NO: One line per depth step
~Well Information Block
STRT.FT               350.0000: 
STOP.FT              2803.2000: 
STEP.FT                 0.1000: 
NULL.                -999.2500: 
COMP.          Pioneer Natural Resources: COMPANY
WELL.          Grey Goose 33-30: WELL
FLD.           Purgatoire River: FIELD
LOC.           2136' FSL & 2065' FEL--: LOCATION
STAT.                 Colorado: State
CNTY.               Las Animas: COUNTY
CTRY. USA : Country
SECT. 30 : Section
TOWN. 32S : Township
RANG. 67W : Range
SRVC.                Patterson: SERVICE COMPANY
DATE.          Fri Nov 04 09:27:53 2005: LOG DATE
API.           05 071 08546 00: UNIQUE WELL ID
~Curve Information Block
DEPT.FT            0 000 00 00: Depth
DCAL.in                       : CDL Caliper
DPOR.pu                       : CDL Density Porosity
NPOR.pu                       : Neutron Porosity
RHOB.g/cc                     : CDL Bulk Density
RHOC.g/cc                     : CDL Density Correction
GR.GAPI                       : Gamma Ray
~Parameter Information Block
~A  Depth       DCAL        DPOR        NPOR        RHOB        RHOC         GR     
# ...
  1492.4000      8.2521     12.7817     28.5968      2.4391     -0.0237    129.5691
  1492.5000      8.2508     14.3410     29.7094      2.4134     -0.0450    137.9032
  1492.6000      8.2508     16.2699     30.9662      2.3815     -0.0356    147.0120
  1492.7000      8.2508     18.8909     31.5316      2.3383     -0.0386    146.2943
  1492.8000      8.2516     21.1152     31.3537      2.3016     -0.1069    136.7463
  1492.9000      8.2516     21.7085     31.4258      2.2918     -0.0491    125.0157
  1493.0000      8.2522     21.5571     32.2090      2.2943      0.0134    115.7166
  1493.1000      8.2522     22.4169     33.0656      2.2801      0.0103    111.9634
  1493.2000      8.2522     24.4557     33.5050      2.2465     -0.0401    114.5979
  1493.3000      8.2519     27.6395     33.5470      2.1939      0.0402    118.6909
  1493.4000      8.2519     32.8760     33.3568      2.1075     -0.0239    119.1121
  1493.5000      8.2520     39.6025     33.3961      1.9966     -0.0466    116.4496
  1493.6000      8.2520     45.9156     33.8062      1.8924     -0.0779    114.6358
  1493.7000      8.2520     50.9021     34.0897      1.8101     -0.1383    114.7672
  1493.8000      8.2514     54.3267     33.8340      1.7536     -0.1768    112.3489
  1493.9000      8.2514     55.4012     33.2336      1.7359     -0.1734    103.3622
  1494.0000      8.2512     53.6676     33.1332      1.7645     -0.1137     90.9766
  1494.1000      8.2512     50.0739     33.7022      1.8238     -0.0207     81.1173
  1494.2000      8.2512     45.7603     33.7829      1.8950      0.0645     76.9393
  1494.3000      8.2492     40.2683     33.1173      1.9856      0.0740     78.8983
  1494.4000      8.2492     32.5349     32.4401      2.1132      0.2533     85.7608
  1494.5000      8.2374     23.0800     31.9467      2.2692      0.2902     94.1598
  1494.6000      8.2374     14.4420     31.5730      2.4117      0.3547    100.1121
  1494.7000      8.2374      9.6020     31.2109      2.4916      0.3365    104.3132
  1494.8000      8.2158      8.2289     30.6539      2.5142      0.1508    110.8185
  1494.9000      8.2158      7.4897     30.2713      2.5264      0.1087    120.8038
  1495.0000      8.2023      6.5924     30.7735      2.5412      0.1035    131.2651
  1495.1000      8.2023      6.2222     31.6222      2.5473      0.0530    135.8587
  1495.2000      8.2023      6.4574     31.6399      2.5435      0.0621    132.0823
  1495.3000      8.2008      6.7889     30.8104      2.5380     -0.0028    125.2761
  1495.4000      8.2008      6.4886     30.0220      2.5429      0.0623    120.3843
  1495.5000      8.2009      5.6658     29.5583      2.5565      0.0617    121.0882
  1495.6000      8.2009      4.8232     28.9008      2.5704      0.0926    129.1368
  1495.7000      8.2009      3.7860     28.1429      2.5875      0.0587    131.3365
  1495.8000      8.2007      1.9681     27.9347      2.6175      0.0388    117.0115
  1495.9000      8.2007     -0.6788     28.2299      2.6612      0.0690    100.2078
  1496.0000      8.2021     -2.8557     28.6038      2.6971      0.1351     96.0094
  1496.1000      8.2021     -3.3618     28.9697      2.7055      0.0671    103.5372
  1496.2000      8.2021     -2.4732     29.1348      2.6908      0.1061    112.9473
  1496.3000      8.2037     -0.9942     28.9008      2.6664      0.0435    114.6041
  1496.4000      8.2037     -0.1487     28.7826      2.6525      0.0050    106.5297
  1496.5000      8.2042     -0.2690     29.0657      2.6544      0.0533     96.6972
  1496.6000      8.2042     -0.0754     29.1783      2.6512      0.0202     93.8532
  1496.7000      8.2042      1.6305     28.7992      2.6231      0.0152     99.6471
  1496.8000      8.2038      4.5401     28.4932      2.5751     -0.0665    108.1656
  1496.9000      8.2038      6.8054     28.7140      2.5377     -0.0724    110.9981
  1497.0000      8.2028      7.4772     29.2757      2.5266      0.0011    107.2593
  1497.1000      8.2028      7.7045     29.8744      2.5229      0.0703    105.4702
  1497.2000      8.2028      8.4303     30.0888      2.5109      0.0345    111.8128
  1497.3000      8.2037      8.7735     29.5952      2.5052      0.0306    122.1475
  1497.4000      8.2037      7.6995     28.7511      2.5230      0.0651    127.4923
  1497.5000      8.2042      6.2867     28.1648      2.5463      0.1503    126.2147
  1497.6000      8.2042      6.2245     28.1288      2.5473      0.0774    125.0434
  1497.7000      8.2042      6.9135     28.5637      2.5359      0.0558    125.5629
  1497.8000      8.2025      7.0070     28.9730      2.5344      0.0330    124.7891
  1497.9000      8.2025      6.4746     28.8427      2.5432      0.0797    120.4896
  1498.0000      8.2018      6.0556     28.4731      2.5501      0.0686    114.6881
  1498.1000      8.2018      5.9853     28.6557      2.5512      0.0744    111.3513
  1498.2000      8.2018      5.6824     29.0766      2.5562      0.0546    110.3167
  1498.3000      8.2045      4.7859     28.8961      2.5710      0.0821    111.9760
  1498.4000      8.2045      3.6329     28.3235      2.5901      0.0346    117.8729
  1498.5000      8.2070      2.4772     27.9432      2.6091      0.0683    122.5749
  1498.6000      8.2070      1.4585     27.8884      2.6259      0.0991    119.3944
  1498.7000      8.2070      0.6101     27.8847      2.6399      0.0740    112.6162
  1498.8000      8.2066      0.2316     27.6868      2.6462      0.0960    111.5496
  1498.9000      8.2066      1.2561     27.6042      2.6293      0.0829    115.9884
  1499.0000      8.2036      3.5993     27.9966      2.5906      0.0369    120.8052
  1499.1000      8.2036      5.4672     28.5799      2.5598     -0.0142    124.2996
  1499.2000      8.2036      5.8290     28.8471      2.5538      0.0085    124.8284
  1499.3000      8.2003      5.7139     28.8881      2.5557      0.0282    121.1094
  1499.4000      8.2003      5.9213     29.1117      2.5523     -0.0076    115.7006
  1499.5000      8.2003      5.7677     29.5430      2.5548     -0.0465    113.8442
  1499.6000      8.2003      4.4713     29.6463      2.5762     -0.0239    116.6386
  1499.7000      8.2003      2.4649     28.9367      2.6093      0.0181    120.6972
  1499.8000      8.2033      0.8272     27.7829      2.6364      0.0660    122.4633
  1499.9000      8.2033     -0.2681     26.8867      2.6544      0.0572    120.1678
  1500.0000      8.2052     -1.6598     26.5258      2.6774      0.0451    116.5152
  1500.1000      8.2052     -3.9403     26.6844      2.7150      0.0805    115.3629
  1500.2000      8.2052     -6.6374     27.1535      2.7595      0.0960    116.7986
  1500.3000      8.2039     -8.5701     27.6832      2.7914      0.1083    118.0086
  1500.4000      8.2039     -8.7959     28.3640      2.7951      0.1055    116.2042
  1500.5000      8.2018     -7.1831     29.1620      2.7685      0.0761    111.8885
  1500.6000      8.2018     -4.1195     29.6765      2.7180      0.0608    106.6393
  1500.7000      8.2018     -0.0895     29.8605      2.6515      0.0519    102.0183
  1500.8000      8.2014      3.8559     29.9080      2.5864     -0.0295    101.9450
  1500.9000      8.2014      5.6643     29.6600      2.5565     -0.1127    108.9211
  1501.0000      8.2037      4.7340     29.1491      2.5719     -0.0195    119.5024
  1501.1000      8.2037      3.3187     28.6758      2.5952      0.0348    125.5104
  1501.2000      8.2037      3.0589     28.2281      2.5995      0.0181    123.3044
  1501.3000      8.2048      3.5777     27.7262      2.5910      0.0492    118.8270
  1501.4000      8.2048      4.3569     27.4498      2.5781      0.0211    116.3415
  1501.5000      8.2031      5.0860     27.8248      2.5661      0.0600    114.4165
  1501.6000      8.2031      5.2038     28.3412      2.5641      0.0458    113.5665
  1501.7000      8.2031      4.1792     28.2169      2.5810      0.0967    112.7371
  1501.8000      8.2012      2.7419     27.9829      2.6048      0.1273    111.3489
  1501.9000      8.2012      1.9796     28.3091      2.6173      0.0746    114.8409
