~Version Information
VERS.                      2.0: CWLS Log ASCII Standard - VERSION 2.0
WRAP.                       NO: One line per depth step
~Well Information Block
STRT.FT               262.8000: 
STOP.FT              1134.7000: 
STEP.FT                 0.1000: 
NULL.                -999.2500: 
COMP.          Pioneer Natural Resources: COMPANY
WELL.          Black Cat 13-32 Tr: WELL
FLD.           Purgatoire River: FIELD
LOC.           1679' FSL & 1150' FWL--: LOCATION
CNTY.               Las Animas: COUNTY
SRVC.                Patterson: SERVICE COMPANY
DATE.          Tue Mar 07 12:42:54 2006: LOG DATE
UWI.           05 071 08721 00: UNIQUE WELL ID
STAT.                 Colorado: STATE
~Curve Information Block
DEPT.FT            0 000 00 00: Depth
DCAL.in                       : CDL Caliper
RHOB.g/cc                     : CDL Bulk Density
RHOC.g/cc                     : CDL Density Correction
DPOR.pu                       : CDL Density Porosity
GR.GAPI                       : Gamma Ray
~Parameter Information Block
~A  Depth       DCAL        RHOB        RHOC        DPOR         GR     
# ...
   766.8000      7.7229      2.6040      0.1109      2.7907    131.7422
   766.9000      7.7229      2.6388      0.1704      0.6783    127.2551
   767.0000      7.7233      2.6437      0.1556      0.3837    122.8099
   767.1000      7.7233      2.6234      0.1231      1.6120    122.6016
   767.2000      7.7233      2.5853      0.1146      3.9184    132.0300
   767.3000      7.7277      2.5381      0.0491      6.7820    147.4740
   767.4000      7.7277      2.4977      0.0725      9.2319    154.7971
   767.5000      7.7398      2.4664      0.0372     11.1277    147.9434
   767.6000      7.7398      2.4505     -0.0238     12.0920    139.4121
   767.7000      7.7398      2.4648      0.0321     11.2259    137.3312
   767.8000      7.7592      2.4960      0.0932      9.3357    135.1446
   767.9000      7.7592      2.5076      0.1240      8.6294    131.1392
   768.0000      7.7756      2.4847      0.1116     10.0212    131.1604
   768.1000      7.7756      2.4538      0.0769     11.8897    136.1641
   768.2000      7.7756      2.4498      0.0646     12.1312    141.1266
   768.3000      7.7797      2.4731      0.0652     10.7196    143.0378
   768.4000      7.7797      2.4960      0.0773      9.3337    144.7013
   768.5000      7.7744      2.4975      0.0862      9.2446    147.6989
   768.6000      7.7744      2.4828      0.0821     10.1361    149.4893
   768.7000      7.7744      2.4721      0.0173     10.7837    151.1623
   768.8000      7.7643      2.4766      0.0248     10.5098    155.0942
   768.9000      7.7643      2.4933      0.0172      9.4987    155.5771
   769.0000      7.7542      2.5149      0.0336      8.1909    150.4234
   769.1000      7.7542      2.5343      0.0279      7.0100    144.5333
   769.2000      7.7542      2.5472      0.0522      6.2326    139.7856
   769.3000      7.7463      2.5490      0.0786      6.1226    135.8896
   769.4000      7.7463      2.5437      0.0892      6.4438    132.3236
   769.5000      7.7396      2.5422      0.1486      6.5306    131.0502
   769.6000      7.7396      2.5471      0.1191      6.2342    133.2538
   769.7000      7.7396      2.5478      0.1447      6.1944    134.8474
   769.8000      7.7351      2.5311      0.0963      7.2039    131.2105
   769.9000      7.7351      2.5057      0.0380      8.7443    126.2866
   770.0000      7.7367      2.4969      0.0363      9.2816    128.3699
   770.1000      7.7367      2.5130      0.0467      8.3046    135.0899
   770.2000      7.7367      2.5407      0.0410      6.6249    140.9718
   770.3000      7.7516      2.5621      0.0900      5.3262    146.6503
   770.4000      7.7516      2.5615      0.0911      5.3611    150.2739
   770.5000      7.7765      2.5433      0.0866      6.4643    148.2680
   770.6000      7.7765      2.5339      0.0583      7.0351    143.5302
   770.7000      7.7765      2.5429      0.1021      6.4934    140.4003
   770.8000      7.8002      2.5486      0.1197      6.1464    139.6055
   770.9000      7.8002      2.5330      0.0869      7.0903    141.4584
   771.0000      7.8223      2.5027      0.0594      8.9254    144.4713
   771.1000      7.8223      2.4776     -0.0031     10.4462    147.0034
   771.2000      7.8223      2.4663      0.0395     11.1319    148.9361
   771.3000      7.8368      2.4580     -0.0107     11.6372    149.8387
   771.4000      7.8368      2.4440      0.0205     12.4860    148.6254
   771.5000      7.8458      2.4203     -0.0108     13.9233    144.6838
   771.6000      7.8458      2.3760      0.0374     16.6088    140.6811
   771.7000      7.8458      2.3054     -0.0409     20.8858    140.8356
   771.8000      7.8557      2.2261     -0.0677     25.6881    145.4211
   771.9000      7.8557      2.1594     -0.0470     29.7339    148.1853
   772.0000      7.8626      2.1185     -0.0850     32.2134    145.0712
   772.1000      7.8626      2.1098     -0.0384     32.7366    141.6401
   772.2000      7.8626      2.1228     -0.0238     31.9520    142.9228
   772.3000      7.8654      2.1476     -0.0098     30.4485    145.3135
   772.4000      7.8654      2.1835      0.0788     28.2733    144.2056
   772.5000      7.8670      2.2235      0.0936     25.8487    140.1632
   772.6000      7.8670      2.2628      0.1324     23.4645    132.7409
   772.7000      7.8670      2.3068      0.1454     20.8028    123.6201
   772.8000      7.8674      2.3533      0.1956     17.9826    118.9260
   772.9000      7.8674      2.3816      0.1693     16.2639    118.7807
   773.0000      7.8671      2.3743      0.1040     16.7099    119.7498
   773.1000      7.8671      2.3384      0.0505     18.8847    122.2940
   773.2000      7.8671      2.2994     -0.0292     21.2474    124.1642
   773.3000      7.8669      2.2755      0.0187     22.6962    122.3724
   773.4000      7.8669      2.2652      0.0317     23.3182    122.0160
   773.5000      7.8682      2.2680     -0.0022     23.1519    128.3175
   773.6000      7.8682      2.2880      0.0218     21.9375    137.0556
   773.7000      7.8682      2.3145      0.0361     20.3307    141.0762
   773.8000      7.8708      2.3348      0.0468     19.1033    139.3348
   773.9000      7.8708      2.3533      0.0727     17.9818    136.4099
   774.0000      7.8703      2.3757      0.0905     16.6265    136.4370
   774.1000      7.8703      2.3961      0.0792     15.3907    137.5790
   774.2000      7.8703      2.4092      0.1132     14.5926    137.5404
   774.3000      7.8670      2.4224      0.0929     13.7949    137.5853
   774.4000      7.8670      2.4448      0.0955     12.4340    136.8364
   774.5000      7.8650      2.4621      0.1143     11.3849    135.1716
   774.6000      7.8650      2.4545      0.0371     11.8485    134.0053
   774.7000      7.8650      2.4356      0.0184     12.9948    131.4023
   774.8000      7.8641      2.4294      0.0360     13.3699    128.8535
   774.9000      7.8641      2.4302      0.0470     13.3215    128.6455
   775.0000      7.8645      2.4159      0.0517     14.1880    129.9510
   775.1000      7.8645      2.3823      0.0251     16.2256    134.1937
   775.2000      7.8645      2.3497     -0.0403     18.2010    140.1198
   775.3000      7.8689      2.3390     -0.0126     18.8460    141.9448
   775.4000      7.8689      2.3450      0.0533     18.4868    137.1960
   775.5000      7.8760      2.3488      0.0159     18.2517    130.8370
   775.6000      7.8760      2.3504     -0.0323     18.1588    127.1201
   775.7000      7.8760      2.3556      0.0167     17.8446    126.7228
   775.8000      7.8773      2.3579      0.0073     17.7036    130.6711
   775.9000      7.8773      2.3560      0.0240     17.8197    136.0455
   776.0000      7.8739      2.3553     -0.0022     17.8589    137.9341
   776.1000      7.8739      2.3564      0.0411     17.7943    139.5259
   776.2000      7.8739      2.3578      0.0164     17.7115    144.2001
   776.3000      7.8737      2.3589      0.0121     17.6397    143.9447
   776.4000      7.8737      2.3586      0.0066     17.6616    133.4700
   776.5000      7.8783      2.3544      0.0501     17.9179    122.8647
   776.6000      7.8783      2.3521     -0.0033     18.0544    122.6365
   776.7000      7.8783      2.3647      0.0136     17.2927    129.5123
   776.8000      7.8831      2.3827      0.0728     16.1982    138.3053
   776.9000      7.8831      2.3838      0.0356     16.1309    146.5893
   777.0000      7.8858      2.3727      0.0427     16.8071    150.5476
   777.1000      7.8858      2.3703      0.0370     16.9536    147.8438
   777.2000      7.8858      2.3829      0.0607     16.1863    139.5068
   777.3000      7.8865      2.3998      0.0594     15.1628    132.5303
   777.4000      7.8865      2.4096      0.0560     14.5695    132.9810
   777.5000      7.8776      2.4084      0.0760     14.6433    139.1307
   777.6000      7.8776      2.3984      0.0222     15.2494    146.0082
   777.7000      7.8776      2.3942     -0.0006     15.5054    151.0594
   777.8000      7.8550      2.4070      0.0447     14.7288    152.6734
   777.9000      7.8550      2.4254      0.0944     13.6119    151.4670
