~Version Information
VERS.                      2.0: CWLS Log ASCII Standard - VERSION 2.0
WRAP.                       NO: One line per depth step
~Well Information Block
STRT.FT                10.0000: 
STOP.FT               907.0000: 
STEP.FT                 0.1000: 
NULL.                -999.2500: 
COMP.          Pioneer Natural Resources: COMPANY
WELL.           Hartford 31-18: WELL
FLD.           Purgatorie River: FIELD
LOC.           375' FNL & 1660' FEL: LOCATION
PROV.                 Colorado: PROVINCE
CNTY.               Las Animas: COUNTRY
SRVC.                Patterson: SERVICE COMPANY
DATE.          Mon Nov 21 07:39:41 2005: LOG DATE
UWI.            05-071-08555              : UNIQUE WELL ID
~Curve Information Block
DEPT.FT            0 000 00 00: Depth
DCAL.in                       : CDL Caliper
RHOB.g/cc                     : CDL Bulk Density
RHOC.g/cc                     : CDL Density Correction
DPOR.pu                       : CDL Density Porosity
GR.GAPI                       : Gamma Ray
NPOR.pu                       : Neutron Porosity
~Parameter Information Block
~A  Depth       DCAL        RHOB        RHOC        DPOR         GR         NPOR    
# ...
   720.4000      7.9521      2.5736      0.0707      4.6328    101.1031     27.3674
   720.5000      7.9801      2.6043      0.0951      2.7725     97.2355     27.2569
   720.6000      7.9801      2.6169      0.0853      2.0039     97.3494     27.2605
   720.7000      7.9801      2.6208      0.0191      1.7725     98.5321     27.3743
   720.8000      7.9466      2.6214      0.0979      1.7363     97.3074     27.2423
   720.9000      7.9466      2.6128      0.0431      2.2543     93.0567     26.5292
   721.0000      7.9691      2.6013      0.0106      2.9526     87.0728     25.2314
   721.1000      7.9691      2.5953      0.0310      3.3174     81.1172     23.9432
   721.2000      7.9691      2.5919      0.0189      3.5199     74.1958     23.2054
   721.3000      7.9537      2.5878      0.0032      3.7725     68.0805     22.8688
   721.4000      7.9537      2.5803      0.0188      4.2216     68.1769     22.4907
   721.5000      8.0006      2.5727     -0.0159      4.6859     73.0222     21.7448
   721.6000      8.0006      2.5735     -0.0208      4.6361     76.0898     20.7620
   721.7000      8.0006      2.5808      0.0321      4.1956     75.1976     20.2883
   721.8000      8.0137      2.5870      0.0031      3.8191     73.3444     20.5968
   721.9000      8.0137      2.5918      0.0085      3.5277     73.3593     21.0479
   722.0000      8.0587      2.5941      0.0168      3.3892     76.0430     21.0928
   722.1000      8.0587      2.5927      0.0065      3.4722     80.1863     20.9019
   722.2000      8.0587      2.5913      0.0040      3.5548     82.0367     20.9530
   722.3000      8.0487      2.5932      0.0473      3.4396     80.0731     21.2113
   722.4000      8.0487      2.5991      0.0453      3.0842     78.5089     21.4297
   722.5000      8.0051      2.6076      0.0675      2.5692     81.0028     21.8336
   722.6000      8.0051      2.6074      0.0720      2.5817     84.9459     22.2633
   722.7000      8.0051      2.5961      0.0018      3.2686     85.9748     22.0922
   722.8000      7.9999      2.5897      0.0345      3.6541     85.3632     21.8072
   722.9000      7.9999      2.5941      0.0144      3.3859     87.0446     22.2834
   723.0000      7.9850      2.6058      0.0194      2.6816     88.6816     23.0776
   723.1000      7.9850      2.6223      0.0540      1.6767     86.3443     23.3279
   723.2000      7.9850      2.6332      0.0721      1.0176     82.2719     23.1123
   723.3000      7.9854      2.6304      0.0562      1.1890     79.5487     23.0588
   723.4000      7.9854      2.6291      0.0176      1.2676     77.8039     23.1230
   723.5000      7.9668      2.6490     -0.0089      0.0580     75.4536     22.7813
   723.6000      7.9668      2.6769      0.0594     -1.6301     72.2000     22.2157
   723.7000      7.9668      2.6786      0.0661     -1.7340     68.1621     21.9659
   723.8000      7.9686      2.6558     -0.0094     -0.3523     64.0495     22.0706
   723.9000      7.9686      2.6370      0.0104      0.7894     60.8461     21.9854
   724.0000      7.9728      2.6212      0.0153      1.7449     59.2571     21.4641
   724.1000      7.9728      2.5883      0.0164      3.7409     59.8270     20.9233
   724.2000      7.9728      2.5431     -0.0158      6.4764     63.9259     20.7588
   724.3000      7.9724      2.5115     -0.0404      8.3961     73.1604     21.3227
   724.4000      7.9724      2.4954      0.0044      9.3683     84.8265     22.6134
   724.5000      7.9820      2.4773      0.0247     10.4682     93.5255     23.7514
   724.6000      7.9820      2.4596      0.0310     11.5406     96.3396     24.4152
   724.7000      7.9820      2.4580      0.0338     11.6348     94.3893     25.2569
   724.8000      7.9601      2.4745      0.0823     10.6364     93.3817     26.1654
   724.9000      7.9601      2.4960      0.1060      9.3334     98.4038     26.5037
   725.0000      7.9696      2.5115      0.1137      8.3939    105.9094     26.4892
   725.1000      7.9696      2.5189      0.1474      7.9470    109.6186     26.7309
   725.2000      7.9696      2.5208      0.1165      7.8286    109.0145     27.1396
   725.3000      7.9796      2.5233      0.0955      7.6769    107.6415     27.3670
   725.4000      7.9796      2.5289      0.0926      7.3416    107.6811     27.6445
   725.5000      7.9994      2.5313      0.1273      7.1961    107.2092     28.2235
   725.6000      7.9994      2.5229      0.0802      7.7003    106.8060     28.8687
   725.7000      7.9994      2.5099      0.0514      8.4935    110.2368     29.2134
   725.8000      8.0425      2.5047      0.0231      8.8057    114.9736     29.0819
   725.9000      8.0425      2.5024      0.0818      8.9454    116.2714     28.6661
   726.0000      8.0510      2.4866      0.0537      9.9021    115.5225     28.3531
   726.1000      8.0510      2.4642      0.0032     11.2603    113.6532     28.3637
   726.2000      8.0510      2.4537      0.0048     11.8967    109.2071     28.5378
   726.3000      8.0603      2.4502      0.0023     12.1067    104.9251     28.5106
   726.4000      8.0603      2.4402      0.0056     12.7166    103.6142     28.3469
   726.5000      8.0427      2.4266      0.0107     13.5379    104.9058     28.3510
   726.6000      8.0427      2.4171      0.0441     14.1134    108.8330     28.4363
   726.7000      8.0427      2.4130     -0.0343     14.3613    113.5735     28.4902
   726.8000      8.0540      2.4135     -0.0100     14.3342    117.2141     28.6684
   726.9000      8.0540      2.4153      0.0170     14.2245    120.4526     29.0589
   727.0000      8.0561      2.4252     -0.0283     13.6230    122.1757     29.5737
   727.1000      8.0561      2.4439      0.0806     12.4888    120.2452     29.9856
   727.2000      8.0561      2.4500      0.0736     12.1236    116.3500     30.0625
   727.3000      8.0819      2.4388      0.0233     12.8006    113.6646     29.8958
   727.4000      8.0819      2.4276      0.0132     13.4799    112.8594     29.7688
   727.5000      8.1279      2.4169      0.0522     14.1278    114.0584     29.9151
   727.6000      8.1279      2.3806      0.0842     16.3260    114.8866     30.3723
   727.7000      8.1279      2.2939      0.0713     21.5795    111.9699     30.9249
   727.8000      8.1173      2.1694     -0.0230     29.1272    108.1090     31.3230
   727.9000      8.1173      2.0423     -0.0398     36.8280    105.6138     31.3007
   728.0000      8.1711      1.9266     -0.0932     43.8413    102.1156     30.7751
   728.1000      8.1711      1.8177     -0.0778     50.4414     97.9877     30.1838
   728.2000      8.1711      1.7136     -0.0917     56.7485     96.0732     30.0237
   728.3000      8.2201      1.6171     -0.1116     62.6002     94.5403     30.3652
   728.4000      8.2201      1.5338     -0.0655     67.6476     87.6220     30.9918
   728.5000      8.2495      1.4731     -0.0461     71.3274     75.2904     31.6507
   728.6000      8.2495      1.4435     -0.0346     73.1221     64.4529     32.0022
   728.7000      8.2495      1.4467     -0.0415     72.9296     58.8331     31.9730
   728.8000      8.2551      1.4722     -0.0061     71.3835     56.8137     31.9397
   728.9000      8.2551      1.4969      0.0427     69.8832     57.0984     32.1902
   729.0000      8.4097      1.5048      0.0308     69.4051     58.9323     32.4981
   729.1000      8.4097      1.4988      0.0183     69.7703     61.2333     32.6594
   729.2000      8.4097      1.4821      0.0293     70.7813     62.0831     32.9228
   729.3000      8.4303      1.4532     -0.0081     72.5336     60.0104     33.2768
   729.4000      8.4303      1.4185     -0.0622     74.6346     56.5352     33.4142
   729.5000      8.1854      1.3850     -0.0631     76.6664     53.6457     33.3160
   729.6000      8.1854      1.3524     -0.1075     78.6428     50.7627     33.0618
   729.7000      8.1854      1.3205     -0.0957     80.5771     46.7834     32.6382
   729.8000      8.1503      1.2919     -0.0277     82.3062     42.7376     32.2234
   729.9000      8.1503      1.2745     -0.0523     83.3636     39.7635     32.1145
