~Version Information
VERS.                      2.0: CWLS Log ASCII Standard - VERSION 2.0
WRAP.                       NO: One line per depth step
~Well Information Block
STRT.FT                 0.0000: 
STOP.FT               878.0000: 
STEP.FT                 0.2500: 
NULL.                -999.2500: 
COMP.          Pioneer Natural Resources: COMPANY
WELL.           Hartford 31-18: WELL
FLD.           Purgatorie River: FIELD
LOC.           375' FNL & 1660' FEL: LOCATION
PROV.                 Colorado: PROVINCE
CNTY.               Las Animas: COUNTRY
SRVC.                Patterson: SERVICE COMPANY
DATE.          Mon Nov 28 12:10:49 2005: LOG DATE
UWI.             05-071-08555             : UNIQUE WELL ID
~Curve Information Block
DEPT.FT            0 000 00 00: Depth
CCL.                          : Casing Collar Locator
TT3.usec                      : CBL 3' Travel Time
AMP3.mV                       : CBL 3' Amplitude
GR.GAPI                       : Gamma Ray
~Parameter Information Block
~A  Depth       CCL         TT3         AMP3         GR     
# ...
   268.0000      0.0000    676.9735      9.9630     63.4225
   268.2500      0.0000    647.8434      9.9790     66.3394
   268.5000      0.0000    586.8160     10.0646     68.3449
   268.7500      0.0000    515.6611     10.1546     69.5899
   269.0000      0.0000    483.9317     10.2179     70.7252
   269.2500      0.0000    518.7792     10.2588     72.7057
   269.5000      0.0000    586.4395     10.2875     76.3396
   269.7500      0.0000    619.9282     10.3352     81.7115
   270.0000      0.0000    584.0604     10.4125     87.9153
   270.2500      0.0000    505.0087     10.4745     93.4518
   270.5000      0.0000    434.3801     10.4951     97.0929
   270.7500      0.0000    396.7162     10.5141     98.5896
   271.0000      0.0000    383.4384     10.5686     98.5881
   271.2500      0.0000    380.0276     10.6324     97.7492
   271.5000      0.0000    381.2348     10.6487     96.1475
   271.7500      0.0000    391.9492     10.6023     93.7877
   272.0000      0.0000    425.4429     10.5288     91.3046
   272.2500      0.0000    491.1320     10.4746     89.6866
   272.5000      0.0000    574.6149     10.4730     89.5608
   272.7500      0.0000    643.6442     10.5227     90.9400
   273.0000      0.0000    680.4135     10.5687     93.1231
   273.2500      0.0000    693.6122     10.5488     94.5970
   273.5000      0.0000    700.8331     10.4621     93.6703
   273.7500      0.0000    710.2451     10.3581     89.6650
   274.0000      0.0000    719.3073     10.2783     83.3937
   274.2500      0.0000    724.4680     10.2228     76.5250
   274.5000      0.0000    725.9843     10.1598     70.6111
   274.7500      0.0000    725.7534     10.0659     66.4838
   275.0000      0.0000    725.1800      9.9381     64.1225
   275.2500      0.0000    724.8354      9.7719     62.9431
   275.5000      0.0000    724.8002      9.5760     62.3685
   275.7500      0.0000    725.0486      9.3861     62.1667
   276.0000      0.0000    725.4609      9.2376     62.3707
   276.2500      0.0000    725.7291      9.1314     63.2412
   276.5000      0.0000    725.6296      9.0343     65.1883
   276.7500      0.0000    725.3084      8.9262     68.1009
   277.0000      0.0000    725.0876      8.8446     70.7740
   277.2500      0.0000    725.3461      8.8404     71.7016
   277.5000      0.0000    727.0423      8.8899     70.6060
   277.7500      0.0000    731.9634      8.9171     68.6519
   278.0000      0.0000    740.4795      8.8890     67.0953
   278.2500      0.0000    748.1419      8.8186     66.2264
   278.5000      0.0000    748.5972      8.7316     65.7043
   278.7500      0.0000    741.7042      8.6721     65.4555
   279.0000      0.0000    733.5391      8.6561     65.9410
   279.2500      0.0000    728.4871      8.6346     67.6507
   279.5000      0.0000    726.4240      8.5659     70.5240
   279.7500      0.0000    725.8328      8.4766     73.9820
   280.0000      0.0000    726.0784      8.4229     77.3148
   280.2500      0.0000    727.9075      8.4295     79.7115
   280.5000      0.0000    733.3380      8.4407     80.2299
   280.7500      0.0000    743.6299      8.3431     78.5115
   281.0000      0.0000    756.2535      8.0985     75.5900
   281.2500      0.0000    766.2224      7.7950     73.3201
   281.5000      0.0000    770.9515      7.5320     72.6528
   281.7500      0.0000    770.8188      7.3267     72.7704
   282.0000      0.0000    765.8049      7.1255     72.1963
   282.2500      0.0000    755.3334      6.8583     70.6021
   282.5000      0.0000    741.1949      6.5273     69.2616
   282.7500      0.0000    726.5091      6.2439     69.7398
   283.0000      0.0000    712.1866      6.1247     72.4411
   283.2500      0.0000    698.6944      6.1809     76.5599
   283.5000      0.0000    688.4122      6.3219     81.0202
   283.7500      0.0000    682.9393      6.4287     85.0159
   284.0000      0.0000    681.8798      6.4460     87.9970
   284.2500      0.0000    685.0128      6.4081     89.8318
   284.5000      0.0000    692.4865      6.3436     90.8934
   284.7500      0.0000    703.3874      6.2425     91.5382
   285.0000      0.0000    715.7985      6.1472     91.5741
   285.2500      0.0000    726.4728      6.1161     90.4854
   285.5000      0.0000    732.8050      6.1259     88.0028
   285.7500      0.0000    738.0864      6.1502     84.2966
   286.0000      0.0000    748.2402      6.2136     79.9159
   286.2500      0.0000    762.0764      6.3027     75.7795
   286.5000      0.0000    771.1379      6.3629     72.8801
   286.7500      0.0000    769.5469      6.3819     71.5540
   287.0000      0.0000    759.8765      6.3827     71.1950
   287.2500      0.0000    749.7214      6.3654     71.1475
   287.5000      0.0000    744.1749      6.3117     71.8800
   287.7500      0.0000    741.2216      6.2276     74.6658
   288.0000      0.0000    736.5970      6.1696     79.8879
   288.2500      0.0000    730.7504      6.2011     86.1890
   288.5000      0.0000    726.5600      6.3071     91.6761
   288.7500      0.0000    724.6464      6.4070     95.5841
   289.0000      0.0000    723.9567      6.4452     98.3542
   289.2500      0.0000    723.7293      6.4306    100.3031
   289.5000      0.0000    723.7517      6.4066    100.6986
   289.7500      0.0000    723.9495      6.4051     98.4126
   290.0000      0.0000    724.2378      6.4091     93.3390
   290.2500      0.0000    724.5218      6.3457     86.7611
   290.5000      0.0000    724.6935      6.1635     80.3277
   290.7500      0.0000    724.7084      5.9167     75.1564
   291.0000      0.0000    724.6381      5.6960     71.9950
   291.2500      0.0000    724.5980      5.5108     71.4832
   291.5000      0.0000    724.5839      5.3308     73.6702
   291.7500      0.0000    723.9661      5.1717     77.5809
   292.0000      0.0000    720.2653      5.0664     81.7363
   292.2500      0.0000    708.2667      5.0241     85.0605
   292.5000      0.0000    683.1738      5.0467     87.2585
   292.7500      0.0000    646.9118      5.1382     88.6823
   293.0000      0.0000    608.2280      5.2768     89.9923
   293.2500      0.0000    576.2069      5.4164     91.5738
   293.5000      0.0000    555.8290      5.5309     92.9614
   293.7500      0.0000    546.3525      5.6408     93.1420
   294.0000      0.0000    542.5688      5.7876     91.7118
   294.2500      0.0000    538.4815      5.9611     89.4300
   294.5000      0.0000    530.7098      6.0758     87.4405
   294.7500      0.0000    521.4224      6.0778     86.4624
   295.0000      0.0000    517.8428      6.0133     86.8727
   295.2500      0.0000    527.4368      5.9456     88.8663
   295.5000      0.0000    553.7663      5.8940     92.1351
   295.7500      0.0000    591.1019      5.8669     95.8435
   296.0000      0.0000    619.1482      5.8792     99.2094
   296.2500      0.0000    616.9634      5.9355    101.8250
   296.5000      0.0000    588.2773      6.0187    103.4289
   296.7500      0.0000    557.1294      6.1047    103.7486
   297.0000      0.0000    540.3362      6.1797    102.5346
   297.2500      0.0000    536.7070      6.2383     99.5308
   297.5000      0.0000    535.9998      6.2828     94.7471
   297.7500      0.0000    530.9131      6.3214     89.2363
   298.0000      0.0000    522.8759      6.3475     85.3055
   298.2500      0.0000    518.7880      6.3051     85.0734
   298.5000      0.0000    523.6280      6.0443     88.3738
   298.7500      0.0000    537.9422      5.3965     92.4229
   299.0000      0.0000    561.4783      4.4367     93.9556
   299.2500      0.0000    592.6111      3.5012     91.8719
   299.5000      0.0000    624.0726      2.8094     87.8766
   299.7500      0.0000    649.9874      2.3344     84.5106
   300.0000      0.0000    670.8392      2.0385     82.6058
   300.2500      2.0000    693.0598      1.9065     80.9503
   300.5000     -2.0000    742.6331      1.8454     78.3222
   300.7500     -2.0000    836.6705      1.7612     75.1204
   301.0000      0.0000    923.2769      1.6577     72.7798
   301.2500      0.0000    928.8915      1.6303     72.1550
