~Version Information
VERS.                      2.0: CWLS Log ASCII Standard - VERSION 2.0
WRAP.                       NO: One line per depth step
~Well Information Block
STRT.FT               770.0000: 
STOP.FT              2171.0000: 
STEP.FT                 0.1000: 
NULL.                -999.2500: 
COMP.          Pioneer Natural Resources: COMPANY
WELL.              Kermit 32-7: WELL
FLD.           Purgatoire River: FIELD
LOC.           2002' FNL & 2103' FEL: LOCATION
PROV.                 Colorado: PROVINCE
CNTY.               Las Animas: COUNTRY
SRVC.                Patterson: SERVICE COMPANY
DATE.          Thu Jan 12 03:02:28 2006: LOG DATE
UWI.           05 071 08647 00: UNIQUE WELL ID
~Curve Information Block
DEPT.FT            0 000 00 00: Depth
DCAL.in                       : CDL Caliper
RHOB.g/cc                     : CDL Bulk Density
RHOC.g/cc                     : CDL Density Correction
DPOR.pu                       : CDL Density Porosity
GR.GAPI                       : Gamma Ray
NPOR.pu                       : Neutron Porosity
~Parameter Information Block
~A  Depth       DCAL        RHOB        RHOC        DPOR         GR         NPOR    
# ...
  1230.8000      7.9187      2.5521      0.1897      5.9331    137.1187     30.6506
  1230.9000      7.9187      2.5825      0.1542      4.0923    138.4935     30.7130
  1231.0000      7.9368      2.5983      0.1359      3.1341    136.8591     30.8553
  1231.1000      7.9368      2.6200      0.2350      1.8184    137.0090     30.9936
  1231.2000      7.9368      2.6406      0.2993      0.5704    139.8359     30.9568
  1231.3000      7.9678      2.6402      0.2519      0.5960    139.7766     30.7289
  1231.4000      7.9678      2.6251      0.2357      1.5099    135.3097     30.3370
  1231.5000      7.9895      2.6122      0.1897      2.2907    135.0881     29.8991
  1231.6000      7.9895      2.6038      0.1415      2.7970    142.3589     29.8150
  1231.7000      7.9895      2.5956      0.1647      3.2962    146.8180     30.0798
  1231.8000      7.9998      2.5916      0.1262      3.5369    142.5404     30.2642
  1231.9000      7.9998      2.5893      0.2241      3.6809    136.8774     30.2164
  1232.0000      7.9966      2.5816      0.1434      4.1478    136.6211     29.9893
  1232.1000      7.9966      2.5894      0.1259      3.6746    136.1706     29.8459
  1232.2000      7.9966      2.6245      0.1965      1.5439    128.7312     29.9447
  1232.3000      7.9970      2.6614      0.2055     -0.6926    117.8056     30.1766
  1232.4000      7.9970      2.6845      0.2069     -2.0937    109.1648     30.4835
  1232.5000      7.9308      2.7029      0.2122     -3.2056    104.4328     30.8795
  1232.6000      7.9308      2.7210      0.2350     -4.3008    104.3572     31.2263
  1232.7000      7.9308      2.7301      0.2258     -4.8524    107.8266     31.3406
  1232.8000      7.8894      2.7222      0.2796     -4.3744    109.4340     31.0268
  1232.9000      7.8894      2.6991      0.1567     -2.9745    107.4066     30.3210
  1233.0000      7.9042      2.6687      0.1603     -1.1309    106.0599     29.6409
  1233.1000      7.9042      2.6379      0.1064      0.7316    107.2092     29.1430
  1233.2000      7.9042      2.6189      0.1021      1.8850    109.7248     28.3571
  1233.3000      7.9347      2.6175      0.1325      1.9692    110.4980     27.3696
  1233.4000      7.9347      2.6229      0.0980      1.6427    108.4355     26.9645
  1233.5000      7.9661      2.6252      0.1105      1.5054    109.1040     27.3637
  1233.6000      7.9661      2.6226      0.1180      1.6602    116.2970     28.0620
  1233.7000      7.9661      2.6086      0.1307      2.5083    124.5593     28.3724
  1233.8000      8.0389      2.5759      0.0757      4.4923    125.7930     28.1110
  1233.9000      8.0389      2.5400      0.0139      6.6664    119.4958     27.6364
  1234.0000      7.9553      2.5284     -0.0089      7.3675    111.4545     27.2641
  1234.1000      7.9553      2.5438      0.0047      6.4354    105.4467     27.0632
  1234.2000      7.9553      2.5626      0.0592      5.2963    103.6220     27.0574
  1234.3000      8.0308      2.5660      0.0708      5.0912    105.6839     27.2170
  1234.4000      8.0308      2.5520      0.0820      5.9422    108.1965     27.4645
  1234.5000      8.0978      2.5261      0.0190      7.5078    111.2434     27.7517
  1234.6000      8.0978      2.5060      0.0052      8.7288    116.5409     27.8862
  1234.7000      8.0978      2.5112     -0.0153      8.4123    122.0764     27.9350
  1234.8000      8.0774      2.5298      0.0462      7.2834    124.8437     28.3495
  1234.9000      8.0774      2.5255      0.0658      7.5477    124.5433     28.9607
  1235.0000      8.0401      2.4973     -0.0482      9.2519    124.2308     29.3198
  1235.1000      8.0401      2.4758     -0.0147     10.5594    125.3439     29.4087
  1235.2000      8.0401      2.4634      0.0349     11.3072    124.1716     29.4860
  1235.3000      8.1594      2.4476      0.0027     12.2661    122.1747     29.7081
  1235.4000      8.1594      2.4334     -0.0059     13.1269    126.1969     30.0979
  1235.5000      8.0596      2.4271      0.0385     13.5121    136.3583     30.5595
  1235.6000      8.0596      2.4266     -0.0035     13.5380    143.9007     30.9384
  1235.7000      8.0596      2.4342      0.0225     13.0762    142.9893     31.1037
  1235.8000      8.0110      2.4501      0.0646     12.1152    140.3334     31.1131
  1235.9000      8.0110      2.4809      0.0672     10.2478    140.6926     31.0447
  1236.0000      8.0012      2.5506      0.1059      6.0218    142.1005     30.5496
  1236.1000      8.0012      2.6571      0.2695     -0.4327    147.2820     29.3282
  1236.2000      8.0012      2.7376      0.4362     -5.3066    159.8332     27.6487
  1236.3000      8.0050      2.7365      0.3497     -5.2397    171.7411     25.6572
  1236.4000      8.0050      2.6752      0.2170     -1.5265    170.3950     23.2901
  1236.5000      7.9866      2.6039      0.1760      2.7956    161.8554     20.7924
  1236.6000      7.9866      2.5399      0.1150      6.6723    160.6009     18.6698
  1236.7000      7.9866      2.4628      0.0852     11.3446    164.8986     17.2206
  1236.8000      7.9022      2.3480      0.0642     18.3050    164.8243     16.2155
  1236.9000      7.9022      2.2136     -0.0421     26.4472    158.2111     15.1447
  1237.0000      7.9193      2.0971     -0.0214     33.5117    148.2987     13.9982
  1237.1000      7.9193      1.9916     -0.0306     39.9055    140.3207     13.0729
  1237.2000      7.9193      1.8793     -0.0674     46.7070    137.1850     12.3445
  1237.3000      7.9493      1.7861     -0.1318     52.3594    132.8737     11.7206
  1237.4000      7.9493      1.7459     -0.0525     54.7949    123.6364     11.3136
  1237.5000      7.9352      1.7426      0.0830     54.9931    115.2406     11.2455
  1237.6000      7.9352      1.7305      0.2059     55.7259    112.6445     11.3457
  1237.7000      7.9352      1.6955      0.1810     57.8502    107.4556     11.3518
  1237.8000      8.0156      1.6598      0.1650     60.0109     92.8856     11.2927
  1237.9000      8.0156      1.6419      0.1240     61.0945     78.6104     11.3165
  1238.0000      8.0429      1.6362      0.1409     61.4405     72.8801     11.5575
  1238.1000      8.0429      1.6255      0.1105     62.0933     70.6570     12.1610
  1238.2000      8.0429      1.6079      0.0649     63.1575     64.5223     12.8929
  1238.3000      7.9985      1.6023      0.0179     63.4941     55.1678     13.2360
  1238.4000      7.9985      1.6232      0.0515     62.2322     48.0542     13.1017
  1238.5000      7.9444      1.6583      0.1124     60.1017     44.6828     12.6820
  1238.6000      7.9444      1.6849      0.1178     58.4929     42.8145     12.1137
  1238.7000      7.9444      1.6996      0.0960     57.6017     41.6719     11.5085
  1238.8000      7.9614      1.7102      0.1193     56.9565     40.0313     10.9267
  1238.9000      7.9614      1.7098      0.1104     56.9832     36.9070     10.5736
  1239.0000      7.9493      1.6855      0.1087     58.4543     34.6207     10.4863
  1239.1000      7.9493      1.6505     -0.0005     60.5781     33.4958     10.4749
  1239.2000      7.9493      1.6374     -0.0017     61.3710     31.6197     10.4626
  1239.3000      7.9699      1.6493      0.0724     60.6477     30.2004     10.2836
  1239.4000      7.9699      1.6594      0.0253     60.0392     29.7653      9.8402
  1239.5000      8.0163      1.6576     -0.0006     60.1449     28.8485      9.3437
  1239.6000      8.0163      1.6528      0.0245     60.4379     29.2380      9.0168
  1239.7000      8.0163      1.6446      0.0632     60.9339     33.7378      9.0016
  1239.8000      8.0839      1.6293      0.0507     61.8621     40.9156      9.1888
  1239.9000      8.0839      1.6185      0.0297     62.5175     46.8313      9.2048
  1240.0000      8.0791      1.6231      0.1022     62.2364     45.6613      9.1511
  1240.1000      8.0791      1.6327      0.1059     61.6567     37.2358      9.4054
  1240.2000      8.0791      1.6315      0.1239     61.7278     31.0486      9.8368
  1240.3000      8.0296      1.6199      0.0748     62.4287     32.3405     10.2076
