~Version Information
VERS.                      2.0: CWLS Log ASCII Standard - VERSION 2.0
WRAP.                       NO: One line per depth step
~Well Information Block
STRT.FT                 0.0000: 
STOP.FT              1674.7500: 
STEP.FT                 0.2500: 
NULL.                -999.2500: 
COMP.          Pioneer Natural Resources: COMPANY
WELL.          Culver 14-12 Tr: WELL
FLD.           Purgatorie River: FIELD
LOC.           915' FSL & 1048' FWL: LOCATION
STAT.                 Colorado: Colorado
CNTY.               Las Animas: COUNTY
CTRY. USA : Country
SECT. 12 : Section
TOWN. 32S : Township
RANG. 66W : Range
SRVC.                Patterson: SERVICE COMPANY
DATE.          Mon Oct 03 12:52:29 2005: LOG DATE
API. 05-071-08520                         : UNIQUE WELL ID
~Curve Information Block
DEPT.FT            0 000 00 00: Depth
CCL.                          : Casing Collar Locator
TT3.usec                      : CBL 3' Travel Time
AMP3.mV                       : CBL 3' Amplitude
GR.GAPI                       : Gamma Ray
~Parameter Information Block
~A  Depth       CCL         TT3         AMP3         GR     
# ...
  1407.0000      0.0000    727.6965     10.7206    121.9035
  1407.2500      0.0000    735.5847     11.3899    120.4565
  1407.5000      0.0000    751.6397     12.1004    117.8112
  1407.7500      0.0000    767.7999     12.7175    115.0107
  1408.0000      0.0000    779.7144     13.1595    112.7861
  1408.2500      0.0000    788.3038     13.4299    111.7450
  1408.5000      0.0000    793.9694     13.5531    112.1196
  1408.7500      0.0000    796.0461     13.4948    113.2791
  1409.0000      0.0000    795.6196     13.2233    113.7239
  1409.2500      0.0000    794.4495     12.8340    111.5232
  1409.5000      0.0000    793.3127     12.5447    105.1043
  1409.7500      0.0000    792.3638     12.5287     94.3920
  1410.0000      0.0000    791.5347     12.8065     81.4583
  1410.2500      0.0000    790.2375     13.3335     69.6464
  1410.5000      0.0000    787.4835     14.1216     61.7540
  1410.7500      0.0000    783.7231     15.2488     58.9863
  1411.0000      0.0000    781.9510     16.7754     61.1559
  1411.2500      0.0000    782.6631     18.6643     67.1326
  1411.5000      0.0000    776.2574     20.8229     75.0863
  1411.7500      0.0000    744.3547     23.2096     83.1865
  1412.0000      0.0000    679.1642     25.7586     90.7103
  1412.2500      0.0000    609.8081     28.1591     98.2972
  1412.5000      0.0000    585.6758     29.9081    106.8285
  1412.7500      0.0000    616.9302     30.6591    116.0131
  1413.0000      0.0000    666.4881     30.3962    124.0443
  1413.2500      0.0000    703.8216     29.3661    128.6947
  1413.5000      0.0000    726.9825     27.9510    129.0120
  1413.7500      0.0000    741.4455     26.4700    126.0729
  1414.0000      0.0000    747.2239     25.0252    121.9799
  1414.2500      0.0000    743.6464     23.5615    118.0792
  1414.5000      0.0000    734.7126     22.0403    114.1708
  1414.7500      0.0000    727.1705     20.5346    109.2145
  1415.0000      0.0000    725.6764     19.1780    102.4846
  1415.2500      0.0000    730.5166     18.0524     94.0866
  1415.5000      0.0000    737.6755     17.1553     84.8394
  1415.7500      0.0000    742.4255     16.4404     75.8913
  1416.0000      0.0000    744.6937     15.8713     68.1302
  1416.2500      0.0000    747.3784     15.4472     61.7285
  1416.5000      0.0000    750.6969     15.1660     56.4370
  1416.7500      0.0000    752.9216     14.9906     52.3605
  1417.0000      0.0000    753.6800     14.8679     50.1852
  1417.2500      0.0000    753.6495     14.7439     50.4189
  1417.5000      0.0000    753.0959     14.5782     52.3905
  1417.7500      0.0000    751.3513     14.3797     54.2150
  1418.0000      0.0000    746.9711     14.1932     54.0826
  1418.2500      0.0000    739.8119     14.0249     51.7790
  1418.5000      0.0000    733.9092     13.8199     48.9159
  1418.7500      0.0000    734.6078     13.5197     47.6200
  1419.0000      0.0000    741.4427     13.1366     49.0906
  1419.2500      0.0000    748.7474     12.7739     53.4912
  1419.5000      0.0000    752.8883     12.5346     60.8257
  1419.7500      0.0000    754.2418     12.4300     71.1212
  1420.0000      0.0000    753.8763     12.4776     83.5206
  1420.2500      0.0000    751.9315     12.8590     95.8781
  1420.5000      0.0000    749.7280     13.8305    105.7475
  1420.7500      0.0000    752.0659     15.4314    111.6199
  1421.0000      0.0000    764.2877     17.3366    113.2506
  1421.2500      0.0000    786.1733     19.0117    111.3899
  1421.5000      0.0000    810.3822     20.0507    107.5474
  1421.7500      0.0000    828.0206     20.4352    103.6058
  1422.0000      0.0000    835.6526     20.4454    100.9922
  1422.2500      0.0000    835.4899     20.3515    100.0660
  1422.5000      0.0000    831.7982     20.2304    100.5165
  1422.7500      0.0000    828.7456     19.9567    102.2493
  1423.0000      0.0000    826.0970     19.3194    105.4777
  1423.2500      0.0000    818.0491     18.2063    109.8828
  1423.5000      0.0000    802.4468     16.6783    114.2121
  1423.7500      0.0000    786.3851     14.9266    117.0969
  1424.0000      0.0000    777.3479     13.2229    117.9884
  1424.2500      0.0000    774.7590     11.8251    117.0700
  1424.5000      0.0000    775.1459     10.8364    114.5881
  1424.7500      0.0000    778.7437     10.1843    110.6481
  1425.0000      0.0000    785.5242      9.7490    105.6244
  1425.2500      0.0000    791.8788      9.4607    100.7016
  1425.5000      0.0000    794.8648      9.2919     97.8946
  1425.7500      0.0000    795.0631      9.2248     98.9819
  1426.0000      0.0000    795.4324      9.2222    103.8263
  1426.2500      0.0000    796.9995      9.2170    109.7815
  1426.5000      0.0000    791.9659      9.1470    113.3071
  1426.7500      0.0000    770.3101      9.0101    112.6044
  1427.0000      0.0000    741.7119      8.8807    108.7834
  1427.2500      0.0000    732.0261      8.8182    104.5398
  1427.5000      0.0000    747.8202      8.7141    101.9194
  1427.7500      0.0000    767.1534      8.3090    101.3010
  1428.0000      0.0000    769.4692      7.4638    101.9062
  1428.2500      0.0000    755.5573      6.4308    102.7629
  1428.5000      0.0000    741.4369      5.7508    103.2491
  1428.7500      0.0000    741.3667      5.6635    103.1212
  1429.0000      0.0000    752.7733      5.7493    102.3741
  1429.2500      0.0000    762.1463      5.6179    101.1960
  1429.5000      0.0000    765.1088      5.5729     99.9408
  1429.7500      0.0000    766.4141      6.0157     98.9554
  1430.0000      0.0000    767.5354      6.7999     98.4290
  1430.2500      2.0000    767.0897      7.5395     98.4943
  1430.5000     -2.0000    764.7485      8.0039     99.3867
  1430.7500      0.0000    762.2012      8.1695    101.2646
  1431.0000      0.0000    763.3706      8.3608    103.9314
  1431.2500      0.0000    771.0359      9.2374    107.0412
  1431.5000      0.0000    779.1634     10.9558    110.5232
  1431.7500      0.0000    768.8256     12.5130    114.3978
  1432.0000      0.0000    721.0553     13.0804    118.0618
  1432.2500      0.0000    636.3322     13.4049    120.2313
  1432.5000      0.0000    541.8757     14.4700    119.8887
  1432.7500      0.0000    473.5269     15.9545    117.0313
  1433.0000      0.0000    443.9964     16.9787    112.4192
  1433.2500      0.0000    442.5596     17.2572    107.0660
  1433.5000      0.0000    460.9430     17.0650    102.1635
  1433.7500      0.0000    502.8631     16.6976     98.8822
  1434.0000      0.0000    570.2525     16.2365     97.6940
  1434.2500      0.0000    646.8337     15.6487     98.0699
  1434.5000      0.0000    706.6550     14.9715     99.1533
  1434.7500      0.0000    738.8834     14.3266    100.4306
  1435.0000      0.0000    750.0452     13.7769    101.4707
  1435.2500      0.0000    750.6306     13.2939    101.5301
  1435.5000      0.0000    749.6704     12.8453     99.9816
  1435.7500      0.0000    751.8904     12.4350     97.1703
  1436.0000      0.0000    755.6821     12.1048     94.6344
  1436.2500      0.0000    757.1771     11.9103     94.2313
  1436.5000      0.0000    753.9594     11.8441     96.6470
  1436.7500      0.0000    745.5198     11.8195    100.6070
  1437.0000      0.0000    734.4758     11.7485    103.7980
  1437.2500      0.0000    725.4998     11.6124    104.7422
  1437.5000      0.0000    720.8696     11.4683    103.8580
  1437.7500      0.0000    719.4172     11.3879    102.8747
  1438.0000      0.0000    719.2659     11.3794    103.3930
  1438.2500      0.0000    719.3810     11.3745    105.8596
  1438.5000      0.0000    719.3796     11.3027    109.3670
  1438.7500      0.0000    719.1857     11.1664    112.0136
  1439.0000      0.0000    718.9213     11.0232    111.9383
  1439.2500      0.0000    718.7856     10.9185    108.8199
  1439.5000      0.0000    718.9659     10.8661    104.3093
  1439.7500      0.0000    720.0132     10.8614    100.5693
  1440.0000      0.0000    722.9312     10.8935     98.4739
  1440.2500      0.0000    727.2213     10.9579     97.3946
