~Version Information
VERS.                      2.0: CWLS Log ASCII Standard - VERSION 2.0
WRAP.                       NO: One line per depth step
~Well Information Block
STRT.FT                 0.0000: 
STOP.FT              3428.7500: 
STEP.FT                 0.2500: 
NULL.                -999.2500: 
COMP.          Pioneer Natural Resources: COMPANY
WELL.          Cordillera 34-7: WELL
FLD.           Purgatorie River: FIELD
LOC.           598' FSL & 1770' FEL: LOCATION
PROV.                 Colorado: PROVINCE
CNTY.               Las Animas: COUNTRY
SRVC.                Patterson: SERVICE COMPANY
DATE.          Fri Nov 18 07:55:32 2005: LOG DATE
UWI.                          : UNIQUE WELL ID
~Curve Information Block
DEPT.FT            0 000 00 00: Depth
AMP3.mV                       : CBL 3' Amplitude
CCL.                          : Casing Collar Locator
GR.GAPI                       : Gamma Ray
TT3.usec                      : CBL 3' Travel Time
~Parameter Information Block
~A  Depth       AMP3        CCL          GR         TT3     
# ...
   904.5000      6.2201      0.0000    109.8144    760.5661
   904.7500      6.2029      0.0000    115.0594    754.4517
   905.0000      6.1594      0.0000    121.4497    748.2411
   905.2500      6.1251      0.0000    126.6669    743.1534
   905.5000      6.1396      0.0000    129.5191    738.6677
   905.7500      6.2135      0.0000    130.5823    733.6694
   906.0000      6.3130      0.0000    131.3113    728.6609
   906.2500      6.3999      0.0000    132.7638    726.1686
   906.5000      6.4657      0.0000    134.8629    728.9211
   906.7500      6.5392      0.0000    136.4742    740.5491
   907.0000      6.6395      0.0000    136.4767    759.6361
   907.2500      6.7340      0.0000    135.0961    776.4460
   907.5000      6.8052      0.0000    133.7406    784.7404
   907.7500      6.8901      0.0000    133.1767    787.6164
   908.0000      7.0062      0.0000    132.4296    790.0881
   908.2500      7.1207      0.0000    130.0030    793.7467
   908.5000      7.1929      0.0000    125.6412    797.1229
   908.7500      7.1962      0.0000    120.2829    798.1902
   909.0000      7.1215      0.0000    114.7701    795.6498
   909.2500      6.9874      0.0000    109.3826    788.4955
   909.5000      6.8486      0.0000    104.4557    776.4394
   909.7500      6.7452      0.0000    100.8305    761.0151
   910.0000      6.6467      0.0000     99.5684    745.8984
   910.2500      6.5048      0.0000    101.2521    735.0113
   910.5000      6.3375      0.0000    105.2163    729.3033
   910.7500      6.1984      0.0000    109.1907    726.8970
   911.0000      6.1076      0.0000    110.1941    725.9262
   911.2500      6.0648      0.0000    106.6980    725.5865
   911.5000      6.0602      0.0000    100.1894    725.5529
   911.7500      6.0551      0.0000     94.3147    725.6387
   912.0000      6.0148      0.0000     92.3263    725.7383
   912.2500      5.9430      0.0000     95.1438    725.7654
   912.5000      5.8562      0.0000    101.2232    725.7217
   912.7500      5.7750      0.0000    107.8049    725.7681
   913.0000      5.7373      0.0000    112.5291    726.0722
   913.2500      5.7534      0.0000    114.5808    726.6068
   913.5000      5.7796      0.0000    114.7691    727.1697
   913.7500      5.7836      0.0000    114.4334    727.5722
   914.0000      5.7792      0.0000    114.0495    727.7256
   914.2500      5.7863      0.0000    112.9598    727.5925
   914.5000      5.8162      0.0000    110.5414    727.1904
   914.7500      5.8882      0.0000    107.3786    726.6755
   915.0000      6.0042      0.0000    105.0041    726.3530
   915.2500      6.1249      0.0000    104.5130    726.4724
   915.5000      6.2067      0.0000    105.5857    726.9667
   915.7500      6.2297      0.0000    106.8018    727.5373
   916.0000      6.1912      0.0000    106.8254    728.1124
   916.2500      6.1203      0.0000    105.4576    729.3525
   916.5000      6.0709      0.0000    103.6577    732.4580
   916.7500      6.0573      0.0000    102.4181    737.0090
   917.0000      6.0430      0.0000    101.7577    739.3925
   917.2500      6.0119      0.0000    101.0460    736.8736
   917.5000      5.9953      0.0000    100.1236    731.7194
   917.7500      6.0026      0.0000     99.7279    727.6038
   918.0000      5.9825      0.0000    100.6043    725.4409
   918.2500      5.8913      0.0000    102.2409    724.4807
   918.5000      5.7632      0.0000    102.7467    724.1429
   918.7500      5.6784      0.0000    100.3971    724.1414
   919.0000      5.6727      0.0000     95.5190    724.2194
   919.2500      5.7090      0.0000     90.6636    724.0140
   919.5000      5.7477      0.0000     88.6451    722.5375
   919.7500      5.7931      0.0000     90.3801    717.6514
   920.0000      5.8396      0.0000     94.7614    707.7672
   920.2500      5.8146      0.0000    100.4736    695.2458
   920.5000      5.5981      0.0000    107.4143    685.6892
   920.7500      5.1802      0.0000    116.0613    682.9967
   921.0000      4.8582      0.0000    125.8789    686.9294
   921.2500      4.9523      0.0000    134.9716    694.2305
   921.5000      5.2253      0.0000    141.2814    702.7696
   921.7500      5.2268      0.0000    143.6879    715.6432
   922.0000      5.0482      0.0000    141.9942    736.0915
   922.2500      5.0101      0.0000    136.6238    758.4447
   922.5000      5.1300      0.0000    128.7862    771.4269
   922.7500      5.2741      2.0000    120.5025    772.8916
   923.0000      5.3822      0.0000    113.7068    773.9185
   923.2500      5.4702      0.0000    109.1985    780.5511
   923.5000      5.6207      0.0000    106.7935    782.6572
   923.7500      5.9956      0.0000    106.4561    774.6218
   924.0000      6.6392      0.0000    108.7844    769.6176
   924.2500      7.2198      0.0000    114.1529    775.9587
   924.5000      7.3938      0.0000    121.5239    783.2278
   924.7500      7.2824      0.0000    128.4281    781.4986
   925.0000      7.1673      0.0000    132.5292    771.7108
   925.2500      7.1615      0.0000    133.3356    758.6469
   925.5000      7.2861      0.0000    132.1245    745.7417
   925.7500      7.5061      0.0000    130.3379    734.4532
   926.0000      7.7210      0.0000    128.5540    725.3374
   926.2500      7.8442      0.0000    126.8686    719.9512
   926.5000      7.8895      0.0000    125.3621    721.6248
   926.7500      7.9269      0.0000    123.8960    731.3806
   927.0000      7.9807      0.0000    122.0439    743.6711
   927.2500      8.0394      0.0000    119.7450    750.1351
   927.5000      8.1158      0.0000    117.7823    749.7245
   927.7500      8.2532      0.0000    117.0775    751.7794
   928.0000      8.5160      0.0000    117.2671    761.3947
   928.2500      8.9827      0.0000    116.3984    770.3062
   928.5000      9.7296      0.0000    112.5797    768.8662
   928.7500     10.8109      0.0000    105.8002    750.4923
   929.0000     12.2625      0.0000     97.7343    703.0263
   929.2500     14.1274      0.0000     90.0469    616.5957
   929.5000     16.4355      0.0000     83.3632    506.5281
   929.7500     19.1408      0.0000     77.7194    409.0254
   930.0000     22.0646      0.0000     73.4384    346.6801
   930.2500     24.7946      0.0000     71.2139    316.2001
   930.5000     26.6927      0.0000     71.4750    304.5760
   930.7500     27.2957      0.0000     74.1062    301.6917
   931.0000     26.7145      0.0000     78.9309    303.3455
   931.2500     25.3475      0.0000     86.1822    312.4554
   931.5000     23.3541      0.0000     96.0835    341.8968
   931.7500     20.7556      0.0000    107.8021    413.3542
   932.0000     17.7974      0.0000    119.2338    536.9144
   932.2500     14.9034      0.0000    128.3191    681.7899
   932.5000     12.4131      0.0000    134.2546    790.4023
   932.7500     10.4673      0.0000    136.9698    832.5345
   933.0000      9.0549      0.0000    136.0210    824.0391
   933.2500      8.0925      0.0000    130.9248    798.5493
   933.5000      7.4641      0.0000    122.5895    778.1252
   933.7500      7.0462      0.0000    113.7366    764.3100
   934.0000      6.7503      0.0000    107.5069    749.2523
   934.2500      6.5446      0.0000    105.6114    731.7004
   934.5000      6.4129      0.0000    107.4920    718.9384
   934.7500      6.3322      0.0000    110.6945    714.7462
   935.0000      6.2926      0.0000    112.0978    712.9280
   935.2500      6.2887      0.0000    109.6264    706.1597
   935.5000      6.2970      0.0000    103.4504    695.1564
   935.7500      6.2809      0.0000     95.5635    685.6390
   936.0000      6.2191      0.0000     88.1122    680.4858
   936.2500      6.1293      0.0000     82.2434    678.4355
   936.5000      6.0487      0.0000     78.3383    677.6563
   936.7500      5.9888      0.0000     76.6434    677.3707
   937.0000      5.9388      0.0000     77.2072    677.3207
   937.2500      5.8983      0.0000     79.3795    677.3600
   937.5000      5.8787      0.0000     81.7154    677.4245
   937.7500      5.8915      0.0000     82.6334    677.4924
