~Version Information
VERS.                      2.0: CWLS Log ASCII Standard - VERSION 2.0
WRAP.                       NO: One line per depth step
~Well Information Block
STRT.FT                -7.5000: 
STOP.FT              1572.0000: 
STEP.FT                 0.2500: 
NULL.                -999.2500: 
COMP.          Pioneer Natural Resources: COMPANY
WELL.          Galloway 32-13 Tr: WELL
FLD.           Purgatoire River: FIELD
LOC.           --1910' FNL & 2002' FEL----: LOCATION
PROV.                       CO: PROVINCE
CNTY.               Las Animas: COUNTRY
SRVC.          Patterson Wireline: SERVICE COMPANY
DATE.          Thu Nov 17 12:46:45 2005: LOG DATE
UWI.           05 071 08608 00: UNIQUE WELL ID
~Curve Information Block
DEPT.FT            0 000 00 00: Depth
CCL.                          : Casing Collar Locator
TT3.usec                      : CBL 3' Travel Time
AMP3.mV                       : CBL 3' Amplitude
GR.GAPI                       : Gamma Ray
~Parameter Information Block
~A  Depth       CCL         TT3         AMP3         GR     
    -7.5000   -999.2500   -999.2500   -999.2500    104.9294
    -7.2500   -999.2500   -999.2500   -999.2500    106.7624
    -7.0000   -999.2500   -999.2500   -999.2500    107.0334
    -6.7500   -999.2500   -999.2500   -999.2500    104.4740
    -6.5000   -999.2500   -999.2500   -999.2500     99.4558
    -6.2500   -999.2500   -999.2500   -999.2500     94.2442
    -6.0000   -999.2500   -999.2500   -999.2500     91.2298
    -5.7500   -999.2500   -999.2500   -999.2500     91.1620
    -5.5000   -999.2500   -999.2500   -999.2500     93.0271
    -5.2500   -999.2500   -999.2500   -999.2500     95.0190
    -5.0000   -999.2500   -999.2500   -999.2500     95.4404
    -4.7500   -999.2500   -999.2500   -999.2500     93.5173
    -4.5000   -999.2500   -999.2500   -999.2500     90.1049
    -4.2500   -999.2500   -999.2500   -999.2500     87.3869
    -4.0000   -999.2500   -999.2500   -999.2500     87.2222
    -3.7500   -999.2500   -999.2500   -999.2500     89.4323
    -3.5000   -999.2500   -999.2500   -999.2500     91.7340
    -3.2500   -999.2500   -999.2500   -999.2500     91.7686
    -3.0000   -999.2500   -999.2500   -999.2500     89.5096
    -2.7500   -999.2500   1158.0000     -1.5556     87.3041
    -2.5000   -999.2500   1158.0000     -1.5530     87.1225
    -2.2500   -999.2500   1158.0000     -1.5495     88.2767
    -2.0000   -999.2500   1158.0000     -1.5481     88.3942
    -1.7500   -999.2500   1158.0000     -1.5503     86.0746
    -1.5000   -999.2500   1158.0000     -1.5557     81.8521
    -1.2500   -999.2500   1158.0000     -1.5625     77.0396
    -1.0000   -999.2500   1158.0000     -1.5694     72.4997
    -0.7500   -999.2500   1158.0000     -1.5748     68.6285
    -0.5000   -999.2500   1158.0000     -1.5769     65.9363
    -0.2500   -999.2500   1158.0000     -1.5754     64.9808
     0.0000   -999.2500   1158.0000     -1.5672     65.3057
     0.2500   -999.2500   1158.0000     -1.5643     62.5476
     0.5000   -999.2500   1158.0000     -1.5624     56.3781
     0.7500   -999.2500   1158.0000     -1.5601     48.1177
     1.0000   -999.2500   1158.0000     -1.5558     40.2272
     1.2500   -999.2500   1158.0000     -1.5488     34.8949
     1.5000   -999.2500   1158.0000     -1.5402     32.9782
     1.7500   -999.2500   1158.0000     -1.5333     33.8528
     2.0000   -999.2500   1158.0000     -1.5312     36.3063
     2.2500   -999.2500   1158.0000     -1.5347     39.5765
     2.5000      0.0000   1158.0000     -1.5432     43.4478
     2.7500      0.0000   1158.0000     -1.5560     47.6011
     3.0000      0.0000   1158.0000     -1.5709     51.3655
     3.2500      0.0000   1158.0000     -1.5824     54.1887
     3.5000      0.0000   1158.0000     -1.5841     56.1136
     3.7500      0.0000   1158.0000     -1.5743     57.6716
     4.0000      0.0000   1158.0000     -1.5582     59.3661
     4.2500      0.0000   1158.0000     -1.5436     61.3878
     4.5000      0.0000   1158.0000     -1.5339     63.7467
     4.7500      0.0000   1158.0000     -1.5281     66.3980
     5.0000      0.0000   1158.0000     -1.5245     69.1583
     5.2500      0.0000   1158.0000     -1.5238     71.7340
     5.5000      0.0000   1158.0000     -1.5260     73.9142
     5.7500      0.0000   1158.0000     -1.5253     75.5155
     6.0000      0.0000   1158.0000     -1.4954     76.1889
     6.2500      0.0000   1158.0000     -1.3503     75.6619
     6.5000      0.0000   1158.0000     -0.8806     74.2471
     6.7500      0.0000   1158.0000      0.2724     72.7213
     7.0000      0.0000   1158.0000      2.4682     71.5940
     7.2500      0.0000   1158.0000      5.7198     70.9235
     7.5000      0.0000   1158.0000      9.4439     70.8569
     7.7500      0.0000   1158.0000     12.7116     71.5912
     8.0000      0.0000   1158.0000     14.9133     72.5981
     8.2500      0.0000   1158.0000     16.2111     72.7562
     8.5000      0.0000   1158.0000     17.3494     71.6926
     8.7500      0.0000   1158.0000     19.0525     70.3430
     9.0000      0.0000   1158.0000     21.5449     69.6237
     9.2500      0.0000   1157.9445     24.4970     69.1024
     9.5000      0.0000   1157.5792     27.3374     67.7291
     9.7500      0.0000   1155.7208     29.6448     65.6785
    10.0000      0.0000   1148.3499     31.3472     64.5724
    10.2500      0.0000   1125.5642     32.6558     65.5497
    10.5000      0.0000   1070.6514     33.8739     67.7736
    10.7500      0.0000    967.4488     35.2584     69.3660
    11.0000      0.0000    816.1335     36.9784     69.4048
    11.2500      0.0000    642.9611     39.0872     68.6542
    11.5000      0.0000    488.1569     41.4644     68.7301
    11.7500      0.0000    379.9593     43.8186     70.7869
    12.0000      0.0000    320.7505     45.8203     74.5473
    12.2500      0.0000    295.3292     47.2811     78.2920
    12.5000      0.0000    286.7371     48.2275     80.0025
    12.7500      0.0000    284.4333     48.8403     78.7076
    13.0000      0.0000    283.9196     49.3454     74.8573
    13.2500      0.0000    283.7810     49.9318     69.8819
    13.5000      0.0000    283.6861     50.7088     65.4777
    13.7500      0.0000    283.5663     51.6870     62.5899
    14.0000      0.0000    283.4274     52.7788     60.6596
    14.2500      0.0000    283.2791     53.8512     58.3080
    14.5000      0.0000    283.1306     54.8161     54.9979
    14.7500      0.0000    282.9909     55.6722     51.7372
    15.0000      0.0000    282.8699     56.4714     50.0597
    15.2500      0.0000    282.7764     57.2613     50.5382
    15.5000      0.0000    282.7152     58.0464     52.2980
    15.7500      0.0000    282.6847     58.7763     53.8158
    16.0000      0.0000    282.6781     59.3825     54.1198
    16.2500      0.0000    282.6855     59.8447     53.2919
    16.5000      0.0000    282.6964     60.2066     52.1039
    16.7500      0.0000    282.7014     60.5223     51.4551
    17.0000      0.0000    282.6945     60.8008     51.9364
    17.2500      0.0000    282.6751     61.0151     53.4243
    17.5000      0.0000    282.6489     61.1564     55.0389
    17.7500      0.0000    282.6258     61.2605     55.8737
    18.0000      0.0000    282.6130     61.3786     55.7916
    18.2500      0.0000    282.6103     61.5312     55.3642
    18.5000      0.0000    282.6106     61.6955     55.2568
    18.7500      0.0000    282.6083     61.8307     55.8870
    19.0000      0.0000    282.6050     61.9149     57.3984
    19.2500      0.0000    282.6035     61.9651     59.6689
    19.5000      0.0000    282.6002     62.0171     62.5150
    19.7500      0.0000    282.5861     62.0865     65.9878
    20.0000      0.0000    282.5567     62.1662     70.0947
    20.2500      0.0000    282.5152     62.2664     74.0657
    20.5000      0.0000    282.4690     62.4287     76.4251
    20.7500      0.0000    282.4257     62.6804     76.2071
    21.0000      0.0000    282.3901     62.9974     73.9315
    21.2500      0.0000    282.3609     63.3305     71.1942
    21.5000      0.0000    282.3322     63.6447     69.4757
    21.7500      0.0000    282.3023     63.9166     69.3906
    22.0000      0.0000    282.2788     64.1233     70.5421
    22.2500      0.0000    282.2697     64.2675     71.6936
    22.5000      0.0000    282.2735     64.3926     71.4905
    22.7500      0.0000    282.2818     64.5357     69.6959
    23.0000      0.0000    282.2894     64.6787     67.7201
    23.2500      0.0000    282.2971     64.7855     67.4824
    23.5000      0.0000    282.3050     64.8837     69.6777
    23.7500      0.0000    282.3079     65.0646     73.4907
    24.0000      0.0000    282.3010     65.3774     77.8675
    24.2500      0.0000    282.2865     65.7519     82.2374
    24.5000      0.0000    282.2700     66.0527     85.7952
    24.7500      0.0000    282.2538     66.2045     87.1364
    25.0000      0.0000    282.2365     66.2559     85.4170
    25.2500      0.0000    282.2178     66.3391     81.2955
    25.5000      0.0000    282.2009     66.5763     76.2049
    25.7500      0.0000    282.1877     67.0025     71.2129
