~Version Information
 VERS.                                  2.0 : CWLS LAS VERSION
 WRAP.                                   NO : WRAPING MODE
 SWARE .                MController 2.5.0QA : SOFTWARE VERSION
~Well Information
 WELL.                      Sculpin 32-30Tr : WELL
 COMP.    Pioneer Natural Resources USA Inc : COMPANY
 FLD.                      Purgatoire River : FIELD
 LOC.                 SW/NE Sec30 T32S R65W : LOCATION
 DATE.                             07/19/06 : DATE(S) LOGGED
 SRVC.       Blanco Geological Services LLC : SERVICE COMPANY
 STAT.                             Colorado : STATE
 CNTY.                           Las Animas : COUNTY
 CTRY.                                  USA : COUNTRY
 API.                       05-071-08706-00 : API NUMBER
 STRT.FT                             411.00 : START DEPTH
 STOP.FT                             950.00 : STOP DEPTH
 STEP.FT                               1.00 : DEPTH INCREMENT
 NULL.                                -9999 : NULL VALUE
~Curve information
 DEPTH.FT                                   :
 ROP.MIN/FT                                 :
 GAS.UNITS                                  :
~ASCII Log data
# ...
       611.0         0.17          8.5 
       612.0         0.17          8.2 
       613.0         0.17          7.3 
       614.0         0.18          7.5 
       615.0         0.17          5.5 
       616.0         0.23          5.1 
       617.0         0.17          5.1 
       618.0         0.20          5.5 
       619.0         0.17          5.1 
       620.0         0.17          5.1 
       621.0         0.10          5.0 
       622.0         3.08         10.6 
       623.0         0.37          5.9 
       624.0         0.43          4.4 
       625.0         0.27          4.3 
       626.0         0.30          3.7 
       627.0         0.30          4.5 
       628.0         0.37          3.8 
       629.0         0.32          4.4 
       630.0         0.27          4.1 
       631.0         0.30          4.2 
       632.0         0.30          4.4 
       633.0         0.33          5.1 
       634.0         0.30          4.3 
       635.0         0.37          4.5 
       636.0         0.30          4.9 
       637.0         0.30          4.2 
       638.0         0.27          4.4 
       639.0         0.23          5.0 
       640.0         0.27          4.6 
       641.0         0.32          5.2 
       642.0         0.30          5.5 
       643.0         0.37          4.9 
       644.0         0.30          6.1 
       645.0         0.23          6.4 
       646.0         0.17          8.0 
       647.0         0.17          7.4 
       648.0         0.23          7.3 
       649.0         0.23          7.5 
       650.0         0.27          8.0 
       651.0         0.23          8.1 
       652.0         4.23         27.7 
       653.0         0.40         10.2 
       654.0         0.33          9.6 
       655.0         0.27         10.7 
       656.0         0.23         12.1 
       657.0         0.20         12.3 
       658.0         0.20         12.1 
       659.0         0.17         12.2 
       660.0         0.23         11.1 
       661.0         0.23         11.1 
       662.0         0.20         11.6 
       663.0         0.27         10.2 
       664.0         0.30         11.0 
       665.0         0.28         10.1 
       666.0         0.33          9.2 
       667.0         0.23          9.9 
       668.0         0.27          9.3 
       669.0         0.23          9.7 
       670.0         0.20          9.6 
       671.0         0.23          9.7 
       672.0         0.23         10.9 
       673.0         0.20         11.1 
       674.0         0.23         12.1 
       675.0         0.20         15.4 
       676.0         0.17         17.3 
       677.0         0.20         17.9 
       678.0         0.20         17.9 
       679.0         0.22         17.2 
       680.0         0.40         16.6 
       681.0         0.47         13.2 
       682.0         2.10         47.8 
       683.0         0.33         30.6 
       684.0         0.32         27.8 
       685.0         0.30         27.6 
       686.0         0.27         24.3 
       687.0         0.20         23.4 
       688.0         0.23         23.3 
       689.0         0.20         20.9 
       690.0         0.30         19.8 
       691.0         0.33         19.2 
       692.0         0.33         18.3 
       693.0         0.30         19.2 
       694.0         0.33         20.6 
       695.0         0.35         20.2 
       696.0         0.30         20.6 
       697.0         0.33         24.1 
       698.0         0.27         30.7 
       699.0         0.30         40.4 
       700.0         0.30         49.1 
       701.0         0.30         55.1 
       702.0         0.30         59.0 
       703.0         0.27         60.1 
       704.0         0.27         62.3 
       705.0         0.23         62.5 
       706.0         0.20         62.8 
       707.0         0.25         61.3 
       708.0         0.17         61.9 
       709.0         0.20         59.6 
       710.0         0.20         60.7 
       711.0         0.33         58.2 
       712.0         3.08        151.7 
       713.0         0.27        102.6 
       714.0         0.27         80.7 
       715.0         0.20         66.2 
       716.0         0.20         63.6 
       717.0         0.27         58.5 
       718.0         0.23         51.9 
       719.0         0.23         41.8 
       720.0         0.27         33.6 
       721.0         0.27         29.9 
       722.0         0.30         29.1 
       723.0         0.25         28.3 
       724.0         0.27         30.2 
       725.0         0.27         32.4 
       726.0         0.33         33.6 
       727.0         0.27         33.2 
       728.0         0.27         33.8 
       729.0         0.23         34.2 
       730.0         0.27         33.3 
       731.0         0.23         33.3 
       732.0         0.23         32.9 
       733.0         0.23         31.1 
       734.0         0.23         29.7 
       735.0         0.23         29.1 
       736.0         0.25         26.6 
       737.0         0.23         26.5 
       738.0         0.23         25.0 
       739.0         0.23         23.8 
       740.0         0.27         23.9 
       741.0         0.23         21.3 
       742.0         3.68        118.6 
       743.0         0.40         60.8 
       744.0         0.43         55.3 
       745.0         0.37         49.7 
       746.0         0.27         38.0 
       747.0         0.32         24.9 
       748.0         0.37         13.6 
       749.0         0.37         14.5 
       750.0         0.37         14.9 
       751.0         0.30         17.5 
       752.0         0.27         16.4 
       753.0         0.27         16.0 
       754.0         0.23         16.5 
       755.0         0.23         15.2 
       756.0         0.27         14.3 
       757.0         0.20         13.6 
       758.0         0.23         14.0 
       759.0         0.32         14.9 
       760.0         0.30         18.9 
       761.0         0.27         17.2 
       762.0         0.27         20.5 
       763.0         0.27         23.4 
       764.0         0.27         23.7 
       765.0         0.23         23.3 
       766.0         0.27         24.3 
       767.0         0.27         24.8 
       768.0         0.27         25.5 
       769.0         0.27         26.2 
       770.0         0.27         26.2 
       771.0         0.27         24.1 
       772.0         3.35        114.2 
       773.0         0.45         55.8 
       774.0         0.47         53.8 
       775.0         0.33         32.6 
       776.0         0.33         24.7 
       777.0         0.27         24.0 
       778.0         0.27         15.6 
       779.0         0.30         15.2 
       780.0         0.27         11.9 
       781.0         0.30         13.0 
       782.0         0.27         13.2 
       783.0         0.32         12.6 
       784.0         0.23         15.2 
       785.0         0.27         17.2 
       786.0         0.23         20.5 
       787.0         0.23         23.3 
       788.0         0.23         27.4 
       789.0         0.17         27.1 
       790.0         0.20         27.3 
       791.0         0.20         27.0 
       792.0         0.20         26.8 
       793.0         0.17         25.4 
       794.0         0.17         26.6 
       795.0         0.17         26.6 
       796.0         0.17         26.2 
       797.0         0.20         27.2 
       798.0         0.17         27.3 
       799.0         0.18         27.3 
       800.0         0.17         27.5 
       801.0         0.23         27.0 
       802.0         3.02        101.6 
       803.0         0.23         56.2 
       804.0         0.30         54.2 
       805.0         0.50         51.3 
       806.0         0.30         44.7 
       807.0         0.33         35.5 
       808.0         0.27         22.9 
       809.0         0.27         21.3 
       810.0         0.27         18.8 
