~Version Information
VERS.                      2.0: CWLS Log ASCII Standard - VERSION 2.0
WRAP.                       NO: One line per depth step
~Well Information Block
STRT.FT                -7.7500: 
STOP.FT              2446.5000: 
STEP.FT                 0.2500: 
NULL.                -999.2500: 
COMP.          XTO Energy Inc.: COMPANY
WELL.          Hill Ranch 15-09: WELL
FLD.           Purgatoire River: FIELD
LOC.           1816' FSL & 521' FEL: LOCATION
STAT.                 Colorado: State
CNTY.               Las Animas: COUNTY
CTRY. USA : Country
SECT. 15 : Section
TOWN. 35S : Township
RANG. 67W : Range
SRVC.          Patterson Wireline: SERVICE COMPANY
DATE.          Fri Dec 09 17:49:58 2005: LOG DATE
API. 05-071-08474                          : UNIQUE WELL ID
~Curve Information Block
DEPT.FT            0 000 00 00: Depth
CCL.                          : Casing Collar Locator
TT3.usec                      : CBL 3' Travel Time
AMP3.mV                       : CBL 3' Amplitude
AMP5.mV                       : CBL 5' Amplitude
GR.GAPI                       : Gamma Ray
~Parameter Information Block
~A  Depth       CCL         TT3         AMP3        AMP5         GR     
# ...
  2428.2500      0.0000    732.3776      7.1343      0.9414     84.1317
  2428.5000      0.0000    749.1769      7.2611      0.9217     88.9939
  2428.7500      0.0000    761.5270      7.3048      0.9524     93.7553
  2429.0000      0.0000    767.1718      7.2476      1.0037     97.1304
  2429.2500      0.0000    767.6221      7.1034      1.0434     99.0225
  2429.5000      0.0000    766.5721      6.9169      1.0646    100.2244
  2429.7500      0.0000    767.1799      6.7477      1.0828    101.3393
  2430.0000      0.0000    770.2047      6.6414      1.1108    102.5630
  2430.2500      0.0000    774.2987      6.6054      1.1413    104.1058
  2430.5000      0.0000    777.7659      6.6088      1.1563    105.9114
  2430.7500      0.0000    779.8602      6.6082      1.1500    107.0582
  2431.0000      0.0000    780.7365      6.5817      1.1400    106.3073
  2431.2500      0.0000    780.7720      6.5446      1.1499    103.3018
  2431.5000      0.0000    780.0981      6.5344      1.1805     98.4119
  2431.7500      0.0000    778.6152      6.5815      1.2042     91.3379
  2432.0000      0.0000    776.4227      6.6872      1.1895     80.7627
  2432.2500      0.0000    774.2549      6.8235      1.1350     65.8652
  2432.5000      0.0000    773.2438      6.9495      1.0700     47.9309
  2432.7500      0.0000    773.9890      7.0332      1.0200     30.2221
  2433.0000      0.0000    775.9866      7.0639      0.9817     16.1073
  2433.2500      0.0000    778.1419      7.0496      0.9375      7.1119
  2433.5000      0.0000    779.6757      7.0030      0.8855      2.5611
  2433.7500      0.0000    780.4297      6.9311      0.8371      0.7432
  2434.0000      0.0000    780.5706      6.8403      0.7949      0.1716
  2434.2500      0.0000    780.2689      6.7454      0.7530      0.0311
  2434.5000      0.0000    779.6418      6.6617      0.7208      0.0039
  2434.7500      0.0000    778.8282      6.5882      0.7236      0.0000
  2435.0000      0.0000    777.9612      6.5097      0.7699   -999.2500
  2435.2500      0.0000    776.9911      6.4202      0.8326   -999.2500
  2435.5000      0.0000    775.4878      6.3364      0.8701   -999.2500
  2435.7500      0.0000    772.7109      6.2835      0.8696   -999.2500
  2436.0000      0.0000    768.1660      6.2760      0.8638   -999.2500
  2436.2500      0.0000    762.4139      6.3118      0.8889   -999.2500
  2436.5000      0.0000    757.2699      6.3796      0.9212   -999.2500
  2436.7500      0.0000    754.1078      6.4617      0.8761   -999.2500
  2437.0000      0.0000    750.2373      6.5198      0.6901   -999.2500
  2437.2500      0.0000    735.1943      6.4703      0.3940   -999.2500
  2437.5000      0.0000    691.0656      6.1819      0.0891   -999.2500
  2437.7500      0.0000    601.3908      5.5363     -0.1372   -999.2500
  2438.0000      0.0000    466.6105      4.5391     -0.2635   -999.2500
  2438.2500      0.0000    312.0023      3.3798     -0.3173   -999.2500
  2438.5000      0.0000    174.9365      2.3419     -0.3350   -999.2500
  2438.7500      0.0000     80.5746      1.6215     -0.3396   -999.2500
  2439.0000      0.0000     30.0360      1.2328     -0.3405   -999.2500
  2439.2500      0.0000      8.9643      1.0698   -999.2500   -999.2500
  2439.5000      0.0000      2.1226      1.0166   -999.2500   -999.2500
  2439.7500      0.0000      0.3928      1.0031   -999.2500   -999.2500
  2440.0000      0.0000      0.0522      1.0004   -999.2500   -999.2500
  2440.2500      0.0000   -999.2500   -999.2500   -999.2500   -999.2500
  2440.5000      0.0000   -999.2500   -999.2500   -999.2500   -999.2500
  2440.7500      0.0000   -999.2500   -999.2500   -999.2500   -999.2500
  2441.0000      0.0000   -999.2500   -999.2500   -999.2500   -999.2500
  2441.2500      0.0000   -999.2500   -999.2500   -999.2500   -999.2500
  2441.5000      0.0000   -999.2500   -999.2500   -999.2500   -999.2500
  2441.7500      0.0000   -999.2500   -999.2500   -999.2500   -999.2500
  2442.0000      0.0000   -999.2500   -999.2500   -999.2500   -999.2500
  2442.2500      0.0000   -999.2500   -999.2500   -999.2500   -999.2500
  2442.5000      0.0000   -999.2500   -999.2500   -999.2500   -999.2500
  2442.7500      0.0000   -999.2500   -999.2500   -999.2500   -999.2500
  2443.0000      0.0000   -999.2500   -999.2500   -999.2500   -999.2500
  2443.2500      0.0000   -999.2500   -999.2500   -999.2500   -999.2500
  2443.5000     -2.0000   -999.2500   -999.2500   -999.2500   -999.2500
  2443.7500      0.0000   -999.2500   -999.2500   -999.2500   -999.2500
  2444.0000      0.0000   -999.2500   -999.2500   -999.2500   -999.2500
  2444.2500      0.0000   -999.2500   -999.2500   -999.2500   -999.2500
  2444.5000      0.0000   -999.2500   -999.2500   -999.2500   -999.2500
  2444.7500      0.0000   -999.2500   -999.2500   -999.2500   -999.2500
  2445.0000     -2.0000   -999.2500   -999.2500   -999.2500   -999.2500
  2445.2500      0.0000   -999.2500   -999.2500   -999.2500   -999.2500
  2445.5000      0.0000   -999.2500   -999.2500   -999.2500   -999.2500
  2445.7500   -999.2500   -999.2500   -999.2500   -999.2500   -999.2500
  2446.0000   -999.2500   -999.2500   -999.2500   -999.2500   -999.2500
  2446.2500   -999.2500   -999.2500   -999.2500   -999.2500   -999.2500
  2446.5000   -999.2500   -999.2500   -999.2500   -999.2500   -999.2500
