~Version Information
VERS.                      2.0: CWLS Log ASCII Standard - VERSION 2.0
WRAP.                       NO: One line per depth step
~Well Information Block
STRT.FT               460.0000: 
STOP.FT              2811.5000: 
STEP.FT                 0.1000: 
NULL.                -999.2500: 
COMP.          Pioneer Natural Resources: COMPANY
WELL.           Dolzanie 34-12: WELL
FLD.           Purgatoire River: FIELD
LOC.           1001' FSL & 1750' FEL--: LOCATION
PROV.                 Colorado: PROVINCE
CNTY.               Las Animas: COUNTRY
SRVC.                Patterson: SERVICE COMPANY
DATE.          Wed Jul 20 07:56:24 2005: LOG DATE
UWI.           05 071 08439 00: UNIQUE WELL ID
~Curve Information Block
DEPT.FT            0 000 00 00: Depth
DCAL.in                       : CDL Caliper
DPOR.pu                       : CDL Density Porosity
NPOR.pu                       : Neutron Porosity
RHOB.g/cc                     : CDL Bulk Density
RHOC.g/cc                     : CDL Density Correction
GR.GAPI                       : Gamma Ray
~Parameter Information Block
~A  Depth       DCAL        DPOR        NPOR        RHOB        RHOC         GR     
   460.0000      8.0515      5.9323     43.2186      2.5521     -0.3384     39.0996
   460.1000      8.0515      4.1552     43.6306      2.5814     -0.2803     44.0778
   460.2000      8.0515      4.2059     44.2370      2.5806     -0.2895     51.6211
   460.3000      8.0508      4.9781     44.9313      2.5679     -0.3297     60.7052
   460.4000      8.0508      4.9643     45.3258      2.5681     -0.2787     66.5469
   460.5000      8.0492      4.3279     45.7340      2.5786     -0.2774     66.9371
   460.6000      8.0492      3.4125     46.4318      2.5937     -0.2619     66.2114
   460.7000      8.0492      2.4521     46.8818      2.6095     -0.2417     68.4008
   460.8000      8.0496      2.6684     46.7117      2.6060     -0.2417     71.2506
   460.9000      8.0496      4.5104     46.3240      2.5756     -0.2720     73.1557
   461.0000      8.0517      6.2091     46.0397      2.5476     -0.3686     75.7139
   461.1000      8.0517      6.3310     45.6934      2.5455     -0.3508     78.8402
   461.2000      8.0517      5.8738     45.2405      2.5531     -0.2622     81.6595
   461.3000      8.0517      6.4226     44.9893      2.5440     -0.2479     81.6193
   461.4000      8.0517      7.3555     45.1245      2.5286     -0.3111     78.2021
   461.5000      8.0506      6.4134     45.3504      2.5442     -0.3382     76.7453
   461.6000      8.0506      3.5035     45.3535      2.5922     -0.2136     80.5324
   461.7000      8.0506      1.1601     45.2767      2.6309     -0.1836     85.9030
   461.8000      8.0507      0.3388     45.4261      2.6444     -0.2340     86.6955
   461.9000      8.0507     -0.2704     45.8246      2.6545     -0.1966     82.8325
   462.0000      8.0509     -1.1704     46.2736      2.6693     -0.1871     77.4910
   462.1000      8.0509     -1.4934     46.4692      2.6746     -0.2022     71.6158
   462.2000      8.0509     -1.0943     46.3906      2.6681     -0.2527     67.3966
   462.3000      8.0515     -0.9455     46.4786      2.6656     -0.2467     66.7282
   462.4000      8.0515     -0.7135     46.7255      2.6618     -0.1830     69.3644
   462.5000      8.0475      0.6999     46.6839      2.6385     -0.2696     75.6464
   462.6000      8.0475      2.7073     46.3054      2.6053     -0.2946     82.7968
   462.7000      8.0475      4.0472     45.8368      2.5832     -0.2976     84.8605
   462.8000      8.0362      4.2030     45.4412      2.5807     -0.3306     81.7125
   462.9000      8.0362      3.5580     45.2298      2.5913     -0.2208     77.2078
   463.0000      8.0212      2.9900     45.0655      2.6007     -0.2772     72.2000
   463.1000      8.0212      2.8375     44.7739      2.6032     -0.2695     68.0871
   463.2000      8.0212      3.3500     44.4786      2.5947     -0.2575     68.9671
   463.3000      8.0015      4.4881     44.3537      2.5759     -0.2407     72.0644
   463.4000      8.0015      5.3595     44.5468      2.5616     -0.2907     71.3223
   463.5000      7.9768      5.5530     44.8990      2.5584     -0.2520     71.0313
   463.6000      7.9768      5.7327     45.0017      2.5554     -0.2700     74.3395
   463.7000      7.9768      6.0794     44.5827      2.5497     -0.2999     75.8321
   463.8000      7.9467      5.7895     43.7422      2.5545     -0.2725     75.8243
   463.9000      7.9467      5.0912     43.1035      2.5660     -0.1853     77.1928
   464.0000      7.9127      5.7131     43.1347      2.5557     -0.2362     77.2259
   464.1000      7.9127      7.9209     43.5800      2.5193     -0.2851     75.3468
   464.2000      7.9127      9.7349     43.9948      2.4894     -0.2969     74.4175
   464.3000      7.8812      9.6051     44.2145      2.4915     -0.2960     73.3783
   464.4000      7.8812      7.4811     44.1859      2.5266     -0.3577     69.7442
   464.5000      7.8610      4.3287     43.8216      2.5786     -0.2155     66.4492
   464.6000      7.8610      1.7326     43.3255      2.6214     -0.2122     67.4448
   464.7000      7.8610      1.2194     43.1736      2.6299     -0.1607     70.8504
   464.8000      7.8538      3.3317     43.3164      2.5950     -0.2102     72.0099
   464.9000      7.8538      6.5201     43.3523      2.5424     -0.2334     70.0996
   465.0000      7.8525      8.5134     43.2365      2.5095     -0.2955     69.6454
   465.1000      7.8525      8.5455     43.1611      2.5090     -0.2553     72.8998
   465.2000      7.8525      7.6087     43.1215      2.5245     -0.2350     76.7058
   465.3000      7.8522      6.8341     43.2394      2.5372     -0.2129     77.3960
   465.4000      7.8522      6.3147     43.6658      2.5458     -0.2327     74.3075
   465.5000      7.8520      5.7743     43.9320      2.5547     -0.2467     70.2205
   465.6000      7.8520      5.4077     43.8393      2.5608     -0.1662     69.5886
   465.7000      7.8520      5.0870     43.7149      2.5661     -0.2303     71.4680
   465.8000      7.8510      4.3607     43.4718      2.5780     -0.1480     71.7489
   465.9000      7.8510      3.9435     43.1389      2.5849     -0.1573     71.1667
   466.0000      7.8490      4.4249     42.8731      2.5770     -0.1808     71.2993
   466.1000      7.8490      5.3720     42.5433      2.5614     -0.2393     70.6991
   466.2000      7.8490      6.1958     42.2861      2.5478     -0.2064     68.9209
   466.3000      7.8421      6.1114     42.3256      2.5492     -0.2596     70.0658
   466.4000      7.8421      4.7730     42.5260      2.5712     -0.2170     74.1113
   466.5000      7.8313      4.0903     42.6964      2.5825     -0.1262     72.9998
   466.6000      7.8313      5.5854     42.6623      2.5578     -0.2237     64.6997
   466.7000      7.8313      7.2252     42.5567      2.5308     -0.2573     58.7080
   466.8000      7.8254      7.4417     42.7757      2.5272     -0.1684     60.7161
   466.9000      7.8254      7.2507     43.0263      2.5304     -0.1836     65.3456
   467.0000      7.8239      6.9144     42.8477      2.5359     -0.2009     68.2183
   467.1000      7.8239      5.7400     42.5572      2.5553     -0.1946     70.2372
   467.2000      7.8239      4.0568     42.5761      2.5831     -0.1686     71.4114
   467.3000      7.8229      2.7089     42.7452      2.6053     -0.1970     70.8532
   467.4000      7.8229      2.3541     42.5825      2.6112     -0.1164     68.4412
   467.5000      7.8220      3.3309     42.0520      2.5950     -0.1742     65.2399
   467.6000      7.8220      4.6832     41.7823      2.5727     -0.1745     63.0012
   467.7000      7.8220      5.4450     42.0415      2.5602     -0.1505     62.5000
   467.8000      7.8215      5.9291     42.3332      2.5522     -0.1785     62.8077
   467.9000      7.8215      6.5825     42.4820      2.5414     -0.1755     64.2262
   468.0000      7.8213      7.1647     42.6704      2.5318     -0.1987     67.0904
   468.1000      7.8213      7.1889     42.7920      2.5314     -0.2258     68.5113
   468.2000      7.8213      6.5557     42.8688      2.5418     -0.2046     67.7368
   468.3000      7.8197      5.6092     43.2663      2.5574     -0.2096     65.8222
   468.4000      7.8197      4.8772     44.1522      2.5695     -0.1588     63.2205
   468.5000      7.8185      4.6873     45.0715      2.5727     -0.1419     62.4900
   468.6000      7.8185      4.7333     45.2408      2.5719     -0.1773     64.5391
   468.7000      7.8185      4.6163     44.4234      2.5738     -0.1815     66.8427
   468.8000      7.8183      4.6018     42.9602      2.5741     -0.1715     66.9304
   468.9000      7.8183      5.8632     41.4517      2.5533     -0.1678     65.1849
   469.0000      7.8175      9.0414     40.4023      2.5008     -0.2623     65.7117
   469.1000      7.8175     12.7569     39.8303      2.4395     -0.2895     68.2581
   469.2000      7.8175     15.4938     39.4663      2.3944     -0.2341     69.3357
   469.3000      7.8164     16.9904     38.8953      2.3697     -0.2580     71.3572
   469.4000      7.8164     17.5704     37.7803      2.3601     -0.2284     74.5264
   469.5000      7.8160     17.7143     35.8624      2.3577     -0.2231     74.4545
