~Version Information
VERS.                      2.0: CWLS Log ASCII Standard - VERSION 2.0
WRAP.                       NO: One line per depth step
~Well Information Block
STRT.FT                -7.0000: 
STOP.FT              3030.2500: 
STEP.FT                 0.2500: 
NULL.                -999.2500: 
COMP.          Pioneer Natural Resources: COMPANY
WELL.            Cleaver 24-12: WELL
FLD.           Purgatorie River: FIELD
LOC.           204' FSL & 2351' FWL--: LOCATION
CNTY.               Las Animas: COUNTY
SRVC.          Patterson Wireline: SERVICE COMPANY
DATE.          Thu Feb 02 12:17:57 2006: LOG DATE
UWI.           05 071 08634 00: UNIQUE WELL ID
STAT.                       CO: STATE
~Curve Information Block
DEPT.FT            0 000 00 00: Depth
CCL.                          : Casing Collar Locator
TT3.usec                      : CBL 3' Travel Time
AMP3.mV                       : CBL 3' Amplitude
GR.GAPI                       : Gamma Ray
~Parameter Information Block
~A  Depth       CCL         TT3         AMP3         GR     
# ...
  1199.0000      0.0000    527.0115     15.4675    119.0198
  1199.2500      0.0000    559.9253     15.5059    125.7665
  1199.5000      0.0000    604.1302     15.5258    130.9467
  1199.7500      0.0000    645.6713     15.5321    135.0480
  1200.0000      0.0000    675.9213     15.5160    138.2170
  1200.2500      0.0000    692.3158     15.4616    140.4010
  1200.5000      0.0000    697.8170     15.3631    141.6987
  1200.7500      0.0000    698.3345     15.2328    142.4855
  1201.0000      0.0000    698.4677     15.0954    143.0824
  1201.2500      0.0000    698.5036     14.9752    143.3590
  1201.5000      0.0000    695.0247     14.8861    142.8359
  1201.7500      0.0000    685.2573     14.8273    141.1636
  1202.0000      0.0000    671.7413     14.7887    138.4207
  1202.2500      0.0000    661.8391     14.7652    134.9713
  1202.5000      0.0000    661.1717     14.7647    131.0625
  1202.7500      0.0000    668.4633     14.7980    126.7323
  1203.0000      0.0000    677.8441     14.8620    122.1489
  1203.2500      0.0000    684.7607     14.9382    117.5292
  1203.5000      0.0000    688.5131     15.0080    112.6237
  1203.7500      0.0000    690.7753     15.0654    107.1958
  1204.0000      0.0000    693.5208     15.1157    102.4996
  1204.2500      0.0000    697.9054     15.1644    101.4745
  1204.5000      0.0000    703.6214     15.2044    106.5405
  1204.7500      0.0000    708.7690     15.2089    117.0691
  1205.0000      0.0000    711.0377     15.1471    129.2249
  1205.2500      0.0000    709.7538     15.0179    138.5626
  1205.5000      0.0000    706.9094     14.8643    143.0658
  1205.7500      0.0000    705.7823     14.7429    143.9249
  1206.0000      0.0000    708.2922     14.6768    143.6308
  1206.2500      0.0000    713.6595     14.6434    143.5032
  1206.5000      0.0000    719.4905     14.6075    142.9191
  1206.7500      0.0000    723.8175     14.5538    140.6546
  1207.0000      0.0000    725.9891     14.4841    136.7570
  1207.2500      0.0000    726.0645     14.3916    132.8251
  1207.5000      0.0000    723.7709     14.2508    130.5280
  1207.7500      0.0000    718.1180     14.0452    130.4475
  1208.0000      0.0000    707.7311     13.8066    132.4103
  1208.2500      0.0000    691.9423     13.6168    136.0495
  1208.5000      0.0000    672.9036     13.5519    140.4555
  1208.7500      0.0000    657.2817     13.6152    143.8367
  1209.0000      0.0000    653.6102     13.7311    144.3145
  1209.2500      0.0000    665.1011     13.8075    141.2416
  1209.5000      0.0000    685.7447     13.8075    135.4765
  1209.7500      0.0000    705.4296     13.7645    128.7396
  1210.0000      0.0000    717.6706     13.7455    123.1879
  1210.2500      0.0000    721.1102     13.8041    120.9218
  1210.5000      0.0000    715.3489     13.9632    122.7740
  1210.7500      0.0000    697.9553     14.2244    127.6230
  1211.0000      0.0000    666.5831     14.5745    133.3245
  1211.2500      0.0000    623.6347     14.9777    138.1076
  1211.5000      0.0000    577.5018     15.3746    141.1733
  1211.7500      0.0000    538.1449     15.7092    142.6222
  1212.0000      0.0000    511.1500     15.9601    142.9947
  1212.2500      0.0000    495.5050     16.1407    142.6687
  1212.5000      0.0000    486.0588     16.2757    141.6791
  1212.7500      0.0000    477.7651     16.3821    139.9657
  1213.0000      0.0000    467.0061     16.4649    137.3316
  1213.2500      0.0000    450.5438     16.5228    133.3171
  1213.5000      0.0000    427.8280     16.5568    127.8041
  1213.7500      0.0000    404.3316     16.5766    121.7626
  1214.0000      0.0000    387.7212     16.6031    116.7355
  1214.2500      0.0000    379.8854     16.6611    113.7116
  1214.5000      0.0000    375.5565     16.7658    113.0110
  1214.7500      0.0000    368.8078     16.9135    114.7833
  1215.0000      0.0000    358.4192     17.0832    118.8436
  1215.2500      0.0000    347.0105     17.2429    124.3365
  1215.5000      0.0000    337.6500     17.3545    130.0996
  1215.7500      0.0000    332.2390     17.3863    135.1947
  1216.0000      0.0000    331.3095     17.3346    139.0508
  1216.2500      0.0000    333.8793     17.2329    141.4838
  1216.5000      0.0000    337.8441     17.1316    142.5566
  1216.7500      0.0000    341.2925     17.0641    142.2497
  1217.0000      0.0000    343.4714     17.0290    140.5979
  1217.2500      0.0000    344.5645     17.0002    138.4412
  1217.5000      0.0000    344.9928     16.9538    137.8289
  1217.7500      0.0000    345.0346     16.8884    141.1488
  1218.0000      0.0000    344.8412     16.8220    149.1519
  1218.2500      0.0000    344.5370     16.7698    159.5331
  1218.5000      0.0000    344.2535     16.7318    168.0675
  1218.7500      0.0000    344.1094     16.7027    171.7476
  1219.0000      0.0000    344.2138     16.6875    170.5665
  1219.2500      0.0000    344.7441     16.6988    166.3225
  1219.5000      0.0000    346.0977     16.7352    160.6198
  1219.7500      0.0000    348.9738     16.7690    154.3539
  1220.0000      0.0000    354.0963     16.7604    148.1582
  1220.2500      0.0000    361.5360     16.6856    142.3975
  1220.5000      0.0000    370.4760     16.5545    136.9216
  1220.7500      0.0000    380.4041     16.4076    131.5198
  1221.0000      0.0000    393.1401     16.2962    126.6986
  1221.2500      0.0000    413.0680     16.2584    123.6288
  1221.5000      0.0000    443.0035     16.2992    123.1588
  1221.7500      0.0000    477.8734     16.3913    124.9053
  1222.0000      0.0000    504.4979     16.4931    127.3289
  1222.2500      0.0000    512.8146     16.5664    128.7004
  1222.5000      0.0000    508.6894     16.5814    127.9700
  1222.7500      0.0000    511.1169     16.5145    124.8051
  1223.0000      0.0000    533.8172     16.3591    119.4742
  1223.2500      0.0000    571.4424     16.1416    113.3151
  1223.5000      0.0000    605.5053     15.9171    108.7476
  1223.7500      0.0000    622.4078     15.7368    107.6475
  1224.0000      0.0000    624.6457     15.6144    109.5052
  1224.2500      0.0000    625.4011     15.5211    111.8851
  1224.5000      0.0000    633.9339     15.4117    112.8887
  1224.7500      0.0000    647.2083     15.2606    112.6439
  1225.0000      0.0000    655.1350     15.0771    112.3649
  1225.2500      0.0000    651.9098     14.8868    112.6752
  1225.5000      0.0000    641.6140     14.7047    113.1851
  1225.7500      0.0000    632.9455     14.5312    113.3384
  1226.0000      0.0000    628.3536     14.3696    113.2595
  1226.2500      0.0000    619.8088     14.2380    113.6623
  1226.5000      0.0000    597.0178     14.1619    115.1418
  1226.7500      0.0000    558.4828     14.1536    117.7922
  1227.0000      0.0000    514.5076     14.1762    121.3943
  1227.2500      0.0000    483.0685     14.1025    125.5415
  1227.5000      0.0000    482.3141     13.7386    129.3240
  1227.7500      0.0000    519.6353     12.9691    131.1842
  1228.0000      0.0000    583.9474     11.9213    129.7721
  1228.2500      0.0000    651.7760     10.9381    125.1887
  1228.5000      0.0000    704.0030     10.3272    119.1543
  1228.7500      0.0000    736.6129     10.1441    113.8461
  1229.0000      0.0000    755.7823     10.2280    110.5589
  1229.2500      2.0000    765.2591     10.3991    109.2560
  1229.5000      0.0000    761.6201     10.5963    109.1058
  1229.7500      0.0000    741.4316     10.8875    109.2391
  1230.0000      0.0000    707.9478     11.3988    109.0378
  1230.2500      0.0000    666.9154     12.1908    108.2131
  1230.5000      0.0000    620.2164     13.1440    107.1800
  1230.7500      0.0000    567.7292     13.9974    106.9973
  1231.0000      0.0000    512.0386     14.5485    108.2238
  1231.2500      0.0000    458.6472     14.7811    109.8810
  1231.5000      0.0000    413.5907     14.7912    109.9102
  1231.7500      0.0000    381.0670     14.6696    106.7083
  1232.0000      0.0000    361.7954     14.4834    100.3047
  1232.2500      0.0000    353.3266     14.2925     92.2332
