~Version Information
 VERS.                                  2.0 : CWLS LAS VERSION
 WRAP.                                   NO : WRAPING MODE
 SWARE .                 MController 2.5.0N : SOFTWARE VERSION
~Well Information
 WELL.                            Mac 22-36 : WELL
 COMP.    Pioneer Natural Resouces USA Inc. : COMPANY
 FLD.                      Purgatoire River : FIELD
 LOC.            SE/NW Sec 36 , T34S, R65W  : LOCATION
 DATE.                             12/04/05 : DATE(S) LOGGED
 SRVC.       BLANCO Geological Services LLC : SERVICE COMPANY
 STAT.                                   CO : STATE
 CNTY.                           Las Animas : COUNTY
 CTRY.                                  USA : COUNTRY
 API.                          05-071-08594 : API NUMBER
 STRT.FT                             168.00 : START DEPTH
 STOP.FT                            1055.00 : STOP DEPTH
 STEP.FT                               1.00 : DEPTH INCREMENT
 NULL.                                -9999 : NULL VALUE
~Curve information
 DEPTH.FT                                   :
 ROP.MIN/FT                                 :
 GAS.UNITS                                  :
~ASCII Log data
       168.0     -9999.00          2.9 
       169.0         0.57         21.2 
       170.0         0.23         13.0 
       171.0         0.27          6.2 
       172.0         0.27          3.8 
       173.0         0.23          2.8 
       174.0         0.27          2.8 
       175.0         0.23          2.7 
       176.0         0.23          3.0 
       177.0         0.23          2.8 
       178.0         0.23          3.0 
       179.0         0.28          3.0 
       180.0         0.20          3.1 
       181.0         0.20          3.2 
       182.0         0.20          3.0 
       183.0         0.20          2.8 
       184.0         0.20          3.1 
       185.0         0.20          3.1 
       186.0         0.20          3.2 
       187.0         0.20          3.1 
       188.0         0.20          3.4 
       189.0         0.20          3.4 
       190.0         0.20          3.8 
       191.0         0.17          3.6 
       192.0         0.20          3.2 
       193.0         0.20          3.4 
       194.0         0.20          3.4 
       195.0         0.20          3.6 
       196.0         0.22          3.4 
       197.0         0.20          3.3 
       198.0         0.23          3.4 
       199.0         0.20          3.4 
       200.0         1.30          3.7 
       201.0         3.58          4.2 
       202.0         0.17          3.7 
       203.0         0.17          3.7 
       204.0         0.20          3.8 
       205.0         0.17          4.1 
       206.0         0.17          3.9 
       207.0         0.22          3.9 
       208.0         0.17          3.7 
       209.0         0.20          3.7 
       210.0         0.20          3.7 
       211.0         0.20          3.8 
       212.0         0.20          4.0 
       213.0         0.20          4.1 
       214.0         0.20          3.9 
       215.0         0.20          4.5 
       216.0         0.20          4.2 
       217.0         0.20          4.4 
       218.0         0.20          4.5 
       219.0         0.20          4.2 
       220.0         0.20          4.6 
       221.0         0.20          4.7 
       222.0         0.20          4.7 
       223.0         0.20          4.3 
       224.0         0.25          4.0 
       225.0         0.20          4.4 
       226.0         0.23          4.8 
       227.0         0.17          4.8 
       228.0         0.27          4.6 
       229.0         0.27          4.0 
       230.0         0.60          5.1 
       231.0         1.37          5.1 
       232.0         0.18          5.0 
       233.0         0.17          5.0 
       234.0         0.20          5.3 
       235.0         0.17          5.2 
       236.0         0.20          5.1 
       237.0         0.17          5.2 
       238.0         0.20          5.1 
       239.0         0.17          4.8 
       240.0         0.20          4.9 
       241.0         0.17          5.2 
       242.0         0.17          4.8 
       243.0         0.20          5.0 
       244.0         0.17          5.1 
       245.0         0.17          5.0 
       246.0         0.20          5.0 
       247.0         0.17          5.0 
       248.0         0.20          5.2 
       249.0         0.17          5.1 
       250.0         0.18          5.2 
       251.0         0.20          4.8 
       252.0         0.17          5.4 
       253.0         0.20          5.1 
       254.0         0.20          5.1 
       255.0         0.20          4.8 
       256.0         0.17          4.6 
       257.0         0.20          4.8 
       258.0         0.20          5.1 
       259.0         0.53          5.0 
       260.0         0.37          5.0 
       261.0         3.02          5.4 
       262.0         0.33          5.7 
       263.0         0.23          5.1 
       264.0         0.27          6.7 
       265.0         0.27          8.7 
       266.0         0.25          9.2 
       267.0         0.23          9.0 
       268.0         0.20          7.5 
       269.0         0.23          7.7 
       270.0         0.27          8.4 
       271.0         0.23          9.7 
       272.0         0.23          8.6 
       273.0         0.20          7.1 
       274.0         0.23          6.4 
       275.0         0.23          5.8 
       276.0         0.17          6.3 
       277.0         0.23          5.8 
       278.0         0.23          6.4 
       279.0         0.23          7.5 
       280.0         0.27          7.0 
       281.0         0.25          6.5 
       282.0         0.20          6.7 
       283.0         0.27          8.5 
       284.0         0.27          8.8 
       285.0         0.17          7.5 
       286.0         0.20          6.4 
       287.0         0.20          6.4 
       288.0         0.27          5.9 
       289.0         0.33          6.0 
       290.0         0.17          5.9 
       291.0         3.58          7.0 
       292.0         0.50          6.4 
       293.0         0.52          6.5 
       294.0         0.50          6.3 
       295.0         0.50          6.5 
       296.0         0.50          6.3 
       297.0         0.50          6.9 
       298.0         0.23          6.4 
       299.0         0.33          6.7 
       300.0         0.43          6.4 
       301.0         0.38          6.5 
       302.0         0.37          6.4 
       303.0         0.33          6.7 
       304.0         0.40          6.9 
       305.0         0.37          6.8 
       306.0         0.33          6.6 
       307.0         0.33          6.8 
       308.0         0.27          7.2 
       309.0         0.23          6.7 
       310.0         0.27          7.1 
       311.0         0.28          6.9 
       312.0         0.27          7.5 
       313.0         0.23          9.5 
       314.0         0.20          8.3 
       315.0         0.20          7.5 
       316.0         0.20          6.9 
       317.0         0.23          6.8 
       318.0         0.23          6.8 
       319.0         0.30          6.2 
       320.0         0.17          7.2 
       321.0         3.38          7.6 
       322.0         0.47          6.9 
       323.0         0.37          6.6 
       324.0         0.35          7.0 
       325.0         0.33          6.3 
       326.0         0.37          6.6 
       327.0         0.30          6.8 
       328.0         0.37          7.0 
       329.0         0.33          7.0 
       330.0         0.37          6.8 
       331.0         0.40          7.1 
       332.0         0.47          7.1 
       333.0         0.45          7.2 
       334.0         0.37          7.1 
       335.0         0.43          6.8 
       336.0         0.40          6.8 
       337.0         0.30          7.2 
       338.0         0.27          6.9 
       339.0         0.33          7.1 
       340.0         0.35          7.0 
       341.0         0.27          7.0 
       342.0         0.23          6.9 
       343.0         0.27          6.8 
       344.0         0.27          7.5 
       345.0         0.23          7.0 
       346.0         0.33          6.8 
       347.0         0.33          6.8 
       348.0         0.33          6.7 
       349.0         0.10          6.7 
       350.0         0.30          6.8 
       351.0         3.12         15.6 
       352.0         0.20         12.8 
       353.0         0.17         12.8 
       354.0         0.23         11.2 
       355.0         0.25         11.5 
       356.0         0.20         10.1 
       357.0         0.23         10.0 
       358.0         0.17          9.7 
       359.0         0.27          9.9 
       360.0         0.27         12.7 
       361.0         0.27         13.2 
       362.0         0.23         11.7 
       363.0         0.23         11.7 
       364.0         0.20         11.8 
       365.0         0.30         10.5 
       366.0         0.27         10.0 
       367.0         0.27          9.8 
