~Version Information
VERS.                      2.0: CWLS Log ASCII Standard - VERSION 2.0
WRAP.                       NO: One line per depth step
~Well Information Block
STRT.FT               197.7500: 
STOP.FT              1631.0000: 
STEP.FT                 0.2500: 
NULL.                -999.2500: 
COMP.          Petrogulf Corporation: COMPANY
WELL.             State 16-44R: WELL
FLD.           Purgatoire River: FIELD
LOC.           632' FSL & 223' FEL--: LOCATION
PROV.                 Colorado: PROVINCE
CNTY.               Las Animas: COUNTRY
SRVC.                Patterson: SERVICE COMPANY
DATE.          Fri Oct 21 11:31:17 2005: LOG DATE
UWI.           05 071 08457 00: UNIQUE WELL ID
~Curve Information Block
DEPT.FT            0 000 00 00: Depth
SP.mV                         : DIL Spontaneous Potential
RILD.Ohm-m                    : DIL Deep Resistivity
RILM.Ohm-m                    : DIL Medium Resistivity
RLL3.Ohm-m                    : DIL Shallow Resistivity
GR.GAPI                       : Gamma Ray
~Parameter Information Block
~A  Depth        SP         RILD        RILM        RLL3         GR     
# ...
   673.7500     49.5826     10.9454     11.9847     16.8909    111.4477
   674.0000     49.4937     11.0628     12.6619     20.9583    106.8090
   674.2500     49.3506     11.1779     13.3540     26.0269    104.4132
   674.5000     49.1776     11.2951     13.9859     30.9597    102.6351
   674.7500     48.9942     11.4200     14.4683     34.3451    102.7135
   675.0000     48.8159     11.5583     14.7277     35.1673    104.4366
   675.2500     48.6508     11.7127     14.7403     33.1934    106.7418
   675.5000     48.4919     11.8786     14.5443     29.0114    112.3902
   675.7500     48.3200     12.0420     14.2206     23.8145    117.3980
   676.0000     48.1171     12.1822     13.8572     18.9603    124.9246
   676.2500     47.8740     12.2792     13.5198     15.4306    128.4971
   676.5000     47.5844     12.3208     13.2429     13.4983    130.1287
   676.7500     47.2394     12.3064     13.0360     12.8060    128.8645
   677.0000     46.8339     12.2446     12.8956     12.7402    125.2282
   677.2500     46.3785     12.1494     12.8160     12.8227    122.9583
   677.5000     45.8962     12.0371     12.7933     12.9136    121.0173
   677.7500     45.4031     11.9250     12.8245     13.1788    120.4257
   678.0000     44.8928     11.8305     12.9043     13.8809    119.2020
   678.2500     44.3414     11.7693     13.0208     15.1197    117.7065
   678.5000     43.7230     11.7522     13.1541     16.6820    115.1466
   678.7500     43.0168     11.7840     13.2792     18.1073    114.1823
   679.0000     42.2056     11.8648     13.3746     18.9191    115.1375
   679.2500     41.2986     11.9924     13.4340     18.8541    117.4118
   679.5000     40.3969     12.1643     13.4725     17.9738    121.9679
   679.7500     39.7563     12.3760     13.5220     16.6654    124.5737
   680.0000     39.7507     12.6185     13.6167     15.5387    126.3553
   680.2500     40.6769     12.8762     13.7784     15.1600    126.2052
   680.5000     42.4905     13.1277     14.0075     15.6700    125.6001
   680.7500     44.6987     13.3491     14.2847     16.6064    126.0111
   681.0000     46.5875     13.5200     14.5813     17.2262    128.3447
   681.2500     47.6486     13.6279     14.8724     17.1250    130.2534
   681.5000     47.8461     13.6688     15.1475     16.5605    131.3121
   681.7500     47.5121     13.6443     15.4074     16.2118    129.9207
   682.0000     47.0403     13.5567     15.6498     16.7012    125.2075
   682.2500     46.6680     13.4076     15.8509     18.2880    121.5085
   682.5000     46.4518     13.2012     15.9572     20.7695    117.1701
   682.7500     46.3556     12.9496     15.8984     23.4654    115.7828
   683.0000     46.3335     12.6745     15.6218     25.3540    116.2776
   683.2500     46.3621     12.4006     15.1271     25.5037    118.2518
   683.5000     46.4359     12.1477     14.4740     23.6318    123.3779
   683.7500     46.5563     11.9230     13.7557     20.3261    127.6852
   684.0000     46.7233     11.7215     13.0597     16.6809    133.4111
   684.2500     46.9236     11.5303     12.4430     13.6504    135.4985
   684.5000     47.1221     11.3356     11.9289     11.6472    135.9637
   684.7500     47.2661     11.1274     11.5165     10.5869    135.8450
   685.0000     47.3076     10.9025     11.1926     10.1718    137.3956
   685.2500     47.2309     10.6638     10.9403     10.1245    139.7155
   685.5000     47.0759     10.4188     10.7423     10.2662    143.3920
   685.7500     46.9437     10.1775     10.5824     10.4929    144.9175
   686.0000     46.9541      9.9495     10.4455     10.7381    145.1995
   686.2500     47.1559      9.7421     10.3186     10.9611    144.1669
   686.5000     47.4587      9.5606     10.1923     11.1438    141.2099
   686.7500     47.6750      9.4081     10.0604     11.2732    138.7222
   687.0000     47.6560      9.2864      9.9197     11.3217    135.3021
   687.2500     47.3956      9.1961      9.7694     11.2510    133.7259
   687.5000     47.0141      9.1364      9.6121     11.0356    132.3962
   687.7500     46.6557      9.1048      9.4546     10.6825    131.9219
   688.0000     46.3965      9.0967      9.3078     10.2365    131.9326
   688.2500     46.2280      9.1060      9.1852      9.7736    132.8820
   688.5000     46.1019      9.1254      9.0989      9.3851    135.9472
   688.7500     45.9794      9.1488      9.0576      9.1499    138.3559
   689.0000     45.8435      9.1724      9.0642      9.1054    140.6438
   689.2500     45.6780      9.1965      9.1158      9.2420    140.7729
   689.5000     45.4469      9.2250      9.2047      9.5260    139.4822
   689.7500     45.1018      9.2642      9.3192      9.9229    138.2231
   690.0000     44.6129      9.3216      9.4467     10.3905    136.0757
   690.2500     43.9951      9.4048      9.5771     10.8494    134.4703
   690.5000     43.3041      9.5200      9.7066     11.1844    132.2208
   690.7500     42.6089      9.6708      9.8401     11.3064    131.1452
   691.0000     41.9568      9.8570      9.9904     11.2334    129.9557
   691.2500     41.3524     10.0754     10.1740     11.1001    128.9623
   691.5000     40.7591     10.3197     10.4060     11.0756    126.7568
   691.7500     40.1270     10.5819     10.6957     11.2668    124.9872
   692.0000     39.4234     10.8538     11.0441     11.6886    122.2919
   692.2500     38.6383     11.1284     11.4440     12.2959    120.4813
   692.5000     37.7690     11.4027     11.8800     13.0207    117.4483
   692.7500     36.8127     11.6792     12.3318     13.7899    115.0230
   693.0000     35.7927     11.9654     12.7789     14.5390    110.7494
   693.2500     34.8018     12.2706     13.2059     15.2280    107.7151
   693.5000     34.0046     12.6014     13.6076     15.8429    103.5288
   693.7500     33.5472     12.9609     13.9894     16.3743    101.3243
   694.0000     33.4165     13.3496     14.3647     16.8051     99.3301
   694.2500     33.3896     13.7688     14.7492     17.1284     99.0384
   694.5000     33.1583     14.2198     15.1557     17.3716    100.1733
   694.7500     32.5398     14.7020     15.5917     17.5899    101.7209
   695.0000     31.5850     15.2100     16.0593     17.8502    104.2223
   695.2500     30.5019     15.7329     16.5589     18.2474    105.2353
   695.5000     29.4912     16.2589     17.0921     18.9319    104.6909
   695.7500     28.6442     16.7802     17.6637     20.0719    102.7083
   696.0000     27.9526     17.2994     18.2805     21.7367     97.7625
   696.2500     27.3739     17.8297     18.9499     23.8034     93.9614
   696.5000     26.8802     18.3899     19.6784     25.9991     89.3466
   696.7500     26.4651     18.9944     20.4714     28.0699     87.5777
   697.0000     26.1268     19.6472     21.3317     29.9693     85.8836
   697.2500     25.8502     20.3423     22.2559     31.9257     84.0481
   697.5000     25.6021     21.0711     23.2318     34.2776     78.9524
   697.7500     25.3414     21.8298     24.2418     37.1417     74.5688
   698.0000     25.0352     22.6201     25.2707     40.2195     68.6894
   698.2500     24.6725     23.4424     26.3095     42.9859     66.0975
   698.5000     24.2709     24.2882     27.3513     45.0913     64.2295
   698.7500     23.8663     25.1367     28.3819     46.5716     63.8597
   699.0000     23.4884     25.9614     29.3757     47.7300     63.8403
   699.2500     23.1431     26.7383     30.3016     48.9017     63.9319
   699.5000     22.8178     27.4520     31.1390     50.3399     64.0669
   699.7500     22.4975     28.0926     31.8911     52.2419     64.1027
   700.0000     22.1685     28.6512     32.5841     54.7435     63.8132
   700.2500     21.8137     29.1239     33.2477     57.7568     63.1170
   700.5000     21.4166     29.5224     33.8913     60.7916     61.0066
   700.7500     20.9747     29.8766     34.4928     63.0593     59.1220
   701.0000     20.5055     30.2226     35.0125     63.9077     56.8129
   701.2500     20.0351     30.5831     35.4193     63.2275     56.4079
   701.5000     19.5804     30.9580     35.7112     61.4501     57.8756
