~Version Information
VERS.                      2.0: CWLS Log ASCII Standard - VERSION 2.0
WRAP.                       NO: One line per depth step
~Well Information Block
STRT.FT               575.0000: 
STOP.FT              1557.5000: 
STEP.FT                 0.1000: 
NULL.                -999.2500: 
COMP.          Pioneer Natural Resources: COMPANY
WELL.          McClaren 13-34 Tr: WELL
FLD.           Purgatoire River: FIELD
LOC.           1934' FSL & 826' FWL: LOCATION
PROV.                 Colorado: PROVINCE
CNTY.               Las Animas: COUNTRY
SRVC.                Patterson: SERVICE COMPANY
DATE.          Tue Jul 12 07:15:27 2005: LOG DATE
UWI.           05 071 08437 00: UNIQUE WELL ID
~Curve Information Block
DEPT.FT            0 000 00 00: Depth
DCAL.in                       : CDL Caliper
RHOB.g/cc                     : CDL Bulk Density
RHOC.g/cc                     : CDL Density Correction
DPOR.pu                       : CDL Density Porosity
GR.GAPI                       : Gamma Ray
NPOR.pu                       : Neutron Porosity
~Parameter Information Block
~A  Depth       DCAL        RHOB        RHOC        DPOR         GR         NPOR    
# ...
   959.0000      8.0272      2.5390     -0.0284      6.7283    117.7302     23.8150
   959.1000      8.0272      2.5321      0.0185      7.1484    115.3850     23.3377
   959.2000      8.0272      2.5368      0.0138      6.8622    115.1742     23.0338
   959.3000      8.0276      2.5368      0.0163      6.8620    119.6719     23.0263
   959.4000      8.0276      2.5341     -0.0156      7.0263    125.0020     23.1223
   959.5000      8.0275      2.5428     -0.0060      6.4989    125.6429     23.3725
   959.6000      8.0275      2.5620      0.0525      5.3313    123.7484     23.5401
   959.7000      8.0275      2.5750      0.0706      4.5441    125.1504     23.4336
   959.8000      8.0265      2.5733      0.0486      4.6487    129.9339     23.5244
   959.9000      8.0265      2.5632      0.0659      5.2577    134.4321     24.5126
   960.0000      8.0288      2.5534      0.0274      5.8565    137.4164     25.8745
   960.1000      8.0288      2.5486      0.0401      6.1435    140.8686     26.5412
   960.2000      8.0288      2.5495     -0.0006      6.0937    145.7822     26.8158
   960.3000      8.0385      2.5568      0.0145      5.6485    149.1106     27.0226
   960.4000      8.0385      2.5636      0.0494      5.2392    147.0967     26.6793
   960.5000      8.0472      2.5531      0.0498      5.8702    142.7765     26.2386
   960.6000      8.0472      2.5307     -0.0160      7.2279    142.6637     26.4844
   960.7000      8.0472      2.5207      0.0112      7.8381    147.1616     27.0724
   960.8000      8.0495      2.5276      0.0090      7.4159    151.5340     27.6389
   960.9000      8.0495      2.5346      0.0256      6.9916    152.6461     28.4090
   961.0000      8.0496      2.5297      0.0048      7.2936    150.9606     29.1059
   961.1000      8.0496      2.5158      0.0374      8.1361    148.5371     28.9957
   961.2000      8.0496      2.5006      0.0133      9.0516    146.8057     28.1186
   961.3000      8.0501      2.4883      0.0526      9.8016    146.8037     27.3083
   961.4000      8.0501      2.4754      0.0256     10.5801    149.8031     26.9941
   961.5000      8.0508      2.4547      0.0312     11.8361    153.5890     26.9247
   961.6000      8.0508      2.4180      0.0090     14.0588    154.6112     27.2223
   961.7000      8.0508      2.3710     -0.0619     16.9119    152.5007     27.6723
   961.8000      8.0513      2.3308     -0.0751     19.3455    149.6100     27.7055
   961.9000      8.0513      2.2941     -0.0148     21.5727    146.8439     27.5694
   962.0000      8.0539      2.2318     -0.0069     25.3429    141.8587     28.0483
   962.1000      8.0539      2.1299     -0.0151     31.5197    132.3688     29.6844
   962.2000      8.0539      2.0040     -0.0357     39.1503    117.2751     31.4943
   962.3000      8.0786      1.8688     -0.0301     47.3442    100.4719     32.1459
   962.4000      8.0786      1.7302     -0.0685     55.7454     88.4823     31.7495
   962.5000      8.1762      1.6005     -0.1216     63.6060     80.7899     31.3503
   962.6000      8.1762      1.4871     -0.1247     70.4802     73.6049     31.8647
   962.7000      8.1762      1.3906     -0.1204     76.3300     68.6851     33.0309
   962.8000      8.3774      1.3169     -0.0297     80.7953     67.2521     33.8069
   962.9000      8.3774      1.2662      0.0133     83.8664     65.3382     33.8909
   963.0000      8.6371      1.2306      0.0110     86.0235     59.7305     33.6065
   963.1000      8.6371      1.2118     -0.0025     87.1661     52.3410     33.0069
   963.2000      8.6371      1.2198     -0.0080     86.6802     48.4478     32.3389
   963.3000      8.8465      1.2535      0.0407     84.6382     50.9116     32.2022
   963.4000      8.8465      1.3003      0.0443     81.7996     56.1578     32.5442
   963.5000      8.8930      1.3560      0.0838     78.4250     57.5351     33.2358
   963.6000      8.8930      1.4229      0.0977     74.3710     53.7811     34.1602
   963.7000      8.8930      1.4952      0.1232     69.9898     50.9693     34.1693
   963.8000      8.7492      1.5656      0.1482     65.7231     53.9969     33.0003
   963.9000      8.7492      1.6382      0.1318     61.3207     62.5077     32.1194
   964.0000      8.4855      1.7141      0.1594     56.7204     73.3035     32.0517
   964.1000      8.4855      1.7861      0.1583     52.3594     81.5936     32.1242
   964.2000      8.4855      1.8592      0.1344     47.9291     86.1173     32.2824
   964.3000      8.2636      1.9398      0.1378     43.0399     90.6178     32.5832
   964.4000      8.2636      2.0185      0.1364     38.2704     98.6758     32.5818
   964.5000      8.1877      2.0887      0.1238     34.0157    108.8257     31.6094
   964.6000      8.1877      2.1599      0.0894     29.7021    116.6973     30.1458
   964.7000      8.1877      2.2409      0.1174     24.7948    122.1254     29.7871
   964.8000      8.2401      2.3200      0.1786     20.0016    128.1695     30.9574
   964.9000      8.2401      2.3730      0.2332     16.7867    134.8338     32.4141
   965.0000      8.3788      2.3959      0.1639     15.3978    140.1599     32.9021
   965.1000      8.3788      2.4057      0.1972     14.8068    143.2340     32.7163
   965.2000      8.3788      2.4068      0.2143     14.7407    144.3773     32.5727
   965.3000      8.5306      2.3934      0.1825     15.5516    144.1572     32.4588
   965.4000      8.5306      2.3637      0.1834     17.3542    142.1887     32.2358
   965.5000      8.5432      2.3159      0.1414     20.2476    139.5013     31.9487
   965.6000      8.5432      2.2587      0.0992     23.7173    139.2321     31.4592
   965.7000      8.5432      2.2086      0.0951     26.7499    142.0509     30.6395
   965.8000      8.3861      2.1629      0.1529     29.5218    143.3596     30.0882
   965.9000      8.3861      2.1023      0.1294     33.1951    136.9173     30.4483
   966.0000      8.2623      2.0319      0.0696     37.4606    124.6231     31.3979
   966.1000      8.2623      1.9848      0.0752     40.3138    116.1659     32.2402
   966.2000      8.2623      1.9852      0.1360     40.2912    116.9826     32.3269
   966.3000      8.2331      2.0340      0.2037     37.3357    124.1082     31.3424
   966.4000      8.2331      2.1157      0.3006     32.3797    132.4056     30.0619
   966.5000      8.2345      2.2078      0.3548     26.7997    136.7611     29.4051
   966.6000      8.2345      2.2895      0.4119     21.8475    135.9325     29.6575
   966.7000      8.2345      2.3505      0.4031     18.1490    132.1079     30.2825
   966.8000      8.2337      2.3953      0.4220     15.4372    126.9374     30.4965
   966.9000      8.2337      2.4291      0.3749     13.3894    124.9541     30.3193
   967.0000      8.2172      2.4462      0.3684     12.3490    128.8475     30.2902
   967.1000      8.2172      2.4428      0.3322     12.5587    132.6507     30.6577
   967.2000      8.2172      2.4346      0.2306     13.0522    132.4458     31.0275
   967.3000      8.1883      2.4353      0.2298     13.0128    133.1878     31.0198
   967.4000      8.1883      2.4362      0.1717     12.9548    135.4131     30.8880
   967.5000      8.1691      2.4316      0.1358     13.2368    135.5683     31.2101
   967.6000      8.1691      2.4244      0.1390     13.6748    134.3382     31.5096
   967.7000      8.1691      2.4174      0.1335     14.0960    132.1121     30.9652
   967.8000      8.1669      2.4067      0.1529     14.7442    130.6380     30.4668
   967.9000      8.1669      2.3859      0.1484     16.0079    131.4340     30.8437
   968.0000      8.1722      2.3517      0.1803     18.0789    130.6520     31.1191
   968.1000      8.1722      2.3018      0.1251     21.1022    128.4213     30.4869
   968.2000      8.1722      2.2385      0.0768     24.9414    129.6236     29.7953
   968.3000      8.1768      2.1657      0.0153     29.3505    132.3366     30.1602
   968.4000      8.1768      2.0967     -0.0349     33.5348    133.2395     31.1520
   968.5000      8.1842      2.0567     -0.0256     35.9596    134.9052     31.6304
