~Version Information
VERS.                      2.0: CWLS Log ASCII Standard - VERSION 2.0
WRAP.                       NO: One line per depth step
~Well Information Block
STRT.FT                10.0000: 
STOP.FT              1485.0000: 
STEP.FT                 0.1000: 
NULL.                -999.2500: 
COMP.          Pioneer Natural Resources: COMPANY
WELL.          Old Faithful 21-2: WELL
FLD.           Purgatorie River: FIELD
LOC.           806' FNL & 2509' FWL: LOCATION
PROV.                 Colorado: PROVINCE
CNTY.               Las Animas: COUNTRY
SRVC.                Patterson: SERVICE COMPANY
DATE.          Wed Dec 07 13:17:12 2005: LOG DATE
UWI.                          : UNIQUE WELL ID
~Curve Information Block
DEPT.FT            0 000 00 00: Depth
DCAL.in                       : CDL Caliper
RHOB.g/cc                     : CDL Bulk Density
RHOC.g/cc                     : CDL Density Correction
DPOR.pu                       : CDL Density Porosity
GR.GAPI                       : Gamma Ray
NPOR.pu                       : Neutron Porosity
~Parameter Information Block
~A  Depth       DCAL        RHOB        RHOC        DPOR         GR         NPOR    
# ...
   403.6000      8.3464      2.1293      0.0356     31.5553    142.2044     21.6230
   403.7000      8.3464      2.1226      0.0273     31.9627    140.7642     21.2440
   403.8000      8.3266      2.0942      0.0931     33.6868    138.6270     20.5560
   403.9000      8.3266      2.0543      0.0934     36.1012    137.3334     19.8863
   404.0000      8.3867      2.0161      0.1137     38.4163    137.5414     19.2387
   404.1000      8.3867      1.9860      0.1120     40.2433    137.6308     18.5965
   404.2000      8.3867      1.9675      0.0815     41.3655    136.4491     18.2835
   404.3000      8.4797      1.9689      0.0652     41.2767    134.4055     18.5924
   404.4000      8.4797      1.9961      0.0820     39.6316    131.8289     19.4954
   404.5000      8.4070      2.0467      0.1125     36.5659    128.4116     20.5017
   404.6000      8.4070      2.1183      0.0948     32.2242    126.4817     21.3025
   404.7000      8.4070      2.2105      0.1531     26.6349    128.4998     22.2225
   404.8000      8.3533      2.3102      0.1932     20.5928    132.6549     23.5354
   404.9000      8.3533      2.3935      0.2101     15.5438    134.9640     24.9114
   405.0000      8.3661      2.4480      0.1734     12.2444    133.2115     25.9291
   405.1000      8.3661      2.4770      0.0658     10.4847    130.5240     26.4644
   405.2000      8.3661      2.4860      0.0224      9.9402    131.0251     26.6011
   405.3000      8.3779      2.4820     -0.0299     10.1837    134.1177     26.8370
   405.4000      8.3779      2.4821     -0.0476     10.1750    135.5749     27.4817
   405.5000      8.2859      2.4943      0.0038      9.4344    133.5447     28.0651
   405.6000      8.2859      2.5055     -0.0216      8.7602    131.9039     27.9684
   405.7000      8.2859      2.5110     -0.0004      8.4246    133.0733     27.3054
   405.8000      8.2750      2.5200      0.0006      7.8773    135.4020     26.7951
   405.9000      8.2750      2.5312      0.0333      7.2029    137.5640     26.6750
   406.0000      8.2582      2.5336      0.0320      7.0548    138.5338     26.6022
   406.1000      8.2582      2.5255      0.0112      7.5471    137.9309     26.4582
   406.2000      8.2582      2.5144      0.0084      8.2185    137.4856     26.3002
   406.3000      8.2368      2.5101     -0.0323      8.4807    138.0815     26.1224
   406.4000      8.2368      2.5104      0.0446      8.4582    137.9038     25.9687
   406.5000      8.2374      2.5013      0.0097      9.0150    137.7908     25.8445
   406.6000      8.2374      2.4912     -0.0356      9.6219    139.1863     25.6770
   406.7000      8.2374      2.5011      0.0096      9.0235    139.9858     25.6247
   406.8000      8.2346      2.5273      0.0563      7.4384    138.2524     25.8204
   406.9000      8.2346      2.5542      0.0747      5.8085    134.2702     25.9741
   407.0000      8.2424      2.5693      0.0915      4.8891    129.9639     25.9095
   407.1000      8.2424      2.5671      0.1085      5.0231    127.9679     25.8377
   407.2000      8.2424      2.5535      0.1037      5.8498    130.4944     25.9181
   407.3000      8.1981      2.5392      0.0755      6.7144    134.6525     26.1753
   407.4000      8.1981      2.5335      0.0206      7.0628    136.3926     26.6475
   407.5000      8.1844      2.5409      0.0303      6.6129    135.4459     27.2224
   407.6000      8.1844      2.5554      0.0248      5.7338    131.5222     27.4488
   407.7000      8.1844      2.5697      0.0442      4.8654    124.7639     27.2372
   407.8000      8.1847      2.5864      0.0016      3.8533    117.5636     26.8222
   407.9000      8.1847      2.6026      0.0530      2.8698    111.5050     26.2421
   408.0000      8.1751      2.6000      0.0578      3.0310    107.3373     25.8506
   408.1000      8.1751      2.5739      0.0441      4.6143    104.3802     25.9216
   408.2000      8.1751      2.5508     -0.0395      6.0110    100.8843     26.0222
   408.3000      8.1662      2.5534      0.0186      5.8561     97.5786     25.6957
   408.4000      8.1662      2.5734      0.0334      4.6449     96.2630     25.2075
   408.5000      8.1480      2.5932      0.0173      3.4438     96.0084     24.9185
   408.6000      8.1480      2.5967      0.0460      3.2309     94.8303     24.5817
   408.7000      8.1480      2.5796     -0.0145      4.2681     93.6739     24.1208
   408.8000      8.1442      2.5593     -0.0265      5.4995     93.3473     23.7485
   408.9000      8.1442      2.5480     -0.0221      6.1799     92.3571     23.3253
   409.0000      8.1435      2.5423     -0.0128      6.5294     92.8566     22.8675
   409.1000      8.1435      2.5418     -0.0552      6.5601     97.5725     22.7817
   409.2000      8.1435      2.5500     -0.0197      6.0630    103.6206     23.0075
   409.3000      8.1487      2.5634     -0.0331      5.2492    107.3540     23.1035
   409.4000      8.1487      2.5797      0.0267      4.2609    107.5884     23.0290
   409.5000      8.1393      2.5935      0.0686      3.4269    103.7958     23.0189
   409.6000      8.1393      2.5964      0.0471      3.2482     98.4906     23.0234
   409.7000      8.1393      2.5888      0.0546      3.7081     96.3124     22.9665
   409.8000      8.1322      2.5757      0.0073      4.5045     98.5288     23.0767
   409.9000      8.1322      2.5646     -0.0250      5.1786    101.0658     23.3641
   410.0000      8.1467      2.5546      0.0173      5.7841    101.0059     23.6949
   410.1000      8.1467      2.5371     -0.0291      6.8426    101.9792     24.2599
   410.2000      8.1467      2.5236     -0.0899      7.6595    105.0782     25.0088
   410.3000      8.1440      2.5319     -0.0097      7.1604    105.3102     25.3531
   410.4000      8.1440      2.5558     -0.0193      5.7087    101.0995     24.9938
   410.5000      8.1285      2.5812     -0.0231      4.1678     94.7203     24.4370
   410.6000      8.1285      2.5940      0.0498      3.3926     88.3178     24.1314
   410.7000      8.1285      2.5853      0.0242      3.9208     86.0209     23.9753
   410.8000      8.1323      2.5687      0.0406      4.9272     89.5636     23.7798
   410.9000      8.1323      2.5654     -0.0224      5.1267     93.7091     23.6277
   411.0000      8.1393      2.5771      0.0426      4.4164     94.1260     23.7180
   411.1000      8.1393      2.5880      0.0358      3.7572     93.6490     23.8947
   411.2000      8.1393      2.5898      0.0548      3.6481     94.8666     23.9391
   411.3000      8.1459      2.5905      0.0546      3.6038     96.1611     24.1044
   411.4000      8.1459      2.6007      0.0368      2.9867     96.6827     24.4705
   411.5000      8.1393      2.6187      0.0806      1.8991     96.5266     24.7047
   411.6000      8.1393      2.6300      0.0846      1.2141     94.3884     24.7353
   411.7000      8.1393      2.6273      0.0743      1.3739     90.2894     24.7497
   411.8000      8.1227      2.6262      0.0157      1.4412     87.3883     24.8984
   411.9000      8.1227      2.6427      0.0563      0.4422     88.9224     25.1468
   412.0000      8.1211      2.6693      0.0946     -1.1669     93.4583     25.2485
   412.1000      8.1211      2.6916      0.0953     -2.5201     96.7162     24.9983
   412.2000      8.1211      2.7043      0.1066     -3.2885     97.7999     24.6078
   412.3000      8.1254      2.7040      0.0940     -3.2709     98.3099     24.5489
   412.4000      8.1254      2.6880      0.1029     -2.3059     99.6608     24.7386
   412.5000      8.1272      2.6614      0.0389     -0.6935    102.3977     24.7664
   412.6000      8.1272      2.6395      0.0189      0.6363    105.5284     24.5647
   412.7000      8.1272      2.6282      0.0542      1.3198    107.4529     24.2956
   412.8000      8.1187      2.6197      0.0275      1.8349    107.7275     24.1085
   412.9000      8.1187      2.6123      0.0061      2.2826    105.3417     24.1062
   413.0000      8.1287      2.6033      0.0201      2.8289     99.3969     24.2093
   413.1000      8.1287      2.5848     -0.0263      3.9517     94.8285     24.3458
