~Version Information
VERS.                      2.0: CWLS Log ASCII Standard - VERSION 2.0
WRAP.                       NO: One line per depth step
~Well Information Block
STRT.FT               340.0000: 
STOP.FT              2342.7500: 
STEP.FT                 0.2500: 
NULL.                -999.2500: 
COMP.          Pioneer Natural Resources: COMPANY
WELL.          Pinkerton 41-12: WELL
FLD.           Purgatoire River: FIELD
LOC.           1222' FNL & 670' FEL--: LOCATION
CNTY.               Las Animas: COUNTY
SRVC.                Patterson: SERVICE COMPANY
DATE.          Wed Mar 15 10:37:39 2006: LOG DATE
UWI.           05 071 08500 00: UNIQUE WELL ID
STAT.                 Colorado: STATE
~Curve Information Block
DEPT.FT            0 000 00 00: Depth
SN.Ohm-m                      : IEL Short Normal
SP.mV                         : IEL Spontaneous Potential
DIR.Ohm-m                     : IEL Induction Resistivity
GR.GAPI                       : Gamma Ray
~Parameter Information Block
~A  Depth        SN          SP         DIR          GR     
# ...
  1010.0000   2000.0000   -999.2500     22.5228     98.7886
  1010.2500   2000.0000   -999.2500     21.9320     99.3335
  1010.5000   2000.0000   -999.2500     21.3350    100.4643
  1010.7500   2000.0000   -999.2500     20.7352    101.6852
  1011.0000   2000.0000   -999.2500     20.1537    104.7976
  1011.2500   2000.0000   -999.2500     19.6137    107.8240
  1011.5000   2000.0000   -999.2500     19.1271    113.1202
  1011.7500   2000.0000   -999.2500     18.6918    116.4049
  1012.0000   2000.0000   -999.2500     18.2997    119.7197
  1012.2500   2000.0000   -999.2500     17.9461    120.4542
  1012.5000   2000.0000   -999.2500     17.6343    119.4027
  1012.7500   2000.0000   -999.2500     17.3742    117.6674
  1013.0000   2000.0000   -999.2500     17.1747    114.5448
  1013.2500   2000.0000   -999.2500     17.0359    112.7426
  1013.5000   2000.0000   -999.2500     16.9469    111.1536
  1013.7500   2000.0000   -999.2500     16.8894    110.8331
  1014.0000   2000.0000   -999.2500     16.8462    110.9408
  1014.2500   2000.0000   -999.2500     16.8070    111.1981
  1014.5000   2000.0000   -999.2500     16.7699    112.0894
  1014.7500   2000.0000   -999.2500     16.7383    113.2753
  1015.0000   2000.0000   -999.2500     16.7167    115.9343
  1015.2500   2000.0000   -999.2500     16.7091    117.9455
  1015.5000   2000.0000   -999.2500     16.7189    120.3946
  1015.7500   2000.0000   -999.2500     16.7511    121.0419
  1016.0000   2000.0000   -999.2500     16.8113    119.6586
  1016.2500   2000.0000   -999.2500     16.9012    117.0196
  1016.5000   2000.0000   -999.2500     17.0099    111.3106
  1016.7500   2000.0000   -999.2500     17.1096    107.3659
  1017.0000   2000.0000   -999.2500     17.1569    103.0724
  1017.2500   2000.0000   -999.2500     17.1023    101.8814
  1017.5000   2000.0000   -999.2500     16.9016    102.6740
  1017.7500   2000.0000   -999.2500     16.5258    104.8361
  1018.0000   2000.0000   -999.2500     15.9681    110.7232
  1018.2500   2000.0000   -999.2500     15.2482    116.4072
  1018.5000   2000.0000   -999.2500     14.4114    126.2318
  1018.7500   2000.0000   -999.2500     13.5187    131.9997
  1019.0000   2000.0000   -999.2500     12.6320    136.7979
  1019.2500   2000.0000   -999.2500     11.8011    137.0755
  1019.5000   2000.0000   -999.2500     11.0579    134.9511
  1019.7500   2000.0000   -999.2500     10.4169    133.3889
  1020.0000   2000.0000   -999.2500      9.8801    132.2477
  1020.2500   2000.0000   -999.2500      9.4415    132.1446
  1020.5000   2000.0000   -999.2500      9.0929    132.0176
  1020.7500   2000.0000   -999.2500      8.8264    131.4850
  1021.0000   2000.0000   -999.2500      8.6357    129.5061
  1021.2500   2000.0000   -999.2500      8.5159    127.2462
  1021.5000   2000.0000   -999.2500      8.4630    122.7040
  1021.7500   2000.0000   -999.2500      8.4729    119.3958
  1022.0000   2000.0000   -999.2500      8.5404    114.9033
  1022.2500   2000.0000   -999.2500      8.6565    112.4802
  1022.5000   2000.0000   -999.2500      8.8067    109.8076
  1022.7500   2000.0000   -999.2500      8.9713    108.8095
  1023.0000   2000.0000   -999.2500      9.1288    108.9310
  1023.2500   2000.0000   -999.2500      9.2618    110.1410
  1023.5000   2000.0000   -999.2500      9.3621    112.9293
  1023.7500   2000.0000   -999.2500      9.4313    114.7372
  1024.0000   2000.0000   -999.2500      9.4775    116.5453
  1024.2500   2000.0000   -999.2500      9.5107    117.1783
  1024.5000   2000.0000   -999.2500      9.5390    117.9774
  1024.7500   2000.0000   -999.2500      9.5686    118.8164
  1025.0000   2000.0000   -999.2500      9.6039    120.6908
  1025.2500   2000.0000   -999.2500      9.6489    122.1072
  1025.5000   2000.0000   -999.2500      9.7082    123.7979
  1025.7500   2000.0000   -999.2500      9.7872    124.3469
  1026.0000   2000.0000   -999.2500      9.8930    124.4113
  1026.2500   2000.0000   -999.2500     10.0341    124.3443
  1026.5000   2000.0000   -999.2500     10.2210    124.7704
  1026.7500   2000.0000   -999.2500     10.4654    125.4362
  1027.0000   2000.0000   -999.2500     10.7786    126.0513
  1027.2500   2000.0000   -999.2500     11.1668    125.2548
  1027.5000   2000.0000   -999.2500     11.6259    120.9208
  1027.7500   2000.0000   -999.2500     12.1363    115.7995
  1028.0000   2000.0000   -999.2500     12.6625    105.7688
  1028.2500   2000.0000   -999.2500     13.1563     98.5749
  1028.5000   2000.0000   -999.2500     13.5651     88.9801
  1028.7500   2000.0000   -999.2500     13.8399     84.2716
  1029.0000   2000.0000   -999.2500     13.9444     80.5503
  1029.2500   2000.0000   -999.2500     13.8636     80.4509
  1029.5000   2000.0000   -999.2500     13.6078     83.9585
  1029.7500   2000.0000   -999.2500     13.2088     88.6690
  1030.0000   2000.0000   -999.2500     12.7092     98.4183
  1030.2500   2000.0000   -999.2500     12.1515    105.5126
  1030.5000   2000.0000   -999.2500     11.5748    114.3843
  1030.7500   2000.0000   -999.2500     11.0148    118.0442
  1031.0000   2000.0000   -999.2500     10.5050    120.4144
  1031.2500   2000.0000   -999.2500     10.0731    121.0752
  1031.5000   2000.0000   -999.2500      9.7375    122.5687
  1031.7500   2000.0000   -999.2500      9.5049    124.1849
  1032.0000   2000.0000   -999.2500      9.3724    126.8115
  1032.2500   2000.0000   -999.2500      9.3325    128.0908
  1032.5000   2000.0000   -999.2500      9.3770    128.6974
  1032.7500   2000.0000   -999.2500      9.4987    128.2982
  1033.0000   2000.0000   -999.2500      9.6908    127.1668
  1033.2500   2000.0000   -999.2500      9.9454    126.4677
  1033.5000   2000.0000   -999.2500     10.2533    125.9032
  1033.7500   2000.0000   -999.2500     10.6045    126.0241
  1034.0000   2000.0000   -999.2500     10.9900    127.3912
  1034.2500   2000.0000   -999.2500     11.4029    129.2271
  1034.5000   2000.0000   -999.2500     11.8369    132.6392
  1034.7500   2000.0000   -999.2500     12.2852    134.2829
  1035.0000   2000.0000   -999.2500     12.7384    133.8645
  1035.2500   2000.0000   -999.2500     13.1844    131.2123
  1035.5000   2000.0000   -999.2500     13.6098    124.4116
  1035.7500   2000.0000   -999.2500     14.0034    118.9623
  1036.0000   2000.0000   -999.2500     14.3602    111.4172
  1036.2500   2000.0000   -999.2500     14.6839    107.9741
  1036.5000   2000.0000   -999.2500     14.9839    106.3605
  1036.7500   2000.0000   -999.2500     15.2683    107.3877
  1037.0000   2000.0000   -999.2500     15.5373    110.2550
  1037.2500   2000.0000   -999.2500     15.7811    111.9149
  1037.5000   2000.0000   -999.2500     15.9843    113.2436
  1037.7500   2000.0000   -999.2500     16.1363    113.7321
  1038.0000   2000.0000   -999.2500     16.2426    115.0351
  1038.2500   2000.0000   -999.2500     16.3283    116.4692
  1038.5000   2000.0000   -999.2500     16.4282    118.2444
  1038.7500   2000.0000   -999.2500     16.5699    118.1328
  1039.0000   2000.0000   -999.2500     16.7631    115.4206
  1039.2500   2000.0000   -999.2500     16.9991    112.4889
  1039.5000   2000.0000   -999.2500     17.2589    107.7946
  1039.7500   2000.0000   -999.2500     17.5202    105.0107
  1040.0000   2000.0000   -999.2500     17.7604    102.1726
  1040.2500   2000.0000   -999.2500     17.9591    101.7111
  1040.5000   2000.0000   -999.2500     18.1016    103.2656
  1040.7500   2000.0000   -999.2500     18.1831    105.0090
  1041.0000   2000.0000   -999.2500     18.2077    106.9038
  1041.2500   2000.0000   -999.2500     18.1854    107.2701
  1041.5000   2000.0000   -999.2500     18.1320    107.0203
  1041.7500   2000.0000   -999.2500     18.0716    106.8309
  1042.0000   2000.0000   -999.2500     18.0356    107.0154
  1042.2500   2000.0000   -999.2500     18.0551    107.4564
  1042.5000   2000.0000   -999.2500     18.1480    107.9207
  1042.7500   2000.0000   -999.2500     18.3101    107.3032
  1043.0000   2000.0000   -999.2500     18.5132    103.8313
  1043.2500   2000.0000   -999.2500     18.7141     99.9844
