~Version Information
VERS.                      2.0: CWLS Log ASCII Standard - VERSION 2.0
WRAP.                       NO: One line per depth step
~Well Information Block
STRT.FT                 2.0000: 
STOP.FT               698.7500: 
STEP.FT                 0.2500: 
NULL.                -999.2500: 
COMP.          XTO Energy Inc.: COMPANY
WELL.          Golden Eagle 20-14: WELL
FLD.           Purgatrorie River: FIELD
LOC.           587' FSL & 2478' FWL--: LOCATION
STAT.                       CO: State
CNTY.               Las Animas: COUNTY
CTRY. USA : Country
SECT. 20 : Section
TOWN. 33S : Township
RANG. 67W : Range
SRVC.          Patterson Wireline: SERVICE COMPANY
DATE.          Sat Dec 10 16:49:08 2005: LOG DATE
API.           05 071 08614 00: UNIQUE WELL ID
~Curve Information Block
DEPT.FT            0 000 00 00: Depth
MINMK.                        : Magnetic Mark Ticks
TEMP.degF                     : Downhole Temperature
DTMP.degF                     : Delta Temperature
~Parameter Information Block
~A  Depth      MINMK        TEMP        DTMP    
# ...
   670.0000      0.0000     73.6016      0.0793
   670.2500      0.0000     73.6204      0.0799
   670.5000      0.0000     73.6393      0.0807
   670.7500      0.0000     73.6584      0.0811
   671.0000      0.0000     73.6823      0.0815
   671.2500      0.0000     73.7016      0.0820
   671.5000      0.0000     73.7258      0.0823
   671.7500      0.0000     73.7452      0.0850
   672.0000      0.0000     73.7647      0.0829
   672.2500      0.0000     73.7843      0.0830
   672.5000      0.0000     73.8038      0.0807
   672.7500      0.0000     73.8284      0.0808
   673.0000      0.0000     73.8481      0.0809
   673.2500      0.0000     73.8676      0.0809
   673.5000      0.0000     73.8873      0.0809
   673.7500      0.0000     73.9069      0.0808
   674.0000      0.0000     73.9265      0.0808
   674.2500      0.0000     73.9460      0.0809
   674.5000      0.0000     73.9657      0.0809
   674.7500      0.0000     73.9901      0.0812
   675.0000      0.0000     74.0097      0.0814
   675.2500      0.0000     74.0293      0.0845
   675.5000      0.0000     74.0492      0.0850
   675.7500      0.0000     74.0692      0.0833
   676.0000      0.0000     74.0894      0.0840
   676.2500      0.0000     74.1150      0.0873
   676.5000      0.0000     74.1357      0.0879
   676.7500      0.0000     74.1566      0.0911
   677.0000      0.0000     74.1776      0.0915
   677.2500      0.0000     74.2039      0.0891
   677.5000      0.0000     74.2250      0.0892
   677.7500      0.0000     74.2513      0.0889
   678.0000      0.0000     74.2724      0.0886
   678.2500      0.0000     74.2932      0.0854
   678.5000      0.0000     74.3140      0.0847
   678.7500      0.0000     74.3344      0.0813
   679.0000      0.0000     74.3548      0.0825
   679.2500      0.0000     74.3748      0.0813
   679.5000      0.0000     74.3944      0.0799
   679.7500      0.0000     74.4139      0.0784
   680.0000      0.0000     74.4375      0.0786
   680.2500      0.0000     74.4558      0.0767
   680.5000      0.0000     74.4737      0.0747
   680.7500      0.0000     74.4912      0.0724
   681.0000      0.0000     74.5120      0.0678
   681.2500      0.0000     74.5281      0.0656
   681.5000      0.0000     74.5438      0.0633
   681.7500      0.0000     74.5587      0.0624
   682.0000      0.0000     74.5731      0.0581
   682.2500      0.0000     74.5870      0.0559
   682.5000      0.0000     74.6003      0.0538
   682.7500      0.0000     74.6161      0.0530
   683.0000      0.0000     74.6283      0.0511
   683.2500      0.0000     74.6400      0.0492
   683.5000      0.0000     74.6513      0.0475
   683.7500      0.0000     74.6648      0.0444
   684.0000      0.0000     74.6753      0.0430
   684.2500      0.0000     74.6855      0.0417
   684.5000      0.0000     74.6953      0.0405
   684.7500      0.0000     74.7049      0.0392
   685.0000      0.0000     74.7143      0.0383
   685.2500      0.0000     74.7234      0.0386
   685.5000      0.0000     74.7324      0.0379
   685.7500      0.0000     74.7433      0.0375
   686.0000      0.0000     74.7519      0.0373
   686.2500      0.0000     74.7626      0.0376
   686.5000      0.0000     74.7711      0.0382
   686.7500      0.0000     74.7799      0.0398
   687.0000      0.0000     74.7890      0.0415
   687.2500      0.0000     74.7986      0.0427
   687.5000      0.0000     74.8088      0.0455
   687.7500      0.0000     74.8229      0.0487
   688.0000      0.0000     74.8350      0.0546
   688.2500      0.0000     74.8480      0.0588
   688.5000      0.0000     74.8622      0.0634
   688.7500      0.0000     74.8773      0.0667
   689.0000      0.0000     74.8982      0.0718
   689.2500      0.0000     74.9162      0.0771
   689.5000      0.0000     74.9356      0.0858
   689.7500      0.0000     74.9563      0.0916
   690.0000      0.0000     74.9786      0.0951
   690.2500      0.0000     75.0022      0.1007
   690.5000      0.0000     75.0337      0.1062
   690.7500      0.0000     75.0605      0.1159
   691.0000      0.0000     75.0883      0.1213
   691.2500      0.0000     75.1176      0.1266
   691.5000      0.0000     75.1481      0.1283
   691.7500      0.0000     75.1881      0.1376
   692.0000      0.0000     75.2211      0.1422
   692.2500      0.0000     75.2553      0.1465
   692.5000      0.0000     75.2903      0.1505
   692.7500      0.0000     75.3357      0.1501
   693.0000      0.0000     75.3728      0.1536
   693.2500      0.0000     75.4106      0.1617
   693.5000      0.0000     75.4491      0.1649
   693.7500      0.0000     75.4883      0.1631
   694.0000      0.0000     75.5282      0.1712
   694.2500      0.0000     75.5788      0.1741
   694.5000      0.0000     75.6201      0.1769
   694.7500      0.0000     75.6619      0.1798
   695.0000      0.0000     75.7153      0.1827
   695.2500      0.0000     75.7589      0.1864
   695.5000      0.0000     75.8029      0.1892
   695.7500      0.0000     75.8479      0.1921
   696.0000      0.0000     75.8936      0.1896
   696.2500      0.0000     75.9515      0.1922
   696.5000      0.0000     75.9985      0.2009
   696.7500      0.0000     76.0461      0.2032
   697.0000      0.0000     76.0944      0.2054
   697.2500      0.0000     76.1432      0.2015
   697.5000      0.0000     76.2047      1.2453
   697.7500      0.0000     76.2543      1.5311
   698.0000      0.0000     76.3043   -999.2500
   698.2500      0.0000     76.3546   -999.2500
   698.5000      0.0000     78.4891   -999.2500
   698.7500      0.0000     79.1083   -999.2500
