~Version Information
VERS.                      2.0: CWLS Log ASCII Standard - VERSION 2.0
WRAP.                       NO: One line per depth step
~Well Information Block
STRT.FT               245.0000: 
STOP.FT              1273.7500: 
STEP.FT                 0.2500: 
NULL.                -999.2500: 
COMP.          Pioneer Natural Resources: COMPANY
WELL.                 Ray 34-6: WELL
FLD.           Purgatoire River: FIELD
LOC.           684' FSL & 2254' FEL--: LOCATION
CNTY.               Las Animas: COUNTY
SRVC.                Patterson: SERVICE COMPANY
DATE.          Fri May 26 03:08:09 2006: LOG DATE
UWI.           05 071 08695 00: UNIQUE WELL ID
STAT.                 Colorado: STATE
~Curve Information Block
DEPT.FT            0 000 00 00: Depth
SN.Ohm-m                      : IEL Short Normal
SP.mV                         : IEL Spontaneous Potential
DIR.Ohm-m                     : IEL Induction Resistivity
GR.GAPI                       : Gamma Ray
~Parameter Information Block
~A  Depth        SN          SP         DIR          GR     
# ...
   915.0000    685.7410   -563.1286     29.6840     54.3030
   915.2500    685.7410   -563.1176     29.3303     53.3157
   915.5000    685.7410   -563.1044     28.9056     52.7792
   915.7500    685.7410   -563.0889     28.4969     53.6509
   916.0000    685.7410   -563.0712     28.1994     57.0308
   916.2500    685.7410   -563.0521     28.0940     60.1526
   916.5000    685.7410   -563.0325     28.2238     64.4590
   916.7500    685.7410   -563.0139     28.5800     66.1063
   917.0000    685.7410   -562.9974     29.1067     65.9830
   917.2500    685.7410   -562.9842     29.7291     64.3931
   917.5000    685.7410   -562.9749     30.3931     60.7789
   917.7500    685.7410   -562.9697     31.0957     58.1824
   918.0000    685.7410   -562.9683     31.8842     54.7958
   918.2500    685.7410   -562.9701     32.8220     53.1431
   918.5000    685.7410   -562.9743     33.9408     51.7295
   918.7500    685.7410   -562.9802     35.2045     51.4064
   919.0000    685.7410   -562.9870     36.5085     51.3773
   919.2500    685.7410   -562.9945     37.7186     51.2911
   919.5000    685.7410   -563.0025     38.7304     50.6283
   919.7500    685.7410   -563.0113     39.5115     49.8768
   920.0000    685.7410   -563.0211     40.1014     48.8045
   920.2500    685.7410   -563.0325     40.5810     48.3884
   920.5000    685.7410   -563.0459     41.0381     48.1437
   920.7500    685.7410   -563.0616     41.5481     48.0111
   921.0000    685.7410   -563.0797     42.1632     47.7061
   921.2500    685.7410   -563.1003     42.8985     47.4895
   921.5000    685.7410   -563.1232     43.7168     47.0783
   921.7500    685.7410   -563.1479     44.5281     46.5787
   922.0000    685.7410   -563.1739     45.2226     45.4475
   922.2500    685.7410   -563.2006     45.7300     44.6965
   922.5000    685.7410   -563.2274     46.0604     44.1170
   922.7500    685.7410   -563.2536     46.2803     44.1698
   923.0000    685.7410   -563.2788     46.4420     44.5785
   923.2500    685.7410   -563.3027     46.5288     44.8527
   923.5000    685.7410   -563.3253     46.4647     45.1950
   923.7500    685.7410   -563.3464     46.1643     45.4931
   924.0000    685.7410   -563.3663     45.5738     46.3565
   924.2500    685.7410   -563.3853     44.6773     47.3942
   924.5000    685.7410   -563.4037     43.4930     49.7949
   924.7500    685.7410   -563.4219     42.0821     51.8192
   925.0000    685.7410   -563.4401     40.5575     54.8795
   925.2500    685.7410   -563.4583     39.0631     56.5444
   925.5000    685.7410   -563.4766     37.7269     58.0653
   925.7500    685.7410   -563.4948     36.6144     58.3926
   926.0000    685.7410   -563.5127     35.7069     58.1531
   926.2500    685.7410   -563.5300     34.9138     57.8241
   926.5000    685.7410   -563.5466     34.1140     57.5310
   926.7500    685.7410   -563.5619     33.2045     57.5799
   927.0000    685.7410   -563.5757     32.1286     58.2313
   927.2500    685.7410   -563.5878     30.8741     59.3524
   927.5000    685.7410   -563.5978     29.4641     62.5410
   927.7500    685.7410   -563.6057     27.9547     65.5556
   928.0000    685.7410   -563.6111     26.4324     70.4979
   928.2500    685.7410   -563.6142     24.9909     73.5226
   928.5000    685.7410   -563.6149     23.6987     77.2360
   928.7500    685.7410   -563.6132     22.5799     79.1252
   929.0000    685.7410   -563.6092     21.6216     80.9403
   929.2500    685.7410   -563.6032     20.7973     81.3531
   929.5000    685.7410   -563.5955     20.0899     80.9012
   929.7500    685.7410   -563.5861     19.5022     80.2517
   930.0000    685.7410   -563.5754     19.0521     79.5463
   930.2500    685.7410   -563.5637     18.7606     79.4920
   930.5000    685.7410   -563.5511     18.6401     79.7786
   930.7500    685.7410   -563.5378     18.6876     79.8666
   931.0000    685.7410   -563.5241     18.8814     79.4856
   931.2500    685.7410   -563.5098     19.1811     78.9201
   931.5000    685.7410   -563.4951     19.5320     77.7332
   931.7500    685.7410   -563.4799     19.8743     76.6931
   932.0000    685.7410   -563.4643     20.1586     74.7414
   932.2500    685.7410   -563.4482     20.3626     73.3541
   932.5000    685.7410   -563.4317     20.4975     71.6515
   932.7500    685.7410   -563.4149     20.5992     70.9436
   933.0000    685.7410   -563.3978     20.7080     70.3927
   933.2500    685.7410   -563.3807     20.8493     70.1118
   933.5000    685.7410   -563.3636     21.0266     69.3282
   933.7500    685.7410   -563.3466     21.2242     68.3926
   934.0000    685.7410   -563.3296     21.4088     66.4714
   934.2500    685.7410   -563.3126     21.5280     65.0663
   934.5000    685.7410   -563.2955     21.5152     63.1462
   934.7500    685.7410   -563.2778     21.3116     62.2066
   935.0000    685.7410   -563.2595     20.9023     61.8372
   935.2500    685.7410   -563.2402     20.3377     62.6262
   935.5000    685.7410   -563.2197     19.7138     65.6995
   935.7500    685.7410   -563.1980     19.1247     68.9475
   936.0000    685.7410   -563.1750     18.6187     75.0069
   936.2500    685.7410   -563.1510     18.1860     79.2453
   936.5000    685.7410   -563.1260     17.7782     84.9099
   936.7500    685.7410   -563.1005     17.3458     87.9503
   937.0000    685.7410   -563.0747     16.8734     91.6054
   937.2500    685.7410   -563.0490     16.3897     93.7477
   937.5000    685.7410   -563.0234     15.9504     96.8104
   937.7500    685.7410   -562.9984     15.6092     98.5807
   938.0000    685.7410   -562.9739     15.3956    100.1780
   938.2500    685.7410   -562.9500     15.3049    100.3620
   938.5000    685.7410   -562.9266     15.3008     99.8269
   938.7500    685.7410   -562.9037     15.3287     99.4375
   939.0000    685.7410   -562.8814     15.3362     99.2623
   939.2500    685.7410   -562.8596     15.2930     99.3821
   939.5000    685.7410   -562.8382     15.1972     99.7948
   939.7500    685.7410   -562.8173     15.0642    100.2882
   940.0000    685.7410   -562.7969     14.9104    101.5619
   940.2500    685.7410   -562.7770     14.7431    102.7493
   940.5000    685.7410   -562.7576     14.5643    104.5654
   940.7500    685.7410   -562.7388     14.3817    105.3598
   941.0000    685.7410   -562.7209     14.2168    105.3680
   941.2500    685.7410   -562.7044     14.1047    104.6377
   941.5000    685.7410   -562.6896     14.0856    103.2106
   941.7500    685.7410   -562.6771     14.1969    102.5506
   942.0000    685.7410   -562.6676     14.4681    102.0614
   942.2500    685.7410   -562.6614     14.9187    101.3980
   942.5000    685.7410   -562.6591     15.5568     98.1983
   942.7500    685.7410   -562.6606     16.3769     94.0684
   943.0000    685.7410   -562.6661     17.3558     85.6625
   943.2500    685.7410   -562.6750     18.4490     79.6703
   943.5000    685.7410   -562.6870     19.5891     71.6214
   943.7500    685.7410   -562.7015     20.6882     67.2881
   944.0000    685.7410   -562.7180     21.6495     62.7785
   944.2500    685.7410   -562.7357     22.3857     61.4268
   944.5000    685.7410   -562.7543     22.8403     62.1221
   944.7500    685.7410   -562.7734     22.9962     64.0439
   945.0000    685.7410   -562.7928     22.8646     67.7387
   945.2500    685.7410   -562.8121     22.4699     69.8456
   945.5000    685.7410   -562.8312     21.8465     71.4276
   945.7500    685.7410   -562.8500     21.0515     71.2791
   946.0000    685.7410   -562.8682     20.1715     69.7950
   946.2500    685.7410   -562.8856     19.3091     68.6611
   946.5000    685.7410   -562.9019     18.5568     68.1679
   946.7500    685.7410   -562.9167     17.9737     69.2481
   947.0000    685.7410   -562.9299     17.5749     73.0189
   947.2500    685.7410   -562.9413     17.3327     76.3749
   947.5000    685.7410   -562.9508     17.1854     81.1812
   947.7500    685.7410   -562.9584     17.0521     83.5617
   948.0000    685.7410   -562.9644     16.8564     85.6456
   948.2500    685.7410   -562.9691     16.5523     86.3424
