~Version Information
VERS.                      2.0: CWLS Log ASCII Standard - VERSION 2.0
WRAP.                       NO: One line per depth step
~Well Information Block
STRT.FT               588.7000: 
STOP.FT              1820.2000: 
STEP.FT                 0.1000: 
NULL.                -999.2500: 
COMP.          Pioneer Natural Resources: COMPANY
WELL.           Loews 41-32 Tr: WELL
FLD.           Purgatoire River: FIELD
LOC.           706' FNL & 224' FEL--: LOCATION
CNTY.               Las Animas: COUNTY
SRVC.                Patterson: SERVICE COMPANY
DATE.          Tue Feb 21 10:23:46 2006: LOG DATE
UWI.           05 071 08690 00: UNIQUE WELL ID
STAT.                 Colorado: STATE
~Curve Information Block
DEPT.FT            0 000 00 00: Depth
DCAL.in                       : CDL Caliper
RHOB.g/cc                     : CDL Bulk Density
RHOC.g/cc                     : CDL Density Correction
DPOR.pu                       : CDL Density Porosity
GR.GAPI                       : Gamma Ray
~Parameter Information Block
~A  Depth       DCAL        RHOB        RHOC        DPOR         GR     
# ...
  1238.3000      8.0130      2.2472      0.0247     24.4151    137.5438
  1238.4000      8.0130      2.2599      0.0069     23.6419    139.0670
  1238.5000      8.0119      2.2971      0.0840     21.3882    143.0296
  1238.6000      8.0119      2.3470      0.1547     18.3616    146.0599
  1238.7000      8.0119      2.3855      0.1799     16.0321    148.8203
  1238.8000      8.0107      2.4070      0.1021     14.7302    146.7654
  1238.9000      8.0107      2.4185      0.1399     14.0300    140.4032
  1239.0000      8.0042      2.4161      0.1502     14.1742    134.3481
  1239.1000      8.0042      2.4024      0.0528     15.0082    129.6595
  1239.2000      8.0042      2.3883      0.0762     15.8597    126.8956
  1239.3000      7.9940      2.3684      0.0637     17.0646    126.4301
  1239.4000      7.9940      2.3378      0.0565     18.9197    125.9644
  1239.5000      7.9885      2.3096      0.0114     20.6294    123.1859
  1239.6000      7.9885      2.2963      0.0304     21.4391    121.4265
  1239.7000      7.9885      2.2930      0.0474     21.6352    123.1831
  1239.8000      7.9907      2.2956      0.0553     21.4817    123.2725
  1239.9000      7.9907      2.3123      0.0318     20.4655    118.1902
  1240.0000      7.9966      2.3411      0.0869     18.7229    113.3925
  1240.1000      7.9966      2.3631      0.0868     17.3872    113.3483
  1240.2000      7.9966      2.3707      0.0762     16.9286    117.8970
  1240.3000      7.9997      2.3675      0.0961     17.1235    124.8748
  1240.4000      7.9997      2.3557      0.0929     17.8345    128.5912
  1240.5000      8.0007      2.3405      0.0803     18.7560    124.6112
  1240.6000      8.0007      2.3270      0.0741     19.5745    117.7226
  1240.7000      8.0007      2.3178      0.0446     20.1334    116.1445
  1240.8000      7.9997      2.3161      0.0403     20.2356    120.2862
  1240.9000      7.9997      2.3231      0.0475     19.8131    125.4762
  1241.0000      7.9944      2.3357      0.0475     19.0472    129.1472
  1241.1000      7.9944      2.3430      0.0998     18.6038    131.0058
  1241.2000      7.9944      2.3303      0.1077     19.3777    131.5385
  1241.3000      7.9894      2.3012      0.1142     21.1365    128.4430
  1241.4000      7.9894      2.2755      0.0769     22.7000    122.3187
  1241.5000      7.9884      2.2632      0.0975     23.4434    121.6968
  1241.6000      7.9884      2.2632      0.0702     23.4410    127.6254
  1241.7000      7.9884      2.2719      0.1046     22.9161    131.1771
  1241.8000      7.9924      2.2850      0.0770     22.1207    128.8704
  1241.9000      7.9924      2.3000      0.1093     21.2139    125.6140
  1242.0000      8.0013      2.3185      0.1009     20.0882    127.2305
  1242.1000      8.0013      2.3535      0.1004     17.9683    132.4924
  1242.2000      8.0013      2.4103      0.1731     14.5290    136.1670
  1242.3000      8.0108      2.4642      0.2286     11.2582    134.7161
  1242.4000      8.0108      2.4846      0.2187     10.0238    127.5569
  1242.5000      8.0252      2.4682      0.1799     11.0211    117.6937
  1242.6000      8.0252      2.4325      0.1364     13.1822    110.9463
  1242.7000      8.0252      2.3898      0.1020     15.7696    110.2030
  1242.8000      8.0524      2.3377      0.1050     18.9265    113.7627
  1242.9000      8.0524      2.2740      0.0738     22.7896    119.2664
  1243.0000      8.0852      2.2089      0.0011     26.7328    123.7624
  1243.1000      8.0852      2.1512      0.0115     30.2327    124.8932
  1243.2000      8.0852      2.0962     -0.0077     33.5608    122.8764
  1243.3000      8.1064      2.0470     -0.0456     36.5445    119.0185
  1243.4000      8.1064      2.0155     -0.0387     38.4566    116.7764
  1243.5000      8.1158      2.0077      0.0038     38.9267    117.9874
  1243.6000      8.1158      2.0260      0.0174     37.8178    118.4170
  1243.7000      8.1158      2.0649      0.0917     35.4602    116.6322
  1243.8000      8.1235      2.1077      0.0964     32.8666    115.4688
  1243.9000      8.1235      2.1410      0.1232     30.8473    116.4726
  1244.0000      8.1298      2.1582      0.1128     29.8038    118.1353
  1244.1000      8.1298      2.1537      0.1086     30.0797    118.9206
  1244.2000      8.1298      2.1199      0.1160     32.1282    118.7767
  1244.3000      8.1317      2.0547      0.0492     36.0758    118.5600
  1244.4000      8.1317      1.9693     -0.0051     41.2559    120.6984
  1244.5000      8.1316      1.8733     -0.0446     47.0733    121.4363
  1244.6000      8.1316      1.7638     -0.1033     53.7078    116.2668
  1244.7000      8.1316      1.6427     -0.1216     61.0478    109.1952
  1244.8000      8.1385      1.5274     -0.1439     68.0391    104.8520
  1244.9000      8.1385      1.4354     -0.1288     73.6097    101.7706
  1245.0000      8.1599      1.3770     -0.0802     77.1528     97.9370
  1245.1000      8.1599      1.3633     -0.0174     77.9816     93.5741
  1245.2000      8.1599      1.3946      0.1015     76.0849     88.6834
  1245.3000      8.1770      1.4460      0.1633     72.9678     82.5168
  1245.4000      8.1770      1.4871      0.1520     70.4788     74.2796
  1245.5000      8.1587      1.5030      0.1327     69.5181     66.7452
  1245.6000      8.1587      1.4987      0.1162     69.7766     64.1547
  1245.7000      8.1587      1.4871      0.1141     70.4814     65.0771
  1245.8000      8.1100      1.4727      0.0864     71.3528     63.4689
  1245.9000      8.1100      1.4535      0.0783     72.5157     59.4319
  1246.0000      8.0625      1.4316      0.0330     73.8424     56.8894
  1246.1000      8.0625      1.4123      0.0408     75.0119     55.5297
  1246.2000      8.0625      1.3941      0.0424     76.1170     56.5627
  1246.3000      8.0376      1.3782     -0.0017     77.0814     61.3108
  1246.4000      8.0376      1.3810      0.0005     76.9098     66.8121
  1246.5000      8.0297      1.4247     -0.0180     74.2589     69.3897
  1246.6000      8.0297      1.5121      0.1183     68.9653     69.1438
  1246.7000      8.0297      1.6199      0.1714     62.4314     70.4315
  1246.8000      8.0263      1.7362      0.1850     55.3811     74.0411
  1246.9000      8.0263      1.8641      0.2518     47.6302     75.6872
  1247.0000      8.0258      1.9929      0.3208     39.8218     74.7486
  1247.1000      8.0258      2.1189      0.3163     32.1885     76.0265
  1247.2000      8.0258      2.2538      0.3548     24.0114     82.7808
  1247.3000      8.0286      2.3873      0.3679     15.9187     91.4996
  1247.4000      8.0286      2.4906      0.3710      9.6635     95.8837
  1247.5000      8.0314      2.5512      0.2596      5.9874     94.6140
  1247.6000      8.0314      2.5772      0.1761      4.4115     92.5902
  1247.7000      8.0314      2.5839      0.1348      4.0046     94.7576
  1247.8000      8.0334      2.5806      0.1578      4.2068    102.5028
  1247.9000      8.0334      2.5685      0.1342      4.9375    111.1851
  1248.0000      8.0302      2.5564      0.1107      5.6738    114.1543
  1248.1000      8.0302      2.5563      0.1339      5.6802    112.0824
  1248.2000      8.0302      2.5642      0.1435      5.2018    111.2630
  1248.3000      8.0201      2.5667      0.0977      5.0466    114.0888
  1248.4000      8.0201      2.5594      0.0821      5.4906    117.9988
  1248.5000      8.0114      2.5412      0.0931      6.5966    119.7906
  1248.6000      8.0114      2.5123      0.0670      8.3462    118.5884
  1248.7000      8.0114      2.4878      0.0046      9.8320    119.7097
  1248.8000      8.0074      2.4848      0.0359     10.0099    126.5544
  1248.9000      8.0074      2.5008      0.0363      9.0424    133.6783
  1249.0000      8.0054      2.5229      0.0611      7.7004    134.2392
  1249.1000      8.0054      2.5401      0.0907      6.6578    129.2168
  1249.2000      8.0054      2.5515      0.0674      5.9689    125.7262
  1249.3000      8.0055      2.5603      0.0979      5.4369    126.6850
  1249.4000      8.0055      2.5593      0.0901      5.4946    129.3677
