~Version Information
VERS.                      2.0: CWLS Log ASCII Standard - VERSION 2.0
WRAP.                       NO: One line per depth step
~Well Information Block
STRT.FT               580.0000: 
STOP.FT              1029.0000: 
STEP.FT                 0.1000: 
NULL.                -999.2500: 
COMP.          Pioneer Natural Resources: COMPANY
WELL.             Quartz 13-22: WELL
FLD.           Purgatoire River: FIELD
LOC.           1933' FSL & 675' FWL: LOCATION
PROV.                 Colorado: PROVINCE
CNTY.               Las Animas: COUNTRY
SRVC.                Patterson: SERVICE COMPANY
DATE.          Fri Dec 16 10:30:09 2005: LOG DATE
UWI.           05 071 08638 00: UNIQUE WELL ID
~Curve Information Block
DEPT.FT            0 000 00 00: Depth
DCAL.in                       : CDL Caliper
RHOB.g/cc                     : CDL Bulk Density
RHOC.g/cc                     : CDL Density Correction
DPOR.pu                       : CDL Density Porosity
GR.GAPI                       : Gamma Ray
NPOR.pu                       : Neutron Porosity
~Parameter Information Block
~A  Depth       DCAL        RHOB        RHOC        DPOR         GR         NPOR    
# ...
   781.6000      7.9402      2.5757      0.0260      4.5030     46.8738     19.0596
   781.7000      7.9402      2.5702      0.0284      4.8381     43.1128     19.3965
   781.8000      7.9028      2.5680      0.0360      4.9681     42.9124     19.2488
   781.9000      7.9028      2.5677      0.0280      4.9902     47.5168     19.1365
   782.0000      7.8855      2.5569      0.0544      5.6419     53.0002     18.9519
   782.1000      7.8855      2.5342     -0.0039      7.0164     54.7957     18.5562
   782.2000      7.8855      2.5234     -0.0088      7.6702     52.8223     18.3644
   782.3000      7.9087      2.5357      0.0350      6.9292     51.0967     18.4099
   782.4000      7.9087      2.5563      0.0045      5.6783     51.3706     18.3223
   782.5000      7.9008      2.5715      0.0470      4.7563     51.7940     18.0829
   782.6000      7.9008      2.5751      0.0526      4.5414     50.6216     17.9243
   782.7000      7.9008      2.5750      0.0352      4.5470     47.1232     18.0171
   782.8000      7.8861      2.5864      0.0555      3.8570     43.9360     18.2115
   782.9000      7.8861      2.5993      0.1142      3.0745     46.0924     18.2169
   783.0000      7.8947      2.5919      0.0600      3.5198     52.2145     18.1253
   783.1000      7.8947      2.5685      0.0414      4.9398     55.5845     18.1026
   783.2000      7.8947      2.5425      0.0527      6.5170     55.6484     18.1017
   783.3000      7.9020      2.5180      0.0350      7.9975     56.9117     17.8553
   783.4000      7.9020      2.4985      0.0335      9.1812     60.9846     17.0898
   783.5000      7.8821      2.4846      0.0163     10.0230     68.5631     16.1838
   783.6000      7.8821      2.4834     -0.0220     10.0974     77.8474     15.8151
   783.7000      7.8821      2.5017      0.0381      8.9904     83.7738     15.7093
   783.8000      7.8652      2.5231      0.0598      7.6925     87.1171     15.3011
   783.9000      7.8652      2.5283      0.0950      7.3769     92.4932     14.8851
   784.0000      7.8662      2.5150      0.0789      8.1823    101.4782     14.9506
   784.1000      7.8662      2.4864      0.0963      9.9131    113.6059     15.4731
   784.2000      7.8662      2.4454      0.0758     12.4000    128.1978     16.1357
   784.3000      7.8670      2.4007      0.0374     15.1074    141.6520     16.7037
   784.4000      7.8670      2.3653      0.0375     17.2534    146.1217     17.2232
   784.5000      7.8584      2.3499      0.0408     18.1856    139.6432     17.9650
   784.6000      7.8584      2.3567      0.0705     17.7749    127.8632     19.1775
   784.7000      7.8584      2.3762      0.0925     16.5957    117.8173     20.6543
   784.8000      7.8540      2.3946      0.1534     15.4796    117.5451     21.7605
   784.9000      7.8540      2.4111      0.0890     14.4758    124.5878     22.1715
   785.0000      7.9240      2.4345      0.1248     13.0606    128.2067     22.0979
   785.1000      7.9240      2.4564      0.1520     11.7353    129.0331     22.0660
   785.2000      7.9240      2.4662      0.1108     11.1379    131.1416     22.4782
   785.3000      7.9523      2.4706      0.0838     10.8714    132.0008     23.1415
   785.4000      7.9523      2.4770      0.0211     10.4857    133.9926     23.5181
   785.5000      7.9701      2.4792      0.0546     10.3515    139.0664     23.4202
   785.6000      7.9701      2.4612      0.0440     11.4434    144.3624     22.9410
   785.7000      7.9701      2.4174      0.0358     14.0977    149.2071     22.2664
   785.8000      7.9716      2.3640     -0.0336     17.3349    152.4530     21.8223
   785.9000      7.9716      2.3258     -0.0202     19.6492    152.1173     21.8443
   786.0000      7.9758      2.3123     -0.0195     20.4656    150.5566     22.3121
   786.1000      7.9758      2.3180     -0.0295     20.1242    151.2983     23.1021
   786.2000      7.9758      2.3414      0.0179     18.7025    151.7133     24.1088
   786.3000      7.9986      2.3800      0.1076     16.3636    148.3499     25.0264
   786.4000      7.9986      2.4253      0.1000     13.6183    139.6374     25.4742
   786.5000      8.0659      2.4688      0.1627     10.9791    127.5261     25.3981
   786.6000      8.0659      2.5028      0.1718      8.9202    116.6530     24.9680
   786.7000      8.0659      2.5293      0.1414      7.3148    111.2796     24.5575
   786.8000      8.0807      2.5540      0.1045      5.8170    111.6141     24.4619
   786.9000      8.0807      2.5717      0.1376      4.7451    111.4477     24.7297
   787.0000      8.0368      2.5763      0.0858      4.4667    108.4215     25.3160
   787.1000      8.0368      2.5739      0.0262      4.6136    106.2875     25.8871
   787.2000      8.0368      2.5712      0.0441      4.7770    107.3507     26.0524
   787.3000      8.0056      2.5643      0.0408      5.1924    109.9632     25.8813
   787.4000      8.0056      2.5551     -0.0101      5.7520    111.7543     25.6558
   787.5000      7.9862      2.5515      0.0313      5.9706    112.9267     25.3927
   787.6000      7.9862      2.5450      0.0371      6.3651    114.0363     25.1181
   787.7000      7.9862      2.5280     -0.0129      7.3950    114.9659     25.0126
   787.8000      7.9762      2.5133     -0.0667      8.2851    115.1182     25.1670
   787.9000      7.9762      2.5086     -0.0375      8.5671    114.2879     25.3212
   788.0000      7.9720      2.5079     -0.0283      8.6141    113.1383     25.1637
   788.1000      7.9720      2.5153     -0.0662      8.1618    114.8274     24.8151
   788.2000      7.9720      2.5388     -0.0348      6.7373    119.7119     24.4461
   788.3000      7.9647      2.5675      0.0068      4.9980    121.9267     24.2005
   788.4000      7.9647      2.5807      0.0717      4.2013    119.2497     24.0880
   788.5000      7.9460      2.5759      0.0245      4.4910    116.0034     23.8503
   788.6000      7.9460      2.5719      0.0418      4.7328    113.9355     23.5463
   788.7000      7.9460      2.5726      0.0771      4.6883    110.8449     23.4936
   788.8000      7.9066      2.5677      0.0286      4.9875    106.3474     23.5198
   788.9000      7.9066      2.5622      0.0214      5.3191    101.7105     23.3168
   789.0000      7.9028      2.5680      0.0053      4.9670     97.2368     23.3091
   789.1000      7.9028      2.5750      0.0343      4.5453     94.5863     23.8311
   789.2000      7.9028      2.5688     -0.0043      4.9187     95.9906     24.2934
   789.3000      7.9131      2.5624     -0.0006      5.3069    100.4022     24.0904
   789.4000      7.9131      2.5704      0.0535      4.8245    103.1821     23.5207
   789.5000      7.9190      2.5866      0.0548      3.8425    102.3176     23.2636
   789.6000      7.9190      2.5943      0.0910      3.3771     99.5529     23.5392
   789.7000      7.9190      2.5819      0.0599      4.1297     95.2024     23.7886
   789.8000      7.9188      2.5537      0.0406      5.8340     90.0935     23.4455
   789.9000      7.9188      2.5209      0.0157      7.8249     86.6696     22.8268
   790.0000      7.9457      2.4965     -0.0259      9.3038     87.6273     22.3373
   790.1000      7.9457      2.4921     -0.0154      9.5668     91.6354     22.0054
   790.2000      7.9457      2.5027      0.0157      8.9283     95.2023     21.9406
   790.3000      7.9391      2.5154      0.0035      8.1591    100.6227     22.1961
   790.4000      7.9391      2.5288      0.0122      7.3431    109.1254     22.7324
   790.5000      7.9191      2.5474      0.0361      6.2181    116.0878     23.3149
   790.6000      7.9191      2.5713      0.0469      4.7714    118.7609     23.4015
   790.7000      7.9191      2.5958      0.0912      3.2849    117.3645     23.0166
   790.8000      7.9574      2.6054      0.1166      2.7046    113.1703     22.9210
   790.9000      7.9574      2.5840      0.0993      3.9991    110.0464     23.1969
   791.0000      7.9293      2.5371      0.0651      6.8422    109.7633     23.2702
   791.1000      7.9293      2.4900     -0.0015      9.6985    112.6596     23.1417
