~Version Information
VERS.                      2.0: CWLS Log ASCII Standard - VERSION 2.0
WRAP.                       NO: One line per depth step
~Well Information Block
STRT.FT                 0.0000: 
STOP.FT              1507.7500: 
STEP.FT                 0.2500: 
NULL.                -999.2500: 
COMP.          Pioneer Natural Resources: COMPANY
WELL.          Pioneer 34-27 Tr: WELL
FLD.           Purgatorie River: FIELD
LOC.           243' FSL & 1593' FEL: LOCATION
STAT.                 Colorado: State
CNTY.               Las Animas: COUNTY
CTRY. USA : Country
SECT. 27 : Section
TOWN. 32S : Township
RANG. 67W : Range
SRVC.                Patterson: SERVICE COMPANY
DATE.          Wed Oct 12 09:30:25 2005: LOG DATE
API.                          : UNIQUE WELL ID
~Curve Information Block
DEPT.FT            0 000 00 00: Depth
GR.GAPI                       : Gamma Ray
CCL.                          : Casing Collar Locator
TT3.usec                      : CBL 3' Travel Time
AMP3.mV                       : CBL 3' Amplitude
~Parameter Information Block
~A  Depth        GR         CCL         TT3         AMP3    
# ...
   402.0000     71.8304      0.0000    590.8516     17.6079
   402.2500     73.1310      0.0000    586.2056     17.0420
   402.5000     73.6923      0.0000    585.4824     16.0528
   402.7500     73.1115      0.0000    597.7309     15.0709
   403.0000     71.5677      0.0000    618.9470     14.6157
   403.2500     69.5285      0.0000    642.1242     14.4346
   403.5000     67.2027      0.0000    667.3900     13.9909
   403.7500     64.3651      0.0000    691.1219     13.4499
   404.0000     60.7829      0.0000    704.9336     13.1933
   404.2500     56.7687      0.0000    708.4207     13.2123
   404.5000     53.2063      0.0000    711.3739     13.3607
   404.7500     50.9875     -2.0000    717.7307     13.5334
   405.0000     50.3409     -2.0000    712.3883     13.6507
   405.2500     50.5974      0.0000    674.0330     13.7760
   405.5000     50.7310      0.0000    601.3713     14.3042
   405.7500     50.3436      0.0000    523.6722     15.5769
   406.0000     50.0956      0.0000    482.2014     17.0121
   406.2500     51.0182      0.0000    492.2596     17.7573
   406.5000     53.4242      0.0000    529.5774     18.0804
   406.7500     56.5717      0.0000    559.8253     18.5725
   407.0000     59.3664      0.0000    563.4191     19.0700
   407.2500     61.2692      0.0000    542.1484     19.2706
   407.5000     62.4195      0.0000    522.5019     19.2434
   407.7500     63.0867      0.0000    532.1109     19.1789
   408.0000     63.3849      0.0000    564.5815     19.1740
   408.2500     63.4343      0.0000    588.0307     19.2171
   408.5000     63.2906      0.0000    596.2126     19.2559
   408.7500     62.6464      0.0000    617.2009     19.2732
   409.0000     61.0798      0.0000    655.3287     19.2909
   409.2500     58.7372      0.0000    677.1966     19.3283
   409.5000     56.4125      0.0000    666.6005     19.3859
   409.7500     54.7631      0.0000    641.7150     19.4452
   410.0000     53.6530      0.0000    621.9611     19.4734
   410.2500     52.4536      0.0000    618.1456     19.4398
   410.5000     50.9732      0.0000    641.6461     19.3313
   410.7500     49.8914      0.0000    689.7163     19.1589
   411.0000     50.1666      0.0000    737.2523     18.9663
   411.2500     52.1295      0.0000    764.6036     18.8138
   411.5000     55.1532      0.0000    774.1998     18.7261
   411.7500     57.9719      0.0000    776.2216     18.6685
   412.0000     59.3153      0.0000    776.3643     18.6004
   412.2500     58.6348      0.0000    776.2470     18.5375
   412.5000     56.4454      0.0000    776.1364     18.5212
   412.7500     53.8933      0.0000    775.9985     18.5508
   413.0000     52.0044      0.0000    775.7775     18.5848
   413.2500     51.3658      0.0000    775.4782     18.5992
   413.5000     52.1129      0.0000    775.1564     18.6087
   413.7500     53.7222      0.0000    774.9175     18.6328
   414.0000     54.9199      0.0000    774.8557     18.6663
   414.2500     54.3801      0.0000    774.9356     18.6912
   414.5000     51.8291      0.0000    774.8913     18.6944
   414.7500     48.2607      0.0000    773.6765     18.6662
   415.0000     44.9248      0.0000    768.1077     18.5988
   415.2500     42.3240      0.0000    753.7273     18.4952
   415.5000     40.2910      0.0000    733.4476     18.3806
   415.7500     38.7204      0.0000    723.1034     18.2950
   416.0000     37.8453      0.0000    733.5027     18.2598
   416.2500     37.8534      0.0000    753.5880     18.2724
   416.5000     38.5172      0.0000    766.2850     18.3185
   416.7500     39.2822      0.0000    763.8466     18.3599
   417.0000     39.6398      0.0000    739.7047     18.3482
   417.2500     39.4546      0.0000    686.6806     18.2611
   417.5000     38.9869      0.0000    614.6217     18.1130
   417.7500     38.6708      0.0000    556.8602     17.9386
   418.0000     39.0226      0.0000    544.3921     17.7701
   418.2500     40.8282      0.0000    575.0410     17.6241
   418.5000     45.1260      0.0000    616.0126     17.4909
   418.7500     52.5349      0.0000    638.5370     17.3514
   419.0000     62.4224      0.0000    642.4740     17.2114
   419.2500     72.9740      0.0000    644.9518     17.0959
   419.5000     82.2190      0.0000    655.4823     17.0117
   419.7500     88.9419      0.0000    669.1639     16.9439
   420.0000     92.8177      0.0000    676.5764     16.8830
   420.2500     94.1270      0.0000    671.7606     16.8343
   420.5000     93.5062      0.0000    661.0948     16.8075
   420.7500     91.7459      0.0000    664.7086     16.8000
   421.0000     89.5865      0.0000    688.6844     16.7975
   421.2500     87.6410      0.0000    706.2604     16.7927
   421.5000     86.4088      0.0000    684.6084     16.7949
   421.7500     86.1709      0.0000    615.1331     16.8234
   422.0000     86.8658      0.0000    521.9416     16.8946
   422.2500     88.2173      0.0000    446.9158     17.0041
   422.5000     90.0048      0.0000    415.8680     17.1252
   422.7500     92.1557      0.0000    428.5164     17.2264
   423.0000     94.5853      0.0000    469.1660     17.2924
   423.2500     96.9380      0.0000    510.8872     17.3361
   423.5000     98.5197      0.0000    536.6370     17.3839
   423.7500     98.7707      0.0000    556.3481     17.4333
   424.0000     97.9942      0.0000    578.8289     17.4349
   424.2500     97.2953      0.0000    597.7144     17.3361
   424.5000     97.3960      0.0000    617.0073     17.1639
   424.7500     97.6336      0.0000    647.1738     17.0307
   425.0000     96.5545      0.0000    680.1703     17.0077
   425.2500     93.5612      0.0000    699.8546     17.0584
   425.5000     89.6720      0.0000    703.4969     17.1143
   425.7500     86.6095      0.0000    699.7020     17.1418
   426.0000     85.5065      0.0000    695.9919     17.1505
   426.2500     86.6505      0.0000    694.3127     17.1799
   426.5000     89.8388      0.0000    693.9794     17.2518
   426.7500     94.3968      0.0000    694.2462     17.3069
   427.0000     99.2921      0.0000    694.6699     17.2280
   427.2500    103.8450      0.0000    695.0568     16.9936
   427.5000    108.1590      0.0000    695.3535     16.7360
   427.7500    112.4622      0.0000    695.4617     16.5581
   428.0000    116.1659      0.0000    695.3039     16.4094
   428.2500    117.9327      0.0000    694.9905     16.2243
   428.5000    116.7464      0.0000    694.7344     16.0525
   428.7500    112.8689      0.0000    694.7250     15.9842
   429.0000    107.8700      0.0000    695.1154     16.0303
   429.2500    103.7818      0.0000    695.8575     16.1255
   429.5000    101.9798      0.0000    696.5685     16.2109
   429.7500    102.5876      0.0000    696.9047     16.2791
   430.0000    104.8680      0.0000    697.0342     16.3427
   430.2500    108.1659      0.0000    697.7087     16.3899
   430.5000    112.3677      0.0000    700.7251     16.4077
   430.7500    117.4541      0.0000    709.4757     16.4232
   431.0000    122.8613      0.0000    726.2404     16.4888
   431.2500    127.5884      0.0000    747.1250     16.6498
   431.5000    131.1115      0.0000    763.8823     16.9084
   431.7500    134.0336      0.0000    772.4722     17.1738
   432.0000    137.3839      0.0000    775.2496     17.3084
   432.2500    141.0552      0.0000    775.8189     17.2871
   432.5000    143.3100      0.0000    775.7535     17.2380
   432.7500    142.2629      0.0000    774.6484     17.2708
   433.0000    137.8865      0.0000    770.7222     17.3555
   433.2500    132.3996      0.0000    762.1217     17.4234
   433.5000    128.5133      0.0000    749.2961     17.4698
   433.7500    127.1284      0.0000    735.6452     17.5037
   434.0000    126.7255      0.0000    724.6243     17.5106
   434.2500    125.0358      0.0000    716.4141     17.5052
   434.5000    121.1435      0.0000    709.2946     17.5201
   434.7500    116.0638      0.0000    703.6707     17.5319
   435.0000    111.9184      0.0000    701.6785     17.4753
   435.2500    110.6721      0.0000    704.7661     17.3379
