~Version Information
VERS.                      2.0: CWLS Log ASCII Standard - VERSION 2.0
WRAP.                       NO: One line per depth step
~Well Information Block
STRT.FT               625.0000: 
STOP.FT              2053.7500: 
STEP.FT                 0.2500: 
NULL.                -999.2500: 
COMP.          Pioneer Natural Resources: COMPANY
WELL.            Zink 44-10 Tr: WELL
FLD.           Purgatoire River: FIELD
LOC.           486' FSL & 554' FEL--: LOCATION
PROV.                 Colorado: PROVINCE
CNTY.               Las Animas: COUNTRY
SRVC.                Patterson: SERVICE COMPANY
DATE.          Sun Jul 24 06:18:01 2005: LOG DATE
UWI.           05 071 08446 00: UNIQUE WELL ID
~Curve Information Block
DEPT.FT            0 000 00 00: Depth
SN.Ohm-m                      : IEL Short Normal
SP.mV                         : IEL Spontaneous Potential
DIR.Ohm-m                     : IEL Induction Resistivity
GR.GAPI                       : Gamma Ray
~Parameter Information Block
~A  Depth        SN          SP         DIR          GR     
# ...
   826.0000   2000.0000   1979.0000     29.8133     63.3799
   826.2500   2000.0000   1979.0000     30.2321     61.3364
   826.5000   2000.0000   1979.0000     30.6088     58.2279
   826.7500   2000.0000   1979.0000     30.9265     56.8022
   827.0000   2000.0000   1979.0000     31.2023     56.0534
   827.2500   2000.0000   1979.0000     31.4758     56.1825
   827.5000   2000.0000   1979.0000     31.7804     56.6905
   827.7500   2000.0000   1979.0000     32.1174     57.1717
   828.0000   2000.0000   1979.0000     32.4480     58.2886
   828.2500   2000.0000   1979.0000     32.7024     59.3046
   828.5000   2000.0000   1979.0000     32.7976     61.0881
   828.7500   2000.0000   1979.0000     32.6576     62.4914
   829.0000   2000.0000   1979.0000     32.2313     65.3997
   829.2500   2000.0000   1979.0000     31.5072     68.2866
   829.5000   2000.0000   1979.0000     30.5256     74.5378
   829.7500   2000.0000   1979.0000     29.3773     79.9811
   830.0000   2000.0000   1979.0000     28.1778     89.5707
   830.2500   2000.0000   1979.0000     27.0271     96.4604
   830.5000   2000.0000   1979.0000     25.9822    106.3884
   830.7500   2000.0000   1979.0000     25.0547    111.7806
   831.0000   2000.0000   1979.0000     24.2298    116.5948
   831.2500   2000.0000   1979.0000     23.4896    117.5472
   831.5000   2000.0000   1979.0000     22.8266    116.9537
   831.7500   2000.0000   1979.0000     22.2463    116.1671
   832.0000   2000.0000   1979.0000     21.7603    114.9678
   832.2500   2000.0000   1979.0000     21.3776    113.8687
   832.5000   2000.0000   1979.0000     21.0948    111.3381
   832.7500   2000.0000   1979.0000     20.8919    109.3627
   833.0000   2000.0000   1979.0000     20.7356    107.3478
   833.2500   2000.0000   1979.0000     20.5888    107.4011
   833.5000   2000.0000   1979.0000     20.4221    109.8140
   833.7500   2000.0000   1979.0000     20.2191    112.4208
   834.0000   2000.0000   1979.0000     19.9758    116.4364
   834.2500   2000.0000   1979.0000     19.6978    118.6267
   834.5000   2000.0000   1979.0000     19.3990    121.1199
   834.7500   2000.0000   1979.0000     19.1007    122.5686
   835.0000   2000.0000   1979.0000     18.8287    124.7757
   835.2500   2000.0000   1979.0000     18.6058    126.1063
   835.5000   2000.0000   1979.0000     18.4468    127.2882
   835.7500   2000.0000   1979.0000     18.3562    127.3949
   836.0000   2000.0000   1979.0000     18.3311    126.9822
   836.2500   2000.0000   1979.0000     18.3661    126.7153
   836.5000   2000.0000   1979.0000     18.4561    126.4241
   836.7500   2000.0000   1979.0000     18.5954    126.0057
   837.0000   2000.0000   1979.0000     18.7746    124.7856
   837.2500   2000.0000   1979.0000     18.9787    123.9098
   837.5000   2000.0000   1979.0000     19.1884    123.3996
   837.7500   2000.0000   1979.0000     19.3837    123.7647
   838.0000   2000.0000   1979.0000     19.5462    124.7359
   838.2500   2000.0000   1979.0000     19.6639    125.0498
   838.5000   2000.0000   1979.0000     19.7359    124.2368
   838.7500   2000.0000   1979.0000     19.7754    122.7857
   839.0000   2000.0000   1979.0000     19.8037    119.9729
   839.2500   2000.0000   1979.0000     19.8372    118.3216
   839.5000   2000.0000   1979.0000     19.8772    116.7721
   839.7500   2000.0000   1979.0000     19.9122    116.2048
   840.0000   2000.0000   1979.0000     19.9323    115.4819
   840.2500   2000.0000   1979.0000     19.9416    114.9237
   840.5000   2000.0000   1979.0000     19.9572    114.2121
   840.7500   2000.0000   1979.0000     19.9954    114.1619
   841.0000   2000.0000   1979.0000     20.0568    115.0112
   841.2500   2000.0000   1979.0000     20.1197    115.8286
   841.5000   2000.0000   1979.0000     20.1460    116.2663
   841.7500   2000.0000   1979.0000     20.0959    115.7375
   842.0000   2000.0000   1979.0000     19.9473    114.5782
   842.2500   2000.0000   1979.0000     19.7085    114.5224
   842.5000   2000.0000   1979.0000     19.4141    116.6939
   842.7500   2000.0000   1979.0000     19.1081    119.5227
   843.0000   2000.0000   1979.0000     18.8248    124.0722
   843.2500   2000.0000   1979.0000     18.5808    125.9234
   843.5000   2000.0000   1979.0000     18.3776    125.6590
   843.7500   2000.0000   1979.0000     18.2060    123.8405
   844.0000   2000.0000   1979.0000     18.0508    120.3553
   844.2500   2000.0000   1979.0000     17.8966    118.3028
   844.5000   2000.0000   1979.0000     17.7359    116.2055
   844.7500   2000.0000   1979.0000     17.5734    115.7356
   845.0000   2000.0000   1979.0000     17.4206    117.0355
   845.2500   2000.0000   1979.0000     17.2844    119.2956
   845.5000   2000.0000   1979.0000     17.1622    123.6588
   845.7500   2000.0000   1979.0000     17.0472    126.0023
   846.0000   2000.0000   1979.0000     16.9374    126.8590
   846.2500   2000.0000   1979.0000     16.8385    125.4934
   846.5000   2000.0000   1979.0000     16.7599    121.9764
   846.7500   2000.0000   1979.0000     16.7082    119.8105
   847.0000   2000.0000   1979.0000     16.6845    117.9081
   847.2500   2000.0000   1979.0000     16.6840    117.5189
   847.5000   2000.0000   1979.0000     16.6964    117.9042
   847.7500   2000.0000   1979.0000     16.7093    118.6950
   848.0000   2000.0000   1979.0000     16.7115    120.4964
   848.2500   2000.0000   1979.0000     16.6981    121.9044
   848.5000   2000.0000   1979.0000     16.6721    123.8116
   848.7500   2000.0000   1979.0000     16.6456    124.5898
   849.0000   2000.0000   1979.0000     16.6372    124.6150
   849.2500   2000.0000   1979.0000     16.6672    123.9970
   849.5000   2000.0000   1979.0000     16.7507    122.9642
   849.7500   2000.0000   1979.0000     16.8917    122.8149
   850.0000   2000.0000   1979.0000     17.0839    124.1431
   850.2500   2000.0000   1979.0000     17.3159    126.1016
   850.5000   2000.0000   1979.0000     17.5810    129.8026
   850.7500   2000.0000   1979.0000     17.8850    131.9179
   851.0000   2000.0000   1979.0000     18.2442    133.2253
   851.2500   2000.0000   1979.0000     18.6754    132.4676
   851.5000   2000.0000   1979.0000     19.1833    128.9921
   851.7500   2000.0000   1979.0000     19.7577    125.5960
   852.0000   2000.0000   1979.0000     20.3809    120.2473
   852.2500   2000.0000   1979.0000     21.0379    117.2501
   852.5000   2000.0000   1979.0000     21.7182    114.0552
   852.7500   2000.0000   1979.0000     22.4082    112.6058
   853.0000   2000.0000   1979.0000     23.0839    110.9589
   853.2500   2000.0000   1979.0000     23.7129    109.9072
   853.5000   2000.0000   1979.0000     24.2630    107.7029
   853.7500   2000.0000   1979.0000     24.7094    105.5961
   854.0000   2000.0000   1979.0000     25.0405    102.3790
   854.2500   2000.0000   1979.0000     25.2649    101.3772
   854.5000   2000.0000   1979.0000     25.4169    103.0763
   854.7500   2000.0000   1979.0000     25.5490    106.0776
   855.0000   2000.0000   1979.0000     25.7075    111.1601
   855.2500   2000.0000   1979.0000     25.9069    113.3921
   855.5000   2000.0000   1979.0000     26.1200    113.4478
   855.7500   2000.0000   1979.0000     26.2955    111.4020
   856.0000   2000.0000   1979.0000     26.3938    106.6793
   856.2500   2000.0000   1979.0000     26.4178    103.3560
   856.5000   2000.0000   1979.0000     26.4163     98.9710
   856.7500   2000.0000   1979.0000     26.4574     96.6291
   857.0000   2000.0000   1979.0000     26.5905     94.3213
   857.2500   2000.0000   1979.0000     26.8188     93.8771
   857.5000   2000.0000   1979.0000     27.0973     95.0684
   857.7500   2000.0000   1979.0000     27.3566     96.7617
   858.0000   2000.0000   1979.0000     27.5408     99.2718
   858.2500   2000.0000   1979.0000     27.6349    100.0660
   858.5000   2000.0000   1979.0000     27.6641     99.2298
   858.7500   2000.0000   1979.0000     27.6707     97.4431
   859.0000   2000.0000   1979.0000     27.6909     93.6642
   859.2500   2000.0000   1979.0000     27.7451     90.9717
