~Version Information
VERS.                      2.0: CWLS Log ASCII Standard - VERSION 2.0
WRAP.                       NO: One line per depth step
~Well Information Block
STRT.FT               875.0000: 
STOP.FT              2054.5000: 
STEP.FT                 0.2500: 
NULL.                -999.2500: 
COMP.          Pioneer Natural Resources: COMPANY
WELL.          Woodstock 43-19: WELL
FLD.           Purgatoire River: FIELD
LOC.           2195' FSL & 250' FEL: LOCATION
CNTY.               Las Animas: COUNTY
SRVC.                Patterson: SERVICE COMPANY
DATE.          Thu Feb 02 03:08:19 2006: LOG DATE
UWI.           05 071 08677 00: UNIQUE WELL ID
STAT.                 Colorado: STATE
~Curve Information Block
DEPT.FT            0 000 00 00: Depth
SN.Ohm-m                      : IEL Short Normal
SP.mV                         : IEL Spontaneous Potential
DIR.Ohm-m                     : IEL Induction Resistivity
GR.GAPI                       : Gamma Ray
~Parameter Information Block
~A  Depth        SN          SP         DIR          GR     
# ...
  1411.0000   2000.0000   2000.0000      9.2519    145.7123
  1411.2500   2000.0000   2000.0000      9.3231    139.9473
  1411.5000   2000.0000   2000.0000      9.3751    128.7678
  1411.7500   2000.0000   2000.0000      9.3940    120.2766
  1412.0000   2000.0000   2000.0000      9.3794    107.9609
  1412.2500   2000.0000   2000.0000      9.3406    101.5358
  1412.5000   2000.0000   2000.0000      9.2890     96.8094
  1412.7500   2000.0000   2000.0000      9.2311     97.3104
  1413.0000   2000.0000   2000.0000      9.1676    101.9831
  1413.2500   2000.0000   2000.0000      9.0961    105.9749
  1413.5000   2000.0000   2000.0000      9.0145    110.6089
  1413.7500   2000.0000   2000.0000      8.9217    112.1302
  1414.0000   2000.0000   2000.0000      8.8168    112.6312
  1414.2500   2000.0000   2000.0000      8.6997    112.7188
  1414.5000   2000.0000   2000.0000      8.5722    114.1052
  1414.7500   2000.0000   2000.0000      8.4406    116.2948
  1415.0000   2000.0000   2000.0000      8.3158    121.0232
  1415.2500   2000.0000   2000.0000      8.2094    124.5651
  1415.5000   2000.0000   2000.0000      8.1312    129.8354
  1415.7500   2000.0000   2000.0000      8.0867    133.1573
  1416.0000   2000.0000   2000.0000      8.0773    137.1858
  1416.2500   2000.0000   2000.0000      8.1010    138.4221
  1416.5000   2000.0000   2000.0000      8.1544    136.6532
  1416.7500   2000.0000   2000.0000      8.2341    132.8938
  1417.0000   2000.0000   2000.0000      8.3393    125.0011
  1417.2500   2000.0000   2000.0000      8.4719    119.7862
  1417.5000   2000.0000   2000.0000      8.6364    113.7936
  1417.7500   2000.0000   2000.0000      8.8392    110.9654
  1418.0000   2000.0000   2000.0000      9.0872    107.2262
  1418.2500   2000.0000   2000.0000      9.3862    104.3840
  1418.5000     15.8266     17.0342      9.7392     99.2822
  1418.7500     15.9012     17.3405     10.1461     95.7419
  1419.0000     15.7014     17.7528     10.6064     91.6744
  1419.2500     15.4186     18.2874     11.1211     90.5919
  1419.5000     15.2268     18.9514     11.6914     91.7265
  1419.7500     15.2464     19.7373     12.3128     93.7042
  1420.0000     15.5279     20.6229     12.9724     96.4842
  1420.2500     16.0222     21.5726     13.6534     96.9050
  1420.5000     16.6389     22.5408     14.3475     93.8698
  1420.7500     17.3652     23.4800     15.0637     89.3347
  1421.0000     18.3814     24.3538     15.8250     79.8978
  1421.2500     19.8951     25.1470     16.6528     72.7525
  1421.5000     21.6849     25.8645     17.5540     62.0283
  1421.7500     23.3393     26.5149     18.5205     55.4776
  1422.0000     25.0213     27.0916     19.5437     47.5151
  1422.2500     27.1985     27.5741     20.6267     43.8263
  1422.5000     29.7481     27.9503     21.7811     40.5999
  1422.7500     31.9548     28.2343     23.0102     39.4407
  1423.0000     33.1781     28.4565     24.2929     38.0000
  1423.2500     33.4557     28.6390     25.5796     36.8309
  1423.5000     33.6077     28.7850     26.7968     34.9094
  1423.7500     34.2747     28.8863     27.8564     33.8680
  1424.0000     35.1439     28.9374     28.6662     32.9398
  1424.2500     35.7776     28.9405     29.1436     32.5184
  1424.5000     36.2279     28.9019     29.2394     31.5640
  1424.7500     36.4446     28.8259     28.9805     30.5949
  1425.0000     36.0224     28.7147     28.5022     29.0165
  1425.2500     34.7570     28.5721     28.0216     28.1789
  1425.5000     33.2928     28.4051     27.7468     27.4699
  1425.7500     32.7067     28.2241     27.7859     27.3454
  1426.0000     33.1232     28.0430     28.1133     27.6017
  1426.2500     33.6412     27.8763     28.6013     27.9992
  1426.5000     33.8357     27.7328     29.0917     28.7179
  1426.7500     34.0457     27.6089     29.4664     29.1355
  1427.0000     34.2168     27.4923     29.6741     29.5524
  1427.2500     33.9723     27.3762     29.7171     29.6939
  1427.5000     33.6391     27.2746     29.6249     29.6401
  1427.7500     33.8409     27.2239     29.4383     29.3136
  1428.0000     34.3260     27.2640     29.2050     28.3294
  1428.2500     34.2491     27.4125     28.9793     27.5730
  1428.5000     33.4024     27.6515     28.8116     27.0714
  1428.7500     32.6026     27.9338     28.7249     27.5663
  1429.0000     32.6978     28.2020     28.6897     29.6676
  1429.2500     33.4389     28.4067     28.6249     31.6675
  1429.5000     33.9175     28.5177     28.4347     34.7676
  1429.7500     33.6968     28.5291     28.0582     36.5561
  1430.0000     32.9996     28.4559     27.4898     38.7317
  1430.2500     32.4085     28.3242     26.7603     40.0352
  1430.5000     32.3147     28.1577     25.9096     42.2240
  1430.7500     32.2739     27.9707     24.9776     44.0815
  1431.0000     31.5810     27.7712     24.0043     47.7912
  1431.2500     30.3243     27.5652     23.0237     50.9198
  1431.5000     28.9349     27.3554     22.0516     56.1929
  1431.7500     27.2752     27.1395     21.0835     59.6621
  1432.0000     25.0834     26.9141     20.1049     64.1479
  1432.2500     22.8618     26.6777     19.1096     66.5068
  1432.5000     21.4339     26.4318     18.1073     69.2712
  1432.7500     20.7842     26.1780     17.1186     70.8764
  1433.0000     20.1599     25.9174     16.1645     73.3614
  1433.2500     19.1748     25.6529     15.2590     75.0698
  1433.5000     18.1259     25.3936     14.4103     77.1739
  1433.7500     17.3282     25.1584     13.6240     77.9107
  1434.0000     16.7055     24.9734     12.9063     78.0896
  1434.2500     16.0445     24.8622     12.2642     78.1616
  1434.5000     15.3208     24.8316     11.7039     79.5051
  1434.7500     14.7310     24.8646     11.2287     81.7689
  1435.0000     14.3959     24.9283     10.8371     87.4287
  1435.2500     14.1413     24.9956     10.5222     92.3337
  1435.5000     13.7798     25.0623     10.2734     99.8971
  1435.7500     13.3525     25.1464     10.0785    104.0438
  1436.0000     12.9599     25.2725      9.9262    107.9097
  1436.2500     12.6808     25.4562      9.8093    108.9842
  1436.5000     12.5958     25.6954      9.7247    108.9607
  1436.7500     12.6566     25.9724      9.6739    119.0012
  1437.0000     12.6678     26.2641      9.6618    117.1352
  1437.2500     12.5070     26.5525      9.6957    115.9619
  1437.5000     12.2882     26.8264      9.7847    114.6095
  1437.7500     12.2255     27.0794      9.9374    123.9480
  1438.0000     12.3703     27.3100     10.1613    121.1792
  1438.2500     12.5817     27.5232     10.4613    118.4633
  1438.5000     12.7407     27.7258     10.8398    114.2202
  1438.7500     12.8902     27.9170     11.2943    112.2906
  1439.0000     13.1153     28.0824     11.8152    111.5407
  1439.2500     13.4234     28.1976     12.3830    111.7553
  1439.5000     13.8170     28.2422     12.9673    110.3019
  1439.7500     14.3227     28.2136     13.5311    106.6563
  1440.0000     14.9254     28.1325     14.0373     96.9965
  1440.2500     15.6112     28.0326     14.4552     89.1504
  1440.5000     16.4778     27.9439     14.7626     78.3901
  1440.7500     17.7353     27.8808     14.9433     73.1134
  1441.0000     19.4722     27.8419     14.9866     68.7996
  1441.2500     21.3618     27.8172     14.8898     68.4675
  1441.5000     22.6890     27.7990     14.6632     71.9614
  1441.7500     22.8035     27.7900     14.3284     76.7575
  1442.0000     21.5658     27.8025     13.9124     86.5901
  1442.2500     19.2969     27.8471     13.4416     94.2585
  1442.5000     16.5468     27.9236     12.9393    106.8400
  1442.7500     13.9579     28.0220     12.4250    115.5997
  1443.0000     12.0866     28.1298     11.9127    128.1470
  1443.2500     11.1670     28.2339     11.4103    135.4338
  1443.5000     11.0128     28.3249     10.9217    144.3026
  1443.7500     11.2482     28.4062     10.4493    148.8864
  1444.0000     11.5705     28.4960      9.9986    153.7890
  1444.2500     11.7783     28.6152      9.5787    155.6684
