~Version Information
VERS.                      2.0: CWLS Log ASCII Standard - VERSION 2.0
WRAP.                       NO: One line per depth step
~Well Information Block
STRT.FT               480.0000: 
STOP.FT              1817.0000: 
STEP.FT                 0.1000: 
NULL.                -999.2500: 
COMP.          Pioneer Natural Resources: COMPANY
WELL.           Bobsy 34-11 Tr: WELL
FLD.           Purgatoire River: FIELD
LOC.           514' FSL & 1784' FEL: LOCATION
PROV.                 Colorado: PROVINCE
CNTY.               Las Animas: COUNTRY
SRVC.                Patterson: SERVICE COMPANY
DATE.          Tue Jul 19 10:30:09 2005: LOG DATE
UWI.           05 071 08438 00: UNIQUE WELL ID
~Curve Information Block
DEPT.FT            0 000 00 00: Depth
DCAL.in                       : CDL Caliper
DPOR.pu                       : CDL Density Porosity
GR.GAPI                       : Gamma Ray
NPOR.pu                       : Neutron Porosity
RHOB.g/cc                     : CDL Bulk Density
RHOC.g/cc                     : CDL Density Correction
~Parameter Information Block
~A  Depth       DCAL        DPOR         GR         NPOR        RHOB        RHOC    
# ...
   921.6000      8.2144     11.2099    152.5512     29.4648      2.4650      0.3201
   921.7000      8.2144      8.3389    157.4564     29.6959      2.5124      0.2626
   921.8000      8.2120      6.7580    154.7169     29.7220      2.5385      0.1838
   921.9000      8.2120      5.0926    147.2680     29.4948      2.5660      0.1758
   922.0000      8.1216      3.8847    141.6221     29.0781      2.5859      0.1863
   922.1000      8.1216      4.0729    137.1970     28.7724      2.5828      0.1373
   922.2000      8.1216      5.0077    129.3618     28.6761      2.5674      0.0687
   922.3000      8.0889      5.0381    119.7662     28.4040      2.5669      0.0670
   922.4000      8.0889      3.8881    113.3271     27.5801      2.5858      0.0891
   922.5000      8.0592      2.8191    110.5681     26.5277      2.6035      0.0918
   922.6000      8.0592      2.3616    109.7357     25.7581      2.6110      0.0429
   922.7000      8.0592      2.1430    110.0443     25.3498      2.6146      0.1310
   922.8000      8.0308      2.2280    111.4598     24.9529      2.6132      0.0965
   922.9000      8.0308      2.5580    112.1770     24.2665      2.6078      0.1078
   923.0000      8.0011      2.7291    111.2243     23.5542      2.6050      0.1108
   923.1000      8.0011      2.6507    107.6009     23.3180      2.6063      0.0782
   923.2000      8.0011      2.6029    101.0271     23.5302      2.6071      0.0292
   923.3000      8.0137      2.8287     96.2767     23.6108      2.6033      0.0900
   923.4000      8.0137      3.0842     95.7620     23.4956      2.5991      0.0594
   923.5000      7.9999      2.6661     96.8644     23.6836      2.6060      0.0368
   923.6000      7.9999      1.1562     97.1747     24.1896      2.6309      0.0407
   923.7000      7.9999     -0.6554     96.0337     24.5435      2.6608      0.0494
   923.8000      8.0415     -1.5733     93.2643     24.5736      2.6760      0.0155
   923.9000      8.0415     -2.1280     86.9543     24.3442      2.6851      0.0198
   924.0000      8.0181     -3.6745     80.1571     23.7381      2.7106      0.0698
   924.1000      8.0181     -5.9518     80.0992     22.8983      2.7482      0.0823
   924.2000      8.0181     -7.2309     84.6404     22.4417      2.7693      0.1101
   924.3000      8.0155     -6.4969     87.7340     22.5918      2.7572      0.1034
   924.4000      8.0155     -4.4968     90.1783     22.7175      2.7242      0.0804
   924.5000      8.0002     -2.8469     93.0537     22.6427      2.6970     -0.0182
   924.6000      8.0002     -1.8810     92.9704     22.7420      2.6810      0.0787
   924.7000      8.0002     -0.1468     87.7506     22.7887      2.6524      0.0125
   924.8000      8.0049      2.3194     80.8275     22.6690      2.6117     -0.0204
   924.9000      8.0049      3.8880     78.6557     22.6255      2.5858     -0.0156
   925.0000      8.0218      4.0986     80.5445     22.6766      2.5824      0.0428
   925.1000      8.0218      3.5982     82.0423     22.6402      2.5906      0.0469
   925.2000      8.0218      3.3265     84.9381     22.3807      2.5951      0.0500
   925.3000      8.0254      3.9166     91.3507     22.2128      2.5854      0.0526
   925.4000      8.0254      4.9177     96.0019     22.3817      2.5689      0.0580
   925.5000      8.0178      5.1396     95.9677     22.4920      2.5652      0.0405
   925.6000      8.0178      3.3316     93.9034     22.3455      2.5950      0.0377
   925.7000      8.0178     -0.2599     91.3148     22.2480      2.6543      0.1484
   925.8000      8.0008     -3.3174     90.5234     22.2771      2.7047      0.2104
   925.9000      8.0008     -4.1952     93.0048     22.4448      2.7192      0.1651
   926.0000      7.9772     -3.9399     95.9192     22.8012      2.7150      0.1407
   926.1000      7.9772     -4.1051     97.6642     22.8942      2.7177      0.1273
   926.2000      7.9772     -4.3708     99.4218     22.6232      2.7221      0.1205
   926.3000      7.9541     -3.7840    101.2892     22.6098      2.7124      0.1218
   926.4000      7.9541     -2.6166    102.5647     23.0724      2.6932      0.0579
   926.5000      7.9713     -1.6102    104.3581     23.5153      2.6766      0.0759
   926.6000      7.9713     -0.5251    106.8302     23.7002      2.6587      0.0647
   926.7000      7.9713      1.1066    108.1128     23.7543      2.6317      0.0406
   926.8000      8.0514      2.8138    109.0696     23.8572      2.6036      0.0242
   926.9000      8.0514      3.9416    111.9851     24.1993      2.5850      0.0716
   927.0000      8.1019      4.3259    115.2049     24.7504      2.5786     -0.0063
   927.1000      8.1019      3.7967    116.1806     25.3456      2.5874      0.0107
   927.2000      8.1019      2.8501    117.0241     25.6990      2.6030      0.0160
   927.3000      8.1102      2.4007    120.1914     25.6823      2.6104      0.0445
   927.4000      8.1102      2.3611    122.8905     25.5727      2.6110      0.0163
   927.5000      8.1171      2.0064    121.7824     25.3755      2.6169      0.0705
   927.6000      8.1171      1.2879    119.8373     24.8162      2.6288      0.0198
   927.7000      8.1171      0.4700    118.6907     24.0411      2.6422      0.0501
   927.8000      8.1114     -0.5314    115.6723     23.4000      2.6588      0.0430
   927.9000      8.1114     -1.5390    111.4191     23.1220      2.6754      0.0583
   928.0000      8.1111     -1.4887    107.8012     23.1393      2.6746      0.0608
   928.1000      8.1111      0.4868    103.8971     23.2091      2.6420      0.0531
   928.2000      8.1111      3.3149     99.1749     23.3758      2.5953     -0.0069
   928.3000      8.1265      4.6462     97.7385     23.6214      2.5733     -0.0457
   928.4000      8.1265      4.0881    105.0417     23.8212      2.5825      0.0271
   928.5000      8.1351      3.2085    117.0054     23.9949      2.5971      0.0291
   928.6000      8.1351      2.6348    122.6687     24.0886      2.6065      0.0135
   928.7000      8.1351      2.6449    120.3299     23.9055      2.6064      0.0413
   928.8000      8.1507      3.9089    116.9456     23.4147      2.5855      0.0177
   928.9000      8.1507      5.8490    114.5456     22.9221      2.5535     -0.0093
   929.0000      8.1334      7.2263    111.8285     22.7661      2.5308     -0.0252
   929.1000      8.1334      7.5229    111.0256     23.0371      2.5259      0.0079
   929.2000      8.1334      6.5437    113.5103     23.5016      2.5420      0.0049
   929.3000      8.1180      4.4686    116.5392     24.0691      2.5763      0.0257
   929.4000      8.1180      2.4697    119.4666     24.9967      2.6092      0.0709
   929.5000      8.1166      1.5395    123.0696     26.2130      2.6246      0.0871
   929.6000      8.1166      1.3208    125.7393     27.0863      2.6282      0.0311
   929.7000      8.1166      1.0800    126.3444     27.2283      2.6322      0.0555
   929.8000      8.1096      0.8807    125.6280     27.0859      2.6355      0.0214
   929.9000      8.1096      1.0618    126.7605     27.1450      2.6325      0.0225
   930.0000      8.1112      1.3693    130.0342     27.0981      2.6274      0.0624
   930.1000      8.1112      1.1251    131.3264     26.7102      2.6314      0.0404
   930.2000      8.1112      0.3852    128.3783     26.4391      2.6436      0.1095
   930.3000      8.1137      0.1207    123.7723     26.5247      2.6480      0.0695
   930.4000      8.1137      0.3720    122.8456     26.5489      2.6439      0.0387
   930.5000      8.1153      0.0817    127.7715     26.4267      2.6487      0.0188
   930.6000      8.1153     -1.1800    133.2810     26.3549      2.6695      0.0491
   930.7000      8.1153     -2.8702    135.9234     26.1758      2.6974      0.0382
   930.8000      8.1103     -4.1205    137.0138     26.0165      2.7180      0.1148
   930.9000      8.1103     -4.5778    135.9807     26.0582      2.7255      0.0616
   931.0000      8.0945     -4.5393    131.7007     25.9107      2.7249      0.0780
   931.1000      8.0945     -3.4855    126.4613     25.2946      2.7075      0.1083
