~Version Information
 VERS.                                  2.0 : CWLS LAS VERSION
 WRAP.                                   NO : WRAPING MODE
 SWARE .                MController 2.5.0QA : SOFTWARE VERSION
~Well Information
 WELL.                            Ray 34-06 : WELL
 COMP.    Pioneer Natural Resources USA Inc : COMPANY
 FLD.                      Purgatoire River : FIELD
 LOC.                  SWSE Sec06 T34S R65W : LOCATION
 DATE.                             05/25/06 : DATE(S) LOGGED
 SRVC.       Blanco Geological Services LLC : SERVICE COMPANY
 STAT.                             Colorado : STATE
 CNTY.                           Las Animas : COUNTY
 CTRY.                                  USA : COUNTRY
 API.                       05-071-08695-00 : API NUMBER
 STRT.FT                             347.00 : START DEPTH
 STOP.FT                            1270.00 : STOP DEPTH
 STEP.FT                               1.00 : DEPTH INCREMENT
 NULL.                                -9999 : NULL VALUE
~Curve information
 DEPTH.FT                                   :
 ROP.MIN/FT                                 :
 GAS.UNITS                                  :
~ASCII Log data
       347.0     -9999.00          2.6 
       348.0         0.35          2.9 
       349.0         0.15          2.9 
       350.0         0.82          2.6 
       351.0         1.97          2.5 
       352.0         7.95         25.2 
       353.0         0.23          2.8 
       354.0         0.20          3.0 
       355.0         0.20          3.0 
       356.0         0.17          3.2 
       357.0         0.20          3.0 
       358.0         0.20          3.0 
       359.0         0.20          2.9 
       360.0         0.23          3.0 
       361.0         0.22          3.1 
       362.0         0.23          2.9 
       363.0         0.27          3.0 
       364.0         0.20          3.0 
       365.0         0.17          3.0 
       366.0         0.13          3.0 
       367.0         0.10          3.0 
       368.0         0.23          2.9 
       369.0         0.13          2.6 
       370.0         0.20          3.0 
       371.0         0.20          3.0 
       372.0         1.00          3.1 
       373.0         0.17          2.9 
       374.0         0.13          3.1 
       375.0         0.18          3.1 
       376.0         0.17          3.0 
       377.0         0.23          3.0 
       378.0         0.23          3.2 
       379.0         0.20          2.9 
       380.0         0.13          3.1 
       381.0         0.13          2.9 
       382.0         0.13          3.0 
       383.0         0.13          2.8 
       384.0         0.10          2.8 
       385.0         0.10          2.8 
       386.0         0.10          2.9 
       387.0         0.10          2.8 
       388.0         0.10          3.0 
       389.0         0.13          3.0 
       390.0         0.10          2.8 
       391.0         0.10          2.9 
       392.0         0.10          2.9 
       393.0         0.13          2.9 
       394.0         0.10          2.9 
       395.0         0.10          3.2 
       396.0         0.13          3.2 
       397.0         0.10          2.8 
       398.0         0.10          2.9 
       399.0         0.13          2.9 
       400.0         0.10          2.9 
       401.0         0.15          2.9 
       402.0         0.10          3.0 
       403.0         0.10          3.0 
       404.0         0.13          2.9 
       405.0         0.10          2.9 
       406.0         0.13          3.1 
       407.0         0.30          2.7 
       408.0         0.23          2.9 
       409.0         0.27          3.1 
       410.0         0.30          5.2 
       411.0         0.20          5.2 
       412.0         2.95        275.0 
       413.0         0.27          4.1 
       414.0         0.20          3.5 
       415.0         0.13          3.5 
       416.0         0.13          3.3 
       417.0         0.17          3.1 
       418.0         0.13          2.9 
       419.0         0.17          2.9 
       420.0         0.20          3.2 
       421.0         0.20          3.0 
       422.0         0.18          3.0 
       423.0         0.20          3.0 
       424.0         0.17          3.0 
       425.0         0.20          3.0 
       426.0         0.20          2.8 
       427.0         0.17          3.0 
       428.0         0.17          3.0 
       429.0         0.23          2.8 
       430.0         0.67          2.9 
       431.0         0.20          2.6 
       432.0         0.30          3.3 
       433.0         0.23          2.7 
       434.0         0.27          2.5 
       435.0         0.27          2.7 
       436.0         0.22          2.8 
       437.0         0.23          2.9 
       438.0         0.20          2.7 
       439.0         0.20          2.7 
       440.0         0.20          2.7 
       441.0         0.40          3.7 
       442.0         4.92        117.0 
       443.0         0.30          3.2 
       444.0         0.38          3.0 
       445.0         0.27          2.8 
       446.0         0.13          2.6 
       447.0         0.17          2.5 
       448.0         0.20          2.5 
       449.0         0.27          2.7 
       450.0         0.20          2.5 
       451.0         0.23          2.7 
       452.0         0.23          2.6 
       453.0         0.23          2.6 
       454.0         0.23          2.8 
       455.0         0.30          2.7 
       456.0         0.23          2.5 
       457.0         0.17          2.8 
       458.0         0.28          2.2 
       459.0         0.30          2.3 
       460.0         0.30          2.7 
       461.0         0.30          2.7 
       462.0         0.20          2.6 
       463.0         0.23          2.5 
       464.0         0.27          2.7 
       465.0         0.20          2.7 
       466.0         0.23          2.7 
       467.0         0.20          2.8 
       468.0         0.20          2.9 
       469.0         0.27          2.7 
       470.0         0.27          2.9 
       471.0         0.23          2.9 
       472.0         9.25        283.4 
       473.0         0.27          3.1 
       474.0         0.30          2.9 
       475.0         0.45          4.1 
       476.0         0.30          4.2 
       477.0         0.30          4.8 
       478.0         0.33          5.1 
       479.0         0.20          5.1 
       480.0         0.20          4.5 
       481.0         0.17          4.6 
       482.0         0.20          5.0 
       483.0         0.23          4.9 
       484.0         0.20          4.7 
       485.0         0.20          4.7 
       486.0         0.27          4.8 
       487.0         0.23          4.9 
       488.0         0.23          4.7 
       489.0         0.25          4.4 
       490.0         0.33          4.6 
       491.0         0.27          3.5 
       492.0         0.23          3.0 
       493.0         0.23          2.9 
       494.0         0.20          2.9 
       495.0         0.20          0.7 
       496.0         0.30          0.1 
       497.0         0.20          1.6 
       498.0         0.30          2.9 
       499.0         0.20          3.6 
       500.0         0.30          4.1 
       501.0         0.33          4.4 
       502.0         6.75        115.4 
       503.0         0.30          5.0 
       504.0         0.30          4.9 
       505.0         0.27          4.9 
       506.0         0.30          4.2 
       507.0         0.27          4.4 
       508.0         0.30          3.9 
       509.0         0.27          3.9 
       510.0         0.27          3.8 
       511.0         0.30          3.5 
       512.0         0.30          3.6 
       513.0         0.27          3.2 
       514.0         0.28          3.3 
       515.0         0.27          3.3 
       516.0         0.30          3.2 
       517.0         0.27          2.7 
       518.0         0.20          2.7 
       519.0         0.23          2.8 
       520.0         0.23          3.0 
       521.0         0.17          3.0 
       522.0         0.23          3.4 
       523.0         0.23          4.0 
       524.0         0.27          3.6 
       525.0         0.20          3.6 
       526.0         0.23          3.6 
       527.0         0.30          3.9 
       528.0         0.28          3.9 
       529.0         0.30          3.4 
       530.0         0.33          3.0 
       531.0         0.40          2.7 
       532.0         5.35         36.0 
       533.0         0.25          4.5 
       534.0         0.33          4.7 
       535.0         0.37          4.1 
       536.0         0.30          3.6 
       537.0         0.27          3.5 
       538.0         0.27          3.5 
       539.0         0.30          3.3 
       540.0         0.33          2.9 
       541.0         0.30          2.8 
       542.0         0.27          2.5 
       543.0         0.23          2.8 
       544.0         0.20          2.8 
       545.0         0.25          2.6 
       546.0         0.20          2.9 
