~Version Information
VERS.                      2.0: CWLS Log ASCII Standard - VERSION 2.0
WRAP.                       NO: One line per depth step
~Well Information Block
STRT.FT                -9.0000: 
STOP.FT              1841.0000: 
STEP.FT                 0.2500: 
NULL.                -999.2500: 
COMP.          Pioneer Natural Resources: COMPANY
WELL.          Cooper 11-13 Tr: WELL
FLD.           Purgatorie River: FIELD
LOC.           476' FNL & 738' FWL: LOCATION
STAT.                       CO: State
CNTY.               Las Animas: COUNTY
CTRY. USA : Country
SECT. 13 : Section
TOWN. 32S : Township
RANG. 67W : Range
SRVC.          Patterson Wireline: SERVICE COMPANY
DATE.          Thu Sep 29 08:59:13 2005: LOG DATE
API.           05 071 08525 00: UNIQUE WELL ID
~Curve Information Block
DEPT.FT            0 000 00 00: Depth
CCL.                          : Casing Collar Locator
TT3.usec                      : CBL 3' Travel Time
AMP3.mV                       : CBL 3' Amplitude
GR.GAPI                       : Gamma Ray
~Parameter Information Block
~A  Depth       CCL         TT3         AMP3         GR     
# ...
   962.5000      0.0000    314.2882     30.5606    106.7864
   962.7500      0.0000    311.9090     30.7096    110.0851
   963.0000      0.0000    310.4198     30.8101    113.3148
   963.2500      0.0000    309.7310     30.8632    116.4953
   963.5000      0.0000    309.5491     30.8850    119.0417
   963.7500      0.0000    309.7378     30.8884    119.6575
   964.0000      0.0000    310.3649     30.8776    117.2309
   964.2500      0.0000    311.5409     30.8531    112.2218
   964.5000      0.0000    312.9218     30.8290    107.1554
   964.7500      0.0000    313.2958     30.8490    105.4035
   965.0000      0.0000    311.1696     30.9789    109.0051
   965.2500      0.0000    306.1035     31.2739    117.3040
   965.5000      0.0000    299.3385     31.7432    127.4126
   965.7500      0.0000    292.9421     32.3425    135.9573
   966.0000      0.0000    288.3672     32.9925    140.7893
   966.2500      0.0000    285.8102     33.6093    141.5808
   966.5000      0.0000    284.6516     34.1308    139.2757
   966.7500      0.0000    284.1912     34.5324    135.2974
   967.0000      0.0000    284.0022     34.8278    131.0006
   967.2500      0.0000    283.9006     35.0571    127.2171
   967.5000      0.0000    283.8210     35.2654    124.1385
   967.7500      0.0000    283.7450     35.4750    121.8798
   968.0000      0.0000    283.6781     35.6684    120.9583
   968.2500      0.0000    283.6404     35.7975    121.6888
   968.5000      0.0000    283.6499     35.8136    123.2596
   968.7500      0.0000    283.7094     35.6997    124.0979
   969.0000      0.0000    283.8050     35.4845    123.3281
   969.2500      0.0000    283.9120     35.2345    121.4523
   969.5000      0.0000    284.0016     35.0285    119.2149
   969.7500      0.0000    284.0448     34.9301    116.1572
   970.0000      0.0000    284.0185     34.9670    111.1432
   970.2500      0.0000    283.9154     35.1252    104.5090
   970.5000      0.0000    283.7550     35.3536     98.7502
   970.7500      0.0000    283.5853     35.5764     96.3196
   971.0000      0.0000    283.4662     35.7074     97.0345
   971.2500      0.0000    283.4412     35.6674     98.1912
   971.5000      0.0000    283.5189     35.4115     97.1353
   971.7500      0.0000    283.6745     34.9546     93.3828
   972.0000      0.0000    283.8641     34.3757     88.3181
   972.2500      0.0000    284.0414     33.7879     83.3737
   972.5000      0.0000    284.1725     33.2923     78.8070
   972.7500      0.0000    284.2423     32.9476     73.8915
   973.0000      0.0000    284.2529     32.7697     67.9667
   973.2500      0.0000    284.2151     32.7421     61.3965
   973.5000      0.0000    284.1446     32.8230     55.5697
   973.7500      0.0000    284.0594     32.9555     51.8534
   974.0000      0.0000    283.9724     33.0930     50.6450
   974.2500      0.0000    283.8840     33.2262     51.4816
   974.5000      0.0000    283.7853     33.3811     53.5814
   974.7500      0.0000    283.6731     33.5798     55.9857
   975.0000      0.0000    283.5614     33.8045     57.6760
   975.2500      0.0000    283.4737     34.0052     58.1388
   975.5000      0.0000    283.4251     34.1388     57.6497
   975.7500      0.0000    283.4110     34.1970     56.7713
   976.0000      0.0000    283.4119     34.2028     55.8162
   976.2500      0.0000    283.4057     34.1906     54.8726
   976.5000      0.0000    283.3775     34.1943     53.9786
   976.7500      0.0000    283.3223     34.2444     53.1987
   977.0000      0.0000    283.2465     34.3597     52.9227
   977.2500      0.0000    283.1688     34.5300     54.2220
   977.5000      0.0000    283.1170     34.7042     58.5921
   977.7500      0.0000    283.1165     34.8063     67.0258
   978.0000      0.0000    283.1780     34.7755     79.1365
   978.2500      0.0000    283.2949     34.5977     92.7019
   978.5000      0.0000    283.4494     34.3034    103.9368
   978.7500      0.0000    283.6176     33.9483    109.2672
   979.0000      0.0000    283.7720     33.5991    107.9053
   979.2500      0.0000    283.8881     33.3221    102.6653
   979.5000      0.0000    283.9521     33.1663     97.9361
   979.7500      0.0000    283.9638     33.1526     96.9431
   980.0000      0.0000    283.9303     33.2768    100.5234
   980.2500      0.0000    283.8617     33.5137    107.4392
   980.5000      0.0000    283.7727     33.8152    115.3429
   980.7500      0.0000    283.6832     34.1169    121.9458
   981.0000      0.0000    283.6151     34.3585    125.9979
   981.2500      0.0000    283.6075     34.4998    127.5813
   981.5000      0.0000    283.7729     34.5147    127.5038
   981.7500      0.0000    284.5646     34.3581    126.3392
   982.0000      0.0000    287.2473     33.9155    124.0575
   982.2500      0.0000    294.2153     32.9979    120.6730
   982.5000      0.0000    307.9318     31.5036    117.2027
   982.7500      0.0000    327.8367     29.6732    115.4667
   983.0000      0.0000    347.8987     28.0570    116.4093
   983.2500      0.0000    359.4878     27.0519    118.7778
   983.5000      0.0000    358.6384     26.5679    119.8804
   983.7500      0.0000    349.4434     26.3036    117.8729
   984.0000      0.0000    339.3699     26.1593    113.3523
   984.2500      0.0000    332.8521     26.1978    108.5704
   984.5000      0.0000    330.0209     26.3891    105.0318
   984.7500     -2.0000    329.3194     26.5870    102.3665
   985.0000      0.0000    329.6120     26.6524     99.8944
   985.2500      0.0000    330.3710     26.5304     98.4756
   985.5000      0.0000    330.9570     26.3195     99.7836
   985.7500      0.0000    330.2410     26.3138    103.9783
   986.0000      0.0000    327.1279     26.8533    109.0364
   986.2500      0.0000    321.4457     28.0574    112.5618
   986.5000      0.0000    313.9552     29.7860    113.7971
   986.7500      0.0000    305.6772     31.8052    113.8001
   987.0000      0.0000    297.6347     33.8361    114.0625
   987.2500      0.0000    290.9246     35.5292    115.1515
   987.5000      0.0000    286.3309     36.6146    116.5986
   987.7500      0.0000    283.8370     37.0809    117.7984
   988.0000      0.0000    282.7910     37.1196    118.5413
   988.2500      0.0000    282.4811     36.9280    118.6724
   988.5000      0.0000    282.4756     36.6031    117.8639
   988.7500      0.0000    282.5926     36.1802    115.9696
   989.0000      0.0000    282.7629     35.7050    113.2005
   989.2500      0.0000    282.9406     35.2565    109.9430
   989.5000      0.0000    283.0870     34.9143    106.9207
   989.7500      0.0000    283.1811     34.7212    105.2972
   990.0000      0.0000    283.2196     34.6785    105.8650
   990.2500      0.0000    283.2101     34.7613    108.1139
   990.5000      0.0000    283.1660     34.9302    110.7487
   990.7500      0.0000    283.1063     35.1368    113.1591
   991.0000      0.0000    283.0517     35.3331    115.8741
   991.2500      0.0000    283.0133     35.4919    119.6198
   991.5000      0.0000    282.9828     35.6226    124.5012
   991.7500      0.0000    282.9368     35.7621    130.1063
   992.0000      0.0000    282.8528     35.9459    135.7810
   992.2500      0.0000    282.7231     36.1903    140.4061
   992.5000      0.0000    282.5569     36.4979    142.2666
   992.7500      0.0000    282.3760     36.8602    140.0503
   993.0000      0.0000    282.2090     37.2418    134.4076
   993.2500      0.0000    282.0834     37.5768    128.0269
   993.5000      0.0000    282.0176     37.7973    123.4893
   993.7500      0.0000    282.0186     37.8640    120.9134
   994.0000      0.0000    282.0840     37.7753    117.9177
   994.2500      0.0000    282.2002     37.5626    111.8945
   994.5000      0.0000    282.3382     37.2867    102.5098
   994.7500      0.0000    282.4594     37.0179     92.4908
   995.0000      0.0000    282.5374     36.7936     85.9296
   995.2500      0.0000    282.5787     36.5906     85.2012
   995.5000      0.0000    282.6177     36.3501     89.2218
   995.7500      0.0000    282.6915     36.0324     94.7160
