~Version Information
VERS.                      2.0: CWLS Log ASCII Standard - VERSION 2.0
WRAP.                       NO: One line per depth step
~Well Information Block
STRT.FT               262.2500: 
STOP.FT              1942.0000: 
STEP.FT                 0.2500: 
NULL.                -999.2500: 
COMP.          XTO Energy Inc.: COMPANY
WELL.          Golden Eagle 19-11: WELL
FLD.           Purgatoire River: FIELD
LOC.           2351' FSL & 1926' FWL--: LOCATION
CNTY.               Las Animas: COUNTY
SRVC.                Patterson: SERVICE COMPANY
DATE.          Wed Mar 08 23:33:01 2006: LOG DATE
UWI.           05 071 08696 00: UNIQUE WELL ID
STAT.                 Colorado: STATE
~Curve Information Block
DEPT.FT            0 000 00 00: Depth
SP.mV                         : DIL Spontaneous Potential
RILD.Ohm-m                    : DIL Deep Resistivity
RILM.Ohm-m                    : DIL Medium Resistivity
RLL3.Ohm-m                    : DIL Shallow Resistivity
GR.GAPI                       : Gamma Ray
~Parameter Information Block
~A  Depth        SP         RILD        RILM        RLL3         GR     
# ...
   934.2500   -999.2500      8.4651      8.6852   2000.0000    140.9265
   934.5000   -999.2500      8.3082      8.5601   2000.0000    141.2202
   934.7500   -999.2500      8.1649      8.4579   2000.0000    141.8206
   935.0000   -999.2500      8.0363      8.3756   2000.0000    142.9877
   935.2500   -999.2500      7.9232      8.3065   2000.0000    143.5986
   935.5000   -999.2500      7.8255      8.2412   2000.0000    143.9568
   935.7500   -999.2500      7.7408      8.1717   2000.0000    143.9566
   936.0000   -999.2500      7.6655      8.0941   2000.0000    143.8293
   936.2500   -999.2500      7.5949      8.0101   2000.0000    143.5174
   936.5000   -999.2500      7.5250      7.9249   2000.0000    142.3334
   936.7500   -999.2500      7.4528      7.8439   2000.0000    141.0983
   937.0000   -999.2500      7.3772      7.7707   2000.0000    139.1811
   937.2500   -999.2500      7.2981      7.7050   2000.0000    138.3579
   937.5000   -999.2500      7.2164      7.6434   2000.0000    138.4145
   937.7500   -999.2500      7.1345      7.5806   2000.0000    139.3065
   938.0000   -999.2500      7.0566      7.5117   2000.0000    141.4453
   938.2500   -999.2500      6.9887      7.4348   2000.0000    143.1078
   938.5000   -999.2500      6.9377      7.3521   2000.0000    145.5253
   938.7500   -999.2500      6.9091      7.2691   2000.0000    146.8053
   939.0000   -999.2500      6.9053      7.1938   2000.0000    147.9282
   939.2500   -999.2500      6.9262      7.1355   2000.0000    148.2438
   939.5000   -999.2500      6.9704      7.1043   2000.0000    148.4260
   939.7500   -999.2500      7.0365      7.1099   2000.0000    148.3403
   940.0000   -999.2500      7.1239      7.1593   2000.0000    147.4274
   940.2500   -999.2500      7.2333      7.2549   2000.0000    146.1155
   940.5000   -999.2500      7.3662      7.3944   2000.0000    143.5314
   940.7500   -999.2500      7.5262      7.5736   2000.0000    141.9256
   941.0000   -999.2500      7.7180      7.7910   2000.0000    140.1725
   941.2500   -999.2500      7.9481      8.0507   2000.0000    139.2015
   941.5000   -999.2500      8.2230      8.3640   2000.0000    137.0235
   941.7500   -999.2500      8.5477      8.7474   2000.0000    134.5434
   942.0000   -999.2500      8.9230      9.2202   2000.0000    129.0169
   942.2500   -999.2500      9.3438      9.7985   2000.0000    124.3797
   942.5000   -999.2500      9.7994     10.4897   2000.0000    116.6570
   942.7500   -999.2500     10.2759     11.2867   2000.0000    111.3180
   943.0000   -999.2500     10.7596     12.1640   2000.0000    103.5313
   943.2500   -999.2500     11.2401     13.0779   2000.0000     98.9083
   943.5000   -999.2500     11.7121     13.9712   2000.0000     93.8324
   943.7500   -999.2500     12.1744     14.7823   2000.0000     92.1872
   944.0000   -999.2500     12.6282     15.4562   2000.0000     92.3409
   944.2500   -999.2500     13.0743     15.9563   2000.0000     93.7321
   944.5000   -999.2500     13.5107     16.2724   2000.0000     97.1462
   944.7500   -999.2500     13.9339     16.4249   2000.0000    100.4193
   945.0000   -999.2500     14.3408     16.4625   2000.0000    107.1300
   945.2500   -999.2500     14.7286     16.4539   2000.0000    112.3475
   945.5000   -999.2500     15.0902     16.4729   2000.0000    119.0944
   945.7500   -999.2500     15.4096     16.5839   2000.0000    121.4093
   946.0000   -999.2500     15.6618     16.8299   2000.0000    120.3266
   946.2500   -999.2500     15.8212     17.2243   2000.0000    116.8062
   946.5000   -999.2500     15.8707     17.7450   2000.0000    108.8194
   946.7500   -999.2500     15.8092     18.3311   2000.0000    102.8001
   947.0000   -999.2500     15.6528     18.8882   2000.0000     94.6014
   947.2500   -999.2500     15.4316     19.3076   2000.0000     90.6126
   947.5000   -999.2500     15.1841     19.4977   2000.0000     87.9767
   947.7500   -999.2500     14.9454     19.4132   2000.0000     88.7774
   948.0000   -999.2500     14.7358     19.0660   2000.0000     93.5865
   948.2500   -999.2500     14.5525     18.5126   2000.0000     98.6261
   948.5000   -999.2500     14.3701     17.8297   2000.0000    107.5942
   948.7500   -999.2500     14.1513     17.0891   2000.0000    113.6892
   949.0000   -999.2500     13.8628     16.3411   2000.0000    121.6308
   949.2500   -999.2500     13.4901     15.6090   2000.0000    125.5576
   949.5000   -999.2500     13.0411     14.8942   2000.0000    129.3476
   949.7500   -999.2500     12.5398     14.1882   2000.0000    130.9506
   950.0000   -999.2500     12.0145     13.4865   2000.0000    132.8953
   950.2500   -999.2500     11.4900     12.7954   2000.0000    134.1396
   950.5000   -999.2500     10.9850     12.1316   2000.0000    135.9873
   950.7500   -999.2500     10.5139     11.5151   2000.0000    137.3363
   951.0000   -999.2500     10.0890     10.9626   2000.0000    140.0396
   951.2500   -999.2500      9.7211     10.4824   2000.0000    142.4190
   951.5000   -999.2500      9.4186     10.0730   2000.0000    146.2953
   951.7500   -999.2500      9.1852      9.7250   2000.0000    148.4375
   952.0000   -999.2500      9.0164      9.4249   2000.0000    149.9335
   952.2500   -999.2500      8.8972      9.1598   2000.0000    149.5194
   952.5000   -999.2500      8.8044      8.9217   2000.0000    147.4579
   952.7500   -999.2500      8.7156      8.7093   2000.0000    146.1136
   953.0000   -999.2500      8.6199      8.5270   2000.0000    145.7819
   953.2500   -999.2500      8.5224      8.3821   2000.0000    147.0114
   953.5000   -999.2500      8.4386      8.2812   2000.0000    150.3386
   953.7500   -999.2500      8.3845      8.2267   2000.0000    152.6703
   954.0000   -999.2500      8.3700      8.2168   2000.0000    154.8248
   954.2500   -999.2500      8.3992      8.2478   2000.0000    154.9705
   954.5000   -999.2500      8.4713      8.3186   2000.0000    153.7799
   954.7500   -999.2500      8.5827      8.4363   2000.0000    152.6780
   955.0000   -999.2500      8.7268      8.6184   2000.0000    151.0939
   955.2500   -999.2500      8.8942      8.8918   2000.0000    149.8268
   955.5000   -999.2500      9.0744      9.2849   2000.0000    146.5949
   955.7500   -999.2500      9.2580      9.8114   2000.0000    143.0528
   956.0000   -999.2500      9.4375     10.4485   2000.0000    135.6126
   956.2500   -999.2500      9.6080     11.1181   2000.0000    129.8615
   956.5000   -999.2500      9.7670     11.6980   2000.0000    121.9911
   956.7500   -999.2500      9.9153     12.0763   2000.0000    118.4274
   957.0000   -999.2500     10.0586     12.2155   2000.0000    116.6322
   957.2500   -999.2500     10.2064     12.1606   2000.0000    117.5488
   957.5000   -999.2500     10.3672     11.9915   2000.0000    120.6801
   957.7500   -999.2500     10.5422     11.7780   2000.0000    123.0946
   958.0000   -999.2500     10.7222     11.5668   2000.0000    126.3984
   958.2500   -999.2500     10.8901     11.3861   2000.0000    128.2775
   958.5000   -999.2500     11.0285     11.2521   2000.0000    130.5520
   958.7500   -999.2500     11.1264     11.1730   2000.0000    131.5314
   959.0000   -999.2500     11.1802     11.1510   2000.0000    131.7849
   959.2500   -999.2500     11.1902     11.1856   2000.0000    131.0951
   959.5000   -999.2500     11.1572     11.2726   2000.0000    129.0063
   959.7500   -999.2500     11.0824     11.4018   2000.0000    126.9661
   960.0000   -999.2500     10.9716     11.5538   2000.0000    122.9837
   960.2500   -999.2500     10.8371     11.7005   2000.0000    120.1671
   960.5000   -999.2500     10.6968     11.8107   2000.0000    117.4568
   960.7500   -999.2500     10.5675     11.8602   2000.0000    117.7115
   961.0000   -999.2500     10.4585     11.8392   2000.0000    121.7149
   961.2500   -999.2500     10.3691     11.7535   2000.0000    126.1321
   961.5000   -999.2500     10.2899     11.6190   2000.0000    133.1785
   961.7500   -999.2500     10.2078     11.4524   2000.0000    136.9034
   962.0000   -999.2500     10.1112     11.2652   2000.0000    140.0833
