~Version Information
VERS.                      2.0: CWLS Log ASCII Standard - VERSION 2.0
WRAP.                       NO: One line per depth step
~Well Information Block
STRT.FT               460.0000: 
STOP.FT              1498.0000: 
STEP.FT                 0.1000: 
NULL.                -999.2500: 
COMP.          Pioneer Natural Resources: COMPANY
WELL.           Amore 32-09 Tr: WELL
FLD.           Purgatoire River: FIELD
LOC.           1941' FNL & 2297' FEL: LOCATION
PROV.                 Colorado: PROVINCE
CNTY.               Las Animas: COUNTRY
SRVC.                Patterson: SERVICE COMPANY
DATE.          Mon Nov 14 13:24:57 2005: LOG DATE
UWI.           05 071 08584 00: UNIQUE WELL ID
~Curve Information Block
DEPT.FT            0 000 00 00: Depth
DCAL.in                       : CDL Caliper
RHOB.g/cc                     : CDL Bulk Density
RHOC.g/cc                     : CDL Density Correction
DPOR.pu                       : CDL Density Porosity
GR.GAPI                       : Gamma Ray
NPOR.pu                       : Neutron Porosity
~Parameter Information Block
~A  Depth       DCAL        RHOB        RHOC        DPOR         GR         NPOR    
# ...
  1487.2000      7.8706      2.6132      0.1073      2.2330     84.6108   -999.2500
  1487.3000      7.8650      2.6145      0.1063      2.1519     83.4800   -999.2500
  1487.4000      7.8650      2.6200      0.1025      1.8183     84.9380   -999.2500
  1487.5000      7.8771      2.6280      0.0763      1.3339     84.2451   -999.2500
  1487.6000      7.8771      2.6333      0.0967      1.0103     81.8494   -999.2500
  1487.7000      7.8771      2.6315      0.0853      1.1201     82.5617   -999.2500
  1487.8000      7.8809      2.6228      0.0868      1.6475     87.5856   -999.2500
  1487.9000      7.8809      2.6055      0.0773      2.6996     93.3033   -999.2500
  1488.0000      7.8748      2.5778      0.0766      4.3736     94.8449   -999.2500
  1488.1000      7.8748      2.5489      0.0261      6.1283     91.2014   -999.2500
  1488.2000      7.8748      2.5273      0.0486      7.4380     87.0179   -999.2500
  1488.3000      7.8661      2.5124      0.0143      8.3396     87.0438   -999.2500
  1488.4000      7.8661      2.5091      0.0188      8.5385     88.9905   -999.2500
  1488.5000      7.8531      2.5257      0.0275      7.5332     87.1796   -999.2500
  1488.6000      7.8531      2.5604      0.0723      5.4320     83.0101   -999.2500
  1488.7000      7.8531      2.6006      0.1361      2.9927     80.1005   -999.2500
  1488.8000      7.8339      2.6326      0.1415      1.0533     78.2270   -999.2500
  1488.9000      7.8339      2.6510      0.1480     -0.0629     77.8943   -999.2500
  1489.0000      7.8268      2.6599      0.1266     -0.5998     78.2488   -999.2500
  1489.1000      7.8268      2.6610      0.1688     -0.6677     77.0639   -999.2500
  1489.2000      7.8268      2.6479      0.1402      0.1295     74.5617   -999.2500
  1489.3000      7.8386      2.6213      0.1128      1.7375     71.6783   -999.2500
  1489.4000      7.8386      2.5986      0.0705      3.1156     69.2774   -999.2500
  1489.5000      7.8436      2.5991      0.0799      3.0842     64.2255   -999.2500
  1489.6000      7.8436      2.6256      0.0802      1.4771     48.7119   -999.2500
  1489.7000      7.8436      2.6642      0.1177     -0.8604     25.4231   -999.2500
  1489.8000      7.8376      2.6915      0.1610     -2.5130      8.1290   -999.2500
  1489.9000      7.8376      2.6915      0.1391     -2.5181      1.4889   -999.2500
  1490.0000      7.8364      2.6766      0.1100     -1.6144      0.1503   -999.2500
  1490.1000      7.8364      2.6677      0.1271     -1.0722      0.0080   -999.2500
  1490.2000      7.8364      2.6620      0.1444     -0.7261      0.0000   -999.2500
  1490.3000      7.8472      2.6464      0.1125      0.2201   -999.2500   -999.2500
  1490.4000      7.8472      2.6193      0.0706      1.8576   -999.2500   -999.2500
  1490.5000      7.8556      2.5901      0.0545      3.6314   -999.2500   -999.2500
  1490.6000      7.8556      2.5706      0.0336      4.8132   -999.2500   -999.2500
  1490.7000      7.8556      2.5664      0.0604      5.0642   -999.2500   -999.2500
  1490.8000      7.8535      2.5766      0.0493      4.4470   -999.2500   -999.2500
  1490.9000      7.8535      2.5937      0.0552      3.4149   -999.2500   -999.2500
  1491.0000      7.8388      2.5956      0.0837      3.2988   -999.2500   -999.2500
  1491.1000      7.8388      2.5721      0.0412      4.7227   -999.2500   -999.2500
  1491.2000      7.8388      2.5457      0.0221      6.3212   -999.2500   -999.2500
  1491.3000      7.8109      2.5332      0.0596      7.0774   -999.2500   -999.2500
  1491.4000      7.8109      2.5240      0.0577      7.6365   -999.2500   -999.2500
  1491.5000      7.7790      2.5133      0.0514      8.2837   -999.2500   -999.2500
  1491.6000      7.7790      2.5148      0.0445      8.1918   -999.2500   -999.2500
  1491.7000      7.7790      2.5397      0.0757      6.6868   -999.2500   -999.2500
  1491.8000      7.7544      2.5861      0.0853      3.8749   -999.2500   -999.2500
  1491.9000      7.7544      2.6387      0.1625      0.6824   -999.2500   -999.2500
  1492.0000      7.7428      2.6768      0.1813     -1.6248   -999.2500   -999.2500
  1492.1000      7.7428      2.6953      0.1631     -2.7480   -999.2500   -999.2500
  1492.2000      7.7428      2.7008      0.1851     -3.0767   -999.2500   -999.2500
  1492.3000      7.7450      2.6928      0.1968     -2.5921   -999.2500   -999.2500
  1492.4000      7.7450      2.6762      0.1235     -1.5909   -999.2500   -999.2500
  1492.5000      7.7491      2.6648      0.1153     -0.8969   -999.2500   -999.2500
  1492.6000      7.7491      2.6597      0.0972     -0.5891   -999.2500   -999.2500
  1492.7000      7.7491      2.6506      0.1300     -0.0368   -999.2500   -999.2500
  1492.8000      7.7200      2.6334      0.1325      1.0035   -999.2500   -999.2500
  1492.9000      7.7200      2.6173      0.1353      1.9811   -999.2500   -999.2500
  1493.0000      7.6388      2.6061      0.1824      2.6586   -999.2500   -999.2500
  1493.1000      7.6388      2.5911      0.1825      3.5725   -999.2500   -999.2500
  1493.2000      7.6388      2.5701      0.1599      4.8410   -999.2500   -999.2500
  1493.3000      7.4973      2.5471      0.1575      6.2344   -999.2500   -999.2500
  1493.4000      7.4973      2.5245      0.1140      7.6089   -999.2500   -999.2500
  1493.5000      7.3145      2.5112      0.0970      8.4136   -999.2500   -999.2500
  1493.6000      7.3145      2.5097      0.1151      8.5026   -999.2500   -999.2500
  1493.7000      7.3145      2.5090      0.1199      8.5466   -999.2500   -999.2500
  1493.8000      7.1124      2.5082      0.1043      8.5961   -999.2500   -999.2500
  1493.9000      7.1124      2.5143      0.1357      8.2260   -999.2500   -999.2500
  1494.0000      6.8723      2.5216      0.1672      7.7833   -999.2500   -999.2500
  1494.1000      6.8723      2.5256      0.1391      7.5408   -999.2500   -999.2500
  1494.2000      6.8723      2.5316      0.1420      7.1749   -999.2500   -999.2500
  1494.3000      6.5930      2.5336      0.1588      7.0553   -999.2500   -999.2500
  1494.4000      6.5930      2.5171      0.1390      8.0570   -999.2500   -999.2500
  1494.5000      6.3177      2.4860      0.1129      9.9375   -999.2500   -999.2500
  1494.6000      6.3177      2.4629      0.0910     11.3406   -999.2500   -999.2500
  1494.7000      6.3177      2.4594      0.1248     11.5540   -999.2500   -999.2500
  1494.8000      6.0963      2.4664      0.1390     11.1247   -999.2500   -999.2500
  1494.9000      6.0963      2.4769      0.1329     10.4905   -999.2500   -999.2500
  1495.0000      5.9281      2.5078      0.1409      8.6179   -999.2500   -999.2500
  1495.1000      5.9281      2.5966      0.1466      3.2384   -999.2500   -999.2500
  1495.2000      5.9281      2.6340      0.1372      0.9672   -999.2500   -999.2500
  1495.3000      5.6730      2.2108      0.6191     26.6185   -999.2500   -999.2500
  1495.4000      5.6730      1.2586      0.0000     84.3277   -999.2500   -999.2500
  1495.5000      5.0444      0.4275      0.0000    134.6977   -999.2500   -999.2500
  1495.6000      5.0444      0.0813   -999.2500    155.6816   -999.2500   -999.2500
  1495.7000      5.0444      0.0084   -999.2500    160.0982   -999.2500   -999.2500
  1495.8000      4.1361      0.0005   -999.2500    160.5785   -999.2500   -999.2500
  1495.9000      4.1361      0.0000   -999.2500    160.6061   -999.2500   -999.2500
  1496.0000      3.6033      0.0000   -999.2500    160.6061   -999.2500   -999.2500
  1496.1000      3.6033   -999.2500   -999.2500   -999.2500   -999.2500   -999.2500
  1496.2000      3.6033   -999.2500   -999.2500   -999.2500   -999.2500   -999.2500
  1496.3000      3.4855   -999.2500   -999.2500   -999.2500   -999.2500   -999.2500
  1496.4000      3.4855   -999.2500   -999.2500   -999.2500   -999.2500   -999.2500
  1496.5000      3.4759   -999.2500   -999.2500   -999.2500   -999.2500   -999.2500
  1496.6000      3.4759   -999.2500   -999.2500   -999.2500   -999.2500   -999.2500
  1496.7000      3.4759   -999.2500   -999.2500   -999.2500   -999.2500   -999.2500
