~Version Information
VERS.                      2.0: CWLS Log ASCII Standard - VERSION 2.0
WRAP.                       NO: One line per depth step
~Well Information Block
STRT.FT               460.0000: 
STOP.FT              2811.5000: 
STEP.FT                 0.1000: 
NULL.                -999.2500: 
COMP.          Pioneer Natural Resources: COMPANY
WELL.           Dolzanie 34-12: WELL
FLD.           Purgatoire River: FIELD
LOC.           1001' FSL & 1750' FEL--: LOCATION
PROV.                 Colorado: PROVINCE
CNTY.               Las Animas: COUNTRY
SRVC.                Patterson: SERVICE COMPANY
DATE.          Wed Jul 20 07:56:24 2005: LOG DATE
UWI.           05 071 08439 00: UNIQUE WELL ID
~Curve Information Block
DEPT.FT            0 000 00 00: Depth
DCAL.in                       : CDL Caliper
DPOR.pu                       : CDL Density Porosity
NPOR.pu                       : Neutron Porosity
RHOB.g/cc                     : CDL Bulk Density
RHOC.g/cc                     : CDL Density Correction
GR.GAPI                       : Gamma Ray
~Parameter Information Block
~A  Depth       DCAL        DPOR        NPOR        RHOB        RHOC         GR     
# ...
  2639.2000      7.8289      7.0382     14.1464      2.5339      0.0700     85.3639
  2639.3000      7.8372      7.1923     13.9877      2.5313      0.0671     81.6364
  2639.4000      7.8372      7.8098     13.8448      2.5211      0.0452     84.0079
  2639.5000      7.8484      8.5172     13.9300      2.5095      0.0375     89.1210
  2639.6000      7.8484      8.6809     14.3517      2.5068      0.0272     89.6808
  2639.7000      7.8484      8.0066     14.5178      2.5179      0.0611     86.5445
  2639.8000      7.8553      7.3460     14.3009      2.5288      0.0648     83.0523
  2639.9000      7.8553      7.6188     14.1595      2.5243      0.0521     78.0588
  2640.0000      7.8543      8.5640     13.9957      2.5087      0.0675     68.6636
  2640.1000      7.8543      9.5353     13.8065      2.4927      0.0551     59.6110
  2640.2000      7.8543     10.1099     14.0061      2.4832      0.0147     61.5303
  2640.3000      7.8462     10.2296     14.5459      2.4812      0.0295     73.1521
  2640.4000      7.8462     10.3984     14.8511      2.4784      0.0606     80.9257
  2640.5000      7.8337     10.6294     14.4948      2.4746      0.0459     82.2994
  2640.6000      7.8337     10.0813     13.5682      2.4837      0.0564     86.1092
  2640.7000      7.8337      9.0214     12.7528      2.5011      0.0884     92.4634
  2640.8000      7.8263      9.0181     12.6957      2.5012      0.1078     92.8682
  2640.9000      7.8263      9.8662     13.2048      2.4872      0.0140     86.5072
  2641.0000      7.8262      9.8333     13.6416      2.4878      0.0641     79.4561
  2641.1000      7.8262      8.9509     13.8185      2.5023      0.0994     72.9727
  2641.2000      7.8262      8.2720     13.9752      2.5135      0.0669     68.1159
  2641.3000      7.8281      8.4391     13.9774      2.5108      0.1009     67.7184
  2641.4000      7.8281      9.6747     13.5491      2.4904      0.0709     68.9900
  2641.5000      7.8294     11.0429     12.9658      2.4678      0.0088     69.0715
  2641.6000      7.8294     11.5331     12.5177      2.4597      0.0201     70.2014
  2641.7000      7.8294     11.3868     12.1932      2.4621      0.0610     73.7255
  2641.8000      7.8350     10.9860     12.0162      2.4687      0.0397     77.5200
  2641.9000      7.8350     10.5284     12.3160      2.4763      0.0529     79.4137
  2642.0000      7.8459     10.5126     13.1893      2.4765      0.0594     80.2564
  2642.1000      7.8459     10.8888     13.8113      2.4703      0.0391     81.6093
  2642.2000      7.8459     10.9125     13.8081      2.4699      0.0331     81.6048
  2642.3000      7.8567     10.3546     13.8052      2.4791      0.0816     79.2978
  2642.4000      7.8567      9.8353     13.9245      2.4877      0.0966     78.6052
  2642.5000      7.8639      9.8798     14.0858      2.4870      0.0619     81.6139
  2642.6000      7.8639     10.2946     14.3082      2.4801      0.0544     85.6351
  2642.7000      7.8639     10.5730     14.5334      2.4755      0.0517     87.2812
  2642.8000      7.8677     10.3812     15.0022      2.4787      0.0517     83.6882
  2642.9000      7.8677      9.7257     15.5922      2.4895      0.0602     77.3671
  2643.0000      7.8695      8.9725     15.5968      2.5020      0.0529     75.8411
  2643.1000      7.8695      8.4274     15.0090      2.5109      0.0680     80.3955
  2643.2000      7.8695      8.1540     14.5467      2.5155      0.0757     84.6150
  2643.3000      7.8719      8.1965     14.4907      2.5148      0.0782     85.0432
  2643.4000      7.8719      8.6611     14.3964      2.5071      0.0722     85.3774
  2643.5000      7.8757      9.7535     13.7536      2.4891      0.0674     88.5310
  2643.6000      7.8757     11.5546     13.0301      2.4593      0.0612     91.0291
  2643.7000      7.8757     13.2983     13.1660      2.4306      0.0203     89.1695
  2643.8000      7.8788     13.6018     14.0475      2.4256      0.0270     82.0060
  2643.9000      7.8788     12.4344     14.8415      2.4448      0.0551     74.1466
  2644.0000      7.8775     11.2580     15.1698      2.4642      0.0610     75.0241
  2644.1000      7.8775     10.6925     15.0046      2.4736      0.0505     84.8192
  2644.2000      7.8775     10.2351     14.4581      2.4811      0.0708     94.2371
  2644.3000      7.8716      9.7788     14.1153      2.4886      0.0865     97.0377
  2644.4000      7.8716      9.4087     14.3535      2.4948      0.0622     94.0837
  2644.5000      7.8640      9.0949     14.5428      2.4999      0.0826     89.3962
  2644.6000      7.8640      8.8094     14.2060      2.5046      0.0729     84.2289
  2644.7000      7.8640      8.4145     13.9131      2.5112      0.0766     75.7405
  2644.8000      7.8575      8.2165     14.0955      2.5144      0.0680     66.2584
  2644.9000      7.8575      8.8158     14.3461      2.5045      0.0672     65.4847
  2645.0000      7.8550     10.1205     14.2556      2.4830      0.0276     74.6011
  2645.1000      7.8550     11.1032     14.0501      2.4668      0.0059     80.7840
  2645.2000      7.8550     11.0924     14.2006      2.4670      0.0188     79.5408
  2645.3000      7.8548     10.7113     14.6942      2.4733      0.0623     80.7246
  2645.4000      7.8548     10.5927     14.6792      2.4752      0.0410     84.2484
  2645.5000      7.8551     10.0979     13.9699      2.4834      0.0366     82.5119
  2645.6000      7.8551      8.5322     13.6127      2.5092      0.0533     79.3707
  2645.7000      7.8551      6.6604     14.2658      2.5401      0.0895     81.3236
  2645.8000      7.8549      5.9103     15.5980      2.5525      0.0844     87.3096
  2645.9000      7.8549      6.5014     16.9002      2.5427      0.0849     91.6702
  2646.0000      7.8544      7.6403     17.7682      2.5239      0.0879     91.9013
  2646.1000      7.8544      9.0204     18.4685      2.5012      0.0834     90.4577
  2646.2000      7.8544     10.6822     19.7197      2.4737      0.0445     92.7731
  2646.3000      7.8546     11.8904     21.4434      2.4538      0.0228    104.1899
  2646.4000      7.8546     11.8276     22.7821      2.4548      0.0333    118.4108
  2646.5000      7.8550     10.8064     23.4499      2.4717      0.0459    126.2686
  2646.6000      7.8550      9.6648     23.8087      2.4905      0.0499    131.3638
  2646.7000      7.8550      8.6901     24.1410      2.5066      0.0228    136.8555
  2646.8000      7.8536      8.0993     24.5500      2.5164      0.0662    139.9272
  2646.9000      7.8536      8.7409     24.7798      2.5058      0.0808    141.4258
  2647.0000      7.8536     10.5371     24.4308      2.4761      0.0484    145.3961
  2647.1000      7.8536     11.7629     23.7577      2.4559      0.0331    150.7840
  2647.2000      7.8536     11.3821     22.8731      2.4622      0.0388    149.0716
  2647.3000      7.8566      9.9586     21.4566      2.4857      0.0535    138.0325
  2647.4000      7.8566      8.6314     19.7085      2.5076      0.0606    124.4974
  2647.5000      7.8592      7.9993     18.2870      2.5180      0.0257    112.9787
  2647.6000      7.8592      7.3625     17.3268      2.5285      0.0184    105.8387
  2647.7000      7.8592      6.0569     16.5271      2.5501      0.0466    104.6093
  2647.8000      7.8593      4.4110     15.7793      2.5772      0.0634    108.5887
  2647.9000      7.8593      2.9057     14.8649      2.6021      0.1007    112.0712
  2648.0000      7.8577      1.9369     14.1078      2.6180      0.0724    109.6602
  2648.1000      7.8577      2.0638     14.0252      2.6159      0.0992    102.0218
  2648.2000      7.8577      3.2641     14.2634      2.5961      0.0799     95.2786
  2648.3000      7.8562      4.2738     14.2748      2.5795      0.0323     93.4268
  2648.4000      7.8562      4.2883     14.1930      2.5792      0.0708     91.9934
  2648.5000      7.8561      4.1122     14.2576      2.5821      0.0617     87.7013
  2648.6000      7.8561      4.2449     14.1415      2.5800      0.0501     85.3190
  2648.7000      7.8561      4.4927     13.5278      2.5759      0.0807     86.2887
