~Version Information
VERS.                      2.0: CWLS Log ASCII Standard - VERSION 2.0
WRAP.                       NO: One line per depth step
~Well Information Block
STRT.FT               -12.0000: 
STOP.FT              1266.5000: 
STEP.FT                 0.2500: 
NULL.                -999.2500: 
COMP.          Pioneer Natural Resources: COMPANY
WELL.          Hot Tomatoes 22-20: WELL
FLD.           Purgatorie River: FIELD
LOC.           2120' FNL & 2585' FWL: LOCATION
CNTY.               Las Animas: COUNTY
SRVC.                Patterson: SERVICE COMPANY
DATE.          Thu Mar 02 13:59:39 2006: LOG DATE
UWI.           05 071 08701 00: UNIQUE WELL ID
STAT.                       CO: STATE
~Curve Information Block
DEPT.FT            0 000 00 00: Depth
GR.GAPI                       : Gamma Ray
CCL.                          : Casing Collar Locator
TT3.usec                      : CBL 3' Travel Time
AMP3.mV                       : CBL 3' Amplitude
~Parameter Information Block
~A  Depth        GR         CCL         TT3         AMP3    
# ...
   390.0000    136.7697      0.0000    740.7090      9.4481
   390.2500    134.7418      0.0000    737.4122      9.5821
   390.5000    132.2388      0.0000    731.0252      9.6765
   390.7500    130.1576      0.0000    723.0728      9.7973
   391.0000    128.6484      0.0000    715.7242      9.9423
   391.2500    127.0489      0.0000    710.4679     10.0309
   391.5000    124.5735      0.0000    707.5817      9.9650
   391.7500    120.9450      0.0000    706.7128      9.7075
   392.0000    116.6563      0.0000    707.6042      9.3135
   392.2500    112.8365      0.0000    710.0242      8.8940
   392.5000    110.6306      0.0000    713.1021      8.5442
   392.7500    110.5300      0.0000    715.1737      8.3006
   393.0000    112.3106      0.0000    714.9179      8.1573
   393.2500    115.4674      0.0000    713.0042      8.1074
   393.5000    119.4301      0.0000    712.2709      8.1559
   393.7500    123.3817      0.0000    715.4289      8.3017
   394.0000    126.2878      0.0000    722.2707      8.5219
   394.2500    127.4905      0.0000    729.5273      8.7719
   394.5000    127.2733      0.0000    733.6569      8.9955
   394.7500    126.5196      0.0000    733.6675      9.1470
   395.0000    125.7909      0.0000    731.5900      9.2218
   395.2500    125.0314      0.0000    730.5809      9.2590
   395.5000    124.1046      0.0000    732.1995      9.3069
   395.7500    123.1132      0.0000    735.0772      9.3846
   396.0000    122.1236      0.0000    735.8669      9.4796
   396.2500    120.9183      0.0000    731.1024      9.5642
   396.5000    119.1733      0.0000    718.6617      9.5872
   396.7500    116.8028      0.0000    698.8704      9.4662
   397.0000    114.0731      0.0000    675.0687      9.1455
   397.2500    111.2914      0.0000    653.2787      8.6871
   397.5000    108.3228      0.0000    640.9308      8.2619
   397.7500    104.6119      0.0000    643.9447      8.0187
   398.0000     99.9892      0.0000    662.3614      7.9839
   398.2500     95.4764      0.0000    689.0419      8.0860
   398.5000     92.9247     -2.0000    714.7280      8.2158
   398.7500     93.4620      0.0000    734.5262      8.2604
   399.0000     96.3248      0.0000    748.8394      8.1572
   399.2500     99.4663      0.0000    759.1442      7.9727
   399.5000    101.1667      0.0000    764.7288      7.8894
   399.7500    100.7922      0.0000    764.2498      8.0408
   400.0000     98.4048      0.0000    759.4162      8.3552
   400.2500     94.2468      0.0000    755.1651      8.6024
   400.5000     88.7643      0.0000    755.2646      8.6048
   400.7500     82.8888      0.0000    758.4732      8.3858
   401.0000     77.9482      0.0000    759.9832      8.1266
   401.2500     74.9904      0.0000    756.4377      8.0131
   401.5000     74.1505      0.0000    748.8169      8.1291
   401.7500     74.6747      0.0000    740.7747      8.4566
   402.0000     75.3859      0.0000    735.4857      8.9342
   402.2500     75.1933      0.0000    734.5378      9.4988
   402.5000     73.5520      0.0000    738.0486     10.0888
   402.7500     70.6941      0.0000    743.9976     10.6429
   403.0000     67.4646      0.0000    747.9288     11.1134
   403.2500     64.8909      0.0000    745.4517     11.4728
   403.5000     63.6742      0.0000    736.0980     11.6942
   403.7500     63.8531      0.0000    723.8914     11.7312
   404.0000     65.0331      0.0000    713.6632     11.5385
   404.2500     67.0662      0.0000    707.6156     11.1200
   404.5000     70.3366      0.0000    705.5151     10.5437
   404.7500     75.2186      0.0000    706.9774      9.8943
   405.0000     81.3576      0.0000    712.5807      9.2275
   405.2500     87.5882      0.0000    722.5745      8.5739
   405.5000     92.5533      0.0000    734.6511      7.9619
   405.7500     95.3832      0.0000    743.7532      7.4118
   406.0000     95.8042      0.0000    745.2473      6.9176
   406.2500     93.8475      0.0000    738.5907      6.4520
   406.5000     89.8268      0.0000    727.4937      5.9962
   406.7500     84.6346      0.0000    716.7152      5.5565
   407.0000     79.5599      0.0000    709.0579      5.1515
   407.2500     75.3643      0.0000    704.8268      4.7904
   407.5000     71.6291      0.0000    702.9966      4.4695
   407.7500     67.3253      0.0000    702.4013      4.1819
   408.0000     62.0707      0.0000    702.2401      3.9227
   408.2500     56.6997      0.0000    702.1597      3.6905
   408.5000     52.5875      0.0000    702.2692      3.4924
   408.7500     50.6286      0.0000    703.2093      3.3446
   409.0000     50.9950      0.0000    706.0544      3.2624
   409.2500     53.6171      0.0000    711.7670      3.2500
   409.5000     58.5512      0.0000    720.2679      3.3010
   409.7500     65.8492      0.0000    729.9362      3.4035
   410.0000     75.2669      0.0000    738.3185      3.5475
   410.2500     86.1376      0.0000    743.5450      3.7331
   410.5000     97.3707      0.0000    745.0424      3.9716
   410.7500    107.5666      0.0000    743.0709      4.2765
   411.0000    115.5075      0.0000    738.1186      4.6504
   411.2500    120.8589      0.0000    731.1126      5.0765
   411.5000    124.2649      0.0000    723.9786      5.5204
   411.7500    126.6026      0.0000    719.3433      5.9394
   412.0000    128.2527      0.0000    719.1729      6.2913
   412.2500    129.1731      0.0000    723.4793      6.5375
   412.5000    129.4718      0.0000    730.2853      6.6474
   412.7500    129.6709      0.0000    736.9460      6.6114
   413.0000    130.2437      0.0000    741.7238      6.4561
   413.2500    130.7961      0.0000    744.3243      6.2428
   413.5000    129.9177      0.0000    745.2098      6.0418
   413.7500    126.4155      0.0000    744.6515      5.8969
   414.0000    120.8465      0.0000    742.4243      5.8049
   414.2500    115.2298      0.0000    738.3514      5.7271
   414.5000    110.9779      0.0000    733.1514      5.6193
   414.7500    107.6698      0.0000    728.5764      5.4629
   415.0000    104.1747      0.0000    726.3628      5.2772
   415.2500    100.5157      0.0000    726.9070      5.1058
   415.5000     98.2589      0.0000    729.0177      4.9870
   415.7500     99.2097      0.0000    730.7815      4.9442
   416.0000    103.8538      0.0000    730.6298      5.0062
   416.2500    111.0894      0.0000    727.9545      5.2130
   416.5000    119.2969      0.0000    723.1519      5.5762
   416.7500    127.2091      0.0000    717.3457      6.0376
   417.0000    133.7290      0.0000    712.0132      6.4896
   417.2500    137.7295      0.0000    708.4650      6.8411
   417.5000    138.6233      0.0000    707.3917      7.0645
   417.7500    136.8673      0.0000    708.7608      7.1876
   418.0000    133.5794      0.0000    711.8192      7.2535
   418.2500    129.8280      0.0000    715.0607      7.2848
   418.5000    126.5323      0.0000    716.7165      7.2800
   418.7500    124.7352      0.0000    715.9308      7.2346
   419.0000    125.2525      0.0000    713.4708      7.1564
   419.2500    127.8244      0.0000    711.1074      7.0604
   419.5000    131.0702      0.0000    710.5765      6.9553
   419.7500    133.6823      0.0000    713.1730      6.8459
   420.0000    135.4747      0.0000    719.4929      6.7457
   420.2500    136.8995      0.0000    728.4904      6.6739
   420.5000    137.8242      0.0000    736.8116      6.6321
   420.7500    137.5401      0.0000    740.3105      6.5873
   421.0000    135.9712      0.0000    737.3483      6.4851
   421.2500    133.9267      0.0000    730.3946      6.2810
   421.5000    131.6860      0.0000    723.6686      5.9604
   421.7500    128.0795      0.0000    719.2990      5.5349
   422.0000    121.7533      0.0000    716.3046      5.0302
   422.2500    112.9322      0.0000    712.9514      4.4847
   422.5000    103.1739      0.0000    709.1176      3.9511
   422.7500     93.7524      0.0000    706.2203      3.4787
   423.0000     85.2052      0.0000    705.8057      3.0841
   423.2500     78.3051      0.0000    708.7012      2.7445
