~Version Information
VERS.                      2.0: CWLS Log ASCII Standard - VERSION 2.0
WRAP.                       NO: One line per depth step
~Well Information Block
STRT.FT               545.0000: 
STOP.FT              1452.5000: 
STEP.FT                 0.1000: 
NULL.                -999.2500: 
COMP.          Pioneer Natural Resources: COMPANY
WELL.          Parklane 43-34 Tr: WELL
FLD.           Purgatoire River: FIELD
LOC.           1643' FSL & 966' FEL: LOCATION
PROV.                 Colorado: PROVINCE
CNTY.               Las Animas: COUNTRY
SRVC.                Patterson: SERVICE COMPANY
DATE.          Fri Jul 29 07:27:28 2005: LOG DATE
UWI.           05 071 08452 00: UNIQUE WELL ID
~Curve Information Block
DEPT.FT            0 000 00 00: Depth
DCAL.in                       : CDL Caliper
RHOB.g/cc                     : CDL Bulk Density
RHOC.g/cc                     : CDL Density Correction
DPOR.pu                       : CDL Density Porosity
GR.GAPI                       : Gamma Ray
NPOR.pu                       : Neutron Porosity
~Parameter Information Block
~A  Depth       DCAL        RHOB        RHOC        DPOR         GR         NPOR    
# ...
  1322.6000      7.8838      2.6121      0.0576      2.2997    117.5945     20.6604
  1322.7000      7.8838      2.6157      0.0420      2.0810    119.1954     20.3384
  1322.8000      7.9176      2.6250      0.0780      1.5148    116.1684     19.7896
  1322.9000      7.9176      2.6265      0.1198      1.4226    110.9864     19.2876
  1323.0000      7.8789      2.6122      0.0886      2.2916    104.4968     18.9599
  1323.1000      7.8789      2.5884      0.0460      3.7331     97.5850     18.5932
  1323.2000      7.8789      2.5745      0.0308      4.5775     93.5765     18.4295
  1323.3000      7.8680      2.5768      0.0356      4.4354     96.8488     18.5234
  1323.4000      7.8680      2.5759      0.0887      4.4888    106.5797     18.5014
  1323.5000      7.9063      2.5602      0.0545      5.4415    116.2712     18.3375
  1323.6000      7.9063      2.5483      0.0847      6.1649    122.6751     18.4726
  1323.7000      7.9063      2.5495      0.0890      6.0886    127.5187     19.1226
  1323.8000      7.9460      2.5497      0.0963      6.0776    130.6322     20.1197
  1323.9000      7.9460      2.5404      0.0597      6.6441    130.6679     21.0907
  1324.0000      7.9421      2.5334      0.0102      7.0640    128.9939     21.6965
  1324.1000      7.9421      2.5412      0.0147      6.5960    128.1008     21.8692
  1324.2000      7.9421      2.5560      0.0597      5.6982    130.8730     21.8550
  1324.3000      7.9358      2.5699      0.0315      4.8524    135.7399     21.7736
  1324.4000      7.9358      2.5901      0.0698      3.6291    137.4187     21.6804
  1324.5000      7.9433      2.6093      0.1436      2.4676    138.8514     21.7053
  1324.6000      7.9433      2.6104      0.1029      2.3992    142.5535     21.6290
  1324.7000      7.9433      2.6053      0.0330      2.7081    143.4178     21.4040
  1324.8000      7.9599      2.6097      0.1174      2.4433    139.5462     21.2644
  1324.9000      7.9599      2.6095      0.1205      2.4574    131.4404     21.2401
  1325.0000      7.9529      2.5981      0.0473      3.1473    121.3063     21.2968
  1325.1000      7.9529      2.5872      0.0604      3.8048    117.2025     21.3278
  1325.2000      7.9529      2.5754      0.0566      4.5233    120.9770     21.1883
  1325.3000      7.9504      2.5605      0.0267      5.4272    122.1413     20.7754
  1325.4000      7.9504      2.5533     -0.0034      5.8633    114.1097     20.1631
  1325.5000      7.9593      2.5512      0.0200      5.9866    103.9465     19.6156
  1325.6000      7.9593      2.5359      0.0442      6.9135     98.6013     19.1245
  1325.7000      7.9593      2.5114     -0.0366      8.4012     96.0282     18.6176
  1325.8000      7.9662      2.4967      0.0291      9.2934     92.5025     18.2338
  1325.9000      7.9662      2.4912     -0.0112      9.6214     86.8443     17.8673
  1326.0000      7.9461      2.4934      0.0150      9.4938     81.0700     17.6313
  1326.1000      7.9461      2.5076      0.0171      8.6313     79.5159     17.8453
  1326.2000      7.9461      2.5287      0.0525      7.3534     80.8572     18.2664
  1326.3000      7.9567      2.5440      0.0461      6.4227     81.2848     18.4263
  1326.4000      7.9567      2.5411      0.0611      6.5980     80.2968     18.3784
  1326.5000      7.9645      2.5156      0.0412      8.1475     78.1097     18.3705
  1326.6000      7.9645      2.4884     -0.0021      9.7919     76.2629     18.1869
  1326.7000      7.9645      2.4873      0.0486      9.8577     75.6166     17.7187
  1326.8000      7.9526      2.5113      0.0489      8.4064     75.3261     17.3244
  1326.9000      7.9526      2.5400      0.0909      6.6681     76.8878     17.2157
  1327.0000      7.9283      2.5578      0.1196      5.5882     79.5517     17.4494
  1327.1000      7.9283      2.5684      0.0879      4.9483     79.5163     17.8242
  1327.2000      7.9283      2.5834      0.0935      4.0390     76.5244     18.0613
  1327.3000      7.9005      2.5965      0.1228      3.2429     72.5617     18.2762
  1327.4000      7.9005      2.5947      0.1231      3.3511     68.9767     18.3961
  1327.5000      7.9101      2.5794      0.1117      4.2814     67.3429     18.1040
  1327.6000      7.9101      2.5615      0.0810      5.3623     69.6965     17.6049
  1327.7000      7.9101      2.5572      0.0391      5.6262     74.9356     17.3821
  1327.8000      7.9300      2.5714      0.0384      4.7610     80.6069     17.3121
  1327.9000      7.9300      2.5865      0.0416      3.8479     83.9491     17.0788
  1328.0000      7.9342      2.5836      0.0409      4.0269     82.8543     16.7117
  1328.1000      7.9342      2.5578      0.0719      5.5872     80.4652     16.3998
  1328.2000      7.9342      2.5208     -0.0008      7.8302     79.2396     16.1026
  1328.3000      7.9406      2.4954      0.0295      9.3703     77.8130   -116.1353
  1328.4000      7.9406      2.4910      0.0119      9.6349     75.4851   -135.0236
  1328.5000      7.9437      2.5061      0.0121      8.7202     73.0193   -159.7331
  1328.6000      7.9437      2.5403     -0.0044      6.6482     71.3790   -183.7542
  1328.7000      7.9437      2.5803      0.0333      4.2246     69.4593   -202.1284
  1328.8000      7.9545      2.6034      0.0190      2.8254     67.7790   -209.2741
  1328.9000      7.9545      2.6028      0.0781      2.8600     69.0429   -189.2333
  1329.0000      7.9612      2.5877      0.0300      3.7758     70.6784   -141.0847
  1329.1000      7.9612      2.5774      0.0319      4.3975     68.5376    -92.2223
  1329.2000      7.9612      2.5851      0.0297      3.9361     66.7176    -55.8611
  1329.3000      7.9555      2.5999      0.0546      3.0361     69.0680    -26.4275
  1329.4000      7.9555      2.5981      0.0476      3.1460     72.4368     -6.9501
  1329.5000      7.9475      2.5730     -0.0254      4.6685     73.1994      0.4623
  1329.6000      7.9475      2.5473     -0.0230      6.2271     71.0445      3.3378
  1329.7000      7.9475      2.5404     -0.0093      6.6409     69.1920      5.2161
  1329.8000      7.9687      2.5506     -0.0018      6.0239     70.8496      7.4586
  1329.9000      7.9687      2.5645      0.0626      5.1835     75.7299     10.3973
  1330.0000      7.9695      2.5676      0.0461      4.9910     83.4239     13.0016
  1330.1000      7.9695      2.5578      0.0574      5.5889     94.2051     15.0114
  1330.2000      7.9695      2.5499     -0.0163      6.0644    106.9381     17.0054
  1330.3000      7.9558      2.5570     -0.0093      5.6360    117.0649     18.8591
  1330.4000      7.9558      2.5656      0.0423      5.1127    119.2195     20.1370
  1330.5000      7.9769      2.5570      0.0303      5.6364    116.2579     20.5987
  1330.6000      7.9769      2.5409     -0.0114      6.6094    117.7901     20.3750
  1330.7000      7.9769      2.5369      0.0456      6.8548    129.4547     20.2425
  1330.8000      8.0034      2.5457     -0.0084      6.3191    148.8112     20.7790
  1330.9000      8.0034      2.5509      0.0508      6.0060    165.3328     21.7275
  1331.0000      8.0122      2.5373      0.0313      6.8331    169.2603     22.6927
  1331.1000      8.0122      2.5197     -0.0180      7.8950    161.8324     23.4866
  1331.2000      8.0122      2.5211     -0.0195      7.8148    150.0629     23.7961
  1331.3000      8.0353      2.5322      0.0455      7.1368    141.2244     24.0617
  1331.4000      8.0353      2.5308      0.0539      7.2214    142.2453     25.1739
  1331.5000      8.0022      2.5174     -0.0055      8.0372    151.8138     25.9360
  1331.6000      8.0022      2.5093      0.0117      8.5292    159.7777     24.9435
  1331.7000      8.0022      2.5128      0.0177      8.3163    159.6823     23.3097
  1331.8000      7.9884      2.5190      0.0719      7.9376    154.9012     22.4472
  1331.9000      7.9884      2.5209      0.0422      7.8252    151.9092     22.3008
  1332.0000      7.9809      2.5238      0.0533      7.6465    150.5435     22.4221
  1332.1000      7.9809      2.5387      0.0067      6.7448    146.2760     22.6135
