~Version Information
VERS.                      2.0: CWLS Log ASCII Standard - VERSION 2.0
WRAP.                       NO: One line per depth step
~Well Information Block
STRT.FT               491.0000: 
STOP.FT              1911.5000: 
STEP.FT                 0.2500: 
NULL.                -999.2500: 
COMP.          Pioneer Natural Resources: COMPANY
WELL.            Corazon 13-10: WELL
FLD.           Purgatoire River: FIELD
LOC.           2510' FSL & 439' FWL: LOCATION
PROV.                 Colorado: PROVINCE
CNTY.               Las Animas: COUNTRY
SRVC.                Patterson: SERVICE COMPANY
DATE.          Wed Nov 30 22:14:48 2005: LOG DATE
UWI.           05 071 08613 00: UNIQUE WELL ID
~Curve Information Block
DEPT.FT            0 000 00 00: Depth
SN.Ohm-m                      : IEL Short Normal
SP.mV                         : IEL Spontaneous Potential
DIR.Ohm-m                     : IEL Induction Resistivity
GR.GAPI                       : Gamma Ray
~Parameter Information Block
~A  Depth        SN          SP         DIR          GR     
# ...
  1496.0000     16.8753     54.5686     15.8636     56.9708
  1496.2500     17.1815     54.6222     16.1331     56.5408
  1496.5000     17.5184     54.7026     16.4608     56.0483
  1496.7500     17.8778     54.8113     16.8327     55.8461
  1497.0000     18.2975     54.9328     17.2384     55.6613
  1497.2500     18.8223     55.0406     17.6806     55.3833
  1497.5000     19.4094     55.1107     18.1751     54.0553
  1497.7500     20.0066     55.1362     18.7383     52.1948
  1498.0000     20.6453     55.1306     19.3717     47.9448
  1498.2500     21.4038     55.1194     20.0509     44.6694
  1498.5000     22.3325     55.1260     20.7278     40.3487
  1498.7500     23.4091     55.1627     21.3485     38.2640
  1499.0000     24.5590     55.2319     21.8711     36.0824
  1499.2500     25.7084     55.3334     22.2616     34.8926
  1499.5000     26.8045     55.4684     22.4700     33.3201
  1499.7500     27.8177     55.6415     22.4198     32.6537
  1500.0000     28.7142     55.8598     22.0394     32.6849
  1500.2500     29.3824     56.1345     21.3194     33.3861
  1500.5000     29.5850     56.4796     20.3352     35.1073
  1500.7500     29.0500     56.9091     19.2076     36.6307
  1501.0000     27.6638     57.4323     18.0422     39.9698
  1501.2500     25.5060     58.0489     16.8989     43.4534
  1501.5000     22.7695     58.7472     15.8008     51.4932
  1501.7500     19.8481     59.5004     14.7589     58.8586
  1502.0000     17.3121     60.2658     13.7837     71.7462
  1502.2500     15.4891     60.9881     12.8830     80.1791
  1502.5000     14.2428     61.6159     12.0554     90.3756
  1502.7500     13.2897     62.1229     11.2924     95.0790
  1503.0000     12.4804     62.5183     10.5882     99.7432
  1503.2500     11.7929     62.8369      9.9446    102.0591
  1503.5000     11.2535     63.1153      9.3688    105.3629
  1503.7500     10.8605     63.3739      8.8683    107.6468
  1504.0000     10.5832     63.6129      8.4463    110.9267
  1504.2500     10.4320     63.8231      8.1012    112.7265
  1504.5000     10.3817     63.9983      7.8265    114.7897
  1504.7500     10.2551     64.1422      7.6123    116.1741
  1505.0000      9.9008     64.2669      7.4472    119.1849
  1505.2500      9.3989     64.3872      7.3200    121.8468
  1505.5000      8.9139     64.5135      7.2214    125.8015
  1505.7500      8.5264     64.6471      7.1445    127.7266
  1506.0000      8.2662     64.7813      7.0848    129.0301
  1506.2500      8.1401     64.9092      7.0396    128.8203
  1506.5000      8.1113     65.0308      7.0078    126.9739
  1506.7500      8.1086     65.1522      6.9899    125.0040
  1507.0000      8.0601     65.2795      6.9877    122.0384
  1507.2500      7.9556     65.4162      7.0045    120.7400
  1507.5000      7.8736     65.5671      7.0444    120.3014
  1507.7500      7.9093     65.7398      7.1112    120.7898
  1508.0000      8.0839     65.9395      7.2072    121.7443
  1508.2500      8.3622     66.1644      7.3323    121.9840
  1508.5000      8.7123     66.4084      7.4843    121.4727
  1508.7500      9.0802     66.6652      7.6600    120.8366
  1509.0000      9.3801     66.9264      7.8554    120.2783
  1509.2500      9.5682     67.1833      8.0668    120.6324
  1509.5000      9.6982     67.4339      8.2900    122.5544
  1509.7500      9.8792     67.6852      8.5204    124.3083
  1510.0000     10.1608     67.9437      8.7533    125.6538
  1510.2500     10.5006     68.2099      8.9839    124.3706
  1510.5000     10.8254     68.4839      9.2083    118.2019
  1510.7500     11.0545     68.7713      9.4251    111.9364
  1511.0000     11.1534     69.0813      9.6354    102.0255
  1511.2500     11.1948     69.4233      9.8412     96.7527
  1511.5000     11.2823     69.8045     10.0410     92.6795
  1511.7500     11.5098     70.2274     10.2276     92.7393
  1512.0000     11.9735     70.6834     10.3904     95.8624
  1512.2500     12.6470     71.1495     10.5236     98.7015
  1512.5000     13.3376     71.5940     10.6331    102.1925
  1512.7500     13.8484     71.9893     10.7358    103.6777
  1513.0000     14.0820     72.3231     10.8505    105.1389
  1513.2500     14.0591     72.5980     10.9861    105.8493
  1513.5000     13.8847     72.8241     11.1369    106.2726
  1513.7500     13.6474     73.0118     11.2893    105.8283
  1514.0000     13.4039     73.1677     11.4338    103.8670
  1514.2500     13.2757     73.2921     11.5702    101.7903
  1514.5000     13.4021     73.3817     11.7029     97.8871
  1514.7500     13.7748     73.4348     11.8361     95.0389
  1515.0000     14.2744     73.4538     11.9746     90.9186
  1515.2500     14.7936     73.4441     12.1318     88.5006
  1515.5000     15.2473     73.4096     12.3317     85.4436
  1515.7500     15.6010     73.3484     12.5996     83.6862
  1516.0000     15.9280     73.2529     12.9471     81.4484
  1516.2500     16.3314     73.1159     13.3637     80.4727
  1516.5000     16.8051     72.9392     13.8236     80.2807
  1516.7500     17.2837     72.7365     14.3018     80.8702
  1517.0000     17.7999     72.5273     14.7884     81.6833
  1517.2500     18.4318     72.3300     15.2876     81.4979
  1517.5000     19.1220     72.1570     15.8052     80.1640
  1517.7500     19.7208     72.0117     16.3356     79.3355
  1518.0000     20.1913     71.8854     16.8613     79.4950
  1518.2500     20.6220     71.7587     17.3625     80.6081
  1518.5000     21.0789     71.6133     17.8275     82.6831
  1518.7500     21.5730     71.4440     18.2516     83.4926
  1519.0000     22.1234     71.2586     18.6313     82.9677
  1519.2500     22.7687     71.0692     18.9626     81.4944
  1519.5000     23.5220     70.8879     19.2475     78.4378
  1519.7500     24.3338     70.7265     19.5048     76.4323
  1520.0000     25.1522     70.5929     19.7725     74.0494
  1520.2500     25.9883     70.4878     20.0991     72.9232
  1520.5000     26.8232     70.4042     20.5266     71.8717
  1520.7500     27.5800     70.3288     21.0735     71.5585
  1521.0000     28.2412     70.2455     21.7274     71.3854
  1521.2500     28.8474     70.1467     22.4524     71.1325
  1521.5000     29.4242     70.0424     23.2058     70.0257
  1521.7500     29.9957     69.9538     23.9505     68.7766
  1522.0000     30.5994     69.8926     24.6503     66.6062
  1522.2500     31.2508     69.8539     25.2552     65.2355
  1522.5000     31.9955     69.8274     25.7056     63.1832
  1522.7500     32.9991     69.8095     25.9687     61.5077
  1523.0000     34.3842     69.8007     26.0772     58.4021
  1523.2500     35.9522     69.8013     26.1212     56.3276
  1523.5000     37.2370     69.8163     26.1879     54.1497
  1523.7500     37.8886     69.8617     26.3048     53.5765
  1524.0000     37.9225     69.9582     26.4376     53.8146
  1524.2500     37.5714     70.1164     26.5368     54.4947
  1524.5000     36.9605     70.3279     26.5867     56.3524
  1524.7500     36.0222     70.5689     26.6114     58.4310
  1525.0000     34.7392     70.8093     26.6428     63.2324
  1525.2500     33.2754     71.0188     26.6856     67.4751
  1525.5000     31.8258     71.1716     26.7030     74.6231
  1525.7500     30.5184     71.2517     26.6310     79.2531
  1526.0000     29.4094     71.2557     26.4135     84.9492
  1526.2500     28.4697     71.1908     26.0374     87.5451
  1526.5000     27.6426     71.0718     25.5447     89.6875
  1526.7500     26.8788     70.9156     25.0150     97.8752
  1527.0000     26.1131     70.7363     24.5322     98.5730
  1527.2500     25.3260     70.5456     24.1550     99.0046
  1527.5000     24.6148     70.3554     23.9001     99.2631
  1527.7500     24.1170     70.1771     23.7431    106.4348
  1528.0000     23.8529     70.0146     23.6366    104.5330
  1528.2500     23.6971     69.8633     23.5364    102.6761
  1528.5000     23.5608     69.7191     23.4185     99.8413
  1528.7500     23.5191     69.5903     23.2819     98.5144
  1529.0000     23.6752     69.4944     23.1412     98.0048
  1529.2500     23.9858     69.4447     23.0185     98.5206
