~Version Information
VERS.                      2.0: CWLS Log ASCII Standard - VERSION 2.0
WRAP.                       NO: One line per depth step
~Well Information Block
STRT.FT                -6.7500: 
STOP.FT              1466.2500: 
STEP.FT                 0.2500: 
NULL.                -999.2500: 
COMP.          Pioneer Natural Resources: COMPANY
WELL.          Pallet Ranch 34-15 Tr: WELL
FLD.           Purgatorie River: FIELD
LOC.           465' FSL & 2138' FEL--: LOCATION
PROV.                       CO: PROVINCE
CNTY.               Las Animas: COUNTRY
SRVC.          Patterson Wireline: SERVICE COMPANY
DATE.          Wed Jan 25 09:38:09 2006: LOG DATE
UWI.           05 071 08657 00: UNIQUE WELL ID
~Curve Information Block
DEPT.FT            0 000 00 00: Depth
CCL.                          : Casing Collar Locator
TT3.usec                      : CBL 3' Travel Time
AMP3.mV                       : CBL 3' Amplitude
GR.GAPI                       : Gamma Ray
~Parameter Information Block
~A  Depth       CCL         TT3         AMP3         GR     
# ...
   864.2500      0.0000    742.0042      7.8126    111.9075
   864.5000      0.0000    741.3877      7.8201    109.9303
   864.7500      0.0000    740.1562      7.8397    107.9636
   865.0000      0.0000    737.1087      7.8677    107.8668
   865.2500      0.0000    732.9381      7.8903    110.5691
   865.5000      0.0000    728.4237      7.8918    114.9760
   865.7500      0.0000    722.4589      7.8654    118.7289
   866.0000      0.0000    713.4255      7.8172    120.4143
   866.2500      0.0000    702.1271      7.7548    120.8693
   866.5000      0.0000    691.9182      7.6755    122.0303
   866.7500      0.0000    686.2009      7.5698    124.7141
   867.0000      0.0000    686.6992      7.4392    127.9515
   867.2500      0.0000    693.4298      7.3022    130.1686
   867.5000      0.0000    704.6397      7.1808    130.4295
   867.7500      0.0000    716.5460      7.0832    128.6378
   868.0000      0.0000    724.4335      7.0007    125.2132
   868.2500      0.0000    725.1256      6.9230    120.9725
   868.5000      0.0000    718.6813      6.8581    117.2250
   868.7500      0.0000    708.0568      6.8335    115.6467
   869.0000      0.0000    697.4591      6.8709    117.5975
   869.2500      0.0000    690.5419      6.9539    123.0396
   869.5000      0.0000    688.9462      7.0243    129.9525
   869.7500      0.0000    691.7003      7.0182    135.2290
   870.0000      0.0000    696.0585      6.9145    136.7152
   870.2500      0.0000    699.4894      6.7497    134.5745
   870.5000      0.0000    701.2540      6.5875    130.7662
   870.7500      0.0000    702.0105      6.4810    127.4360
   871.0000      0.0000    701.6207      6.4575    125.7671
   871.2500      0.0000    696.9766      6.5269    125.7827
   871.5000      0.0000    682.3059      6.6905    126.7313
   871.7500      0.0000    654.0874      6.9349    127.5706
   872.0000      0.0000    618.3035      7.2181    127.2668
   872.2500      0.0000    591.2806      7.4687    125.0361
   872.5000      0.0000    588.3525      7.6140    120.8643
   872.7500      0.0000    610.0453      7.6203    115.8960
   873.0000      0.0000    642.0186      7.5086    112.0422
   873.2500      0.0000    668.5731      7.3341    111.0085
   873.5000      0.0000    683.4772      7.1540    113.4609
   873.7500      0.0000    688.9636      7.0062    118.7787
   874.0000      0.0000    689.2255      6.9049    125.5044
   874.2500      0.0000    686.9637      6.8466    131.9942
   874.5000      0.0000    683.7222      6.8201    136.7818
   874.7500      0.0000    680.6479      6.8100    138.8076
   875.0000      0.0000    678.4113      6.7959    137.6319
   875.2500      0.0000    677.0845      6.7575    133.2996
   875.5000      0.0000    676.4048      6.6891    126.2276
   875.7500      0.0000    676.1038      6.6103    117.7227
   876.0000      0.0000    676.0201      6.5563    110.2840
   876.2500      0.0000    676.0867      6.5542    106.6080
   876.5000      0.0000    676.2755      6.6059    107.9987
   876.7500      0.0000    676.5353      6.6916    113.5560
   877.0000      0.0000    676.7719      6.7865    120.6431
   877.2500      0.0000    676.9264      6.8731    126.3742
   877.5000      0.0000    677.1663      6.9452    129.2679
   877.7500      0.0000    678.1103      7.0040    129.8840
   878.0000      0.0000    680.8405      7.0511    129.9365
   878.2500      0.0000    686.2961      7.0840    130.6382
   878.5000      0.0000    693.9796      7.0984    131.8189
   878.7500      0.0000    700.7380      7.0956    132.5646
   879.0000      0.0000    701.2198      7.0825    132.2678
   879.2500      0.0000    691.0574      7.0649    130.7020
   879.5000      0.0000    671.2076      7.0411    127.6416
   879.7500      0.0000    649.1829      7.0021    123.0856
   880.0000      0.0000    634.5936      6.9388    117.5184
   880.2500      0.0000    632.4935      6.8538    111.4737
   880.5000      0.0000    640.7705      6.7687    105.1872
   880.7500      0.0000    653.2456      6.7135     98.9643
   881.0000      0.0000    664.5792      6.7029     93.4882
   881.2500      0.0000    672.8130      6.7262     89.6168
   881.5000      0.0000    678.6663      6.7611     88.2813
   881.7500      0.0000    683.3377      6.7945     90.5339
   882.0000      0.0000    686.9254      6.8273     96.9120
   882.2500      0.0000    688.5399      6.8637    106.3938
   882.5000      0.0000    687.5944      6.8978    116.4593
   882.7500      0.0000    684.6085      6.9123    124.6093
   883.0000      0.0000    680.6243      6.8898    129.6425
   883.2500      0.0000    676.2501      6.8255    131.4219
   883.5000      0.0000    671.7430      6.7274    130.0657
   883.7500      0.0000    667.8331      6.6092    126.1304
   884.0000      0.0000    665.7700      6.4868    121.3990
   884.2500      0.0000    666.2103      6.3809    118.3768
   884.5000      0.0000    668.4238      6.3133    118.2333
   884.7500      0.0000    670.9482      6.2979    119.6427
   885.0000      0.0000    672.7865      6.3317    120.3804
   885.2500      0.0000    673.7960      6.3956    119.8415
   885.5000      0.0000    674.2879      6.4630    119.3347
   885.7500      0.0000    674.6066      6.5087    120.0405
   886.0000      0.0000    674.9695      6.5138    121.5011
   886.2500      0.0000    675.4485      6.4673    122.3253
   886.5000      0.0000    676.0049      6.3695    121.7726
   886.7500      0.0000    676.5918      6.2341    120.2641
   887.0000      0.0000    677.2714      6.0875    118.5602
   887.2500      0.0000    678.3122      5.9615    116.7057
   887.5000      0.0000    680.1201      5.8823    113.8660
   887.7500      0.0000    682.8500      5.8588    109.2693
   888.0000      0.0000    686.0014      5.8786    103.2902
   888.2500      0.0000    688.6243      5.9151     97.5446
   888.5000      0.0000    690.0433      5.9409     93.9125
   888.7500      0.0000    690.1541      5.9379     93.4009
   889.0000      0.0000    689.1595      5.8980     95.6978
   889.2500      0.0000    687.6962      5.8218     99.6997
   889.5000      0.0000    687.2191      5.7220    104.4921
   889.7500      0.0000    689.3428      5.6279    109.5223
   890.0000      0.0000    694.1948      5.5778    113.6613
   890.2500      0.0000    699.6781      5.5963    114.7949
   890.5000      0.0000    702.9616      5.6772    111.2499
   890.7500      0.0000    703.0219      5.7894    103.6929
   891.0000      0.0000    701.4921      5.8998     95.2595
   891.2500      0.0000    700.7717      5.9925     89.7562
   891.5000      0.0000    701.6521      6.0701     89.6306
   891.7500      0.0000    703.1405      6.1374     94.9592
   892.0000      0.0000    703.9786      6.1890    103.6436
   892.2500      0.0000    703.6209      6.2169    112.6987
   892.5000      0.0000    702.2778      6.2291    120.0597
   892.7500      0.0000    700.5366      6.2512    125.5779
   893.0000      0.0000    698.0433      6.3035    130.3197
   893.2500      0.0000    691.6031      6.3847    135.1116
   893.5000      0.0000    675.0474      6.4810    139.8701
   893.7500      0.0000    642.3552      6.5857    143.8221
   894.0000      0.0000    592.5019      6.7063    145.9876
   894.2500      0.0000    532.4048      6.8511    145.6429
   894.5000      0.0000    474.5697      7.0153    142.4786
   894.7500      0.0000    430.1001      7.1795    136.6358
   895.0000      0.0000    402.8669      7.3190    129.3393
   895.2500      0.0000    389.6888      7.4151    123.3163
   895.5000      0.0000    384.8012      7.4645    121.3477
   895.7500      0.0000    383.6181      7.4861    123.8950
   896.0000      0.0000    383.6547      7.5159    128.7049
   896.2500      0.0000    383.8470      7.5861    132.9017
   896.5000      0.0000    383.8139      7.7017    135.0387
   896.7500      0.0000    383.4621      7.8377    135.2343
   897.0000      0.0000    382.9284      7.9587    134.0633
   897.2500      0.0000    383.0468      8.0364    131.8977
   897.5000      0.0000    386.3781      8.0482    129.2334
