~Version Information
VERS.                      2.0: CWLS Log ASCII Standard - VERSION 2.0
WRAP.                       NO: One line per depth step
~Well Information Block
STRT.FT                -4.0000: 
STOP.FT               675.2500: 
STEP.FT                 0.2500: 
NULL.                -999.2500: 
COMP.          Pioneer Natural Resources: COMPANY
WELL.          Razor Clam 23-27: WELL
FLD.           Purgatoire River: FIELD
LOC.           2499' FSL & 2636' FWL: LOCATION
CNTY.               Las Animas: COUNTY
SRVC.                         : SERVICE COMPANY
DATE.          Thu Mar 09 13:15:19 2006: LOG DATE
UWI.           05 071 08667 00: UNIQUE WELL ID
STAT.                       CO: STATE
~Curve Information Block
DEPT.FT            0 000 00 00: Depth
GR.GAPI                       : Gamma Ray
CCL.                          : Casing Collar Locator
TT3.usec                      : CBL 3' Travel Time
AMP3.mV                       : CBL 3' Amplitude
~Parameter Information Block
~A  Depth        GR         CCL         TT3         AMP3    
# ...
   331.0000     66.1245      0.0000    425.6779     13.9940
   331.2500     64.7502      0.0000    426.3711     13.9650
   331.5000     63.7894      0.0000    429.7718     13.9565
   331.7500     62.4023      0.0000    434.4601     13.9722
   332.0000     61.0432      0.0000    438.4940     14.0113
   332.2500     60.8844      0.0000    441.0024     14.0639
   332.5000     62.6218      0.0000    442.1925     14.1099
   332.7500     66.0106      0.0000    442.5575     14.1226
   333.0000     70.1412      0.0000    442.4066     14.0819
   333.2500     73.9300      0.0000    441.9836     13.9930
   333.5000     76.6777      0.0000    442.0212     13.8889
   333.7500     78.3410      0.0000    444.2622     13.8102
   334.0000     79.1700      0.0000    451.6648     13.7654
   334.2500     79.1345      0.0000    468.2633     13.6888
   334.5000     77.9398      0.0000    497.3347     13.4427
   334.7500     75.5046      0.0000    536.5714     12.9257
   335.0000     72.1145      0.0000    575.3704     12.2344
   335.2500     68.1688      0.0000    602.1003     11.6700
   335.5000     64.0590      0.0000    614.8737     11.5104
   335.7500     60.2976      0.0000    619.5202     11.7703
   336.0000     57.6652      0.0000    617.4943     12.2061
   336.2500     57.1069     -2.0000    604.9336     12.5353
   336.5000     59.0471      0.0000    585.3120     12.6448
   336.7500     62.5177      0.0000    573.5891     12.6454
   337.0000     65.4630      0.0000    581.6674     12.7756
   337.2500     66.3548      0.0000    603.8401     13.2090
   337.5000     65.2966      0.0000    622.2139     13.8942
   337.7500     63.3848      0.0000    624.7303     14.6076
   338.0000     61.4187      0.0000    612.7627     15.1826
   338.2500     59.4921      0.0000    593.0274     15.6304
   338.5000     57.5206      0.0000    571.2330     16.0241
   338.7500     55.8052      0.0000    555.7790     16.3585
   339.0000     55.0231      0.0000    558.3315     16.5720
   339.2500     55.5267      0.0000    584.1931     16.6455
   339.5000     56.6563      0.0000    625.4169     16.6311
   339.7500     57.2027      0.0000    666.9487     16.5973
   340.0000     56.7282      0.0000    697.8365     16.5700
   340.2500     55.9040      0.0000    715.7177     16.5201
   340.5000     55.4062      0.0000    723.4949     16.4040
   340.7500     55.1242      0.0000    724.6559     16.2212
   341.0000     54.7619      0.0000    721.3619     16.0187
   341.2500     54.6199      0.0000    715.0701     15.8366
   341.5000     55.3559      0.0000    707.5520     15.6675
   341.7500     57.2460      0.0000    700.7960     15.4833
   342.0000     59.9834      0.0000    696.1279     15.2811
   342.2500     62.9722      0.0000    693.7264     15.0871
   342.5000     65.4678      0.0000    693.0681     14.9306
   342.7500     66.5973      0.0000    693.6689     14.8252
   343.0000     65.7713      0.0000    695.4109     14.7678
   343.2500     63.2379      0.0000    698.3006     14.7443
   343.5000     59.9924      0.0000    702.0186     14.7389
   343.7500     57.0165      0.0000    705.8694     14.7420
   344.0000     54.7619      0.0000    709.3223     14.7457
   344.2500     53.3005      0.0000    712.4684     14.7380
   344.5000     52.5328      0.0000    715.6772     14.7087
   344.7500     52.0156      0.0000    718.7627     14.6609
   345.0000     50.9187      0.0000    720.7547     14.6045
   345.2500     48.4917      0.0000    720.7449     14.5386
   345.5000     44.6095      0.0000    718.9600     14.4536
   345.7500     39.9200      0.0000    716.8156     14.3588
   346.0000     35.6951      0.0000    715.7998     14.2967
   346.2500     33.6096      0.0000    716.2399     14.3169
   346.5000     35.2784      0.0000    717.0471     14.4327
   346.7500     41.5704      0.0000    716.7333     14.6036
   347.0000     52.2309      0.0000    714.9110     14.7600
   347.2500     66.1100      0.0000    712.7046     14.8512
   347.5000     81.5290      0.0000    711.3427     14.8726
   347.7500     96.3955      0.0000    710.6445     14.8463
   348.0000    108.5472      0.0000    709.6370     14.7687
   348.2500    116.7784      0.0000    708.4634     14.5823
   348.5000    121.8238      0.0000    708.6624     14.2127
   348.7500    125.8822      0.0000    711.0594     13.6309
   349.0000    130.3821      0.0000    714.0576     12.8779
   349.2500    134.0577      0.0000    715.3159     12.0470
   349.5000    133.9928      0.0000    715.8993     11.2524
   349.7500    128.9368      0.0000    722.5261     10.5884
   350.0000    120.8600      0.0000    743.9863     10.0994
   350.2500    112.9063      0.0000    782.8436      9.7913
   350.5000    106.6773      0.0000    829.3460      9.6512
   350.7500    102.0145      0.0000    865.3267      9.6438
   351.0000     98.5160      0.0000    877.5499      9.7137
   351.2500     96.3365      1.6635    867.9968      9.8131
   351.5000     95.8164      0.0000    851.0818      9.9230
   351.7500     97.0655      0.0000    841.8138     10.0751
   352.0000     99.8892      0.0000    844.8359     10.3538
   352.2500    103.5889      0.0000    850.8290     10.8167
   352.5000    106.7955      0.0000    844.0611     11.3658
   352.7500    108.2670      0.0000    816.5140     11.7659
   353.0000    108.2611      0.0000    774.6959     11.8716
   353.2500    108.6117      0.0000    733.0063     11.7874
   353.5000    110.9196      0.0000    703.6732     11.7358
   353.7500    114.9246      0.0000    692.2086     11.8217
   354.0000    119.0268      0.0000    696.5650     11.9856
   354.2500    122.0652      0.0000    708.8030     12.1258
   354.5000    124.0536      0.0000    720.4032     12.1951
   354.7500    125.4310      0.0000    727.3062     12.2025
   355.0000    126.3375      0.0000    730.0786     12.1752
   355.2500    126.8083      0.0000    730.7797     12.1357
   355.5000    127.0720      0.0000    730.8644     12.0962
   355.7500    127.2064      0.0000    731.0224     12.0638
   356.0000    126.8277      0.0000    731.7202     12.0423
   356.2500    125.5553      0.0000    733.3290     12.0336
   356.5000    123.5724      0.0000    735.7501     12.0343
   356.7500    121.4073      0.0000    738.0308     12.0387
   357.0000    119.3050      0.0000    738.8225     12.0488
   357.2500    117.3202      0.0000    737.5389     12.0831
   357.5000    116.0609      0.0000    734.9586     12.1638
   357.7500    116.7987      0.0000    732.4798     12.2871
   358.0000    120.3259      0.0000    730.9567     12.4182
   358.2500    125.6448      0.0000    730.3807     12.5256
   358.5000    130.1629      0.0000    730.3632     12.6092
   358.7500    131.5555      0.0000    730.6050     12.6800
   359.0000    129.4121      0.0000    730.9808     12.7255
   359.2500    125.0098      0.0000    731.4294     12.7203
   359.5000    119.9939      0.0000    731.8791     12.6670
   359.7500    115.7557      0.0000    732.2318     12.6070
   360.0000    113.6301      0.0000    732.3779     12.5866
   360.2500    114.5856      0.0000    732.2349     12.6214
   360.5000    118.0455      0.0000    731.8073     12.6866
   360.7500    121.3097      0.0000    731.1963     12.7284
   361.0000    120.8977      0.0000    730.5345     12.6938
   361.2500    114.9382      0.0000    729.9241     12.5754
   361.5000    104.3259      0.0000    729.4407     12.4288
   361.7500     91.9182      0.0000    729.1483     12.3317
   362.0000     80.8655      0.0000    729.0672     12.3243
   362.2500     73.1557      0.0000    729.1399     12.3928
   362.5000     68.9652      0.0000    729.2569     12.5015
   362.7500     67.1821      0.0000    729.3221     12.6297
   363.0000     66.5635      0.0000    729.2960     12.7768
   363.2500     66.3296      0.0000    729.2015     12.9361
   363.5000     65.9565      0.0000    729.1010     13.0702
   363.7500     65.0280      0.0000    729.0481     13.1196
   364.0000     63.5276      0.0000    729.0163     13.0431
   364.2500     61.8930      0.0000    728.8134     12.8553
