~Version Information
VERS.                      2.0: CWLS Log ASCII Standard - VERSION 2.0
WRAP.                       NO: One line per depth step
~Well Information Block
STRT.FT                -7.7500: 
STOP.FT              2248.5000: 
STEP.FT                 0.2500: 
NULL.                -999.2500: 
COMP.          Pioneer Natural Resources: COMPANY
WELL.          Interceptor 43-13 Tr: WELL
FLD.           Purgatoire River: FIELD
LOC.           2006' FSL & 438' FEL--: LOCATION
PROV.                       CO: PROVINCE
CNTY.               Las Animas: COUNTRY
SRVC.          Patterson Wireline: SERVICE COMPANY
DATE.          Thu Nov 17 10:14:59 2005: LOG DATE
UWI.           05 071 08549 00: UNIQUE WELL ID
~Curve Information Block
DEPT.FT            0 000 00 00: Depth
CCL.                          : Casing Collar Locator
TT3.usec                      : CBL 3' Travel Time
AMP3.mV                       : CBL 3' Amplitude
GR.GAPI                       : Gamma Ray
~Parameter Information Block
~A  Depth       CCL         TT3         AMP3         GR     
    -7.7500   -999.2500   -999.2500   -999.2500     79.1853
    -7.5000   -999.2500   -999.2500   -999.2500     79.2670
    -7.2500   -999.2500   -999.2500   -999.2500     78.3733
    -7.0000   -999.2500   -999.2500   -999.2500     76.9856
    -6.7500   -999.2500   -999.2500   -999.2500     75.1366
    -6.5000   -999.2500   -999.2500   -999.2500     72.9911
    -6.2500   -999.2500   -999.2500   -999.2500     71.5250
    -6.0000   -999.2500   -999.2500   -999.2500     71.9870
    -5.7500   -999.2500   -999.2500   -999.2500     74.7233
    -5.5000   -999.2500   -999.2500   -999.2500     79.0081
    -5.2500   -999.2500   -999.2500   -999.2500     83.9362
    -5.0000   -999.2500   -999.2500   -999.2500     88.6999
    -4.7500   -999.2500   -999.2500   -999.2500     91.9683
    -4.5000   -999.2500   -999.2500   -999.2500     92.1995
    -4.2500   -999.2500   -999.2500   -999.2500     89.3085
    -4.0000   -999.2500   -999.2500   -999.2500     85.3577
    -3.7500   -999.2500   -999.2500   -999.2500     82.9388
    -3.5000   -999.2500   -999.2500   -999.2500     83.0844
    -3.2500   -999.2500   -999.2500   -999.2500     84.8051
    -3.0000   -999.2500   1158.0000     -1.5857     86.2188
    -2.7500   -999.2500   1158.0000     -1.5776     85.9445
    -2.5000   -999.2500   1158.0000     -1.5656     83.7777
    -2.2500   -999.2500   1158.0000     -1.5536     80.3866
    -2.0000   -999.2500   1158.0000     -1.5444     76.5244
    -1.7500   -999.2500   1158.0000     -1.5388     72.5997
    -1.5000   -999.2500   1158.0000     -1.5369     68.8859
    -1.2500   -999.2500   1158.0000     -1.5391     65.6822
    -1.0000   -999.2500   1158.0000     -1.5454     62.9771
    -0.7500   -999.2500   1158.0000     -1.5531     60.2699
    -0.5000   -999.2500   1158.0000     -1.5582     57.0764
    -0.2500   -999.2500   1158.0000     -1.5598     53.5022
     0.0000   -999.2500   1158.0000     -1.5671     47.6179
     0.2500   -999.2500   1158.0000     -1.5766     46.5380
     0.5000   -999.2500   1158.0000     -1.5838     47.4162
     0.7500   -999.2500   1158.0000     -1.5833     50.1951
     1.0000   -999.2500   1158.0000     -1.5742     53.8598
     1.2500   -999.2500   1158.0000     -1.5611     57.0582
     1.5000   -999.2500   1158.0000     -1.5501     59.2978
     1.7500   -999.2500   1158.0000     -1.5441     61.5709
     2.0000   -999.2500   1158.0000     -1.5436     65.8707
     2.2500      0.0000   1158.0000     -1.5482     73.8526
     2.5000      0.0000   1158.0000     -1.5566     85.3488
     2.7500      0.0000   1158.0000     -1.5661     98.1098
     3.0000      0.0000   1158.0000     -1.5729    109.3688
     3.2500      0.0000   1158.0000     -1.5754    117.7685
     3.5000      0.0000   1158.0000     -1.5755    123.7876
     3.7500      0.0000   1158.0000     -1.5760    128.6221
     4.0000      0.0000   1158.0000     -1.5775    132.7648
     4.2500      0.0000   1158.0000     -1.5784    135.1862
     4.5000      0.0000   1158.0000     -1.5774    133.6511
     4.7500      0.0000   1158.0000     -1.5755    126.2053
     5.0000      0.0000   1158.0000     -1.5741    112.8252
     5.2500      0.0000   1158.0000     -1.5726     96.0318
     5.5000      0.0000   1158.0000     -1.5689     79.9872
     5.7500      0.0000   1158.0000     -1.5625     68.3341
     6.0000      0.0000   1158.0000     -1.5560     62.2178
     6.2500      0.0000   1158.0000     -1.5518     60.2256
     6.5000      0.0000   1158.0000     -1.5490     60.0752
     6.7500      0.0000   1158.0000     -1.5451     60.1808
     7.0000      0.0000   1158.0000     -1.5398     59.9620
     7.2500      0.0000   1158.0000     -1.5370     59.4277
     7.5000      0.0000   1158.0000     -1.5410     58.8078
     7.7500      0.0000   1158.0000     -1.5516     58.3742
     8.0000      0.0000   1158.0000     -1.5609     58.3612
     8.2500      0.0000   1158.0000     -1.5557     58.9411
     8.5000      0.0000   1158.0000     -1.5228     60.2032
     8.7500      0.0000   1158.0000     -1.4547     62.1543
     9.0000      0.0000   1158.0000     -1.3489     64.7154
     9.2500      0.0000   1158.0000     -1.1964     67.6288
     9.5000      0.0000   1158.0000     -0.9623     70.3085
     9.7500      0.0000   1158.0000     -0.5630     71.8997
    10.0000      0.0000   1158.0000      0.1547     71.5901
    10.2500      2.0000   1158.0000      1.4119     68.9872
    10.5000      0.0000   1158.0000      3.4280     64.4391
    10.7500      0.0000   1158.0000      6.2561     59.0166
    11.0000      0.0000   1158.0000      9.6225     53.8879
    11.2500      0.0000   1157.9442     12.9653     49.6208
    11.5000      0.0000   1157.5780     15.7413     46.2645
    11.7500      0.0000   1155.7141     17.7662     43.9318
    12.0000      0.0000   1148.3219     19.2905     42.9002
    12.2500      0.0000   1125.4746     20.8040     43.1401
    12.5000      0.0000   1070.4269     22.7966     44.0703
    12.7500      0.0000    967.0324     25.5813     44.9354
    13.0000      0.0000    815.6485     29.1650     45.3277
    13.2500      0.0000    642.9641     33.1814     45.3331
    13.5000      0.0000    489.7632     36.9515     45.2708
    13.7500      0.0000    384.5204     39.7156     45.4054
    14.0000      0.0000    329.1312     40.9886     45.9055
    14.2500      0.0000    307.4173     40.8394     46.9348
    14.5000      0.0000    301.6310     39.8932     48.4410
    14.7500      0.0000    300.8389     39.0543     49.7774
    15.0000      0.0000    300.2688     39.0772     49.9483
    15.2500      0.0000    298.4945     40.1835     48.4848
    15.5000      0.0000    295.8544     42.0352     45.7935
    15.7500      0.0000    293.3422     44.1147     42.6014
    16.0000     -2.0000    291.6242     46.0921     39.5060
    16.2500      2.0000    290.6784     47.8296     37.1747
    16.5000      0.0000    290.1088     49.2295     36.4301
    16.7500      0.0000    289.4838     50.2577     37.7435
    17.0000      0.0000    288.4749     51.1324     40.8878
    17.2500      0.0000    286.9825     52.3826     45.3222
    17.5000      0.0000    285.2350     54.6222     50.6502
    17.7500      0.0000    283.6599     58.1725     56.4280
    18.0000      0.0000    282.5735     62.7742     61.6565
    18.2500      0.0000    281.9969     67.6315     64.8606
    18.5000      0.0000    281.7509     71.8624     64.9961
    18.7500      0.0000    281.6504     75.0051     62.4230
    19.0000      0.0000    281.5975     77.1144     58.9071
    19.2500      0.0000    281.5647     78.4810     56.5162
    19.5000      0.0000    281.5489     79.3719     56.3339
    19.7500      0.0000    281.5482     79.9667     58.0141
    20.0000      0.0000    281.5562     80.3781     60.3663
    20.2500      0.0000    281.5652     80.6590     62.2633
    20.5000      0.0000    281.5703     80.8223     63.1112
    20.7500      0.0000    281.5726     80.8795     62.8498
    21.0000      0.0000    281.5771     80.8685     61.9826
    21.2500      0.0000    281.5872     80.8458     61.6452
    21.5000      0.0000    281.6022     80.8597     63.2212
    21.7500      0.0000    281.6190     80.9344     67.6100
    22.0000      0.0000    281.6342     81.0683     74.8396
    22.2500      0.0000    281.6451     81.2396     84.1734
    22.5000      0.0000    281.6500     81.4114     94.2769
    22.7500      0.0000    281.6491     81.5386    103.4699
    23.0000      0.0000    281.6455     81.5900    110.2821
    23.2500      0.0000    281.6435     81.5770    114.0301
    23.5000      0.0000    281.6471     81.5539    114.9255
    23.7500      0.0000    281.6573     81.5733    113.7054
    24.0000      0.0000    281.6720     81.6392    111.1590
    24.2500      0.0000    281.6878     81.7081    107.7997
    24.5000      0.0000    281.7030     81.7338    103.7255
    24.7500      0.0000    281.7172     81.7058     98.6296
    25.0000      0.0000    281.7296     81.6511     92.1657
    25.2500      0.0000    281.7389     81.6101     84.7113
    25.5000      0.0000    281.7433     81.6084     77.6975
