~Version Information
VERS.                      2.0: CWLS Log ASCII Standard - VERSION 2.0
WRAP.                       NO: One line per depth step
~Well Information Block
STRT.FT                 0.0000: 
STOP.FT               878.7500: 
STEP.FT                 0.2500: 
NULL.                -999.2500: 
COMP.          Pioneer Natural Resources: COMPANY
WELL.          Screamin 12-29 Tr: WELL
FLD.           Purgatoire River: FIELD
LOC.           1979' FNL & 532' FWL--: LOCATION
CNTY.               Las Animas: COUNTY
SRVC.                Patterson: SERVICE COMPANY
DATE.          Thu Apr 13 22:21:38 2006: LOG DATE
UWI.           05 071 08660 00: UNIQUE WELL ID
STAT.                 Colorado: STATE
~Curve Information Block
DEPT.FT            0 000 00 00: Depth
GR.GAPI                       : Gamma Ray
CCL.                          : Casing Collar Locator
TT3.usec                      : CBL 3' Travel Time
AMP3.mV                       : CBL 3' Amplitude
~Parameter Information Block
~A  Depth        GR         CCL         TT3         AMP3    
# ...
   435.5000    100.5311      0.0000    728.5852      4.7601
   435.7500    101.5114      0.0000    732.2374      4.7608
   436.0000    100.6413      0.0000    737.2258      4.7755
   436.2500     98.7400      0.0000    739.4721      4.8010
   436.5000     95.6964      0.0000    742.2442      4.8558
   436.7500     94.4285      0.0000    744.9179      4.8906
   437.0000     94.3907      0.0000    750.8898      4.9251
   437.2500     95.8275      0.0000    754.6452      4.9378
   437.5000     99.8168      0.0000    755.3938      4.9514
   437.7500    102.6102      0.0000    751.5767      4.9585
   438.0000    104.6330      0.0000    742.6236      4.9640
   438.2500    104.0187      0.0000    737.3087      4.9653
   438.5000    100.9143      0.0000    732.7484      4.9732
   438.7500     97.8778      0.0000    732.6008      4.9878
   439.0000     92.2938      0.0000    738.3452      5.0263
   439.2500     88.5295      0.0000    746.4021      5.0606
   439.5000     84.9095      0.0000    761.7875      5.1160
   439.7500     84.7739      0.0000    771.2435      5.1511
   440.0000     87.7081      0.0000    780.1351      5.1963
   440.2500     90.8144      0.0000    781.4504      5.2185
   440.5000     95.9161      0.0000    776.3292      5.2335
   440.7500     99.3901      0.0000    768.6300      5.2325
   441.0000    104.3655      0.0000    751.7354      5.2291
   441.2500    106.9403      0.0000    737.4894      5.2336
   441.5000    108.6730      0.0000    713.2006      5.2443
   441.7500    108.4193      0.0000    697.1049      5.2426
   442.0000    107.0183      0.0000    678.8315      5.2194
   442.2500    106.1145      0.0000    673.9384      5.1984
   442.5000    105.4769      0.0000    680.0621      5.1756
   442.7500    105.7829      0.0000    691.6249      5.1640
   443.0000    107.9457      0.0000    713.7376      5.1326
   443.2500    110.5813      0.0000    727.8948      5.0962
   443.5000    114.7459      0.0000    745.4493      5.0309
   443.7500    115.9207      0.0000    754.9354      4.9953
   444.0000    113.1132      0.0000    766.2364      4.9731
   444.2500    108.5797      0.0000    771.3765      4.9783
   444.5000    101.0863      0.0000    775.1472      4.9925
   444.7500     97.7777      0.0000    775.5734      4.9891
   445.0000     96.8238      0.0000    774.0540      4.9526
   445.2500     98.1102      0.0000    771.7778      4.9133
   445.5000    100.5726      0.0000    767.2263      4.8527
   445.7500    101.7926      0.0000    764.3546      4.8223
   446.0000    103.3065      0.0000    760.9421      4.8039
   446.2500    104.6246      0.0000    758.6047      4.8123
   446.5000    107.2234      0.0000    753.7986      4.8518
   446.7500    109.0424      0.0000    749.6959      4.8899
   447.0000    111.6622      0.0000    742.6014      4.9490
   447.2500    113.5259      0.0000    737.5769      4.9799
   447.5000    116.0789      0.0000    730.8055      5.0009
   447.7500    116.5455      0.0000    727.5543      4.9975
   448.0000    113.9803      0.0000    725.2548      4.9805
   448.2500    110.8261      0.0000    725.7944      4.9712
   448.5000    107.3389      0.0000    729.6063      4.9672
   448.7500    107.3112      0.0000    732.3623      4.9701
   449.0000    109.9843      0.0000    731.3371      4.9815
   449.2500    111.7497      0.0000    725.3220      4.9931
   449.5000    111.6286      0.0000    710.7051      5.0106
   449.7500    109.3723      0.0000    700.5066      5.0185
   450.0000    104.2211      0.0000    688.4026      5.0269
   450.2500    100.9311      0.0000    682.9279      5.0353
   450.5000     97.6488      0.0000    678.5848      5.0535
   450.7500     96.5104      0.0000    678.7746      5.0636
   451.0000     95.5522      0.0000    684.7228      5.0657
   451.2500     95.2835      0.0000    692.1005      5.0597
   451.5000     96.2380      0.0000    705.1117      5.0487
   451.7500     98.3405      0.0000    712.3627      5.0419
   452.0000    103.2377      0.0000    717.9588      5.0244
   452.2500    106.1905      0.0000    718.5247      5.0026
   452.5000    107.1855      0.0000    718.3825      4.9568
   452.7500    105.1256      0.0000    719.9104      4.9248
   453.0000    100.1593      0.0000    725.9968      4.8848
   453.2500     97.4350      0.0000    731.9376      4.8646
   453.5000     96.0316      0.0000    742.3466      4.8428
   453.7500     96.8303      0.0000    750.1099      4.8341
   454.0000     99.4395      0.0000    762.4682      4.8316
   454.2500    101.4035      0.0000    770.0414      4.8365
   454.5000    104.0749      0.0000    778.1622      4.8503
   454.7500    105.5422      0.0000    780.9938      4.8623
   455.0000    106.8167      0.0000    782.2089      4.8867
   455.2500    106.6470      0.0000    781.6926      4.9096
   455.5000    104.6781      0.0000    779.5983      4.9528
   455.7500    102.6661      0.0000    777.4346      4.9834
   456.0000     99.7363      0.0000    772.7609      5.0226
   456.2500     98.1501      0.0000    767.8884      5.0388
   456.5000     95.8800      0.0000    755.1908      5.0344
   456.7500     93.9953      0.0000    741.9665      5.0015
   457.0000     90.5030      0.0000    717.2134      4.8950
   457.2500     88.1060      0.0000    701.1528      4.7907
   457.5000     84.8079      0.0000    683.9344      4.6142
   457.7500     82.4842      0.0000    678.7794      4.5062
   458.0000     77.7221      0.0000    680.8368      4.3923
   458.2500     73.3550      0.0000    687.9408      4.3593
   458.5000     65.6069      1.0193    704.0021      4.3711
   458.7500     60.5343      2.0000    715.8649      4.4051
   459.0000     54.7442      1.2878    732.4543      4.4607
   459.2500     52.8452      0.0000    741.8895      4.4858
   459.5000     53.6327      0.0000    751.7973      4.5084
   459.7500     56.5231      0.0000    754.4691      4.5337
   460.0000     63.2187      0.0000    754.2983      4.6280
   460.2500     68.0446      0.0000    755.0079      4.7324
   460.5000     73.7459      0.0000    762.2700      4.9045
   460.7500     75.8209      0.0000    770.4537      4.9878
   461.0000     76.3542      0.0000    782.1703      5.0211
   461.2500     75.4954      0.0000    787.2057      4.9830
   461.5000     73.4390      0.0000    790.2784      4.8686
   461.7500     71.9411      0.0000    790.2838      4.7794
   462.0000     69.5039      0.0000    788.3990      4.6619
   462.2500     67.5831      0.0000    786.0274      4.6045
   462.5000     64.2613      0.0000    780.8630      4.5440
   462.7500     61.9794      0.0000    776.6238      4.5116
   463.0000     58.9956      0.0000    769.6456      4.4670
   463.2500     57.7253      0.0000    764.7029      4.4441
   463.5000     57.5659      0.0000    757.3357      4.4292
   463.7500     58.5446      0.0000    753.6636      4.4308
   464.0000     60.4498      0.0000    753.8550      4.4376
   464.2500     61.2614      0.0000    759.9480      4.4394
   464.5000     61.6987      0.0000    778.7943      4.4373
   464.7500     62.1319      0.0000    795.7291      4.4336
   465.0000     63.9577      0.0000    820.3893      4.4229
   465.2500     65.6830      0.0000    831.2133      4.4122
   465.5000     67.6225      0.0000    832.2285      4.3969
   465.7500     68.0375      0.0000    821.8544      4.3927
   466.0000     67.8149      0.0000    795.2158      4.3982
   466.2500     67.5502      0.0000    776.3630      4.4059
   466.5000     67.1731      0.0000    757.4151      4.4152
   466.7500     66.8066      0.0000    754.9091      4.4191
   467.0000     66.2419      0.0000    766.7756      4.4259
   467.2500     66.3981      0.0000    781.9672      4.4325
   467.5000     68.3990      0.0000    806.7363      4.4419
   467.7500     70.7507      0.0000    819.4016      4.4468
   468.0000     74.1416      0.0000    827.3209      4.4573
   468.2500     75.3237      0.0000    824.5416      4.4699
   468.5000     74.9958      0.0000    810.4711      4.4918
   468.7500     73.7464      0.0000    797.5314      4.4991
