~Version Information
VERS.                      2.0: CWLS Log ASCII Standard - VERSION 2.0
WRAP.                       NO: One line per depth step
~Well Information Block
STRT.FT                 0.0000: 
STOP.FT              1147.5000: 
STEP.FT                 0.2500: 
NULL.                -999.2500: 
COMP.          Pioneer Natural Resources: COMPANY
WELL.          Tin Barn 14-20 TR: WELL
FLD.           Purgatorie River: FIELD
LOC.           925 FSL & 1151 FWL: LOCATION
PROV.                 Colorado: PROVINCE
CNTY.               Las Animas: COUNTRY
SRVC.                Patterson: SERVICE COMPANY
DATE.          Wed Jan 18 12:02:25 2006: LOG DATE
UWI.                          : UNIQUE WELL ID
~Curve Information Block
DEPT.FT            0 000 00 00: Depth
CCL.                          : Casing Collar Locator
TT3.usec                      : CBL 3' Travel Time
AMP3.mV                       : CBL 3' Amplitude
GR.GAPI                       : Gamma Ray
~Parameter Information Block
~A  Depth       CCL         TT3         AMP3         GR     
# ...
   971.5000      0.0000    664.8484      7.0538    104.0842
   971.7500      0.0000    664.3680      7.0317     96.4178
   972.0000      0.0000    664.0128      7.0882     89.2305
   972.2500      0.0000    663.7809      7.1959     83.0069
   972.5000      0.0000    663.6575      7.3156     78.8694
   972.7500      0.0000    663.6764      7.4307     78.0778
   973.0000      0.0000    663.9023      7.5454     81.2923
   973.2500      0.0000    664.3329      7.6620     88.2046
   973.5000      0.0000    664.8385      7.7719     97.3595
   973.7500      0.0000    665.2662      7.8488    106.2572
   974.0000      0.0000    665.6031      7.8761    112.5208
   974.2500      0.0000    665.8604      7.8810    115.6290
   974.5000      0.0000    665.6335      7.9086    117.0534
   974.7500      0.0000    664.1191      7.9741    118.1778
   975.0000      0.0000    661.4350      8.0456    118.6403
   975.2500      0.0000    659.3934      8.0765    117.3187
   975.5000      0.0000    658.7950      8.0503    114.2795
   975.7500      0.0000    657.3565      7.9835    110.7963
   976.0000      0.0000    653.9019      7.9154    107.8483
   976.2500      0.0000    651.9500      7.8891    105.5523
   976.5000      0.0000    654.6531      7.9299    103.7667
   976.7500      0.0000    659.7429      8.0433    102.3597
   977.0000      0.0000    663.4608      8.2050    101.0756
   977.2500      0.0000    665.0804      8.3692     99.7254
   977.5000      0.0000    665.6641      8.5074     98.3363
   977.7500      0.0000    665.8806      8.6204     96.8953
   978.0000      0.0000    665.7673      8.7169     95.2782
   978.2500      0.0000    665.0327      8.7980     93.5057
   978.5000      0.0000    663.2180      8.8655     91.7268
   978.7500      0.0000    660.6667      8.9176     89.9311
   979.0000      0.0000    659.2835      8.9456     88.0548
   979.2500      0.0000    660.4404      8.9586     86.4591
   979.5000      0.0000    662.9336      8.9724     86.0559
   979.7500      0.0000    664.9355      8.9730     87.7647
   980.0000      0.0000    666.0682      8.9255     91.6831
   980.2500      0.0000    666.6377      8.8222     96.7397
   980.5000      0.0000    666.7250      8.7069    101.3497
   980.7500      0.0000    666.4259      8.6262    104.5779
   981.0000      0.0000    666.0273      8.5722    106.5291
   981.2500      0.0000    665.7393      8.5041    107.6379
   981.5000      0.0000    665.5966      8.3960    108.0696
   981.7500      0.0000    665.5789      8.2564    107.9200
   982.0000      0.0000    665.6331      8.1283    107.3790
   982.2500      0.0000    665.6695      8.0506    106.4088
   982.5000      0.0000    665.6063      8.0214    104.6897
   982.7500      0.0000    665.3940      8.0195    102.2282
   983.0000      0.0000    665.0839      8.0233     99.8578
   983.2500      0.0000    664.8633      8.0247     98.7613
   983.5000      0.0000    664.7971      8.0423     99.2865
   983.7500      0.0000    664.2906      8.0802    100.3186
   984.0000      0.0000    661.8980      8.0983    100.0092
   984.2500      0.0000    656.6068      8.0643     97.2222
   984.5000      0.0000    649.9458      8.0017     92.3088
   984.7500      0.0000    645.5212      7.9567     86.7323
   985.0000      0.0000    645.9164      7.9494     82.2936
   985.2500      0.0000    650.8304      7.9761     80.6408
   985.5000      0.0000    657.3105      8.0231     82.7566
   985.7500      0.0000    661.5997      8.0649     88.3128
   986.0000      0.0000    661.3167      8.0611     95.6107
   986.2500      0.0000    655.8772      7.9505    102.4385
   986.5000      0.0000    648.8250      7.6625    107.1486
   986.7500      0.0000    650.6899      7.1759    109.1374
   987.0000      0.0000    669.6978      6.5546    108.6190
   987.2500      0.0000    699.1686      5.9283    106.2449
   987.5000      0.0000    726.0492      5.5008    102.9761
   987.7500      0.0000    744.2905      5.4540    100.0035
   988.0000      0.0000    750.8961      5.7128     98.4114
   988.2500      2.0000    746.3043      5.9887     98.8703
   988.5000     -2.0000    740.1686      6.1004    101.7467
   988.7500     -2.0000    739.4542      6.0521    107.1467
   989.0000      0.0000    741.1403      5.9309    114.3523
   989.2500      0.0000    745.0078      5.9891    121.3912
   989.5000      0.0000    753.9724      6.5911    125.6821
   989.7500      0.0000    763.1909      7.6861    125.5177
   990.0000      0.0000    763.9290      8.6232    121.0594
   990.2500      0.0000    754.1318      8.9415    113.8734
   990.5000      0.0000    740.8573      8.8790    105.6698
   990.7500      0.0000    731.3330      8.8393     97.7787
   991.0000      0.0000    724.3288      8.9312     91.4135
   991.2500      0.0000    713.6198      9.0693     87.5080
   991.5000      0.0000    697.0644      9.1742     86.1935
   991.7500      0.0000    680.6265      9.2520     86.9948
   992.0000      0.0000    670.9367      9.3282     89.6414
   992.2500      0.0000    668.6012      9.3754     94.2513
   992.5000      0.0000    671.2968      9.3524    100.5073
   992.7500      0.0000    675.9854      9.2483    106.9159
   993.0000      0.0000    678.1316      9.0645    111.4160
   993.2500      0.0000    675.2703      8.8215    112.8681
   993.5000      0.0000    670.1559      8.5857    111.6767
   993.7500      0.0000    666.5308      8.4214    109.0763
   994.0000      0.0000    665.0291      8.3232    106.2854
   994.2500      0.0000    664.5521      8.2315    104.0717
   994.5000      0.0000    664.3218      8.1019    102.4173
   994.7500      0.0000    664.0989      7.9475    100.6401
   995.0000      0.0000    663.7724      7.8159     98.0348
   995.2500      0.0000    662.9909      7.7481     94.3282
   995.5000      0.0000    661.1616      7.7631     89.8979
   995.7500      0.0000    658.5815      7.8332     85.9734
   996.0000      0.0000    657.2484      7.8898     84.2154
   996.2500      0.0000    658.5035      7.9085     85.5881
   996.5000      0.0000    660.9022      7.9334     89.8295
   996.7500      0.0000    662.5601      7.9924     96.1601
   997.0000      0.0000    663.3970      8.0559    104.1525
   997.2500      0.0000    664.0530      8.0920    113.6469
   997.5000      0.0000    664.5759      8.1093    124.1108
   997.7500      0.0000    664.2400      8.1315    134.4165
   998.0000      0.0000    661.7974      8.1624    143.1664
   998.2500      0.0000    656.9860      8.1622    148.8875
   998.5000      0.0000    652.5854      8.0719    150.0660
   998.7500      0.0000    652.6153      7.8897    145.9616
   999.0000      0.0000    657.6335      7.6956    137.9946
   999.2500      0.0000    664.5222      7.5688    129.6864
   999.5000      0.0000    669.0204      7.5122    124.3642
   999.7500      0.0000    666.0303      7.4778    122.8329
  1000.0000      0.0000    653.5989      7.4317    123.3180
  1000.2500      0.0000    636.8240      7.3808    123.3070
  1000.5000      0.0000    620.7999      7.3477    121.2094
  1000.7500      0.0000    606.0349      7.3222    116.6435
  1001.0000      0.0000    593.9528      7.2669    109.8502
  1001.2500      0.0000    586.8790      7.1715    101.2360
  1001.5000      0.0000    584.6325      7.0701     91.4297
  1001.7500      0.0000    586.6678      7.0084     81.5201
  1002.0000      0.0000    593.1511      7.0051     72.9903
  1002.2500      0.0000    602.2603      7.0439     67.2438
  1002.5000      0.0000    610.9943      7.1030     64.9495
  1002.7500      0.0000    619.6669      7.1729     65.5840
  1003.0000      0.0000    630.9686      7.2464     67.5062
  1003.2500      0.0000    644.0673      7.3177     68.8401
  1003.5000      0.0000    654.4711      7.3808     68.8280
  1003.7500      0.0000    659.8348      7.4220     68.3601
  1004.0000      0.0000    661.6592      7.4361     68.9013
  1004.2500      0.0000    662.1517      7.4453     70.9450
  1004.5000      0.0000    662.3857      7.4894     73.6052
  1004.7500      0.0000    662.6193      7.5772     75.5257
