~Version Information
VERS.                      2.0: CWLS Log ASCII Standard - VERSION 2.0
WRAP.                       NO: One line per depth step
~Well Information Block
STRT.FT                 0.0000: 
STOP.FT               683.5000: 
STEP.FT                 0.2500: 
NULL.                -999.2500: 
COMP.          Pioneer Natural Resources: COMPANY
WELL.           Belvedere 14-7: WELL
FLD.           Purgatorie River: FIELD
LOC.           786' FSL & 1283' FWL: LOCATION
PROV.                 Colorado: PROVINCE
CNTY.               Las Animas: COUNTRY
SRVC.                Patterson: SERVICE COMPANY
DATE.          Fri Dec 02 12:52:31 2005: LOG DATE
UWI.           05-071-08557               : UNIQUE WELL ID
~Curve Information Block
DEPT.FT            0 000 00 00: Depth
CCL.                          : Casing Collar Locator
TT3.usec                      : CBL 3' Travel Time
AMP3.mV                       : CBL 3' Amplitude
GR.GAPI                       : Gamma Ray
~Parameter Information Block
~A  Depth       CCL         TT3         AMP3         GR     
# ...
   502.5000      0.0000    744.9873      9.6807     52.1122
   502.7500      0.0000    730.5915      9.7437     52.4478
   503.0000      0.0000    730.7115      9.6858     52.0492
   503.2500      0.0000    736.2946      9.6107     51.0863
   503.5000      0.0000    736.3212      9.6030     50.3472
   503.7500      0.0000    731.8288      9.6527     50.7407
   504.0000      0.0000    728.2163      9.7235     52.5139
   504.2500      0.0000    726.8577      9.7955     54.9712
   504.5000      0.0000    726.6495      9.8393     57.0007
   504.7500      0.0000    726.7393      9.8237     57.7702
   505.0000      0.0000    726.8401      9.7641     57.0048
   505.2500      0.0000    727.1377      9.7068     55.0029
   505.5000      0.0000    728.7405      9.6400     52.6048
   505.7500      0.0000    733.7496      9.4844     50.8962
   506.0000      0.0000    743.2789      9.2144     50.6032
   506.2500      0.0000    754.2552      8.8973     51.7307
   506.5000      0.0000    760.9263      8.5919     53.8463
   506.7500      0.0000    762.2117      8.3176     56.6088
   507.0000      0.0000    764.2224      8.1032     59.9070
   507.2500      0.0000    771.7576      7.9586     63.6146
   507.5000      0.0000    780.9760      7.8330     67.4282
   507.7500      0.0000    785.5356      7.6659     70.9041
   508.0000      0.0000    785.7598      7.4522     73.4322
   508.2500      0.0000    786.3058      7.2379     74.0964
   508.5000      0.0000    788.2660      7.0805     71.9504
   508.7500      0.0000    788.9655      7.0175     66.9408
   509.0000      0.0000    787.1411      7.0409     60.5067
   509.2500      0.0000    783.3239      7.1048     54.8277
   509.5000      0.0000    777.3735      7.1802     51.3636
   509.7500      0.0000    768.6404      7.2808     50.1732
   510.0000      0.0000    757.4103      7.4198     50.4276
   510.2500      0.0000    746.2105      7.5585     51.2984
   510.5000      0.0000    737.3255      7.6369     52.4598
   510.7500      0.0000    729.2733      7.6654     54.0992
   511.0000      0.0000    720.9199      7.6984     56.4514
   511.2500      0.0000    714.0142      7.7183     59.1619
   511.5000      0.0000    709.8633      7.6634     61.4443
   511.7500      0.0000    712.5765      7.5337     63.2570
   512.0000      0.0000    727.8036      7.3764     65.8872
   512.2500      0.0000    749.5547      7.2433     70.7151
   512.5000      0.0000    762.4008      7.1906     77.5498
   512.7500      0.0000    761.7307      7.2317     84.6857
   513.0000      0.0000    757.1135      7.2948     90.4533
   513.2500      0.0000    755.6076      7.2961     94.1814
   513.5000      0.0000    755.3893      7.2481     95.7268
   513.7500      0.0000    753.6292      7.2306     94.8282
   514.0000      0.0000    749.8040      7.2847     91.4295
   514.2500      0.0000    743.8953      7.3856     86.3280
   514.5000      0.0000    737.3997      7.4883     80.9740
   514.7500      0.0000    733.4932      7.5857     76.5526
   515.0000      0.0000    733.2436      7.7284     73.4516
   515.2500      0.0000    733.7296      7.9593     71.5023
   515.5000      0.0000    731.9918      8.2332     70.4151
   515.7500      0.0000    728.8217      8.4463     69.8897
   516.0000      0.0000    726.6253      8.5455     69.5509
   516.2500      0.0000    726.0366      8.5627     69.0541
   516.5000      0.0000    726.1288      8.5505     68.3589
   516.7500      0.0000    726.1137      8.5367     67.8743
   517.0000      0.0000    725.8934      8.5238     68.0382
   517.2500      0.0000    725.4326      8.5025     68.5012
   517.5000      0.0000    724.0290      8.4756     67.9644
   517.7500      0.0000    720.4136      8.4688     65.2268
   518.0000      0.0000    714.2672      8.5170     60.4620
   518.2500      0.0000    707.0711      8.6288     55.3626
   518.5000      0.0000    699.7722      8.7666     51.9469
   518.7500      0.0000    691.9678      8.8910     51.0697
   519.0000      0.0000    684.0811      9.0064     51.8935
   519.2500      0.0000    676.4227      9.1144     52.7339
   519.5000      0.0000    668.6351      9.1541     52.4459
   519.7500      0.0000    662.1964      9.0693     51.0322
   520.0000      0.0000    659.6089      8.9108     49.1951
   520.2500      0.0000    661.8830      8.7903     47.6310
   520.5000      0.0000    667.7070      8.7726     46.7513
   520.7500      0.0000    672.9470      8.8596     46.7055
   521.0000      0.0000    673.5349      9.0157     47.2505
   521.2500      0.0000    670.1506      9.1761     47.6262
   521.5000      0.0000    668.0635      9.2800     47.0331
   521.7500      0.0000    670.6517      9.3240     45.5218
   522.0000      0.0000    674.2421      9.3369     44.1232
   522.2500      0.0000    669.9482      9.3088     43.8925
   522.5000      0.0000    647.6958      9.2203     45.0264
   522.7500      0.0000    607.3632      9.1130     47.1207
   523.0000      0.0000    574.5792      9.0672     49.9892
   523.2500      0.0000    583.5228      9.1207     53.8102
   523.5000      0.0000    631.7798      9.2176     58.5580
   523.7500      0.0000    681.0250      9.2426     63.7784
   524.0000      0.0000    703.7118      9.1354     69.0038
   524.2500      0.0000    702.1367      8.9949     73.8535
   524.5000      0.0000    694.0838      8.9665     77.4575
   524.7500      0.0000    696.3949      8.8904     78.2947
   525.0000      0.0000    709.6392      8.3858     75.2480
   525.2500      0.0000    715.9587      7.5502     68.8574
   525.5000      0.0000    698.0578      6.9921     61.3186
   525.7500      0.0000    662.9598      6.9423     55.3292
   526.0000     -2.0000    645.3088      7.0360     52.7840
   526.2500     -2.0000    667.4794      6.9756     53.9713
   526.5000      0.0000    709.2238      6.8341     57.7599
   526.7500      0.0000    741.6595      6.8491     62.8286
   527.0000      0.0000    753.7846      7.2963     68.6954
   527.2500      0.0000    736.7325      8.3821     75.2915
   527.5000      0.0000    688.4382      9.8215     81.6926
   527.7500      0.0000    636.2621     10.7749     85.8103
   528.0000      0.0000    621.8456     10.8398     85.7966
   528.2500      0.0000    652.5699     10.5727     81.8759
   528.5000      0.0000    693.7750     10.5547     76.5294
   528.7500      0.0000    716.9076     10.7603     72.6642
   529.0000      0.0000    721.6015     10.9588     71.7167
   529.2500      0.0000    712.7492     11.0956     73.3475
   529.5000      0.0000    687.3536     11.2307     76.2722
   529.7500      0.0000    650.9463     11.3744     79.0976
   530.0000      0.0000    628.7110     11.4878     80.8503
   530.2500      0.0000    632.4210     11.5744     81.2794
   530.5000      0.0000    635.2123     11.7044     80.8547
   530.7500      0.0000    618.6169     11.9392     80.3624
   531.0000      0.0000    610.3533     12.2471     80.3558
   531.2500      0.0000    636.0159     12.5435     80.9359
   531.5000      0.0000    673.7188     12.8032     81.8549
   531.7500      0.0000    686.2693     13.0523     82.4794
   532.0000      0.0000    662.7169     13.2734     81.8089
   532.2500      0.0000    625.0291     13.3991     79.1666
   532.5000      0.0000    612.3354     13.3827     75.0732
   532.7500      0.0000    640.1612     13.2155     71.0380
   533.0000      0.0000    682.3733     12.9343     68.3434
   533.2500      0.0000    710.0845     12.6441     67.2192
   533.5000      0.0000    720.3932     12.4397     67.0676
   533.7500      0.0000    722.6212     12.3126     67.1719
   534.0000      0.0000    722.7465     12.1898     67.1834
   534.2500      0.0000    722.5332     12.0374     67.0605
   534.5000      0.0000    722.2823     11.8938     66.7145
   534.7500      0.0000    721.9900     11.8010     66.0260
   535.0000      0.0000    721.5030     11.7450     65.2785
   535.2500      0.0000    720.1974     11.6790     65.2705
   535.5000      0.0000    716.8969     11.5718     66.7694
   535.7500      0.0000    711.4220     11.4333     69.8022
