~Version Information
VERS.                      2.0: CWLS Log ASCII Standard - VERSION 2.0
WRAP.                       NO: One line per depth step
~Well Information Block
STRT.FT               840.0000: 
STOP.FT              1912.0000: 
STEP.FT                 0.1000: 
NULL.                -999.2500: 
COMP.          Petrogulf Corporation: COMPANY
WELL.             Kraft 17-23R: WELL
FLD.           Purgatorie River: FIELD
LOC.           1509' FSL & 1673' FWL: LOCATION
PROV.                 Colorado: PROVINCE
CNTY.               Las Animas: COUNTRY
SRVC.                Patterson: SERVICE COMPANY
DATE.          Wed Oct 12 07:01:14 2005: LOG DATE
UWI.                          : UNIQUE WELL ID
~Curve Information Block
DEPT.FT            0 000 00 00: Depth
DCAL.in                       : CDL Caliper
RHOB.g/cc                     : CDL Bulk Density
RHOC.g/cc                     : CDL Density Correction
DPOR.pu                       : CDL Density Porosity
GR.GAPI                       : Gamma Ray
NPOR.pu                       : Neutron Porosity
~Parameter Information Block
~A  Depth       DCAL        RHOB        RHOC        DPOR         GR         NPOR    
# ...
  1329.6000      7.8578      2.5564      0.0660      5.6719     83.5720     21.0670
  1329.7000      7.8578      2.5561      0.0386      5.6887     85.9502     20.1985
  1329.8000      7.8376      2.5697      0.0581      4.8644     92.0811     19.5123
  1329.9000      7.8376      2.5919      0.1168      3.5200     98.0845     19.3591
  1330.0000      7.8177      2.6104      0.1515      2.4005     99.8026     19.5540
  1330.1000      7.8177      2.6196      0.1724      1.8398     98.6019     19.4379
  1330.2000      7.8177      2.6198      0.1540      1.8282     98.0952     18.7055
  1330.3000      7.8230      2.6080      0.1533      2.5477     97.5968     17.8306
  1330.4000      7.8230      2.5808      0.0809      4.1952     93.9244     17.3525
  1330.5000      7.8358      2.5462      0.0685      6.2907     89.3710     17.3207
  1330.6000      7.8358      2.5233     -0.0237      7.6797     87.9034     17.5675
  1330.7000      7.8358      2.5264      0.0322      7.4906     88.8224     18.0184
  1330.8000      7.8937      2.5430      0.0576      6.4833     89.6986     18.5709
  1330.9000      7.8937      2.5513      0.0489      5.9814     87.3399     19.0157
  1331.0000      7.9039      2.5495      0.0356      6.0904     80.6846     19.1314
  1331.1000      7.9039      2.5470      0.0434      6.2424     75.8350     19.0048
  1331.2000      7.9039      2.5453      0.0524      6.3478     77.2145     19.0926
  1331.3000      7.8936      2.5401      0.0251      6.6617     80.8401     19.6793
  1331.4000      7.8936      2.5288      0.0460      7.3478     81.9659     20.5598
  1331.5000      7.8419      2.5086      0.0288      8.5679     80.1948     21.3437
  1331.6000      7.8419      2.4808      0.0374     10.2570     77.2452     21.7143
  1331.7000      7.8419      2.4526      0.0290     11.9641     75.8622     21.7990
  1331.8000      7.8159      2.4343     -0.0051     13.0726     77.5322     21.9547
  1331.9000      7.8159      2.4322      0.0480     13.1979     80.0496     22.1929
  1332.0000      7.8059      2.4429      0.0550     12.5529     80.2720     22.3090
  1332.1000      7.8059      2.4627      0.0377     11.3544     77.2034     22.3416
  1332.2000      7.8059      2.4939      0.0482      9.4605     74.1722     22.3121
  1332.3000      7.7977      2.5389      0.0749      6.7348     74.6791     22.1583
  1332.4000      7.7977      2.5918      0.1478      3.5303     77.9333     22.0464
  1332.5000      7.8102      2.6350      0.1899      0.9069     80.4453     22.0290
  1332.6000      7.8102      2.6556      0.1980     -0.3369     79.8180     22.0309
  1332.7000      7.8102      2.6539      0.2048     -0.2382     78.0245     22.2142
  1332.8000      7.8122      2.6326      0.2034      1.0566     77.5016     22.5623
  1332.9000      7.8122      2.5953      0.1284      3.3136     77.0835     22.6167
  1333.0000      7.8561      2.5545      0.0595      5.7853     76.7118     22.3331
  1333.1000      7.8561      2.5218      0.0367      7.7717     76.9780     22.1387
  1333.2000      7.8561      2.5060      0.0127      8.7281     76.3465     22.1263
  1333.3000      7.9095      2.5143      0.0245      8.2241     75.9612     22.2118
  1333.4000      7.9095      2.5312      0.0599      7.2026     77.6912     22.6266
  1333.5000      7.9282      2.5332      0.0467      7.0789     78.7961     23.3286
  1333.6000      7.9282      2.5267      0.0376      7.4756     77.9595     23.8047
  1333.7000      7.9282      2.5277      0.0464      7.4118     76.4569     23.7767
  1333.8000      7.9308      2.5321      0.0145      7.1457     72.8280     23.4833
  1333.9000      7.9308      2.5312      0.0339      7.2004     68.1984     23.2953
  1334.0000      7.9353      2.5275      0.0476      7.4269     68.0930     23.4881
  1334.1000      7.9353      2.5266      0.0278      7.4798     71.9560     23.9899
  1334.2000      7.9353      2.5263      0.0471      7.4960     73.7952     24.5137
  1334.3000      7.9247      2.5170      0.0463      8.0577     72.3130     24.9736
  1334.4000      7.9247      2.4943      0.0355      9.4359     70.3131     25.3221
  1334.5000      7.9303      2.4684     -0.0197     11.0054     68.1257     25.3507
  1334.6000      7.9303      2.4607     -0.0401     11.4729     65.5181     24.8864
  1334.7000      7.9303      2.4803      0.0079     10.2823     63.8475     23.9643
  1334.8000      7.9307      2.5115      0.0764      8.3966     62.8825     22.7666
  1334.9000      7.9307      2.5377      0.0464      6.8070     61.4251     21.6337
  1335.0000      7.9246      2.5536      0.0970      5.8455     60.0877     20.9693
  1335.1000      7.9246      2.5558      0.0942      5.7085     59.8327     20.7885
  1335.2000      7.9246      2.5455      0.1260      6.3358     61.0428     20.8902
  1335.3000      7.9097      2.5283      0.0746      7.3785     63.0822     21.4479
  1335.4000      7.9097      2.5141      0.0461      8.2388     63.5326     22.4442
  1335.5000      7.9093      2.5115      0.0323      8.3924     61.2022     23.2201
  1335.6000      7.9093      2.5153      0.0854      8.1642     57.9779     23.4314
  1335.7000      7.9093      2.5147      0.0492      8.2017     57.4300     23.2751
  1335.8000      7.9132      2.5130     -0.0155      8.3035     60.1580     22.8604
  1335.9000      7.9132      2.5144      0.0278      8.2188     63.5909     22.2727
  1336.0000      7.9099      2.5110      0.0320      8.4263     66.3731     21.7750
  1336.1000      7.9099      2.5005      0.0525      9.0592     67.0662     21.7947
  1336.2000      7.9099      2.4932      0.0399      9.5051     65.3470     22.2916
  1336.3000      7.9032      2.4937      0.0618      9.4729     64.0488     22.6606
  1336.4000      7.9032      2.4943      0.0410      9.4362     64.4197     22.5532
  1336.5000      7.8898      2.4910      0.0534      9.6391     63.6563     22.2821
  1336.6000      7.8898      2.4925      0.0269      9.5460     60.3664     22.4489
  1336.7000      7.8898      2.5080      0.0726      8.6082     56.8908     23.0145
  1336.8000      7.8562      2.5288      0.1035      7.3450     56.8555     23.1805
  1336.9000      7.8562      2.5428      0.0892      6.4953     60.0723     22.7231
  1337.0000      7.8576      2.5511      0.0927      5.9930     62.3632     22.2336
  1337.1000      7.8576      2.5562      0.0853      5.6867     61.1462     21.9475
  1337.2000      7.8576      2.5521      0.1345      5.9334     57.1351     21.8184
  1337.3000      7.8618      2.5358      0.0569      6.9239     53.0941     21.9072
  1337.4000      7.8618      2.5120      0.0583      8.3642     51.8332     22.0286
  1337.5000      7.8518      2.4817      0.0398     10.2005     52.4948     21.7635
  1337.6000      7.8518      2.4542      0.0231     11.8654     51.9987     21.0649
  1337.7000      7.8518      2.4494      0.0177     12.1567     51.4817     20.3116
  1337.8000      7.8670      2.4693      0.0342     10.9524     53.3807     19.5814
  1337.9000      7.8670      2.4956      0.0412      9.3555     56.1565     19.0201
  1338.0000      7.8981      2.5207      0.0328      7.8384     57.9735     19.1434
  1338.1000      7.8981      2.5475      0.0785      6.2134     58.7518     19.8803
  1338.2000      7.8981      2.5660      0.1260      5.0925     59.3247     20.4545
  1338.3000      7.8666      2.5675      0.1059      4.9988     60.1749     20.2990
  1338.4000      7.8666      2.5624      0.1095      5.3071     59.4954     19.5612
  1338.5000      7.7962      2.5594      0.1167      5.4938     56.6789     18.8628
  1338.6000      7.7962      2.5533      0.1185      5.8635     54.4495     18.6683
  1338.7000      7.7962      2.5399      0.0910      6.6744     54.3311     18.9309
  1338.8000      7.8033      2.5210      0.0639      7.8179     55.5986     19.4790
  1338.9000      7.8033      2.4995      0.0634      9.1224     57.1518     20.0840
  1339.0000      7.9014      2.4804      0.0436     10.2785     57.5759     20.5242
  1339.1000      7.9014      2.4692      0.0176     10.9560     56.8012     20.7952
