~Version Information
VERS.                      2.0: CWLS Log ASCII Standard - VERSION 2.0
WRAP.                       NO: One line per depth step
~Well Information Block
STRT.FT               550.0000: 
STOP.FT              1981.5000: 
STEP.FT                 0.2500: 
NULL.                -999.2500: 
COMP.          Pioneer Natural Resources: COMPANY
WELL.          Flying Horse 12-11 Tr: WELL
FLD.           Purgatoire River: FIELD
LOC.           2459' FNL & 410' FWL: LOCATION
STAT.                 Colorado: State
CNTY.               Las Animas: COUNTY
CTRY. USA : Country
SECT. 11 : Section
TOWN. 32S : Township
RANG. 66W : Range
SRVC.                Patterson: SERVICE COMPANY
DATE.          Sat Sep 03 20:17:31 2005: LOG DATE
API.           05 071 08485 00: UNIQUE WELL ID
~Curve Information Block
DEPT.FT            0 000 00 00: Depth
SN.Ohm-m                      : IEL Short Normal
SP.mV                         : IEL Spontaneous Potential
DIR.Ohm-m                     : IEL Induction Resistivity
GR.GAPI                       : Gamma Ray
~Parameter Information Block
~A  Depth        SN          SP         DIR          GR     
# ...
   650.5000   2000.0000   2000.0000     21.5145    119.4153
   650.7500   2000.0000   2000.0000     20.9636    119.6084
   651.0000   2000.0000   2000.0000     20.5330    120.0864
   651.2500   2000.0000   2000.0000     20.1727    120.1241
   651.5000   2000.0000   2000.0000     19.8223    119.3210
   651.7500   2000.0000   2000.0000     19.4428    118.3734
   652.0000   2000.0000   2000.0000     19.0405    117.2512
   652.2500   2000.0000   2000.0000     18.6652    117.3092
   652.5000   2000.0000   2000.0000     18.3797    119.0933
   652.7500   2000.0000   2000.0000     18.2231    121.1346
   653.0000   2000.0000   2000.0000     18.1943    124.0014
   653.2500   2000.0000   2000.0000     18.2641    124.6432
   653.5000   2000.0000   2000.0000     18.4044    122.3699
   653.7500   2000.0000   2000.0000     18.6082    118.7785
   654.0000   2000.0000   2000.0000     18.8844    111.7575
   654.2500   2000.0000   2000.0000     19.2373    107.0232
   654.5000   2000.0000   2000.0000     19.6515    100.9334
   654.7500   2000.0000   2000.0000     20.0966     97.6903
   655.0000   2000.0000   2000.0000     20.5466     93.7591
   655.2500   2000.0000   2000.0000     20.9961     91.4576
   655.5000   2000.0000   2000.0000     21.4588     88.0065
   655.7500   2000.0000   2000.0000     21.9510     85.5314
   656.0000   2000.0000   2000.0000     22.4763     81.3816
   656.2500   2000.0000   2000.0000     23.0250     78.2782
   656.5000   2000.0000   2000.0000     23.5897     73.3254
   656.7500   2000.0000   2000.0000     24.1798     70.2080
   657.0000   2000.0000   2000.0000     24.8208     66.6480
   657.2500   2000.0000   2000.0000     25.5327     65.1956
   657.5000   2000.0000   2000.0000     26.3041     63.5671
   657.7500   2000.0000   2000.0000     27.0818     61.9713
   658.0000   2000.0000   2000.0000     27.7925     58.0759
   658.2500   2000.0000   2000.0000     28.3863     54.9528
   658.5000   2000.0000   2000.0000     28.8691     51.0735
   658.7500   2000.0000   2000.0000     29.2923     49.5990
   659.0000   2000.0000   2000.0000     29.7091     48.8256
   659.2500   2000.0000   2000.0000     30.1349     48.8230
   659.5000   2000.0000   2000.0000     30.5366     49.3308
   659.7500   2000.0000   2000.0000     30.8502     50.2279
   660.0000   2000.0000   2000.0000     31.0191     52.5688
   660.2500   2000.0000   2000.0000     31.0365     54.3772
   660.5000   2000.0000   2000.0000     30.9715     56.2276
   660.7500   2000.0000   2000.0000     30.9527     56.4382
   661.0000   2000.0000   2000.0000     31.1104     55.5728
   661.2500   2000.0000   2000.0000     31.5082     54.8655
   661.5000   2000.0000   2000.0000     32.1139     54.4587
   661.7500   2000.0000   2000.0000     32.8295     54.6124
   662.0000   2000.0000   2000.0000     33.5684     55.0052
   662.2500   2000.0000   2000.0000     34.3144     55.2737
   662.5000   2000.0000   2000.0000     35.1037     55.8166
   662.7500   2000.0000   2000.0000     35.9480     56.1528
   663.0000   2000.0000   2000.0000     36.7821     55.9529
   663.2500   2000.0000   2000.0000     37.4917     55.0935
   663.5000   2000.0000   2000.0000     37.9973     52.9814
   663.7500   2000.0000   2000.0000     38.3131     51.4050
   664.0000   2000.0000   2000.0000     38.5314     49.3292
   664.2500   2000.0000   2000.0000     38.7643     48.3359
   664.5000   2000.0000   2000.0000     39.1050     47.7037
   664.7500   2000.0000   2000.0000     39.6182     48.0003
   665.0000   2000.0000   2000.0000     40.3283     49.5747
   665.2500   2000.0000   2000.0000     41.1865     51.1685
   665.5000   2000.0000   2000.0000     42.0517     53.7480
   665.7500   2000.0000   2000.0000     42.7298     55.3392
   666.0000   2000.0000   2000.0000     43.0805     57.5075
   666.2500   2000.0000   2000.0000     43.1120     58.8198
   666.5000   2000.0000   2000.0000     42.9747     60.1889
   666.7500   2000.0000   2000.0000     42.8552     60.2948
   667.0000   2000.0000   2000.0000     42.8596     58.9097
   667.2500   2000.0000   2000.0000     42.9631     57.2515
   667.5000   2000.0000   2000.0000     43.0496     54.7309
   667.7500   2000.0000   2000.0000     43.0093     53.5389
   668.0000   2000.0000   2000.0000     42.8190     52.6256
   668.2500   2000.0000   2000.0000     42.5375     52.3621
   668.5000   2000.0000   2000.0000     42.2430     52.2218
   668.7500   2000.0000   2000.0000     41.9876     52.5789
   669.0000   2000.0000   2000.0000     41.7985     54.9852
   669.2500   2000.0000   2000.0000     41.6974     58.5462
   669.5000   2000.0000   2000.0000     41.7048     67.3211
   669.7500   2000.0000   2000.0000     41.8393     75.2790
   670.0000   2000.0000   2000.0000     42.1054     89.3430
   670.2500   2000.0000   2000.0000     42.4690     98.9558
   670.5000   2000.0000   2000.0000     42.8277    110.6917
   670.7500   2000.0000   2000.0000     43.0179    114.9849
   671.0000   2000.0000   2000.0000     42.8962    114.9245
   671.2500   2000.0000   2000.0000     42.4430    111.2011
   671.5000   2000.0000   2000.0000     41.7853    102.5302
   671.7500   2000.0000   2000.0000     41.1058     96.1847
   672.0000   2000.0000   2000.0000     40.5269     87.7656
   672.2500   2000.0000   2000.0000     40.0713     83.4220
   672.5000   2000.0000   2000.0000     39.7095     78.4831
   672.7500   2000.0000   2000.0000     39.4357     75.6780
   673.0000   2000.0000   2000.0000     39.2975     72.0166
   673.2500   2000.0000   2000.0000     39.3583     70.6370
   673.5000   2000.0000   2000.0000     39.6359     71.6546
   673.7500   2000.0000   2000.0000     40.0738     74.5475
   674.0000   2000.0000   2000.0000     40.5635     80.9524
   674.2500   2000.0000   2000.0000     40.9928     85.4942
   674.5000   2000.0000   2000.0000     41.2785     90.9296
   674.7500   2000.0000   2000.0000     41.3650     92.7128
   675.0000   2000.0000   2000.0000     41.2091     91.5635
   675.2500   2000.0000   2000.0000     40.7816     88.3236
   675.5000   2000.0000   2000.0000     40.0824     81.3414
   675.7500   2000.0000   2000.0000     39.1529     76.6696
   676.0000   2000.0000   2000.0000     38.0700     71.6442
   676.2500   2000.0000   2000.0000     36.9297     70.0657
   676.5000   2000.0000   2000.0000     35.8268     70.0506
   676.7500   2000.0000   2000.0000     34.8323     71.4598
   677.0000   2000.0000   2000.0000     33.9729     76.3941
   677.2500   2000.0000   2000.0000     33.2252     82.1198
   677.5000   2000.0000   2000.0000     32.5289     93.9083
   677.7500   2000.0000   2000.0000     31.8156    102.4696
   678.0000   2000.0000   2000.0000     31.0421    113.2234
   678.2500   2000.0000   2000.0000     30.2119    117.9423
   678.5000   2000.0000   2000.0000     29.3696    121.9254
   678.7500   2000.0000   2000.0000     28.5729    123.7908
   679.0000   2000.0000   2000.0000     27.8590    127.2559
   679.2500   2000.0000   2000.0000     27.2293    130.1385
   679.5000   2000.0000   2000.0000     26.6603    133.8871
   679.7500   2000.0000   2000.0000     26.1272    134.8338
   680.0000   2000.0000   2000.0000     25.6247    132.8972
   680.2500   2000.0000   2000.0000     25.1635    129.8197
   680.5000   2000.0000   2000.0000     24.7512    124.5471
   680.7500   2000.0000   2000.0000     24.3805    121.6231
   681.0000   2000.0000   2000.0000     24.0419    118.3414
   681.2500   2000.0000   2000.0000     23.7551    116.1952
   681.5000   2000.0000   2000.0000     23.5857    111.8124
   681.7500   2000.0000   2000.0000     23.6225    108.1722
   682.0000   2000.0000   2000.0000     23.9244    103.2440
   682.2500   2000.0000   2000.0000     24.4721    101.3733
   682.5000   2000.0000   2000.0000     25.1541    100.9794
   682.7500   2000.0000   2000.0000     25.7978    101.4514
   683.0000   2000.0000   2000.0000     26.2378    101.5732
   683.2500   2000.0000   2000.0000     26.3895    101.1084
   683.5000   2000.0000   2000.0000     26.2835    100.5998
   683.7500   2000.0000   2000.0000     26.0321    100.8233
