~Version Information
VERS.                      2.0: CWLS Log ASCII Standard - VERSION 2.0
WRAP.                       NO: One line per depth step
~Well Information Block
STRT.FT               970.0000: 
STOP.FT              1881.0000: 
STEP.FT                 0.1000: 
NULL.                -999.2500: 
COMP.          Petrogulf Corporation: COMPANY
WELL.             Norton 9-14R: WELL
FLD.           Purgatorie River: FIELD
LOC.           725' FSL & 1103' FWL: LOCATION
PROV.                 Colorado: PROVINCE
CNTY.               Las Animas: COUNTRY
SRVC.                Patterson: SERVICE COMPANY
DATE.          Fri Oct 07 07:52:23 2005: LOG DATE
UWI.                          : UNIQUE WELL ID
~Curve Information Block
DEPT.FT            0 000 00 00: Depth
DCAL.in                       : CDL Caliper
RHOB.g/cc                     : CDL Bulk Density
RHOC.g/cc                     : CDL Density Correction
DPOR.pu                       : CDL Density Porosity
GR.GAPI                       : Gamma Ray
NPOR.pu                       : Neutron Porosity
~Parameter Information Block
~A  Depth       DCAL        RHOB        RHOC        DPOR         GR         NPOR    
# ...
  1210.0000      8.0752      2.2602      0.0138     23.6254    104.2552     30.2414
  1210.1000      8.0752      2.2496      0.0276     24.2672    107.1025     30.6110
  1210.2000      8.0752      2.2469      0.0225     24.4310    112.5449     30.9345
  1210.3000      8.1433      2.2380      0.0475     24.9706    116.2703     31.1030
  1210.4000      8.1433      2.2291      0.0500     25.5095    114.2555     31.0635
  1210.5000      8.1391      2.2373      0.0433     25.0112    108.6012     30.8893
  1210.6000      8.1391      2.2623      0.1085     23.4943    106.4821     30.9871
  1210.7000      8.1391      2.2874      0.0936     21.9761    110.6252     31.3638
  1210.8000      8.1396      2.3009      0.0752     21.1558    115.6280     31.6911
  1210.9000      8.1396      2.3060      0.0390     20.8470    116.5001     31.8602
  1211.0000      8.1222      2.3165      0.0320     20.2116    115.2292     31.8415
  1211.1000      8.1222      2.3370      0.0726     18.9672    114.9809     31.6234
  1211.2000      8.1222      2.3552      0.0991     17.8637    113.9817     31.2919
  1211.3000      8.1297      2.3630      0.0628     17.3960    110.9331     31.0749
  1211.4000      8.1297      2.3632      0.0539     17.3837    109.8414     30.9853
  1211.5000      8.1274      2.3579      0.0300     17.7059    113.2927     30.8613
  1211.6000      8.1274      2.3473      0.0436     18.3437    119.7015     30.8248
  1211.7000      8.1274      2.3417      0.0280     18.6822    127.2367     30.8916
  1211.8000      8.1726      2.3529      0.0649     18.0034    133.4952     30.8052
  1211.9000      8.1726      2.3704      0.1155     16.9482    135.6931     30.5851
  1212.0000      8.2229      2.3764      0.0702     16.5807    134.4123     30.5675
  1212.1000      8.2229      2.3800      0.0659     16.3656    133.5151     30.8626
  1212.2000      8.2229      2.3958      0.0827     15.4044    134.2107     31.0960
  1212.3000      8.2212      2.4145      0.1031     14.2729    133.0655     30.8474
  1212.4000      8.2212      2.4227      0.0834     13.7763    130.1933     30.4125
  1212.5000      8.1970      2.4282      0.0600     13.4423    131.3674     30.4361
  1212.6000      8.1970      2.4418      0.0666     12.6169    137.2069     30.7938
  1212.7000      8.1970      2.4543      0.0938     11.8604    139.3726     30.9196
  1212.8000      8.1728      2.4557      0.0772     11.7776    135.7842     30.7722
  1212.9000      8.1728      2.4575      0.0733     11.6682    135.2810     30.6076
  1213.0000      8.2141      2.4702      0.0948     10.8980    139.2125     30.4605
  1213.1000      8.2141      2.4832      0.0879     10.1088    142.0775     30.2253
  1213.2000      8.2141      2.4858      0.0825      9.9511    142.8167     29.9800
  1213.3000      8.1489      2.4827      0.0764     10.1424    140.9912     29.9171
  1213.4000      8.1489      2.4837      0.0494     10.0794    137.1192     29.9901
  1213.5000      8.1188      2.4889      0.0873      9.7616    135.0639     30.1710
  1213.6000      8.1188      2.4857      0.1186      9.9570    134.5211     30.4780
  1213.7000      8.1188      2.4712      0.0372     10.8393    133.5961     30.6891
  1213.8000      8.0878      2.4594      0.0582     11.5496    135.1544     30.7062
  1213.9000      8.0878      2.4548      0.0825     11.8294    138.8822     30.6033
  1214.0000      8.0991      2.4542      0.0274     11.8648    139.2688     30.4228
  1214.1000      8.0991      2.4605      0.0467     11.4842    135.1227     30.2220
  1214.2000      8.0991      2.4773      0.0176     10.4653    131.9712     29.8264
  1214.3000      8.1476      2.5145      0.0548      8.2147    131.0416     29.2677
  1214.4000      8.1476      2.5847      0.0505      3.9561    126.5693     29.0130
  1214.5000      8.1715      2.6943      0.1222     -2.6874    114.5238     29.0903
  1214.6000      8.1715      2.8347      0.1539    -11.1938     97.2217     29.2392
  1214.7000      8.1715      2.9757      0.1745    -19.7413     82.2826     29.2737
  1214.8000      8.1460      3.0859      0.1889    -26.4212     73.6536     29.0774
  1214.9000      8.1460      3.1652      0.2513    -31.2230     67.7840     28.6744
  1215.0000      8.0642      3.2253      0.1933    -34.8663     62.8218     28.0717
  1215.1000      8.0642      3.2434      0.1985    -35.9610     59.2923     27.2474
  1215.2000      8.0642      3.1832      0.0643    -32.3173     56.5503     26.4513
  1215.3000      7.8856      3.0685     -0.1451    -25.3620     55.1138     26.1172
  1215.4000      7.8856      2.9652     -0.1569    -19.1019     57.3769     26.1382
  1215.5000      7.8681      2.8938     -0.1182    -14.7744     64.0027     26.0493
  1215.6000      7.8681      2.8147     -0.1237     -9.9809     73.8459     25.7535
  1215.7000      7.8681      2.6974     -0.2017     -2.8751     86.4289     25.6763
  1215.8000      7.8772      2.5737     -0.2227      4.6271    100.2334     26.1635
  1215.9000      7.8772      2.5068     -0.1800      8.6784    111.6895     27.1781
  1216.0000      7.9125      2.5251     -0.0789      7.5680    119.6791     28.1813
  1216.1000      7.9125      2.5833      0.1679      4.0398    126.0061     28.6502
  1216.2000      7.9125      2.6127      0.1519      2.2621    131.2337     28.8081
  1216.3000      7.9404      2.5937      0.1619      3.4117    134.5747     29.0374
  1216.4000      7.9404      2.5514      0.0755      5.9737    138.9681     29.4021
  1216.5000      7.9715      2.5198      0.0546      7.8917    147.4214     29.7264
  1216.6000      7.9715      2.5061      0.0925      8.7232    155.5323     29.7850
  1216.7000      7.9715      2.4952      0.0638      9.3838    158.5224     29.5195
  1216.8000      7.9701      2.4756      0.0654     10.5691    157.9868     29.0863
  1216.9000      7.9701      2.4422      0.0524     12.5940    157.1782     28.7782
  1217.0000      7.9661      2.4060      0.0061     14.7851    157.7079     28.8985
  1217.1000      7.9661      2.3925      0.0000     15.6085    156.5389     29.5311
  1217.2000      7.9661      2.4044      0.0717     14.8823    151.4816     30.2580
  1217.3000      8.0082      2.4150      0.1223     14.2442    145.9212     30.5915
  1217.4000      8.0082      2.4080      0.0852     14.6637    144.9863     30.6017
  1217.5000      8.0824      2.3921      0.1028     15.6312    149.1615     30.6058
  1217.6000      8.0824      2.3768      0.0441     16.5600    152.6447     30.6391
  1217.7000      8.0824      2.3649      0.0827     17.2788    151.4873     30.4891
  1217.8000      8.1671      2.3478      0.0928     18.3155    147.5609     30.3188
  1217.9000      8.1671      2.3078      0.0678     20.7396    143.6059     30.5784
  1218.0000      8.1697      2.2351      0.0418     25.1480    139.8995     31.1972
  1218.1000      8.1697      2.1431     -0.0138     30.7198    136.6583     31.7401
  1218.2000      8.1697      2.0602     -0.0138     35.7432    134.2307     31.9616
  1218.3000      8.1460      1.9958      0.0539     39.6506    131.6635     31.8802
  1218.4000      8.1460      1.9468     -0.0238     42.6179    129.6366     31.6538
  1218.5000      8.0674      1.9227     -0.0073     44.0774    128.3395     31.4326
  1218.6000      8.0674      1.9245      0.0379     43.9713    125.1679     31.2405
  1218.7000      8.0674      1.9433      0.0175     42.8333    123.0865     31.1569
  1218.8000      8.0629      1.9792      0.0566     40.6564    127.7266     31.3154
  1218.9000      8.0629      2.0280      0.1151     37.6963    135.3437     31.7118
  1219.0000      8.0726      2.0769      0.1197     34.7322    140.7669     32.2574
  1219.1000      8.0726      2.1264      0.1314     31.7308    143.1483     32.6907
  1219.2000      8.0726      2.1850      0.1363     28.1816    142.4151     32.6983
  1219.3000      8.0901      2.2427      0.1412     24.6862    140.1345     32.3500
  1219.4000      8.0901      2.2828      0.0980     22.2541    137.5524     31.9279
  1219.5000      8.0729      2.3150      0.0484     20.3005    135.8419     31.5576
