~Version Information
VERS.                      2.0: CWLS Log ASCII Standard - VERSION 2.0
WRAP.                       NO: One line per depth step
~Well Information Block
STRT.FT               240.0000: 
STOP.FT              1043.5000: 
STEP.FT                 0.2500: 
NULL.                -999.2500: 
COMP.          Pioneer Natural Resources: COMPANY
WELL.          Stags Leap 13-30: WELL
FLD.           Purgatorie River: FIELD
LOC.           1813' FSL & 117' FWL: LOCATION
PROV.                 Colorado: PROVINCE
CNTY.               Las Animas: COUNTRY
SRVC.                Patterson: SERVICE COMPANY
DATE.          Thu Dec 08 19:20:57 2005: LOG DATE
UWI.                          : UNIQUE WELL ID
~Curve Information Block
DEPT.FT            0 000 00 00: Depth
DIR.Ohm-m                     : IEL Induction Resistivity
GR.GAPI                       : Gamma Ray
~Parameter Information Block
~A  Depth       DIR          GR     
# ...
   574.5000     14.8974    144.3740
   574.7500     14.5733    146.6450
   575.0000     14.2976    151.7619
   575.2500     14.0570    155.6736
   575.5000     13.8428    160.9110
   575.7500     13.6494    163.5471
   576.0000     13.4732    166.3267
   576.2500     13.3120    167.7055
   576.5000     13.1664    169.5946
   576.7500     13.0414    170.9068
   577.0000     12.9463    172.7784
   577.2500     12.8929    173.5726
   577.5000     12.8928    173.1622
   577.7500     12.9551    171.3469
   578.0000     13.0861    166.2136
   578.2500     13.2892    161.8491
   578.5000     13.5639    155.9793
   578.7500     13.9047    153.6481
   579.0000     14.3001    153.2567
   579.2500     14.7314    154.7256
   579.5000     15.1750    158.0393
   579.7500     15.6071    159.8486
   580.0000     16.0105    160.2271
   580.2500     16.3767    158.5058
   580.5000     16.7049    153.5182
   580.7500     17.0002    149.2653
   581.0000     17.2746    142.2426
   581.2500     17.5485    137.0902
   581.5000     17.8468    128.1278
   581.7500     18.1893    121.1722
   582.0000     18.5824    109.8138
   582.2500     19.0147    102.4263
   582.5000     19.4579     93.4206
   582.7500     19.8704     89.7984
   583.0000     20.2055     89.0306
   583.2500     20.4268     91.6695
   583.5000     20.5251     99.2251
   583.7500     20.5248    105.4354
   584.0000     20.4737    114.1986
   584.2500     20.4242    118.7198
   584.5000     20.4198    123.0569
   584.7500     20.4898    124.5430
   585.0000     20.6500    125.1313
   585.2500     20.9064    124.5105
   585.5000     21.2563    122.0501
   585.7500     21.6897    119.5565
   586.0000     22.1910    115.3222
   586.2500     22.7433    112.7280
   586.5000     23.3327    109.6318
   586.7500     23.9491    107.8696
   587.0000     24.5786    104.8259
   587.2500     25.1938    102.2077
   587.5000     25.7480     97.5987
   587.7500     26.1832     94.5055
   588.0000     26.4494     90.6376
   588.2500     26.5269     88.9322
   588.5000     26.4335     88.0382
   588.7500     26.2086     88.6158
   589.0000     25.8859     91.1583
   589.2500     25.4795     93.7914
   589.5000     24.9925     98.4740
   589.7500     24.4377    101.5114
   590.0000     23.8454    105.0982
   590.2500     23.2540    106.7041
   590.5000     22.6947    108.3616
   590.7500     22.1829    109.3736
   591.0000     21.7190    111.1333
   591.2500     21.2951    112.3485
   591.5000     20.9039    113.8161
   591.7500     20.5458    114.5479
   592.0000     20.2314    115.8039
   592.2500     19.9773    117.0487
   592.5000     19.8015    119.4025
   592.7500     19.7187    120.8403
   593.0000     19.7396    121.8978
   593.2500     19.8710    121.5492
   593.5000     20.1152    119.4640
   593.7500     20.4673    117.3712
   594.0000     20.9136    114.1377
   594.2500     21.4312    112.4309
   594.5000     21.9946    110.8102
   594.7500     22.5859    110.0967
   595.0000     23.2023    108.7334
   595.2500     23.8565    107.1002
   595.5000     24.5670    102.8984
   595.7500     25.3440     98.8478
   596.0000     26.1762     91.4158
   596.2500     27.0273     86.1615
   596.5000     27.8439     79.0789
   596.7500     28.5750     75.5250
   597.0000     29.1893     72.4103
   597.2500     29.6808     71.6046
   597.5000     30.0611     71.3904
   597.7500     30.3470     71.3123
   598.0000     30.5552     70.5564
   598.2500     30.7078     69.5226
   598.5000     30.8358     67.5797
   598.7500     30.9740     66.3876
   599.0000     31.1491     65.1273
   599.2500     31.3741     64.6579
   599.5000     31.6559     64.4541
   599.7500     32.0021     64.6734
   600.0000     32.4179     65.6409
   600.2500     32.8960     66.7218
   600.5000     33.4125     68.7246
   600.7500     33.9356     69.9600
   601.0000     34.4354     71.0108
   601.2500     34.8852     71.0259
   601.5000     35.2547     70.3256
   601.7500     35.5099     69.7025
   602.0000     35.6230     68.9093
   602.2500     35.5847     68.5369
   602.5000     35.4049     68.2335
   602.7500     35.0977     68.2537
   603.0000     34.6631     68.7706
   603.2500     34.0777     69.4619
   603.5000     33.3044     70.7219
   603.7500     32.3170     71.3460
   604.0000     31.1228     71.3395
   604.2500     29.7651     70.5985
   604.5000     28.3037     68.8536
   604.7500     26.7925     67.8073
   605.0000     25.2692     67.3221
   605.2500     23.7586     68.0786
   605.5000     22.2786     71.2644
   605.7500     20.8420     75.0573
   606.0000     19.4584     83.7160
   606.2500     18.1388     91.3465
   606.5000     16.9025    104.2884
   606.7500     15.7761    112.8137
   607.0000     14.7853    123.9233
   607.2500     13.9461    129.8072
   607.5000     13.2616    136.3898
   607.7500     12.7242    139.5677
   608.0000     12.3207    143.1897
   608.2500     12.0357    145.2177
   608.5000     11.8530    148.1306
   608.7500     11.7567    150.1045
   609.0000     11.7331    153.1330
   609.2500     11.7724    155.1157
   609.5000     11.8704    157.5880
   609.7500     12.0282    158.4677
   610.0000     12.2505    158.1334
   610.2500     12.5441    157.0076
   610.5000     12.9177    154.9512
   610.7500     13.3833    153.6943
   611.0000     13.9558    151.4949
   611.2500     14.6505    149.2378
   611.5000     15.4761    144.5076
   611.7500     16.4258    141.1385
   612.0000     17.4721    137.3408
   612.2500     18.5684    136.0646
   612.5000     19.6588    135.3410
   612.7500     20.6902    134.7532
   613.0000     21.6221    132.4199
   613.2500     22.4272    129.6971
   613.5000     23.0870    124.5006
   613.7500     23.5841    120.9927
   614.0000     23.8993    116.9680
   614.2500     24.0124    115.7041
   614.5000     23.9101    116.1837
   614.7500     23.5934    117.5847
   615.0000     23.0816    119.4542
   615.2500     22.4088    119.2559
   615.5000     21.6179    115.3712
   615.7500     20.7544    110.6452
   616.0000     19.8613    102.7891
   616.2500     18.9753     98.8582
   616.5000     18.1240     96.7903
   616.7500     17.3276     97.9212
   617.0000     16.6022    102.1943
   617.2500     15.9630    106.0648
   617.5000     15.4246    112.5635
   617.7500     14.9996    116.9199
   618.0000     14.6966    122.7843
   618.2500     14.5184    126.0318
   618.5000     14.4620    129.9974
   618.7500     14.5178    132.2290
   619.0000     14.6704    135.2496
   619.2500     14.8993    137.0773
   619.5000     15.1809    139.1422
   619.7500     15.4913    139.5780
   620.0000     15.8096    137.9682
   620.2500     16.1194    135.1963
   620.5000     16.4107    128.9893
   620.7500     16.6788    124.2202
   621.0000     16.9226    117.6924
   621.2500     17.1432    114.4626
   621.5000     17.3429    111.5508
   621.7500     17.5254    110.5242
   622.0000     17.6932    109.4763
   622.2500     17.8431    108.8379
   622.5000     17.9593    108.2808
   622.7500     18.0130    108.7231
   623.0000     17.9692    111.5512
   623.2500     17.8002    115.0445
   623.5000     17.4986    122.1028
   623.7500     17.0830    127.3610
   624.0000     16.5935    134.8256
   624.2500     16.0799    138.7883
   624.5000     15.5888    142.1330
   624.7500     15.1565    142.3959
   625.0000     14.8055    140.5292
   625.2500     14.5465    138.5973
   625.5000     14.3803    135.8099
   625.7500     14.3008    134.2289
   626.0000     14.2960    132.2300
   626.2500     14.3473    131.2498
   626.5000     14.4308    130.7377
   626.7500     14.5211    131.1846
   627.0000     14.5968    132.9058
   627.2500     14.6458    134.5173
   627.5000     14.6650    136.9795
   627.7500     14.6575    138.1260
   628.0000     14.6275    138.2784
   628.2500     14.5766    137.1422
   628.5000     14.5008    133.7920
   628.7500     14.3908    130.7489
   629.0000     14.2347    125.6751
   629.2500     14.0233    122.5702
   629.5000     13.7574    119.5408
   629.7500     13.4503    119.0328
   630.0000     13.1248    120.2610
