~Version Information
VERS.                      2.0: CWLS Log ASCII Standard - VERSION 2.0
WRAP.                       NO: One line per depth step
~Well Information Block
STRT.FT                -8.0000: 
STOP.FT              1323.7500: 
STEP.FT                 0.2500: 
NULL.                -999.2500: 
COMP.          Pioneer Natural Resources: COMPANY
WELL.              Geyser 41-2: WELL
FLD.           Purgatorie River: FIELD
LOC.           506' FNL & 1127' FEL--: LOCATION
PROV.                       CO: PROVINCE
CNTY.               Las Animas: COUNTRY
SRVC.          Patterson Wireline: SERVICE COMPANY
DATE.          Tue Dec 06 09:28:14 2005: LOG DATE
UWI.           08 071 08598 00: UNIQUE WELL ID
~Curve Information Block
DEPT.FT            0 000 00 00: Depth
CCL.                          : Casing Collar Locator
TT3.usec                      : CBL 3' Travel Time
AMP3.mV                       : CBL 3' Amplitude
GR.GAPI                       : Gamma Ray
~Parameter Information Block
~A  Depth       CCL         TT3         AMP3         GR     
    -8.0000   -999.2500   -999.2500   -999.2500     97.8341
    -7.7500   -999.2500   -999.2500   -999.2500     99.0088
    -7.5000   -999.2500   -999.2500   -999.2500    102.5455
    -7.2500   -999.2500   -999.2500   -999.2500    108.3520
    -7.0000   -999.2500   -999.2500   -999.2500    115.1940
    -6.7500   -999.2500   -999.2500   -999.2500    120.7183
    -6.5000   -999.2500   -999.2500   -999.2500    122.4012
    -6.2500   -999.2500   -999.2500   -999.2500    119.5042
    -6.0000   -999.2500   -999.2500   -999.2500    113.9200
    -5.7500   -999.2500   -999.2500   -999.2500    108.6552
    -5.5000   -999.2500   -999.2500   -999.2500    105.5812
    -5.2500   -999.2500   -999.2500   -999.2500    104.6074
    -5.0000   -999.2500   -999.2500   -999.2500    104.4721
    -4.7500   -999.2500   -999.2500   -999.2500    103.9368
    -4.5000   -999.2500   -999.2500   -999.2500    102.4560
    -4.2500   -999.2500   -999.2500   -999.2500    100.3457
    -4.0000   -999.2500   -999.2500   -999.2500     98.6753
    -3.7500   -999.2500   -999.2500   -999.2500     98.7609
    -3.5000   -999.2500   -999.2500   -999.2500    101.2240
    -3.2500   -999.2500   1170.0000      0.9798    105.3170
    -3.0000   -999.2500   1170.0000      0.9812    109.3559
    -2.7500   -999.2500   1170.0000      0.9838    111.8797
    -2.5000   -999.2500   1170.0000      0.9858    112.2031
    -2.2500   -999.2500   1170.0000      0.9881    109.9741
    -2.0000   -999.2500   1170.0000      0.9922    104.8681
    -1.7500   -999.2500   1170.0000      0.9993     97.1350
    -1.5000   -999.2500   1170.0000      1.0097     88.0223
    -1.2500   -999.2500   1170.0000      1.0217     79.1602
    -1.0000   -999.2500   1170.0000      1.0316     71.6920
    -0.7500   -999.2500   1170.0000      1.0369     66.1148
    -0.5000   -999.2500   1170.0000      1.0373     62.4244
    -0.2500   -999.2500   1170.0000      1.0340     59.9229
     0.0000   -999.2500   1170.0000      1.0276     57.2786
     0.2500   -999.2500   1170.0000      1.0092     48.7806
     0.5000   -999.2500   1170.0000      1.0009     44.1154
     0.7500   -999.2500   1170.0000      0.9963     40.0854
     1.0000   -999.2500   1170.0000      0.9972     36.8015
     1.2500   -999.2500   1170.0000      1.0022     34.6151
     1.5000   -999.2500   1170.0000      1.0074     34.1347
     1.7500   -999.2500   1170.0000      1.0097     35.4723
     2.0000      0.0000   1170.0000      1.0098     37.9934
     2.2500      0.0000   1170.0000      1.0112     40.7877
     2.5000      0.0000   1170.0000      1.0151     43.0117
     2.7500      0.0000   1170.0000      1.0186     44.0564
     3.0000      0.0000   1170.0000      1.0174     44.0148
     3.2500      0.0000   1170.0000      1.0104     44.0040
     3.5000      0.0000   1170.0000      1.0003     45.6343
     3.7500      0.0000   1170.0000      0.9908     49.9842
     4.0000      0.0000   1170.0000      0.9841     56.9368
     4.2500      0.0000   1170.0000      0.9809     65.2002
     4.5000      0.0000   1170.0000      0.9807     72.8867
     4.7500      0.0000   1170.0000      0.9830     78.3681
     5.0000      0.0000   1170.0000      0.9875     80.9288
     5.2500      0.0000   1170.0000      0.9928     80.8363
     5.5000      0.0000   1170.0000      0.9974     79.0170
     5.7500      0.0000   1169.9458      1.0019     76.6674
     6.0000      0.0000   1169.5875      1.0184     74.8119
     6.2500      0.0000   1167.7601      1.1008     73.7942
     6.5000      0.0000   1160.4943      1.4419     73.0577
     6.7500      0.0000   1137.9607      2.5655     71.6389
     7.0000      0.0000   1083.4347      5.5179     69.1943
     7.2500      0.0000    980.4368     11.7097     66.5802
     7.5000      0.0000    828.4636     22.0559     65.2300
     7.7500      0.0000    653.1802     35.7914     65.8657
     8.0000      0.0000    495.0056     50.2355     67.8969
     8.2500      0.0000    383.2130     62.2296     69.9880
     8.5000      0.0000    321.2551     70.0670     71.0556
     8.7500      0.0000    294.2916     74.0762     70.8615
     9.0000      0.0000    285.0639     75.6653     69.9595
     9.2500      0.0000    282.5755     76.1433     69.1476
     9.5000      0.0000    282.0432     76.2535     68.8831
     9.7500      0.0000    281.9482     76.2870     68.9967
    10.0000      0.0000    281.9341     76.3138     68.7923
    10.2500      0.0000    281.9214     76.3139     67.6227
    10.5000      0.0000    281.9013     76.2062     65.7579
    10.7500      0.0000    281.8688     75.8241     64.6653
    11.0000      0.0000    281.8245     74.9048     66.0470
    11.2500      0.0000    281.7867     73.1366     70.3734
    11.5000      0.0000    281.8147     70.2678     76.3802
    11.7500      0.0000    282.0855     66.2083     81.9356
    12.0000      0.0000    283.1178     61.0686     85.2343
    12.2500      0.0000    286.4312     55.1448     85.4455
    12.5000      0.0000    295.7533     48.8575     82.8841
    12.7500      0.0000    318.1072     42.6311     78.9013
    13.0000      0.0000    362.6011     36.7674     75.3449
    13.2500      0.0000    434.8424     31.4107     73.7128
    13.5000      0.0000    529.4113     26.6032     74.5766
    13.7500      0.0000    628.3723     22.3528     77.5706
    14.0000      0.0000    710.6051     18.6816     81.7096
    14.2500      0.0000    764.7043     15.6564     85.7631
    14.5000      0.0000    793.4294     13.3658     88.5357
    14.7500      0.0000    807.6718     11.8358     88.9644
    15.0000      0.0000    817.8956     10.9625     86.3681
    15.2500      0.0000    829.5087     10.5425     81.0899
    15.5000      2.0000    842.7992     10.3725     74.9332
    15.7500      0.0000    855.5255     10.3287     70.5164
    16.0000      0.0000    865.4388     10.3868     69.7390
    16.2500      0.0000    870.5940     10.6140     72.5371
    16.5000      0.0000    868.7158     11.1302     76.8778
    16.7500      0.0000    858.6694     11.9916     80.1414
    17.0000      0.0000    842.9193     13.0453     80.9444
    17.2500      0.0000    826.8845     13.9528     79.8605
    17.5000      0.0000    815.1642     14.4397     78.5129
    17.7500      0.0000    808.9579     14.5136     78.2138
    18.0000      0.0000    806.8221     14.4096     79.2793
    18.2500      0.0000    806.7784     14.3667     80.9835
    18.5000      0.0000    807.5483     14.4861     81.8882
    18.7500      0.0000    808.7172     14.7393     80.7030
    19.0000      0.0000    810.5136     15.0382     77.4164
    19.2500      0.0000    813.4832     15.2914     73.6553
    19.5000      0.0000    817.9557     15.4347     71.7560
    19.7500      0.0000    823.4320     15.4451     73.0970
    20.0000      0.0000    828.5741     15.3397     76.9099
    20.2500      0.0000    832.1287     15.1641     80.6446
    20.5000      0.0000    833.8620     14.9737     81.8642
    20.7500      0.0000    834.4399     14.8145     80.1783
    21.0000      0.0000    834.6481     14.7134     77.4131
    21.2500      0.0000    834.7773     14.6809     75.8233
    21.5000      0.0000    834.2590     14.7196     75.9925
    21.7500      0.0000    831.8472     14.8213     76.3526
    22.0000      0.0000    826.8512     14.9602     74.6290
    22.2500      0.0000    820.4125     15.0942     69.6792
    22.5000      0.0000    815.2109     15.1799     62.2018
    22.7500      0.0000    813.6211     15.1895     54.2481
    23.0000      0.0000    815.8738     15.1226     48.1999
    23.2500      0.0000    819.6736     15.0048     45.5217
    23.5000      0.0000    821.8989     14.8714     45.8962
    23.7500      0.0000    821.2520     14.7502     47.6745
    24.0000      0.0000    818.8353     14.6565     49.5237
    24.2500      0.0000    815.5777     14.6009     51.5664
    24.5000      0.0000    810.0815     14.5960     54.8491
    24.7500      0.0000    800.3962     14.6544     60.0028
    25.0000      0.0000    787.5077     14.7777     66.6319
    25.2500      0.0000    775.7164     14.9453     73.8125
