~Version Information
VERS.                      2.0: CWLS Log ASCII Standard - VERSION 2.0
WRAP.                       NO: One line per depth step
~Well Information Block
STRT.FT               619.7000: 
STOP.FT               951.7000: 
STEP.FT                 0.1000: 
NULL.                -999.2500: 
COMP.          Pioneer Natural Resources: COMPANY
WELL.          Screamin 12-29 Tr: WELL
FLD.           Purgatoire River: FIELD
LOC.           1979' FNL & 532' FWL--: LOCATION
CNTY.               Las Animas: COUNTY
SRVC.                Patterson: SERVICE COMPANY
DATE.          Fri Mar 31 15:43:57 2006: LOG DATE
UWI.           05 071 08660 00: UNIQUE WELL ID
STAT.                 Colorado: STATE
~Curve Information Block
DEPT.FT            0 000 00 00: Depth
DCAL.in                       : CDL Caliper
RHOB.g/cc                     : CDL Bulk Density
RHOC.g/cc                     : CDL Density Correction
DPOR.pu                       : CDL Density Porosity
GR.GAPI                       : Gamma Ray
~Parameter Information Block
~A  Depth       DCAL        RHOB        RHOC        DPOR         GR     
# ...
   866.1000      7.8741      2.5556      0.0017      5.7207     91.4762
   866.2000      7.8741      2.5411     -0.0143      6.6017     88.5169
   866.3000      7.8696      2.5337      0.0306      7.0508     87.5177
   866.4000      7.8696      2.5371     -0.0306      6.8399     88.3105
   866.5000      7.8709      2.5542      0.0416      5.8040     87.3005
   866.6000      7.8709      2.5767      0.0493      4.4438     83.6898
   866.7000      7.8709      2.5960      0.0679      3.2713     78.3067
   866.8000      7.8775      2.6111      0.0593      2.3567     72.6913
   866.9000      7.8775      2.6236      0.0934      1.6030     70.3942
   867.0000      7.8761      2.6346      0.1055      0.9337     72.7841
   867.1000      7.8761      2.6383      0.1294      0.7082     76.4219
   867.2000      7.8761      2.6283      0.1162      1.3141     78.0518
   867.3000      7.8660      2.6145      0.0668      2.1542     77.7200
   867.4000      7.8660      2.6077      0.0807      2.5656     77.1175
   867.5000      7.8628      2.6002      0.0819      3.0155     78.2549
   867.6000      7.8628      2.5827      0.0643      4.0766     81.6083
   867.7000      7.8628      2.5674      0.0257      5.0068     85.7881
   867.8000      7.8700      2.5759      0.0372      4.4905     87.8165
   867.9000      7.8700      2.6058      0.0365      2.6787     86.5153
   868.0000      7.8745      2.6330      0.0784      1.0283     85.2197
   868.1000      7.8745      2.6431      0.1011      0.4170     87.0609
   868.2000      7.8745      2.6362      0.1269      0.8370     90.8528
   868.3000      7.8729      2.6156      0.0699      2.0825     93.3555
   868.4000      7.8729      2.5924      0.0813      3.4914     95.1983
   868.5000      7.8754      2.5785      0.0477      4.3320     97.7742
   868.6000      7.8754      2.5711      0.0239      4.7835    101.2200
   868.7000      7.8754      2.5575      0.0211      5.6063    107.2414
   868.8000      7.8801      2.5374     -0.0187      6.8269    115.1479
   868.9000      7.8801      2.5272     -0.0751      7.4451    120.0301
   869.0000      7.8806      2.5411      0.0261      6.6026    117.7796
   869.1000      7.8806      2.5695      0.0687      4.8809    112.8657
   869.2000      7.8806      2.5884      0.0807      3.7362    113.3278
   869.3000      7.8773      2.5872      0.1023      3.8045    119.9120
   869.4000      7.8773      2.5826      0.0459      4.0862    127.5370
   869.5000      7.8712      2.5901      0.0875      3.6293    132.9839
   869.6000      7.8712      2.5937      0.1038      3.4127    135.5544
   869.7000      7.8712      2.5690      0.1364      4.9099    133.5217
   869.8000      7.8698      2.5147      0.0702      8.1973    127.6033
   869.9000      7.8698      2.4546      0.0117     11.8414    123.6831
   870.0000      7.8797      2.4152     -0.0204     14.2287    125.3788
   870.1000      7.8797      2.3937      0.0361     15.5307    130.4766
   870.2000      7.8797      2.3650      0.0198     17.2716    136.5755
   870.3000      7.8994      2.3269      0.0003     19.5800    141.2143
   870.4000      7.8994      2.2994      0.0010     21.2507    142.8566
   870.5000      7.9188      2.2931     -0.0254     21.6279    144.5340
   870.6000      7.9188      2.3040      0.0669     20.9693    146.3044
   870.7000      7.9188      2.3228      0.0103     19.8320    146.2556
   870.8000      7.9263      2.3466      0.0772     18.3885    144.5176
   870.9000      7.9263      2.3744      0.0927     16.7027    142.1042
   871.0000      7.9159      2.4030      0.1437     14.9685    141.4147
   871.1000      7.9159      2.4301      0.0739     13.3303    142.0539
   871.2000      7.9159      2.4602      0.1298     11.5057    142.6587
   871.3000      7.8968      2.4965      0.1655      9.3024    143.5601
   871.4000      7.8968      2.5271      0.1892      7.4480    143.2049
   871.5000      7.8831      2.5371      0.0966      6.8423    139.9290
   871.6000      7.8831      2.5332      0.0500      7.0795    135.7825
   871.7000      7.8831      2.5360      0.0262      6.9062    134.8029
   871.8000      7.8798      2.5537      0.0784      5.8334    137.0122
   871.9000      7.8798      2.5730      0.0920      4.6657    138.6092
   872.0000      7.8754      2.5781      0.0752      4.3600    138.7658
   872.1000      7.8754      2.5647      0.0649      5.1677    138.0591
   872.2000      7.8754      2.5419      0.0014      6.5520    136.1521
   872.3000      7.8710      2.5240      0.0254      7.6377    135.5860
   872.4000      7.8710      2.5082      0.0681      8.5966    140.6668
   872.5000      7.8744      2.4927     -0.0007      9.5349    149.5094
   872.6000      7.8744      2.4967      0.0124      9.2931    153.7077
   872.7000      7.8744      2.5189      0.0757      7.9468    150.4252
   872.8000      7.8845      2.5324      0.0709      7.1260    144.9867
   872.9000      7.8845      2.5283      0.0151      7.3782    143.0097
   873.0000      7.8905      2.5123      0.0795      8.3480    147.5552
   873.1000      7.8905      2.4865      0.0711      9.9064    157.1313
   873.2000      7.8905      2.4604      0.0744     11.4894    162.9272
   873.3000      7.8928      2.4498      0.0542     12.1311    158.7901
   873.4000      7.8928      2.4577      0.0591     11.6528    150.4275
   873.5000      7.8974      2.4639      0.1007     11.2780    147.7178
   873.6000      7.8974      2.4469      0.0717     12.3065    151.6276
   873.7000      7.8974      2.4118     -0.0007     14.4389    153.5484
   873.8000      7.9035      2.3736     -0.0016     16.7541    149.8887
   873.9000      7.9035      2.3293     -0.0100     19.4352    145.5613
   874.0000      7.9096      2.2626     -0.0141     23.4786    141.2179
   874.1000      7.9096      2.1520     -0.0091     30.1818    135.0279
   874.2000      7.9096      1.9940     -0.0795     39.7605    132.0063
   874.3000      7.9096      1.8292     -0.1519     49.7425    134.4182
   874.4000      7.9096      1.7112     -0.2067     56.8997    135.9567
   874.5000      7.9003      1.6594     -0.1906     60.0381    131.9692
   874.6000      7.9003      1.6648     -0.1156     59.7098    123.3578
   874.7000      7.9003      1.7204     -0.0920     56.3386    114.8803
   874.8000      7.8896      1.8152      0.1021     50.5956    109.1837
   874.9000      7.8896      1.9052      0.2717     45.1414    103.1690
   875.0000      7.8896      1.9439      0.2939     42.7953     93.6936
   875.1000      7.8896      1.9350      0.2359     43.3335     84.4062
   875.2000      7.8896      1.9106      0.2696     44.8128     80.3195
   875.3000      7.9122      1.8752      0.2494     46.9568     80.0999
   875.4000      7.9122      1.8081      0.1310     51.0266     79.6803
   875.5000      7.9360      1.7082     -0.0371     57.0805     78.4479
   875.6000      7.9360      1.6072     -0.1720     63.1975     77.3009
   875.7000      7.9360      1.5298     -0.1250     67.8880     74.9792
   875.8000      7.9401      1.4767     -0.1129     71.1104     71.1639
   875.9000      7.9401      1.4621     -0.1013     71.9920     66.7686
   876.0000      7.9768      1.5122     -0.0051     68.9578     62.0810
   876.1000      7.9768      1.6216      0.1165     62.3286     56.8770
   876.2000      7.9768      1.7546      0.2189     54.2662     53.9526
   876.3000      8.0422      1.8854      0.2396     46.3414     55.4710
   876.4000      8.0422      2.0155      0.2443     38.4546     59.5233
   876.5000      8.0610      2.1458      0.3064     30.5560     64.7388
   876.6000      8.0610      2.2618      0.2948     23.5276     70.9167
   876.7000      8.0610      2.3548      0.2933     17.8886     77.0256
   876.8000      8.0295      2.4296      0.2377     13.3569     80.6732
   876.9000      8.0295      2.4924      0.1866      9.5493     81.4034
   877.0000      7.9767      2.5325      0.1519      7.1236     81.7410
   877.1000      7.9767      2.5360      0.0495      6.9071     83.2574
   877.2000      7.9767      2.5213      0.0035      7.7979     84.8009
