~Version Information
VERS.                      2.0: CWLS Log ASCII Standard - VERSION 2.0
WRAP.                       NO: One line per depth step
~Well Information Block
STRT.FT                 0.0000: 
STOP.FT               683.5000: 
STEP.FT                 0.2500: 
NULL.                -999.2500: 
COMP.          Pioneer Natural Resources: COMPANY
WELL.           Belvedere 14-7: WELL
FLD.           Purgatorie River: FIELD
LOC.           786' FSL & 1283' FWL: LOCATION
PROV.                 Colorado: PROVINCE
CNTY.               Las Animas: COUNTRY
SRVC.                Patterson: SERVICE COMPANY
DATE.          Fri Dec 02 12:52:31 2005: LOG DATE
UWI.           05-071-08557               : UNIQUE WELL ID
~Curve Information Block
DEPT.FT            0 000 00 00: Depth
CCL.                          : Casing Collar Locator
TT3.usec                      : CBL 3' Travel Time
AMP3.mV                       : CBL 3' Amplitude
GR.GAPI                       : Gamma Ray
~Parameter Information Block
~A  Depth       CCL         TT3         AMP3         GR     
# ...
   268.0000      0.0000    306.1328     17.0631    153.2735
   268.2500      0.0000    306.5968     16.6832    153.1497
   268.5000      0.0000    307.0811     16.4148    149.5653
   268.7500      0.0000    307.7561     16.2245    142.2078
   269.0000      0.0000    309.6903     16.0938    132.3260
   269.2500      0.0000    316.2970     15.9997    122.7103
   269.5000      0.0000    335.2557     15.8604    116.1962
   269.7500      0.0000    378.3847     15.5912    113.8820
   270.0000      0.0000    452.0808     15.2268    114.6838
   270.2500      0.0000    540.4684     14.9082    116.2951
   270.5000      0.0000    609.9513     14.7432    116.7042
   270.7500      0.0000    641.1397     14.7376    115.4745
   271.0000      0.0000    643.7140     14.8459    113.8593
   271.2500      0.0000    637.6876     15.0208    113.4735
   271.5000      0.0000    631.4767     15.2057    114.7664
   271.7500      0.0000    616.4935     15.3691    116.7171
   272.0000      0.0000    580.2310     15.5806    117.8549
   272.2500      0.0000    524.6040     15.9482    117.6639
   272.5000      0.0000    460.6807     16.4555    117.1314
   272.7500      0.0000    397.0911     16.9713    117.8048
   273.0000      0.0000    346.4509     17.4278    120.2277
   273.2500      0.0000    318.4575     17.8706    123.3228
   273.5000      0.0000    308.2983     18.3138    125.2383
   273.7500      0.0000    305.7731     18.6798    124.7323
   274.0000      0.0000    305.2563     18.9104    122.0524
   274.2500      0.0000    305.1661     19.0261    118.7255
   274.5000      0.0000    305.2202     19.0748    116.3295
   274.7500      0.0000    305.3145     19.1068    115.2457
   275.0000      0.0000    305.4162     19.1536    114.3854
   275.2500      0.0000    305.8781     19.1665    111.9358
   275.5000      0.0000    308.9625     19.0187    106.6681
   275.7500      0.0000    323.1480     18.6216     99.0768
   276.0000      0.0000    366.1016     18.0204     91.3582
   276.2500      0.0000    450.7841     17.3489     86.0662
   276.5000      0.0000    558.6763     16.7239     84.5778
   276.7500      0.0000    646.1900     16.2001     86.4272
   277.0000      0.0000    689.2349     15.7819     89.8047
   277.2500      0.0000    700.9420     15.4559     92.8846
   277.5000      0.0000    705.3801     15.2099     94.9602
   277.7500      0.0000    712.8018     15.0364     96.3537
   278.0000      0.0000    720.4911     14.9367     97.4556
   278.2500      0.0000    724.9182     14.8918     98.1055
   278.5000      0.0000    726.4769     14.8375     97.7382
   278.7500      0.0000    726.8533     14.7306     95.9408
   279.0000      0.0000    727.0032     14.6120     93.0976
   279.2500      0.0000    727.1891     14.5447     90.5923
   279.5000      0.0000    727.3354     14.5275     89.9005
   279.7500      0.0000    727.0304     14.5145     91.2119
   280.0000      0.0000    724.3578     14.4957     93.2293
   280.2500      0.0000    712.7656     14.4708     94.4433
   280.5000      0.0000    681.8405     14.3144     94.4355
   280.7500      0.0000    634.4286     13.8456     93.9898
   281.0000      0.0000    601.8875     13.0778     94.1282
   281.2500      0.0000    613.2090     12.1421     95.1715
   281.5000      0.0000    656.2503     11.1425     96.7330
   281.7500      0.0000    701.6568     10.3410     98.2145
   282.0000      0.0000    735.3117      9.9815     99.0786
   282.2500      2.0000    746.6561      9.9076     99.0402
   282.5000     -2.0000    727.5480      9.8037     98.3450
   282.7500     -2.0000    695.0171      9.5803     97.5757
   283.0000      0.0000    682.9107      9.3425     96.8376
   283.2500      0.0000    703.6263      9.1858     95.3168
   283.5000      0.0000    734.5544      9.1513     91.9897
   283.7500      0.0000    745.5207      9.3543     86.7950
   284.0000      0.0000    729.9830      9.8862     80.8221
   284.2500      0.0000    705.5977     10.4480     75.3498
   284.5000      0.0000    691.2202     10.5438     71.1112
   284.7500      0.0000    689.1407     10.1098     68.4415
   285.0000      0.0000    689.9783      9.4915     67.4240
   285.2500      0.0000    688.3875      8.9960     67.6741
   285.5000      0.0000    685.8293      8.7125     68.4227
   285.7500      0.0000    683.6639      8.5723     68.9823
   286.0000      0.0000    681.2063      8.4769     69.0679
   286.2500      0.0000    678.2914      8.3909     68.7915
   286.5000      0.0000    676.5785      8.3479     68.4981
   286.7500      0.0000    677.3376      8.3763     68.6051
   287.0000      0.0000    679.1390      8.4365     69.5265
   287.2500      0.0000    679.2073      8.4671     71.5332
   287.5000      0.0000    675.6221      8.4550     74.5195
   287.7500      0.0000    668.6130      8.4304     78.0646
   288.0000      0.0000    660.7236      8.4163     81.7422
   288.2500      0.0000    654.1589      8.3906     85.0138
   288.5000      0.0000    649.8105      8.3120     86.8741
   288.7500      0.0000    648.4281      8.1846     86.3875
   289.0000      0.0000    648.8829      8.0530     83.9036
   289.2500      0.0000    650.2479      7.9494     81.0375
   289.5000      0.0000    655.2523      7.8830     78.9298
   289.7500      0.0000    664.6137      7.8491     77.0542
   290.0000      0.0000    673.6926      7.8325     74.2714
   290.2500      0.0000    678.8067      7.8195     70.7192
   290.5000      0.0000    680.5896      7.7997     68.1033
   290.7500      0.0000    680.9988      7.7523     68.0962
   291.0000      0.0000    681.0740      7.6538     70.6052
   291.2500      0.0000    681.1062      7.5133     73.7206
   291.5000      0.0000    681.1486      7.3840     75.4966
   291.7500      0.0000    681.1700      7.3184     75.6421
   292.0000      0.0000    681.1078      7.3251     75.1371
   292.2500      0.0000    680.9391      7.3745     74.5076
   292.5000      0.0000    680.7131      7.4250     73.2686
   292.7500      0.0000    680.5374      7.4442     71.1606
   293.0000      0.0000    680.4954      7.4294     69.1603
   293.2500      0.0000    680.5195      7.4020     68.7156
   293.5000      0.0000    680.4725      7.3772     70.1170
   293.7500      0.0000    680.3528      7.3521     71.9510
   294.0000      0.0000    680.2805      7.3167     72.2781
   294.2500      0.0000    680.3556      7.2740     70.3652
   294.5000      0.0000    680.5519      7.2485     67.1796
   294.7500      0.0000    680.7182      7.2625     64.2522
   295.0000      0.0000    680.7762      7.3035     62.3054
   295.2500      0.0000    680.8237      7.3340     61.0809
   295.5000      0.0000    680.9450      7.3303     60.1490
   295.7500      0.0000    681.0850      7.2947     59.4741
   296.0000      0.0000    681.1700      7.2504     59.2246
   296.2500      0.0000    681.2215      7.2283     59.4697
   296.5000      0.0000    681.2877      7.2406     60.2482
   296.7500      0.0000    681.3397      7.2707     61.5630
   297.0000      0.0000    681.3356      7.2883     63.0357
   297.2500      0.0000    681.3400      7.2816     63.8528
   297.5000      0.0000    681.4426      7.2742     63.3978
   297.7500      0.0000    681.6033      7.2928     61.9952
   298.0000      0.0000    681.7360      7.3289     60.9426
   298.2500      0.0000    681.8625      7.3579     61.6887
   298.5000      0.0000    682.0075      7.3748     64.6568
   298.7500      0.0000    682.1050      7.3869     68.5806
   299.0000      0.0000    682.1539      7.3998     71.1762
   299.2500      0.0000    682.2422      7.4206     70.8947
   299.5000      0.0000    682.3580      7.4506     68.0798
   299.7500      0.0000    682.3867      7.4728     64.4770
   300.0000      0.0000    682.3101      7.4688     61.9464
   300.2500      0.0000    682.2358      7.4483     61.6187
   300.5000      0.0000    682.2366      7.4409     63.7071
   300.7500      0.0000    682.2780      7.4580     67.6355
   301.0000      0.0000    682.2763      7.4754     72.2971
   301.2500      0.0000    682.1974      7.4552     76.2862
