~Version Information
VERS.                      2.0: CWLS Log ASCII Standard - VERSION 2.0
WRAP.                       NO: One line per depth step
~Well Information Block
STRT.FT                 0.0000: 
STOP.FT               878.7500: 
STEP.FT                 0.2500: 
NULL.                -999.2500: 
COMP.          Pioneer Natural Resources: COMPANY
WELL.          Screamin 12-29 Tr: WELL
FLD.           Purgatoire River: FIELD
LOC.           1979' FNL & 532' FWL--: LOCATION
CNTY.               Las Animas: COUNTY
SRVC.                Patterson: SERVICE COMPANY
DATE.          Thu Apr 13 22:21:38 2006: LOG DATE
UWI.           05 071 08660 00: UNIQUE WELL ID
STAT.                 Colorado: STATE
~Curve Information Block
DEPT.FT            0 000 00 00: Depth
GR.GAPI                       : Gamma Ray
CCL.                          : Casing Collar Locator
TT3.usec                      : CBL 3' Travel Time
AMP3.mV                       : CBL 3' Amplitude
~Parameter Information Block
~A  Depth        GR         CCL         TT3         AMP3    
# ...
   402.0000    108.0608      0.0000    678.5834      5.2573
   402.2500    110.1645      0.0000    676.7914      5.2623
   402.5000    111.5936      0.0000    671.4335      5.2528
   402.7500    111.6369      0.0000    667.0369      5.2445
   403.0000    111.0673      0.0000    660.9338      5.2481
   403.2500    110.5083      0.0000    657.8047      5.2698
   403.5000    109.5168      0.0000    654.7551      5.3310
   403.7500    108.7884      0.0000    653.6301      5.3789
   404.0000    107.5838      0.0000    652.8352      5.4330
   404.2500    106.5660      0.0000    652.6907      5.4482
   404.5000    104.4374      0.0000    652.8493      5.4442
   404.7500    102.8027      0.0000    653.1161      5.4306
   405.0000    101.2126      0.0000    653.5457      5.4022
   405.2500    101.3652      0.0000    653.7056      5.3811
   405.5000    102.9814      0.0000    653.6000      5.3541
   405.7500    103.9430      0.0000    653.3197      5.3435
   406.0000    103.9898      0.0000    652.7795      5.3403
   406.2500    103.5004      0.0000    652.5007      5.3447
   406.5000    103.7597      0.0000    652.6013      5.3591
   406.7500    104.9384      0.0000    653.4626      5.3733
   407.0000    106.3471      0.0000    657.4261      5.3965
   407.2500    105.3132      0.0000    663.0656      5.4062
   407.5000     99.4858      0.0000    677.5211      5.3996
   407.7500     93.6357      0.0000    690.5926      5.3783
   408.0000     84.9660      0.0000    710.8526      5.3270
   408.2500     80.6376      0.0000    720.8902      5.2877
   408.5000     76.7198      0.0000    725.3102      5.2389
   408.7500     75.2242      0.0000    720.4156      5.2243
   409.0000     73.5945      0.0000    704.9465      5.2384
   409.2500     72.7190      0.0000    693.1029      5.2663
   409.5000     72.0800      0.0000    679.2202      5.3137
   409.7500     72.4442      0.0000    674.6070      5.3353
   410.0000     74.4067      0.0000    675.7015      5.3401
   410.2500     76.3771      0.0000    681.5460      5.3275
   410.5000     79.4188      0.0000    695.9590      5.3071
   410.7500     81.2084      0.0000    706.7050      5.3085
   411.0000     84.0069      0.0000    718.1113      5.3444
   411.2500     86.4561      0.0000    719.2477      5.3843
   411.5000     91.0516      0.0000    710.0032      5.4446
   411.7500     94.2136      0.0000    699.3779      5.4742
   412.0000     98.4099      0.0000    685.1512      5.4952
   412.2500    100.7633      0.0000    680.8528      5.4918
   412.5000    103.1865      0.0000    683.8954      5.4532
   412.7500    103.5103      0.0000    690.5970      5.4029
   413.0000    101.8505      0.0000    703.9686      5.3065
   413.2500     99.9716      0.0000    713.8048      5.2500
   413.5000     97.2604      0.0000    728.0368      5.2090
   413.7500     95.6639      0.0000    734.8624      5.2123
   414.0000     93.3465      0.0000    735.6924      5.2404
   414.2500     92.1853      0.0000    728.1500      5.2612
   414.5000     92.3829      0.0000    707.1652      5.2916
   414.7500     94.1192      0.0000    690.9611      5.3177
   415.0000     97.5785      0.0000    670.9456      5.3727
   415.2500     98.9608      0.0000    662.8931      5.4160
   415.5000     98.6498      0.0000    658.9080      5.4778
   415.7500     97.6828      0.0000    660.4881      5.5133
   416.0000     97.1401      0.0000    666.5037      5.5602
   416.2500     97.7535      0.0000    670.9763      5.5874
   416.5000     99.1153      0.0000    674.8165      5.6143
   416.7500     99.3684      0.0000    674.1941      5.6176
   417.0000     97.6005      0.0000    669.1179      5.6035
   417.2500     94.9220      0.0000    664.7440      5.5914
   417.5000     89.5636      0.0000    660.1724      5.5840
   417.7500     85.8258      0.0000    659.7631      5.5838
   418.0000     81.0908      0.0000    663.4803      5.5666
   418.2500     79.2327      0.0000    668.0481      5.5277
   418.5000     79.8144      0.0000    675.6550      5.4105
   418.7500     82.8231      0.0000    679.9767      5.2910
   419.0000     89.9428      0.0000    684.7719      5.0657
   419.2500     94.6475      0.0000    687.9609      4.9086
   419.5000     98.8654      0.0000    696.7974      4.7146
   419.7500     99.3213      0.0000    707.6025      4.6329
   420.0000     97.6113      1.6125    730.5895      4.5814
   420.2500     95.8702     -2.0000    746.4512      4.5790
   420.5000     93.5482     -2.0000    760.8073      4.5929
   420.7500     92.6782      0.0000    759.4296      4.6022
   421.0000     93.3156      0.0000    740.3519      4.6146
   421.2500     95.4036      0.0000    720.5633      4.6334
   421.5000    100.3230      0.0000    691.1257      4.7089
   421.7500    103.5696      0.0000    676.8398      4.8001
   422.0000    106.2655      0.0000    666.7995      4.9730
   422.2500    106.1836      0.0000    666.6553      5.0822
   422.5000    104.1797      0.0000    671.9117      5.1995
   422.7500    102.6304      0.0000    676.4411      5.2448
   423.0000    101.5294      0.0000    681.6348      5.2798
   423.2500    102.0987      0.0000    683.1390      5.2894
   423.5000    104.7574      0.0000    682.1971      5.2865
   423.7500    106.8770      0.0000    679.8680      5.2703
   424.0000    108.3671      0.0000    675.5390      5.2174
   424.2500    107.6443      0.0000    673.3621      5.1620
   424.5000    105.3993      0.0000    672.5040      5.0603
   424.7500    104.3753      0.0000    673.5679      4.9920
   425.0000    103.5422      0.0000    677.4153      4.9051
   425.2500    102.1267      0.0000    681.6931      4.8603
   425.5000     97.0839      0.0000    690.7133      4.8094
   425.7500     92.4694      0.0000    697.2924      4.7815
   426.0000     86.6690      0.0000    703.6961      4.7401
   426.2500     84.7853      0.0000    703.2134      4.7113
   426.5000     84.9093      0.0000    694.8962      4.6725
   426.7500     86.2491      0.0000    686.6318      4.6552
   427.0000     88.9707      0.0000    675.6714      4.6506
   427.2500     90.8433      0.0000    671.4387      4.6650
   427.5000     93.4911      0.0000    670.3378      4.7141
   427.7500     95.1368      0.0000    672.5554      4.7604
   428.0000     97.2221      0.0000    679.6286      4.8338
   428.2500     98.2128      0.0000    686.5380      4.8752
   428.5000     99.5070      0.0000    697.9787      4.9140
   428.7500    100.9360      0.0000    703.7651      4.9203
   429.0000    104.8219      0.0000    705.8934      4.8996
   429.2500    108.1997      0.0000    702.8802      4.8697
   429.5000    112.1666      0.0000    695.1871      4.8141
   429.7500    112.6523      0.0000    690.3296      4.7777
   430.0000    109.4666      0.0000    685.4525      4.7328
   430.2500    105.6600      0.0000    683.7907      4.7113
   430.5000     99.9138      0.0000    683.4389      4.6911
   430.7500     97.0545      0.0000    685.1937      4.6847
   431.0000     94.5790      0.0000    692.5750      4.6844
   431.2500     93.9468      0.0000    700.8940      4.6888
   431.5000     94.2342      0.0000    715.2239      4.6975
   431.7500     95.1300      0.0000    722.4840      4.7045
   432.0000     97.1996      0.0000    725.6163      4.7227
   432.2500     98.7836      0.0000    723.1324      4.7404
   432.5000    101.0061      0.0000    717.7365      4.7654
   432.7500    102.1818      0.0000    715.7811      4.7756
   433.0000    103.1606      0.0000    716.2139      4.7859
   433.2500    103.1428      0.0000    717.5004      4.7962
   433.5000    102.2963      0.0000    718.8740      4.8181
   433.7500    101.6081      0.0000    719.5071      4.8299
   434.0000    100.9762      0.0000    721.8071      4.8312
   434.2500    100.6619      0.0000    724.5541      4.8200
   434.5000     99.6080      0.0000    727.9996      4.7940
   434.7500     98.5509      0.0000    728.1400      4.7780
   435.0000     97.7153      0.0000    726.0443      4.7643
   435.2500     98.3594      0.0000    725.5444      4.7615
