~Version Information
VERS.                      2.0: CWLS Log ASCII Standard - VERSION 2.0
WRAP.                       NO: One line per depth step
~Well Information Block
STRT.FT               520.0000: 
STOP.FT              1373.0000: 
STEP.FT                 0.1000: 
NULL.                -999.2500: 
COMP.          Pioneer Natural Resources: COMPANY
WELL.            Gamma 13-3 Tr: WELL
FLD.           Purgatoire River: FIELD
LOC.           2127' FSL & 738' FWL: LOCATION
STAT.                 Colorado: State
CNTY.               Las Animas: COUNTY
CTRY.                      USA: Country
SECT.                        3: Section
TOWN.                       33S: Township
RANG.                       67W: Range
SRVC.                Patterson: SERVICE COMPANY
DATE.          Mon Sep 19 09:58:04 2005: LOG DATE
API.           05 071 08524 00: API
~Curve Information Block
DEPT.FT            0 000 00 00: Depth
DPOR.pu                       : CDL Density Porosity
GR.GAPI                       : Gamma Ray
NPOR.pu                       : Neutron Porosity
RHOB.g/cc                     : CDL Bulk Density
RHOC.g/cc                     : CDL Density Correction
DCAL.in                       : CDL Caliper
~Parameter Information Block
~A  Depth       DPOR         GR         NPOR        RHOB        RHOC        DCAL    
# ...
  1240.0000      7.0481    157.1318     28.9476      2.5337      0.1942      8.3042
  1240.1000      5.4513    159.4371     28.2530      2.5601      0.2797      8.3042
  1240.2000      4.2893    157.4617     27.8207      2.5792      0.2332      8.3042
  1240.3000      2.9659    153.7651     27.9976      2.6011      0.1964      8.4698
  1240.4000      1.3989    155.0245     28.4463      2.6269      0.1874      8.4698
  1240.5000      0.3734    161.8444     28.7605      2.6438      0.1761      8.4743
  1240.6000      0.2836    166.1011     28.3334      2.6453      0.1709      8.4743
  1240.7000      1.2361    162.5247     27.0683      2.6296      0.2304      8.4743
  1240.8000      3.1548    154.8224     26.2726      2.5979      0.1173      8.3230
  1240.9000      5.1756    152.3878     26.1660      2.5646      0.0759      8.3230
  1241.0000      6.6562    159.0228     25.6599      2.5402      0.0695      8.1703
  1241.1000      7.7287    165.6245     24.8098      2.5225      0.0189      8.1703
  1241.2000      8.5678    163.9204     24.4344      2.5086      0.0379      8.1703
  1241.3000      9.3970    157.1817     24.6513      2.4949      0.0419      8.0807
  1241.4000     10.4287    153.6659     25.2085      2.4779      0.0398      8.0807
  1241.5000     11.1426    156.3131     26.0968      2.4661     -0.0370      8.0521
  1241.6000     10.8696    160.6514     26.9304      2.4707     -0.0140      8.0521
  1241.7000      9.8846    162.6808     27.1552      2.4869     -0.0048      8.0521
  1241.8000      8.4156    162.0293     27.0121      2.5111      0.0322      8.0549
  1241.9000      6.3568    157.6652     27.1713      2.5451      0.0570      8.0549
  1242.0000      3.4278    149.7427     27.7279      2.5934      0.0241      8.0559
  1242.1000     -0.3451    141.4774     27.9077      2.6557      0.0921      8.0559
  1242.2000     -3.9545    136.6529     27.4706      2.7152      0.0960      8.0559
  1242.3000     -7.6903    131.8243     27.2521      2.7769      0.0944      8.0440
  1242.4000    -13.1359    118.8419     27.3796      2.8667      0.1498      8.0440
  1242.5000    -19.3358    102.7415     26.8835      2.9690      0.1788      8.0212
  1242.6000    -22.9987     93.3667     25.7484      3.0295      0.1413      8.0212
  1242.7000    -22.1339     87.4842     25.3517      3.0152      0.0885      8.0212
  1242.8000    -17.2850     81.6323     25.9267      2.9352      0.0345      7.9906
  1242.9000    -11.0593     79.9306     26.2377      2.8325     -0.0434      7.9906
  1243.0000     -6.4915     82.4477     25.4833      2.7571     -0.0245      7.9819
  1243.1000     -3.3218     83.6481     24.1020      2.7048      0.1515      7.9819
  1243.2000      0.7474     80.9483     22.7487      2.6377      0.0680      7.9819
  1243.3000      4.6846     78.4911     21.2974      2.5727     -0.0467      8.0034
  1243.4000      6.0822     80.6428     19.4790      2.5496     -0.0159      8.0034
  1243.5000      5.8660     84.6897     17.4232      2.5532      0.0161      8.0223
  1243.6000      5.9270     85.1216     15.9577      2.5522     -0.0039      8.0223
  1243.7000      6.4088     79.1070     15.8040      2.5443      0.0132      8.0223
  1243.8000      7.0765     67.7947     16.4208      2.5332     -0.0063      8.0424
  1243.9000      7.5931     57.9550     16.8628      2.5247      0.0201      8.0424
  1244.0000      7.6679     57.1731     16.9427      2.5235      0.0197      8.0623
  1244.1000      7.8080     63.4738     16.8388      2.5212      0.0421      8.0623
  1244.2000      8.3965     68.6115     16.5843      2.5115      0.0083      8.0623
  1244.3000      9.0346     69.9738     16.2600      2.5009     -0.0162      8.0763
  1244.4000      9.2823     71.2741     16.0117      2.4968     -0.0067      8.0763
  1244.5000      8.9317     73.0332     15.8575      2.5026      0.0014      8.0883
  1244.6000      7.8282     73.7257     15.7751      2.5208      0.0117      8.0883
  1244.7000      6.1760     74.8584     15.8362      2.5481      0.0685      8.0883
  1244.8000      4.8361     74.3701     15.9395      2.5702      0.0712      8.0920
  1244.9000      4.4322     68.3932     15.8133      2.5769      0.0539      8.0920
  1245.0000      4.9462     61.5165     15.5933      2.5684      0.0782      8.0770
  1245.1000      5.8487     59.9674     15.4324      2.5535      0.0162      8.0770
  1245.2000      5.9854     60.8327     15.0758      2.5512      0.0423      8.0770
  1245.3000      5.2855     60.3351     14.5630      2.5628      0.0795      8.0469
  1245.4000      4.7718     60.4975     14.3665      2.5713      0.0586      8.0469
  1245.5000      4.5897     60.5401     14.6331      2.5743      0.0448      8.0211
  1245.6000      4.6301     58.3190     14.9958      2.5736      0.0801      8.0211
  1245.7000      4.8883     56.6727     15.4476      2.5693      0.0261      8.0211
  1245.8000      4.8461     58.6583     16.3706      2.5700      0.0419      8.0106
  1245.9000      4.4211     61.1424     17.6772      2.5771      0.0641      8.0106
  1246.0000      4.2306     58.9007     19.1120      2.5802      0.0443      8.0118
  1246.1000      4.4013     54.2781     19.9252      2.5774     -0.0024      8.0118
  1246.2000      4.2229     53.8236     19.6006      2.5803     -0.0000      8.0118
  1246.3000      3.5235     59.4467     19.1138      2.5919      0.0362      8.0192
  1246.4000      3.0310     65.4574     19.6276      2.6000      0.0554      8.0192
  1246.5000      3.5256     69.1157     20.9271      2.5918      0.0569      8.0296
  1246.6000      5.0098     72.7856     22.2057      2.5673      0.0288      8.0296
  1246.7000      6.5448     76.8670     23.1805      2.5420      0.0107      8.0296
  1246.8000      7.6759     79.9348     23.9766      2.5233     -0.0116      8.0350
  1246.9000      8.7661     80.0658     24.6277      2.5054      0.0026      8.0350
  1247.0000      9.6645     78.9299     24.5978      2.4905     -0.0595      8.0297
  1247.1000      9.7948     78.3439     23.4677      2.4884     -0.0033      8.0297
  1247.2000      9.3274     77.3300     22.2413      2.4961      0.0087      8.0297
  1247.3000      8.3032     79.0581     21.9208      2.5130      0.0120      8.0159
  1247.4000      6.7097     87.0602     22.3068      2.5393      0.0665      8.0159
  1247.5000      5.5648     94.4593     22.9176      2.5582      0.0973      8.0034
  1247.6000      5.3410     93.1882     22.9190      2.5619      0.0601      8.0034
  1247.7000      4.9588     86.5852     22.0639      2.5682      0.0592      8.0034
  1247.8000      3.9012     82.9840     21.0809      2.5856      0.1339      7.9938
  1247.9000      3.1388     82.8071     20.2727      2.5982      0.1059      7.9938
  1248.0000      3.2379     78.6915     19.4913      2.5966      0.0915      7.9827
  1248.1000      3.6643     69.4673     18.7089      2.5895      0.0510      7.9827
  1248.2000      4.1025     61.4892     18.2311      2.5823      0.0515      7.9827
  1248.3000      4.9032     56.5712     17.8513      2.5691      0.0288      7.9726
  1248.4000      6.2703     52.5309     16.9822      2.5465      0.0956      7.9726
  1248.5000      7.8810     50.4700     15.9510      2.5200      0.0420      7.9690
  1248.6000      9.3224     52.7113     15.2851      2.4962      0.0110      7.9690
  1248.7000     10.5751     58.9072     14.5910      2.4755      0.0069      7.9690
  1248.8000     11.2968     64.8155     13.6429      2.4636      0.0159      7.9722
  1248.9000     10.6280     66.4190     13.1899      2.4746     -0.0324      7.9722
  1249.0000      8.4429     64.0462     13.4275      2.5107     -0.0118      7.9850
  1249.1000      6.1973     60.6028     13.7590      2.5477      0.0819      7.9850
  1249.2000      5.0230     58.3178     14.1758      2.5671      0.0374      7.9850
  1249.3000      4.6043     57.5836     14.8552      2.5740      0.0955      8.0141
  1249.4000      5.1184     55.6130     15.4302      2.5655      0.0643      8.0141
  1249.5000      6.6793     50.6412     15.6832      2.5398      0.0459      8.0447
