~Version Information
VERS.                      2.0: CWLS Log ASCII Standard - VERSION 2.0
WRAP.                       NO: One line per depth step
~Well Information Block
STRT.FT               370.0000: 
STOP.FT              2832.5000: 
STEP.FT                 0.1000: 
NULL.                -999.2500: 
COMP.          Pioneer Natural Resources: COMPANY
WELL.          Black Cat 13-32: WELL
FLD.           Purgatoire River: FIELD
LOC.           1865' FSL & 1120' FWL--: LOCATION
PROV.                 Colorado: PROVINCE
CNTY.               Las Animas: COUNTRY
SRVC.                Patterson: SERVICE COMPANY
DATE.          Sun Jul 31 08:38:44 2005: LOG DATE
UWI.           05 071 08450 00: UNIQUE WELL ID
~Curve Information Block
DEPT.FT            0 000 00 00: Depth
DCAL.in                       : CDL Caliper
DPOR.pu                       : CDL Density Porosity
NPOR.pu                       : Neutron Porosity
RHOB.g/cc                     : CDL Bulk Density
RHOC.g/cc                     : CDL Density Correction
GR.GAPI                       : Gamma Ray
~Parameter Information Block
~A  Depth       DCAL        DPOR        NPOR        RHOB        RHOC         GR     
# ...
  2050.0000      8.1189     18.6309     33.0350      2.3426      0.1067    156.5365
  2050.1000      8.1189     18.3172     32.4695      2.3478      0.2275    166.1128
  2050.2000      8.1189     18.5930     32.0799      2.3432      0.1781    169.1055
  2050.3000      8.0959     18.3126     31.7843      2.3478      0.1835    164.7052
  2050.4000      8.0959     16.1578     31.6592      2.3834      0.2331    164.3932
  2050.5000      8.1129     12.9386     31.6121      2.4365      0.3069    182.3454
  2050.6000      8.1129     10.1848     31.3649      2.4820      0.3393    206.3222
  2050.7000      8.1129      8.6841     30.8559      2.5067      0.3432    209.0342
  2050.8000      8.1492      8.4701     30.5256      2.5102      0.3133    187.9406
  2050.9000      8.1492      9.3025     30.8305      2.4965      0.2976    167.1173
  2051.0000      8.2245     11.2961     31.6533      2.4636      0.3079    159.3709
  2051.1000      8.2245     15.5740     32.6914      2.3930      0.3002    159.7040
  2051.2000      8.2245     22.5591     33.5805      2.2778      0.1979    167.5081
  2051.3000      8.3230     29.5504     33.8100      2.1624      0.0378    181.0048
  2051.4000      8.3230     33.3374     33.2910      2.0999      0.0300    188.5329
  2051.5000      8.3538     33.9401     32.7310      2.0900      0.0474    188.9710
  2051.6000      8.3538     32.6204     32.5313      2.1118      0.0316    186.7332
  2051.7000      8.3538     29.6157     32.3660      2.1613      0.1195    174.5414
  2051.8000      8.3255     25.6082     32.1022      2.2275      0.3008    158.5824
  2051.9000      8.3255     21.8851     31.8319      2.2889      0.3465    152.7370
  2052.0000      8.3533     18.9959     31.6458      2.3366      0.3452    152.6246
  2052.1000      8.3533     16.9735     31.7229      2.3699      0.3078    150.0526
  2052.2000      8.3533     15.8707     32.0036      2.3881      0.2588    146.2788
  2052.3000      8.4280     15.9599     32.3244      2.3867      0.2489    142.7123
  2052.4000      8.4280     17.6184     32.5525      2.3593      0.2756    138.2362
  2052.5000      8.4250     19.9314     32.5907      2.3211      0.1930    140.6750
  2052.6000      8.4250     20.8335     32.6464      2.3062      0.1667    156.4021
  2052.7000      8.4250     19.8754     32.7404      2.3221      0.2121    175.9320
  2052.8000      8.3460     18.2850     32.6877      2.3483      0.1802    191.3589
  2052.9000      8.3460     16.7562     32.5058      2.3735      0.1419    202.4955
  2053.0000      8.3180     14.8052     32.1890      2.4057      0.1282    203.1217
  2053.1000      8.3180     11.9880     31.6600      2.4522      0.2099    186.6676
  2053.2000      8.3180      9.2933     30.9691      2.4967      0.2441    162.4554
  2053.3000      8.3683      7.8649     30.1470      2.5202      0.2628    143.9195
  2053.4000      8.3683      7.4561     29.1686      2.5270      0.2495    132.6434
  2053.5000      8.4285      7.4399     28.4558      2.5272      0.2459    129.2372
  2053.6000      8.4285      7.8460     28.4966      2.5205      0.1719    137.3051
  2053.7000      8.4285      8.4496     28.9042      2.5106      0.1369    149.9984
  2053.8000      8.4370      8.3752     29.1500      2.5118      0.0802    154.1708
  2053.9000      8.4370      7.3473     29.4151      2.5288      0.0875    150.0588
  2054.0000      8.3592      5.8162     29.7757      2.5540      0.0630    148.6603
  2054.1000      8.3592      4.1661     29.9870      2.5813      0.0552    151.7612
  2054.2000      8.3592      3.0398     30.1765      2.5998      0.0623    158.2531
  2054.3000      8.2363      3.2589     30.2737      2.5962      0.0858    165.0173
  2054.4000      8.2363      4.3448     29.8555      2.5783      0.0383    166.7240
  2054.5000      8.1879      4.4578     28.9347      2.5764      0.0188    164.5175
  2054.6000      8.1879      3.2437     28.1689      2.5965      0.0899    160.7011
  2054.7000      8.1879      2.4091     28.2461      2.6102      0.0916    157.3818
  2054.8000      8.2056      2.6517     28.6981      2.6062      0.0765    158.5953
  2054.9000      8.2056      3.2545     28.5142      2.5963      0.0723    162.6034
  2055.0000      8.2230      3.6609     28.0869      2.5896      0.0300    163.2310
  2055.1000      8.2230      3.7450     28.2470      2.5882      0.0583    158.9988
  2055.2000      8.2230      3.8119     28.4300      2.5871      0.0660    159.1688
  2055.3000      8.2259      4.0248     28.2111      2.5836      0.0394    168.8719
  2055.4000      8.2259      4.1910     28.2847      2.5808      0.0613    177.3989
  2055.5000      8.2238      4.3220     28.8463      2.5787      0.0343    176.5185
  2055.6000      8.2238      4.7672     29.2376      2.5713      0.0442    171.6934
  2055.7000      8.2238      5.8739     29.2873      2.5531      0.0405    172.5056
  2055.8000      8.2226      7.4914     29.6216      2.5264      0.0110    175.3027
  2055.9000      8.2226      9.1561     30.2857      2.4989     -0.0251    167.8945
  2056.0000      8.2257     10.4773     30.5027      2.4771     -0.0075    150.8071
  2056.1000      8.2257     10.8417     30.0410      2.4711     -0.0529    132.4289
  2056.2000      8.2257      9.8863     29.6772      2.4869      0.0182    122.7139
  2056.3000      8.2306      8.9473     29.7037      2.5024      0.0546    134.3559
  2056.4000      8.2306      9.4665     29.6833      2.4938      0.0247    158.7591
  2056.5000      8.2338     10.8046     29.4376      2.4717      0.0263    173.9316
  2056.6000      8.2338     11.7877     29.2474      2.4555      0.0672    182.3769
  2056.7000      8.2338     12.2370     29.4575      2.4481      0.0530    193.8240
  2056.8000      8.2380     12.0531     30.1076      2.4511      0.0618    202.0072
  2056.9000      8.2380     10.6695     31.1479      2.4740      0.0816    199.3769
  2057.0000      8.2440      8.1489     32.0753      2.5155      0.1869    182.6299
  2057.1000      8.2440      5.7796     32.2444      2.5546      0.1999    162.9554
  2057.2000      8.2440      4.5840     31.8134      2.5744      0.2142    163.0760
  2057.3000      8.2484      4.6677     31.1598      2.5730      0.2166    186.0928
  2057.4000      8.2484      5.7704     30.5402      2.5548      0.2625    207.7041
  2057.5000      8.2508      7.1327     30.3573      2.5323      0.2024    204.1788
  2057.6000      8.2508      7.8836     30.5379      2.5199      0.2163    184.6324
  2057.7000      8.2508      8.1017     30.7301      2.5163      0.1766    171.3675
  2057.8000      8.2615      8.5334     30.8888      2.5092      0.1657    167.8038
  2057.9000      8.2615      9.4702     30.9452      2.4937      0.0722    166.9670
  2058.0000      8.3035     10.0957     30.7948      2.4834      0.0120    165.5869
  2058.1000      8.3035      9.9374     30.6534      2.4860      0.0348    163.5339
  2058.2000      8.3035     10.1158     31.0496      2.4831      0.0641    160.5566
  2058.3000      8.3668     11.7025     32.0644      2.4569      0.0547    162.6762
  2058.4000      8.3668     14.4449     33.0281      2.4117      0.0396    179.9693
  2058.5000      8.3983     17.5298     33.2616      2.3608      0.0505    199.0981
  2058.6000      8.3983     20.3606     32.8236      2.3141      0.0113    195.9057
  2058.7000      8.3983     22.6025     32.3550      2.2771      0.0338    176.2835
  2058.8000      8.3944     23.7870     32.2152      2.2575     -0.0081    160.0536
  2058.9000      8.3944     22.9852     32.3889      2.2707      0.0553    153.0192
  2059.0000      8.3741     20.3902     32.7271      2.3136      0.1188    148.1924
  2059.1000      8.3741     17.7147     33.0062      2.3577      0.1546    139.9688
  2059.2000      8.3741     15.5602     32.9551      2.3933      0.1476    136.1794
  2059.3000      8.3368     12.8614     32.3900      2.4378      0.3132    145.6729
  2059.4000      8.3368      9.7125     31.6386      2.4897      0.3968    163.8290
  2059.5000      8.3142      7.4659     31.4070      2.5268      0.4036    180.7520
