~Version Information
VERS.                      2.0: CWLS Log ASCII Standard - VERSION 2.0
WRAP.                       NO: One line per depth step
~Well Information Block
STRT.FT                -6.2500: 
STOP.FT              2245.0000: 
STEP.FT                 0.0500: 
NULL.                -999.2500: 
COMP.          Pioneer Natural Resources: COMPANY
WELL.          Roadster 41-33 Kv: WELL
FLD.           Purgatoire River: FIELD
LOC.           903' FNL & 248' FEL--: LOCATION
PROV.                 Colorado: PROVINCE
CNTY.               Las Animas: COUNTRY
SRVC.                Patterson: SERVICE COMPANY
DATE.          Tue Jan 17 11:20:00 2006: LOG DATE
UWI.           05 071 08615 00: UNIQUE WELL ID
~Curve Information Block
DEPT.FT            0 000 00 00: Depth
CCL.                          : Casing Collar Locator
TT3.usec                      : CBL 3' Travel Time
AMP3.mV                       : CBL 3' Amplitude
GR.GAPI                       : Gamma Ray
~Parameter Information Block
~A  Depth       CCL         TT3         AMP3         GR     
# ...
   449.3500      0.0000    765.1103      7.9215     48.2026
   449.4000      0.0000    765.1103      7.9215     48.2026
   449.4500      0.0000    765.1103      7.9215     48.2026
   449.5000      0.0000    765.1400      7.8467     44.8407
   449.5500      0.0000    765.1400      7.8467     44.8407
   449.6000      0.0000    765.1400      7.8467     44.8407
   449.6500      0.0000    765.1400      7.8467     44.8407
   449.7000      0.0000    765.1400      7.8467     44.8407
   449.7500      0.0000    765.0527      7.7370     43.5840
   449.8000      0.0000    765.0527      7.7370     43.5840
   449.8500      0.0000    765.0527      7.7370     43.5840
   449.9000      0.0000    765.0527      7.7370     43.5840
   449.9500      0.0000    765.0527      7.7370     43.5840
   450.0000      0.0000    764.5591      7.6361     43.5819
   450.0500      0.0000    764.5591      7.6361     43.5819
   450.1000      0.0000    764.5591      7.6361     43.5819
   450.1500      0.0000    764.5591      7.6361     43.5819
   450.2000      0.0000    764.5591      7.6361     43.5819
   450.2500      0.0000    763.2985      7.5765     43.7606
   450.3000      0.0000    763.2985      7.5765     43.7606
   450.3500      0.0000    763.2985      7.5765     43.7606
   450.4000      0.0000    763.2985      7.5765     43.7606
   450.4500      0.0000    763.2985      7.5765     43.7606
   450.5000      0.0000    761.2999      7.5702     43.6207
   450.5500      0.0000    761.2999      7.5702     43.6207
   450.6000      0.0000    761.2999      7.5702     43.6207
   450.6500      0.0000    761.2999      7.5702     43.6207
   450.7000      0.0000    761.2999      7.5702     43.6207
   450.7500      0.0000    759.3487      7.6098     43.0875
   450.8000      0.0000    759.3487      7.6098     43.0875
   450.8500      0.0000    759.3487      7.6098     43.0875
   450.9000      0.0000    759.3487      7.6098     43.0875
   450.9500      0.0000    759.3487      7.6098     43.0875
   451.0000      0.0000    758.6324      7.6729     42.3459
   451.0500      0.0000    758.6324      7.6729     42.3459
   451.1000      0.0000    758.6324      7.6729     42.3459
   451.1500      0.0000    758.6324      7.6729     42.3459
   451.2000      0.0000    758.6324      7.6729     42.3459
   451.2500      0.0000    759.7324      7.7335     42.0260
   451.3000      0.0000    759.7324      7.7335     42.0260
   451.3500      0.0000    759.7324      7.7335     42.0260
   451.4000      0.0000    759.7324      7.7335     42.0260
   451.4500      0.0000    759.7324      7.7335     42.0260
   451.5000      0.0000    762.0594      7.7755     42.7961
   451.5500      0.0000    762.0594      7.7755     42.7961
   451.6000      0.0000    762.0594      7.7755     42.7961
   451.6500      0.0000    762.0594      7.7755     42.7961
   451.7000      0.0000    762.0594      7.7755     42.7961
   451.7500      0.0000    764.4456      7.7995     44.3235
   451.8000      0.0000    764.4456      7.7995     44.3235
   451.8500      0.0000    764.4456      7.7995     44.3235
   451.9000      0.0000    764.4456      7.7995     44.3235
   451.9500      0.0000    764.4456      7.7995     44.3235
   452.0000      0.0000    766.1191      7.8160     45.1220
   452.0500      0.0000    766.1191      7.8160     45.1220
   452.1000      0.0000    766.1191      7.8160     45.1220
   452.1500      0.0000    766.1191      7.8160     45.1220
   452.2000      0.0000    766.1191      7.8160     45.1220
   452.2500      0.0000    767.0027      7.8351     43.8267
   452.3000      0.0000    767.0027      7.8351     43.8267
   452.3500      0.0000    767.0027      7.8351     43.8267
   452.4000      0.0000    767.0027      7.8351     43.8267
   452.4500      0.0000    767.0027      7.8351     43.8267
   452.5000      0.0000    767.3412      7.8564     40.3817
   452.5500      0.0000    767.3412      7.8564     40.3817
   452.6000      0.0000    767.3412      7.8564     40.3817
   452.6500      0.0000    767.3412      7.8564     40.3817
   452.7000      0.0000    767.3412      7.8564     40.3817
   452.7500      0.0000    767.2477      7.8677     35.8981
   452.8000      0.0000    767.2477      7.8677     35.8981
   452.8500      0.0000    767.2477      7.8677     35.8981
   452.9000      0.0000    767.2477      7.8677     35.8981
   452.9500      0.0000    767.2477      7.8677     35.8981
   453.0000      0.0000    766.4614      7.8576     31.6792
   453.0500      0.0000    766.4614      7.8576     31.6792
   453.1000      0.0000    766.4614      7.8576     31.6792
   453.1500      0.0000    766.4614      7.8576     31.6792
   453.2000      0.0000    766.4614      7.8576     31.6792
   453.2500      0.0000    764.4222      7.8316     28.5332
   453.3000      0.0000    764.4222      7.8316     28.5332
   453.3500      0.0000    764.4222      7.8316     28.5332
   453.4000      0.0000    764.4222      7.8316     28.5332
   453.4500      0.0000    764.4222      7.8316     28.5332
   453.5000      0.0000    760.8168      7.8043     26.7981
   453.5500      0.0000    760.8168      7.8043     26.7981
   453.6000      0.0000    760.8168      7.8043     26.7981
   453.6500      0.0000    760.8168      7.8043     26.7981
   453.7000      0.0000    760.8168      7.8043     26.7981
   453.7500      0.0000    756.3306      7.7793     26.7363
   453.8000      0.0000    756.3306      7.7793     26.7363
   453.8500      0.0000    756.3306      7.7793     26.7363
   453.9000      0.0000    756.3306      7.7793     26.7363
   453.9500      0.0000    756.3306      7.7793     26.7363
   454.0000      0.0000    752.5934      7.7540     28.7550
   454.0500      0.0000    752.5934      7.7540     28.7550
   454.1000      0.0000    752.5934      7.7540     28.7550
   454.1500      0.0000    752.5934      7.7540     28.7550
   454.2000      0.0000    752.5934      7.7540     28.7550
   454.2500      0.0000    750.9211      7.7457     33.1477
   454.3000      0.0000    750.9211      7.7457     33.1477
   454.3500      0.0000    750.9211      7.7457     33.1477
   454.4000      0.0000    750.9211      7.7457     33.1477
   454.4500      0.0000    750.9211      7.7457     33.1477
   454.5000      0.0000    751.2934      7.7947     39.5770
   454.5500      0.0000    751.2934      7.7947     39.5770
   454.6000      0.0000    751.2934      7.7947     39.5770
   454.6500      0.0000    751.2934      7.7947     39.5770
   454.7000      0.0000    751.2934      7.7947     39.5770
   454.7500      0.0000    753.2080      7.9278     46.8512
   454.8000      0.0000    753.2080      7.9278     46.8512
   454.8500      0.0000    753.2080      7.9278     46.8512
   454.9000      0.0000    753.2080      7.9278     46.8512
   454.9500      0.0000    753.2080      7.9278     46.8512
   455.0000      0.0000    757.0439      8.1215     53.2526
   455.0500      0.0000    757.0439      8.1215     53.2526
   455.1000      0.0000    757.0439      8.1215     53.2526
   455.1500      0.0000    757.0439      8.1215     53.2526
   455.2000      0.0000    757.0439      8.1215     53.2526
   455.2500      0.0000    763.1954      8.3074     57.2187
   455.3000      0.0000    763.1954      8.3074     57.2187
   455.3500      0.0000    763.1954      8.3074     57.2187
   455.4000      0.0000    763.1954      8.3074     57.2187
   455.4500      0.0000    763.1954      8.3074     57.2187
   455.5000      0.0000    769.8452      8.4181     58.1710
   455.5500      0.0000    769.8452      8.4181     58.1710
   455.6000      0.0000    769.8452      8.4181     58.1710
   455.6500      0.0000    769.8452      8.4181     58.1710
   455.7000      0.0000    769.8452      8.4181     58.1710
   455.7500      0.0000    773.4002      8.4347     56.8904
   455.8000      0.0000    773.4002      8.4347     56.8904
   455.8500      0.0000    773.4002      8.4347     56.8904
   455.9000      0.0000    773.4002      8.4347     56.8904
   455.9500      0.0000    773.4002      8.4347     56.8904
   456.0000      0.0000    772.1547      8.3920     54.7588
