~Version Information
VERS.                      2.0: CWLS Log ASCII Standard - VERSION 2.0
WRAP.                       NO: One line per depth step
~Well Information Block
STRT.FT               860.0000: 
STOP.FT              2362.5000: 
STEP.FT                 0.2500: 
NULL.                -999.2500: 
COMP.          Pioneer Natural Resources: COMPANY
WELL.            Cayenne 23-23: WELL
FLD.           Purgatoire River: FIELD
LOC.           2555' FSL & 2386' FWL: LOCATION
PROV.                 Colorado: PROVINCE
CNTY.               Las Animas: COUNTRY
SRVC.                Patterson: SERVICE COMPANY
DATE.          Wed Aug 17 06:47:40 2005: LOG DATE
UWI.           05 071 08476 00: UNIQUE WELL ID
~Curve Information Block
DEPT.FT            0 000 00 00: Depth
SN.Ohm-m                      : IEL Short Normal
SP.mV                         : IEL Spontaneous Potential
DIR.Ohm-m                     : IEL Induction Resistivity
GR.GAPI                       : Gamma Ray
~Parameter Information Block
~A  Depth        SN          SP         DIR          GR     
   860.0000   2000.0000   2000.0000      6.8063    119.4455
   860.2500   2000.0000   2000.0000      6.8258    122.8681
   860.5000   2000.0000   2000.0000      6.8528    126.2452
   860.7500   2000.0000   2000.0000      6.8933    125.3676
   861.0000   2000.0000   2000.0000      6.9501    118.2402
   861.2500   2000.0000   2000.0000      7.0230    110.7348
   861.5000   2000.0000   2000.0000      7.1097     99.2568
   861.7500   2000.0000   2000.0000      7.2044     93.8098
   862.0000   2000.0000   2000.0000      7.2963     91.4834
   862.2500   2000.0000   2000.0000      7.3714     93.9656
   862.5000   2000.0000   2000.0000      7.4172    101.5847
   862.7500   2000.0000   2000.0000      7.4291    107.2090
   863.0000   2000.0000   2000.0000      7.4133    113.5159
   863.2500   2000.0000   2000.0000      7.3835    115.6001
   863.5000   2000.0000   2000.0000      7.3537    115.9298
   863.7500   2000.0000   2000.0000      7.3322    114.9790
   864.0000   2000.0000   2000.0000      7.3199    112.9350
   864.2500   2000.0000   2000.0000      7.3107    111.4734
   864.5000   2000.0000   2000.0000      7.2953    109.1737
   864.7500   2000.0000   2000.0000      7.2650    107.7327
   865.0000   2000.0000   2000.0000      7.2151    106.6356
   865.2500   2000.0000   2000.0000      7.1473    107.2235
   865.5000   2000.0000   2000.0000      7.0693    110.4723
   865.7500   2000.0000   2000.0000      6.9917    113.9287
   866.0000   2000.0000   2000.0000      6.9256    119.8565
   866.2500   2000.0000   2000.0000      6.8787    123.4853
   866.5000   2000.0000   2000.0000      6.8523    127.6991
   866.7500   2000.0000   2000.0000      6.8392    129.8848
   867.0000   2000.0000   2000.0000      6.8264    132.9350
   867.2500   2000.0000   2000.0000      6.8009    134.8314
   867.5000   2000.0000   2000.0000      6.7565    136.6236
   867.7500   2000.0000   2000.0000      6.6966    136.5647
   868.0000   2000.0000   2000.0000      6.6309    134.3514
   868.2500   2000.0000   2000.0000      6.5704    131.8189
   868.5000   2000.0000   2000.0000      6.5232    127.7362
   868.7500   2000.0000   2000.0000      6.4940    125.8440
   869.0000   2000.0000   2000.0000      6.4844    125.6808
   869.2500   2000.0000   2000.0000      6.4945    127.2754
   869.5000   2000.0000   2000.0000      6.5237    130.0783
   869.7500   2000.0000   2000.0000      6.5694    130.7066
   870.0000   2000.0000   2000.0000      6.6252    128.8525
   870.2500   2000.0000   2000.0000      6.6800    126.1932
   870.5000   2000.0000   2000.0000      6.7194    121.1676
   870.7500   2000.0000   2000.0000      6.7307    117.7715
   871.0000   2000.0000   2000.0000      6.7079    114.0896
   871.2500   2000.0000   2000.0000      6.6528    113.2245
   871.5000   2000.0000   2000.0000      6.5720    113.7752
   871.7500   2000.0000   2000.0000      6.4732    114.3221
   872.0000   2000.0000   2000.0000      6.3660    114.1468
   872.2500   2000.0000   2000.0000      6.2645    113.4044
   872.5000   2000.0000   2000.0000      6.1871    111.9949
   872.7500   2000.0000   2000.0000      6.1500    111.0606
   873.0000   2000.0000   2000.0000      6.1587    109.6768
   873.2500   2000.0000   2000.0000      6.2029    108.8361
   873.5000   2000.0000   2000.0000      6.2601    108.0642
   873.7500   2000.0000   2000.0000      6.3038    108.0411
   874.0000   2000.0000   2000.0000      6.3140    108.6647
   874.2500   2000.0000   2000.0000      6.2852    109.4457
   874.5000   2000.0000   2000.0000      6.2320    111.5562
   874.7500   2000.0000   2000.0000      6.1895    114.1094
   875.0000   2000.0000   2000.0000      6.2075    120.1522
   875.2500   2000.0000   2000.0000      6.3342    125.1626
   875.5000   2000.0000   2000.0000      6.5940    132.0242
   875.7500   2000.0000   2000.0000      6.9599    135.0288
   876.0000   2000.0000   2000.0000      7.3354    137.1320
   876.2500   2000.0000   2000.0000      7.5844    137.9107
   876.5000   2000.0000   2000.0000      7.6255    139.5220
   876.7500   2000.0000   2000.0000      7.5048    140.7429
   877.0000   2000.0000   2000.0000      7.3575    141.6727
   877.2500   2000.0000   2000.0000      7.3284    141.5154
   877.5000   2000.0000   2000.0000      7.5624    141.2371
   877.7500   2000.0000   2000.0000      8.2892    132.4359
   878.0000   2000.0000   2000.0000     10.0723    134.8392
   878.2500   2000.0000   2000.0000     14.8543    136.6681
   878.5000   2000.0000   2000.0000     36.1553    137.5679
   878.7500   2000.0000   2000.0000 100000.0000    126.1331
   879.0000   2000.0000   2000.0000 100000.0000    119.9509
   879.2500   2000.0000   2000.0000 100000.0000    114.0459
   879.5000   2000.0000   2000.0000 100000.0000    105.5309
   879.7500   2000.0000   2000.0000 100000.0000     94.3742
   880.0000   2000.0000   2000.0000 100000.0000     95.1326
   880.2500   2000.0000   2000.0000 100000.0000     98.8285
   880.5000   2000.0000   2000.0000 100000.0000    106.5507
   880.7500   2000.0000   2000.0000 100000.0000    102.1607
   881.0000   2000.0000   2000.0000 100000.0000    106.9831
   881.2500   2000.0000   2000.0000 100000.0000    108.9445
   881.5000   2000.0000   2000.0000 100000.0000    111.3360
   881.7500   2000.0000   2000.0000 100000.0000    103.1824
   882.0000   2000.0000   2000.0000 100000.0000    107.4897
   882.2500   2000.0000   2000.0000     11.5681    110.8887
   882.5000   2000.0000   2000.0000      4.5737    115.5195
   882.7500   2000.0000   2000.0000      3.0610    117.6881
   883.0000   2000.0000   2000.0000      2.6192    119.1768
   883.2500   2000.0000   2000.0000      2.6208    119.1349
   883.5000   2000.0000   2000.0000      2.9107    118.0627
   883.7500   2000.0000   2000.0000      3.4697    116.9218
   884.0000   2000.0000   2000.0000      4.3900    114.7405
   884.2500   2000.0000   2000.0000      5.9806    113.2006
   884.5000   2000.0000   2000.0000      9.0640    111.7158
   884.7500   2000.0000   2000.0000     15.6911    111.7223
   885.0000   2000.0000   2000.0000     28.8670    112.5851
   885.2500   2000.0000   2000.0000     38.0402    112.6336
   885.5000   2000.0000   2000.0000     27.9502    110.3791
   885.7500   2000.0000   2000.0000     18.0598    107.1748
   886.0000   2000.0000   2000.0000     13.1652    100.3470
   886.2500   2000.0000   2000.0000     10.9567     94.8850
   886.5000   2000.0000   2000.0000     10.0335     86.5801
   886.7500   2000.0000   2000.0000      9.7348     82.1372
   887.0000   2000.0000   2000.0000      9.7286     79.1525
   887.2500   2000.0000   2000.0000      9.8499     80.2086
   887.5000   2000.0000   2000.0000     10.0336     85.7791
   887.7500   2000.0000   2000.0000     10.2766     90.9896
   888.0000   2000.0000   2000.0000     10.6176     98.4945
   888.2500   2000.0000   2000.0000     11.1145    102.0966
   888.5000   2000.0000   2000.0000     11.8063    104.6805
   888.7500   2000.0000   2000.0000     12.6480    104.8318
   889.0000   2000.0000   2000.0000     13.4510    103.6878
   889.2500   2000.0000   2000.0000     13.9259    102.5191
   889.5000   2000.0000   2000.0000     13.8838    100.9183
   889.7500   2000.0000   2000.0000     13.3990    100.3920
   890.0000   2000.0000   2000.0000     12.7066    100.8643
   890.2500   2000.0000   2000.0000     11.9974    101.8825
   890.5000   2000.0000   2000.0000     11.3465    103.7152
   890.7500   2000.0000   2000.0000     10.7631    104.7474
   891.0000   2000.0000   2000.0000     10.2567    105.7458
   891.2500   2000.0000   2000.0000      9.8612    106.0232
   891.5000   2000.0000   2000.0000      9.6214    105.8550
   891.7500   2000.0000   2000.0000      9.5683    105.4608
   892.0000   2000.0000   2000.0000      9.7063    104.9368
   892.2500   2000.0000   2000.0000     10.0144    104.9085
   892.5000   2000.0000   2000.0000     10.4550    105.3411
   892.7500   2000.0000   2000.0000     10.9832    105.5693
   893.0000   2000.0000   2000.0000     11.5568    104.6866
   893.2500   2000.0000   2000.0000     12.1424    102.6078
