~Version Information
VERS.                      2.0: CWLS Log ASCII Standard - VERSION 2.0
WRAP.                       NO: One line per depth step
~Well Information Block
STRT.FT                -7.7500: 
STOP.FT              2446.5000: 
STEP.FT                 0.2500: 
NULL.                -999.2500: 
COMP.          XTO Energy Inc.: COMPANY
WELL.          Hill Ranch 15-09: WELL
FLD.           Purgatoire River: FIELD
LOC.           1816' FSL & 521' FEL: LOCATION
STAT.                 Colorado: State
CNTY.               Las Animas: COUNTY
CTRY. USA : Country
SECT. 15 : Section
TOWN. 35S : Township
RANG. 67W : Range
SRVC.          Patterson Wireline: SERVICE COMPANY
DATE.          Fri Dec 09 17:49:58 2005: LOG DATE
API. 05-071-08474                          : UNIQUE WELL ID
~Curve Information Block
DEPT.FT            0 000 00 00: Depth
CCL.                          : Casing Collar Locator
TT3.usec                      : CBL 3' Travel Time
AMP3.mV                       : CBL 3' Amplitude
AMP5.mV                       : CBL 5' Amplitude
GR.GAPI                       : Gamma Ray
~Parameter Information Block
~A  Depth       CCL         TT3         AMP3        AMP5         GR     
# ...
  1280.2500      0.0000    756.5820      5.6038      1.1133    119.1115
  1280.5000      0.0000    758.9413      5.4379      1.1392    114.6089
  1280.7500      0.0000    756.3984      5.2807      1.1446    109.9339
  1281.0000      0.0000    751.4666      5.1505      1.1332    107.2021
  1281.2500      0.0000    747.1850      5.0681      1.1180    108.0964
  1281.5000      0.0000    746.6063      5.0429      1.1141    112.1973
  1281.7500      0.0000    750.1209      5.0683      1.1254    117.1986
  1282.0000      0.0000    754.6680      5.1332      1.1397    120.7403
  1282.2500      0.0000    757.2842      5.2312      1.1404    122.2235
  1282.5000      0.0000    757.5464      5.3567      1.1246    122.9462
  1282.7500      0.0000    755.4236      5.4956      1.1064    124.3484
  1283.0000      0.0000    750.0684      5.6224      1.1025    126.2375
  1283.2500      0.0000    742.5927      5.7080      1.1155    127.1372
  1283.5000      0.0000    736.7664      5.7357      1.1287    126.1628
  1283.7500      0.0000    734.5677      5.7129      1.1184    124.0764
  1284.0000      0.0000    733.1395      5.6667      1.0788    122.6570
  1284.2500      0.0000    728.2311      5.6240      1.0369    123.3602
  1284.5000      0.0000    719.5574      5.5892      1.0346    126.3674
  1284.7500      0.0000    711.4792      5.5418      1.0877    130.6573
  1285.0000      0.0000    709.7723      5.4588      1.1667    134.8363
  1285.2500      0.0000    718.6984      5.3432      1.2230    137.6191
  1285.5000      0.0000    739.3439      5.2256      1.2315    137.6974
  1285.7500      0.0000    768.1481      5.1367      1.2032    134.1878
  1286.0000      0.0000    796.7934      5.0811      1.1663    127.8528
  1286.2500      0.0000    815.6491      5.0391      1.1437    121.2948
  1286.5000      0.0000    819.3352      4.9906      1.1456    117.1968
  1286.7500      0.0000    809.1901      4.9347      1.1723    116.3014
  1287.0000      0.0000    789.6818      4.8857      1.2160    117.0420
  1287.2500      0.0000    763.5894      4.8541      1.2570    116.8354
  1287.5000      0.0000    733.1092      4.8389      1.2679    113.9027
  1287.7500      0.0000    704.3726      4.8345      1.2307    108.6011
  1288.0000      0.0000    686.3765      4.8362      1.1566    103.2178
  1288.2500      0.0000    684.0858      4.8378      1.0842    100.0945
  1288.5000      0.0000    694.5615      4.8320      1.0541     99.8468
  1288.7500      0.0000    710.4646      4.8156      1.0780    101.4122
  1289.0000      0.0000    725.6027      4.7886      1.1282    103.2294
  1289.2500      0.0000    736.4015      4.7480      1.1594    104.0516
  1289.5000      0.0000    740.4497      4.6852      1.1434    103.2665
  1289.7500      0.0000    736.5186      4.5953      1.0893    101.1119
  1290.0000      0.0000    726.2643      4.4893      1.0338     98.7748
  1290.2500      0.0000    714.3503      4.3925      1.0137     98.3045
  1290.5000      0.0000    705.9720      4.3277      1.0405    101.9201
  1290.7500      0.0000    704.1028      4.3013      1.0936    110.3657
  1291.0000      0.0000    708.7057      4.3038      1.1331    121.7366
  1291.2500      0.0000    718.2761      4.3219      1.1302    132.6233
  1291.5000      0.0000    732.3301      4.3464      1.0930    140.6958
  1291.7500      0.0000    751.9886      4.3709      1.0579    145.7661
  1292.0000      0.0000    776.8242      4.3923      1.0514    148.3967
  1292.2500      0.0000    800.7462      4.4156      1.0639    148.4510
  1292.5000      0.0000    813.1807      4.4545      1.0659    145.6346
  1292.7500      0.0000    807.5033      4.5249      1.0441    140.8666
  1293.0000      0.0000    788.1890      4.6310      1.0109    136.0128
  1293.2500      0.0000    766.9112      4.7519      0.9841    132.0750
  1293.5000      0.0000    751.5222      4.8448      0.9724    128.4033
  1293.7500      0.0000    741.3077      4.8682      0.9818    124.0662
  1294.0000      0.0000    732.0154      4.8061      1.0205    119.3994
  1294.2500      0.0000    721.7595      4.6699      1.0858    115.7530
  1294.5000      0.0000    711.6005      4.4836      1.1553    114.2537
  1294.7500      0.0000    703.3295      4.2722      1.2009    115.2819
  1295.0000      0.0000    698.4002      4.0590      1.2133    118.6411
  1295.2500      0.0000    698.6437      3.8630      1.2053    123.4234
  1295.5000      0.0000    707.3300      3.6946      1.1935    127.6167
  1295.7500      0.0000    728.6324      3.5547      1.1834    128.5674
  1296.0000      0.0000    764.5818      3.4387      1.1725    124.6998
  1296.2500      0.0000    811.5175      3.3452      1.1597    117.0088
  1296.5000      0.0000    859.5027      3.2788      1.1467    108.7770
  1296.7500      0.0000    896.4228      3.2446      1.1354    103.7348
  1297.0000      0.0000    914.9917      3.2359      1.1254    103.9683
  1297.2500      0.0000    917.6174      3.2356      1.1128    108.9880
  1297.5000      0.0000    913.1805      3.2341      1.0921    116.6672
  1297.7500      0.0000    907.0507      3.2413      1.0638    125.0504
  1298.0000      0.0000    895.6675      3.2793      1.0366    132.9872
  1298.2500      0.0000    873.0762      3.3672      1.0199    139.3129
  1298.5000      0.0000    840.5732      3.5086      1.0179    142.5610
  1298.7500      0.0000    806.9022      3.6843      1.0300    141.9660
  1299.0000      0.0000    780.7259      3.8594      1.0499    138.1993
  1299.2500      0.0000    765.6710      4.0038      1.0659    132.9134
  1299.5000      0.0000    760.5802      4.1070      1.0724    127.8741
  1299.7500      0.0000    760.9538      4.1744      1.0805    124.3390
  1300.0000      0.0000    760.4305      4.2170      1.1081    122.7650
  1300.2500      0.0000    753.6639      4.2491      1.1617    123.0041
  1300.5000      0.0000    739.1112      4.2888      1.2280    124.7109
  1300.7500      0.0000    719.7216      4.3506      1.2849    127.3191
  1301.0000      0.0000    701.8967      4.4344      1.3142    129.9158
  1301.2500      0.0000    693.2719      4.5218      1.3106    131.7380
  1301.5000      0.0000    698.3556      4.5866      1.2826    132.8227
  1301.7500      0.0000    714.0773      4.6167      1.2450    133.9345
  1302.0000      0.0000    730.8429      4.6261      1.2078    135.7514
  1302.2500      0.0000    739.8024      4.6370      1.1725    138.0740
  1302.5000      0.0000    739.0984      4.6480      1.1385    139.9460
  1302.7500      0.0000    733.5192      4.6358      1.1128    140.6991
  1303.0000      0.0000    729.4009      4.5945      1.1091    140.7831
  1303.2500      0.0000    729.6618      4.5522      1.1332    141.3278
  1303.5000      0.0000    732.5944      4.5390      1.1709    142.9564
  1303.7500     -2.0000    735.0453      4.5571      1.1958    145.3200
  1304.0000     -2.0000    736.2319      4.5929      1.1924    147.7357
  1304.2500      0.0000    737.8473      4.6395      1.1674    149.8207
  1304.5000      0.0000    741.2269      4.7020      1.1383    151.3727
  1304.7500      0.0000    745.8857      4.7913      1.1128    152.1431
  1305.0000      0.0000    750.6883      4.9110      1.0875    152.0076
  1305.2500      0.0000    754.9839      5.0368      1.0631    151.0492
  1305.5000      0.0000    758.1187      5.1185      1.0498    149.4547
  1305.7500      0.0000    759.2005      5.1280      1.0574    147.7396
  1306.0000      0.0000    758.3958      5.0961      1.0847    146.9182
  1306.2500      0.0000    757.6984      5.0813      1.1187    147.6608
  1306.5000      0.0000    759.4559      5.1093      1.1432    149.0034
  1306.7500      0.0000    764.1489      5.1578      1.1516    148.5510
  1307.0000      0.0000    769.8302      5.1946      1.1470    144.6058
  1307.2500      0.0000    773.6736      5.2136      1.1330    138.0528
  1307.5000      0.0000    774.0165      5.2323      1.1139    131.8734
  1307.7500      0.0000    771.0978      5.2644      1.1032    128.9191
  1308.0000      0.0000    766.2123      5.3098      1.1144    130.2462
