~Version Information
VERS.                      2.0: CWLS Log ASCII Standard - VERSION 2.0
WRAP.                       NO: One line per depth step
~Well Information Block
STRT.FT                -8.2500: 
STOP.FT              1118.7500: 
STEP.FT                 0.2500: 
NULL.                -999.2500: 
COMP.          Pioneer Natural Resources: COMPANY
WELL.             Croc 42-9 Tr: WELL
FLD.           Purgatorie River: FIELD
LOC.           --2429' FNL & 315' FEL------: LOCATION
STAT.                       CO: State
CNTY.               Las Animas: COUNTY
CTRY. USA : Country
SECT. 9 : Section
TOWN. 32S : Township
RANG. 66W : Range
SRVC.          Patterson Wireline: SERVICE COMPANY
DATE.          Tue Oct 18 14:14:43 2005: LOG DATE
API.           05 071 08550 00: UNIQUE WELL ID
~Curve Information Block
DEPT.FT            0 000 00 00: Depth
CCL.                          : Casing Collar Locator
TT3.usec                      : CBL 3' Travel Time
AMP3.mV                       : CBL 3' Amplitude
GR.GAPI                       : Gamma Ray
~Parameter Information Block
~A  Depth       CCL         TT3         AMP3         GR     
# ...
   427.2500      0.0000    768.8870     12.3857    125.3578
   427.5000      0.0000    771.7275     12.3502    129.1495
   427.7500      0.0000    774.9999     12.3007    130.9470
   428.0000      0.0000    777.5112     12.2670    130.8198
   428.2500      0.0000    778.7001     12.2651    129.2314
   428.5000      0.0000    778.1931     12.3014    126.9208
   428.7500      0.0000    776.3021     12.3789    124.4681
   429.0000      0.0000    774.4072     12.4953    121.7832
   429.2500      0.0000    773.0143     12.6369    118.3710
   429.5000      0.0000    768.6900     12.7776    114.3229
   429.7500      0.0000    754.9055     12.8714    110.6651
   430.0000      0.0000    729.6659     12.8406    108.5956
   430.2500      0.0000    704.2155     12.5993    108.6307
   430.5000      0.0000    700.1902     12.1323    110.2713
   430.7500      0.0000    731.4559     11.5553    112.0473
   431.0000      0.0000    787.9269     11.0645    112.2104
   431.2500      0.0000    842.2957     10.8095    110.0939
   431.5000      0.0000    874.7203     10.8105    106.9576
   431.7500      0.0000    887.5881     10.9760    105.1890
   432.0000     -2.0000    895.7606     11.1792    106.4195
   432.2500      0.0000    907.5416     11.3224    110.4158
   432.5000      0.0000    917.7863     11.3576    115.8438
   432.7500      0.0000    914.3562     11.3055    121.6888
   433.0000      0.0000    886.9572     11.2936    127.3820
   433.2500      0.0000    834.7505     11.5278    131.9322
   433.5000      0.0000    771.8131     12.1251    134.1205
   433.7500      0.0000    721.5393     12.9539    133.8850
   434.0000      0.0000    698.6339     13.7087    132.7003
   434.2500      0.0000    697.0114     14.1572    132.1366
   434.5000      0.0000    698.1439     14.2838    132.4817
   434.7500      0.0000    689.8622     14.2253    132.8966
   435.0000      0.0000    676.0497     14.1304    132.4349
   435.2500      0.0000    669.9843     14.0769    130.8183
   435.5000      0.0000    679.8387     14.0730    128.6129
   435.7500      0.0000    701.3140     14.1017    126.8664
   436.0000      0.0000    723.8997     14.1545    126.4568
   436.2500      0.0000    741.1476     14.2316    127.5162
   436.5000      0.0000    753.3898     14.3258    129.2798
   436.7500      0.0000    763.2288     14.4160    130.5959
   437.0000      0.0000    771.3292     14.4790    130.8076
   437.2500      0.0000    776.1929     14.5091    130.1094
   437.5000      0.0000    776.4630     14.5222    129.0230
   437.7500      0.0000    773.0037     14.5382    127.9574
   438.0000      0.0000    769.2082     14.5654    127.5491
   438.2500      0.0000    769.2701     14.5987    128.7735
   438.5000      0.0000    775.5127     14.6276    131.9537
   438.7500      0.0000    786.4932     14.6465    135.7992
   439.0000      0.0000    797.4220     14.6643    137.9367
   439.2500      0.0000    802.9639     14.7013    136.4807
   439.5000      0.0000    800.5240     14.7731    131.0541
   439.7500      0.0000    791.3828     14.8751    122.6017
   440.0000      0.0000    779.1085     14.9830    112.6205
   440.2500      0.0000    767.2602     15.0664    102.6171
   440.5000      0.0000    758.1061     15.1079     93.8184
   440.7500      0.0000    752.3375     15.1175     87.0538
   441.0000      0.0000    749.3795     15.1274     83.1831
   441.2500      0.0000    748.1378     15.1659     83.6998
   441.5000      0.0000    747.7069     15.2320     90.2202
   441.7500      0.0000    747.6117     15.2936    102.8342
   442.0000      0.0000    747.6638     15.3105    119.1083
   442.2500      0.0000    747.7879     15.2638    134.8544
   442.5000      0.0000    747.9283     15.1665    146.1042
   442.7500      0.0000    748.0120     15.0498    151.0704
   443.0000      0.0000    747.9514     14.9401    150.8779
   443.2500      0.0000    747.6951     14.8460    148.3684
   443.5000      0.0000    747.2930     14.7621    145.9727
   443.7500      0.0000    746.8868     14.6836    144.5899
   444.0000      0.0000    746.6208     14.6164    143.9832
   444.2500      0.0000    746.5626     14.5742    143.5057
   444.5000      0.0000    746.6920     14.5680    142.2077
   444.7500      0.0000    746.9288     14.5976    138.8809
   445.0000      0.0000    747.1693     14.6494    132.9352
   445.2500      0.0000    747.3341     14.7028    125.4183
   445.5000      0.0000    747.4053     14.7450    118.5906
   445.7500      0.0000    747.4127     14.7803    114.1594
   446.0000      0.0000    747.3879     14.8222    112.1866
   446.2500      0.0000    747.3473     14.8763    111.7203
   446.5000      0.0000    747.3076     14.9317    112.1405
   446.7500      0.0000    747.2856     14.9694    113.7128
   447.0000      0.0000    747.2758     14.9777    117.0256
   447.2500      0.0000    747.2502     14.9559    122.0077
   447.5000      0.0000    747.1926     14.9061    127.4949
   447.7500      0.0000    747.1202     14.8315    131.9244
   448.0000      0.0000    747.0613     14.7480    134.5431
   448.2500      0.0000    747.0187     14.6916    135.8483
   448.5000      0.0000    746.9698     14.7048    136.9263
   448.7500      0.0000    746.8956     14.8140    138.5109
   449.0000      0.0000    746.8031     15.0092    140.5703
   449.2500      0.0000    746.7211     15.2417    142.6114
   449.5000      0.0000    746.6842     15.4418    144.2517
   449.7500      0.0000    746.7172     15.5490    145.3378
   450.0000      0.0000    746.8265     15.5285    145.5172
   450.2500      0.0000    747.0020     15.3736    144.1627
   450.5000      0.0000    747.2202     15.1115    141.0948
   450.7500      0.0000    747.4430     14.8047    137.0607
   451.0000      0.0000    747.6263     14.5291    133.2557
   451.2500      0.0000    747.7455     14.3336    130.6889
   451.5000      0.0000    747.8123     14.2148    129.9929
   451.7500      0.0000    747.8571     14.1281    131.2954
   452.0000      0.0000    747.9014     14.0270    133.9684
   452.2500      0.0000    747.9506     13.8936    136.7938
   452.5000      0.0000    748.0056     13.7378    138.7028
   452.7500      0.0000    748.0690     13.5743    139.4938
   453.0000      0.0000    748.1418     13.4113    139.7845
   453.2500      0.0000    748.2187     13.2571    140.1641
   453.5000      0.0000    748.2886     13.1238    140.5380
   453.7500      0.0000    748.3380     13.0195    140.5239
   454.0000      0.0000    748.3595     12.9418    140.2123
   454.2500      0.0000    748.3589     12.8809    140.0430
   454.5000      0.0000    748.3492     12.8245    139.8875
   454.7500      0.0000    748.3372     12.7590    138.5833
   455.0000      0.0000    748.3215     12.6732    134.5988
   455.2500      0.0000    748.3000     12.5673    127.2922
   455.5000      0.0000    748.2697     12.4523    117.7835
   455.7500      0.0000    748.2233     12.3438    108.7373
   456.0000      0.0000    748.1579     12.2570    102.9293
   456.2500      0.0000    748.0836     12.2033    101.4926
   456.5000      0.0000    748.0148     12.1890    103.1293
   456.7500      0.0000    747.9578     12.2156    105.0528
   457.0000      0.0000    747.9161     12.2836    105.0782
   457.2500      0.0000    747.9004     12.3885    103.1884
   457.5000      0.0000    747.9155     12.5124    101.2444
   457.7500      0.0000    747.9412     12.6236    101.2119
   458.0000      0.0000    747.9344     12.6923    103.6947
   458.2500      0.0000    747.8535     12.7075    107.9448
   458.5000      0.0000    747.6884     12.6794    112.6496
   458.7500      0.0000    747.4774     12.6277    116.5017
   459.0000      0.0000    747.2952     12.5709    118.7451
   459.2500      0.0000    747.2079     12.5226    119.7942
   459.5000      0.0000    747.2304     12.4927    121.2089
   459.7500      0.0000    747.3273     12.4882    124.7454
   460.0000      0.0000    747.4576     12.5111    131.1526
   460.2500      0.0000    747.6099     12.5550    139.4244
   460.5000      0.0000    747.7901     12.6087    146.9712
