~Version Information
VERS.                      2.0: CWLS Log ASCII Standard - VERSION 2.0
WRAP.                       NO: One line per depth step
~Well Information Block
STRT.FT               390.0000: 
STOP.FT               825.0000: 
STEP.FT                 0.1000: 
NULL.                -999.2500: 
COMP.          Pioneer Natural Resources: COMPANY
WELL.             Veedol 34-28: WELL
FLD.           Purgatoire River: FIELD
LOC.           357' FSL & 2520' FEL: LOCATION
PROV.                 Colorado: PROVINCE
CNTY.               Las Animas: COUNTRY
SRVC.                Patterson: SERVICE COMPANY
DATE.          Thu Dec 22 14:38:20 2005: LOG DATE
UWI.           05 071 08628 00: UNIQUE WELL ID
~Curve Information Block
DEPT.FT            0 000 00 00: Depth
DCAL.in                       : CDL Caliper
RHOB.g/cc                     : CDL Bulk Density
RHOC.g/cc                     : CDL Density Correction
DPOR.pu                       : CDL Density Porosity
GR.GAPI                       : Gamma Ray
NPOR.pu                       : Neutron Porosity
~Parameter Information Block
~A  Depth       DCAL        RHOB        RHOC        DPOR         GR         NPOR    
# ...
   505.2000      7.8791      2.5922      0.1589      3.5055     64.0283     19.0023
   505.3000      7.8794      2.6218      0.1580      1.7105     66.8255     19.2408
   505.4000      7.8794      2.6373      0.1751      0.7677     68.9627     19.3317
   505.5000      7.8802      2.6353      0.1733      0.8886     66.7071     19.2781
   505.6000      7.8802      2.6203      0.1524      1.8027     62.0062     19.1567
   505.7000      7.8802      2.6009      0.1374      2.9758     61.3022     19.1785
   505.8000      7.8812      2.5856      0.0982      3.9008     64.1505     19.5736
   505.9000      7.8812      2.5815      0.1011      4.1519     64.5313     20.2372
   506.0000      7.8815      2.5898      0.0762      3.6489     62.4930     20.8804
   506.1000      7.8815      2.6030      0.1029      2.8469     60.8327     21.2971
   506.2000      7.8815      2.6078      0.1019      2.5569     58.8228     21.2632
   506.3000      7.8810      2.6043      0.0205      2.7680     56.6496     20.7838
   506.4000      7.8810      2.6030      0.0730      2.8475     57.3341     20.3048
   506.5000      7.8805      2.5970      0.0747      3.2108     59.0343     20.1483
   506.6000      7.8805      2.5799      0.0400      4.2465     59.0794     20.3905
   506.7000      7.8805      2.5648      0.0572      5.1652     59.5198     21.0714
   506.8000      7.8798      2.5640      0.0383      5.2145     61.2124     21.3440
   506.9000      7.8798      2.5717      0.0741      4.7480     61.8779     20.5291
   507.0000      7.8795      2.5700      0.0719      4.8482     59.3200     19.5438
   507.1000      7.8795      2.5557      0.0275      5.7169     53.4786     19.2860
   507.2000      7.8795      2.5388      0.0430      6.7420     46.7394     19.2957
   507.3000      7.8804      2.5242      0.0217      7.6235     42.6879     18.8348
   507.4000      7.8804      2.5144      0.0095      8.2158     42.2942     18.2333
   507.5000      7.8810      2.5033     -0.0006      8.8885     44.4004     18.1626
   507.6000      7.8810      2.4872     -0.0401      9.8643     48.1740     18.3290
   507.7000      7.8810      2.4802     -0.0063     10.2928     49.9062     18.2911
   507.8000      7.8808      2.4872      0.0186      9.8655     47.5906     18.1192
   507.9000      7.8808      2.4956      0.0265      9.3601     44.7131     17.9704
   508.0000      7.8810      2.5014      0.0139      9.0073     41.4643     18.1068
   508.1000      7.8810      2.5162      0.0327      8.1087     37.3081     18.2326
   508.2000      7.8810      2.5376      0.0685      6.8102     36.1186     17.9101
   508.3000      7.8815      2.5426      0.0799      6.5083     39.4073     17.4961
   508.4000      7.8815      2.5230      0.0267      7.6955     42.3008     17.1620
   508.5000      7.8814      2.4979     -0.0015      9.2202     42.5400     16.6397
   508.6000      7.8814      2.4864      0.0321      9.9182     43.8077     16.1743
   508.7000      7.8814      2.4939      0.0246      9.4630     46.0359     16.1849
   508.8000      7.8811      2.5138      0.0342      8.2548     44.5838     16.5314
   508.9000      7.8811      2.5303      0.0660      7.2572     40.1222     16.6868
   509.0000      7.8813      2.5351      0.0322      6.9636     38.0995     16.5508
   509.1000      7.8813      2.5373      0.0318      6.8280     40.7524     16.3939
   509.2000      7.8813      2.5422      0.0529      6.5339     45.8019     16.4556
   509.3000      7.8815      2.5399      0.0828      6.6699     48.1286     16.3985
   509.4000      7.8815      2.5229      0.0512      7.7028     46.2453     15.8494
   509.5000      7.8811      2.4990      0.0019      9.1529     44.6592     15.4030
   509.6000      7.8811      2.4816      0.0089     10.2091     45.7776     15.6603
   509.7000      7.8811      2.4787     -0.0000     10.3835     48.1328     16.3571
   509.8000      7.8804      2.4906     -0.0122      9.6607     50.7430     16.8978
   509.9000      7.8804      2.5024      0.0573      8.9462     52.7875     16.9164
   510.0000      7.8804      2.5038     -0.0219      8.8614     54.9738     16.6319
   510.1000      7.8804      2.5040      0.0038      8.8477     58.1742     16.3201
   510.2000      7.8804      2.5048      0.0370      8.7971     58.3704     16.0892
   510.3000      7.8806      2.4995      0.0216      9.1212     55.2158     16.1281
   510.4000      7.8806      2.4906      0.0125      9.6580     54.2664     16.4663
   510.5000      7.8807      2.4806      0.0160     10.2673     56.5696     16.9216
   510.6000      7.8807      2.4690     -0.0064     10.9670     58.7381     17.2885
   510.7000      7.8807      2.4605      0.0250     11.4869     58.5763     17.6305
   510.8000      7.8808      2.4571      0.0185     11.6910     55.7355     17.9558
   510.9000      7.8808      2.4626     -0.0025     11.3595     52.8293     18.3620
   511.0000      7.8806      2.4807      0.0221     10.2591     54.3807     19.0932
   511.1000      7.8806      2.5038      0.0544      8.8600     59.1572     19.9379
   511.2000      7.8806      2.5268      0.0427      7.4675     62.5471     20.4813
   511.3000      7.8811      2.5503      0.0676      6.0410     64.4067     20.5433
   511.4000      7.8811      2.5648      0.0906      5.1635     65.7369     20.1986
   511.5000      7.8818      2.5653      0.0911      5.1320     66.7767     19.6697
   511.6000      7.8818      2.5616      0.0517      5.3554     67.4559     19.3588
   511.7000      7.8818      2.5581      0.0996      5.5720     67.9789     19.2075
   511.8000      7.8821      2.5560      0.0200      5.6972     71.1197     18.8465
   511.9000      7.8821      2.5635      0.0631      5.2426     76.0478     18.6389
   512.0000      7.8838      2.5752      0.0657      4.5314     78.1676     19.1928
   512.1000      7.8838      2.5759      0.0893      4.4938     77.9275     20.0731
   512.2000      7.8838      2.5575      0.0764      5.6082     79.6601     20.6072
   512.3000      7.8854      2.5300      0.0323      7.2705     83.7870     21.2388
   512.4000      7.8854      2.5137      0.0484      8.2614     86.5438     22.2061
   512.5000      7.8821      2.5109      0.0325      8.4316     85.0681     22.6198
   512.6000      7.8821      2.5112      0.0359      8.4130     82.5125     22.0925
   512.7000      7.8821      2.5108      0.0338      8.4343     83.4941     21.2754
   512.8000      7.8777      2.5120      0.0104      8.3611     84.9704     20.8859
   512.9000      7.8777      2.5151      0.0262      8.1747     81.8194     21.2546
   513.0000      7.8747      2.5244      0.0302      7.6132     77.0852     22.0594
   513.1000      7.8747      2.5474      0.0621      6.2179     77.3752     22.4188
   513.2000      7.8747      2.5777      0.1326      4.3813     81.2319     22.1393
   513.3000      7.8687      2.5974      0.1207      3.1883     83.3537     21.9357
   513.4000      7.8687      2.5957      0.1605      3.2918     82.7724     22.0265
   513.5000      7.8601      2.5742      0.1218      4.5948     78.3189     22.4352
   513.6000      7.8601      2.5488      0.0262      6.1352     72.1215     23.1026
   513.7000      7.8601      2.5378      0.0254      6.8030     70.5136     23.4064
   513.8000      7.8605      2.5392      0.0617      6.7169     72.8257     23.0319
   513.9000      7.8605      2.5366      0.0533      6.8729     74.2040     22.2707
   514.0000      7.8711      2.5297      0.0115      7.2879     75.3688     21.4362
   514.1000      7.8711      2.5360      0.0042      6.9094     76.8940     20.7080
   514.2000      7.8711      2.5567      0.0243      5.6568     75.8018     20.4013
   514.3000      7.8781      2.5693      0.0482      4.8928     74.9721     20.6491
   514.4000      7.8781      2.5636      0.0075      5.2335     78.0082     21.2275
   514.5000      7.8784      2.5524      0.0160      5.9126     81.9637     21.9088
   514.6000      7.8784      2.5434      0.0151      6.4601     84.6459     22.2990
   514.7000      7.8784      2.5376      0.0182      6.8116     84.2452     22.1442
