~Version Information
VERS.                      2.0: CWLS Log ASCII Standard - VERSION 2.0
WRAP.                       NO: One line per depth step
~Well Information Block
STRT.FT               620.0000: 
STOP.FT              3067.2000: 
STEP.FT                 0.1000: 
NULL.                -999.2500: 
COMP.          Pioneer Natural Resources: COMPANY
WELL.          Interceptor 43-13 Kv: WELL
FLD.           Purgatoire River: FIELD
LOC.           2073' FSL & 519' FEL--: LOCATION
PROV.                 Colorado: PROVINCE
CNTY.               Las Animas: COUNTRY
SRVC.                Patterson: SERVICE COMPANY
DATE.          Sat Jan 14 20:27:27 2006: LOG DATE
UWI.           05 071 08655 00: UNIQUE WELL ID
~Curve Information Block
DEPT.FT            0 000 00 00: Depth
DCAL.in                       : CDL Caliper
RHOB.g/cc                     : CDL Bulk Density
RHOC.g/cc                     : CDL Density Correction
DPOR.pu                       : CDL Density Porosity
NPOR.pu                       : Neutron Porosity
GR.GAPI                       : Gamma Ray
~Parameter Information Block
~A  Depth       DCAL        RHOB        RHOC        DPOR        NPOR         GR     
# ...
  3039.2000      7.7221      2.4674      0.0371     11.0695     18.5289   -999.2500
  3039.3000      7.7216      2.4809      0.0498     10.2482     18.8928   -999.2500
  3039.4000      7.7216      2.4956      0.0730      9.3570     18.7257   -999.2500
  3039.5000      7.7217      2.5030      0.0851      8.9099     18.1268   -999.2500
  3039.6000      7.7217      2.5009      0.0668      9.0376     17.7739   -999.2500
  3039.7000      7.7217      2.4931      0.0356      9.5085     18.1659   -999.2500
  3039.8000      7.7204      2.4840      0.0625     10.0590     18.9272   -999.2500
  3039.9000      7.7204      2.4777      0.0448     10.4448     19.5683   -999.2500
  3040.0000      7.7187      2.4756      0.0544     10.5688     20.1279   -999.2500
  3040.1000      7.7187      2.4746      0.0522     10.6327     20.4836   -999.2500
  3040.2000      7.7187      2.4774      0.0139     10.4592     20.3898   -999.2500
  3040.3000      7.7183      2.4899      0.0550      9.7012     20.4734   -999.2500
  3040.4000      7.7183      2.5066      0.0884      8.6913     22.9402   -999.2500
  3040.5000      7.7181      2.5167      0.0667      8.0794     30.5593   -999.2500
  3040.6000      7.7181      2.5176      0.0613      8.0248     41.5598   -999.2500
  3040.7000      7.7181      2.5186      0.0392      7.9632     49.3296   -999.2500
  3040.8000      7.7180      2.5273      0.0687      7.4391     52.1624   -999.2500
  3040.9000      7.7180      2.5302      0.1032      7.2630     52.7208   -999.2500
  3041.0000      7.7192      2.5105      0.1144      8.4569     52.7798   -999.2500
  3041.1000      7.7192      2.4876     -0.0182      9.8417     52.7831   -999.2500
  3041.2000      7.7192      2.4903      0.0406      9.6809   -999.2500   -999.2500
  3041.3000      7.7193      2.5026      0.0660      8.9351   -999.2500   -999.2500
  3041.4000      7.7193      2.4973      0.0268      9.2570   -999.2500   -999.2500
  3041.5000      7.7181      2.4782      0.0248     10.4091   -999.2500   -999.2500
  3041.6000      7.7181      2.4632      0.0211     11.3218   -999.2500   -999.2500
  3041.7000      7.7181      2.4638      0.0124     11.2865   -999.2500   -999.2500
  3041.8000      7.7187      2.4755      0.0481     10.5762   -999.2500   -999.2500
  3041.9000      7.7187      2.4826      0.0512     10.1450   -999.2500   -999.2500
  3042.0000      7.7200      2.4785      0.0341     10.3918   -999.2500   -999.2500
  3042.1000      7.7200      2.4689      0.0330     10.9786   -999.2500   -999.2500
  3042.2000      7.7200      2.4627      0.0406     11.3499   -999.2500   -999.2500
  3042.3000      7.7187      2.4644      0.0551     11.2489   -999.2500   -999.2500
  3042.4000      7.7187      2.4690      0.0410     10.9671   -999.2500   -999.2500
  3042.5000      7.7158      2.4732      0.0458     10.7165   -999.2500   -999.2500
  3042.6000      7.7158      2.4827      0.0387     10.1404   -999.2500   -999.2500
  3042.7000      7.7158      2.4981      0.0672      9.2085   -999.2500   -999.2500
  3042.8000      7.7148      2.5054      0.0832      8.7640   -999.2500   -999.2500
  3042.9000      7.7148      2.5001      0.0544      9.0842   -999.2500   -999.2500
  3043.0000      7.7151      2.4933      0.0307      9.4962   -999.2500   -999.2500
  3043.1000      7.7151      2.4855      0.0664      9.9724   -999.2500   -999.2500
  3043.2000      7.7151      2.4714      0.0283     10.8215   -999.2500   -999.2500
  3043.3000      7.7160      2.4571      0.0518     11.6919   -999.2500   -999.2500
  3043.4000      7.7160      2.4509      0.0067     12.0686   -999.2500   -999.2500
  3043.5000      7.7184      2.4581      0.0274     11.6276   -999.2500   -999.2500
  3043.6000      7.7184      2.4724      0.0530     10.7618   -999.2500   -999.2500
  3043.7000      7.7184      2.4825      0.0424     10.1488   -999.2500   -999.2500
  3043.8000      7.7206      2.4874      0.0522      9.8570   -999.2500   -999.2500
  3043.9000      7.7206      2.4942      0.0325      9.4425   -999.2500   -999.2500
  3044.0000      7.7187      2.5045      0.0773      8.8159   -999.2500   -999.2500
  3044.1000      7.7187      2.5022      0.1057      8.9580   -999.2500   -999.2500
  3044.2000      7.7187      2.4841      0.0461     10.0565   -999.2500   -999.2500
  3044.3000      7.7141      2.4734      0.0315     10.7060   -999.2500   -999.2500
  3044.4000      7.7141      2.4779      0.0462     10.4282   -999.2500   -999.2500
  3044.5000      7.7108      2.4842      0.0604     10.0493   -999.2500   -999.2500
  3044.6000      7.7108      2.4880      0.0258      9.8181   -999.2500   -999.2500
  3044.7000      7.7108      2.4960      0.0781      9.3324   -999.2500   -999.2500
  3044.8000      7.7090      2.5069      0.0577      8.6715   -999.2500   -999.2500
  3044.9000      7.7090      2.5112      0.0649      8.4129   -999.2500   -999.2500
  3045.0000      7.7090      2.5039      0.0486      8.8561   -999.2500   -999.2500
  3045.1000      7.7090      2.4977      0.0343      9.2300   -999.2500   -999.2500
  3045.2000      7.7090      2.5129      0.0431      8.3089   -999.2500   -999.2500
  3045.3000      7.7097      2.5437      0.1085      6.4396   -999.2500   -999.2500
  3045.4000      7.7097      2.5558      0.0975      5.7070   -999.2500   -999.2500
  3045.5000      7.7094      2.5369      0.0474      6.8565   -999.2500   -999.2500
  3045.6000      7.7094      2.5116      0.0143      8.3879   -999.2500   -999.2500
  3045.7000      7.7094      2.4958      0.0515      9.3472   -999.2500   -999.2500
  3045.8000      7.7077      2.4833      0.0447     10.1049   -999.2500   -999.2500
  3045.9000      7.7077      2.4779      0.0070     10.4277   -999.2500   -999.2500
  3046.0000      7.7070      2.4883      0.0119      9.7987   -999.2500   -999.2500
  3046.1000      7.7070      2.5033      0.0712      8.8882   -999.2500   -999.2500
  3046.2000      7.7070      2.5076      0.0436      8.6329   -999.2500   -999.2500
  3046.3000      7.7083      2.5014      0.0513      9.0077   -999.2500   -999.2500
  3046.4000      7.7083      2.4880      0.0569      9.8202   -999.2500   -999.2500
  3046.5000      7.7100      2.4706      0.0267     10.8736   -999.2500   -999.2500
  3046.6000      7.7100      2.4614      0.0348     11.4297   -999.2500   -999.2500
  3046.7000      7.7100      2.4677      0.0301     11.0461   -999.2500   -999.2500
  3046.8000      7.7111      2.4821      0.0608     10.1781   -999.2500   -999.2500
  3046.9000      7.7111      2.4897      0.0695      9.7153   -999.2500   -999.2500
  3047.0000      7.7144      2.4868      0.0447      9.8930   -999.2500   -999.2500
  3047.1000      7.7144      2.4784      0.0629     10.3985   -999.2500   -999.2500
  3047.2000      7.7144      2.4659      0.0372     11.1559   -999.2500   -999.2500
  3047.3000      7.7185      2.4541      0.0354     11.8716   -999.2500   -999.2500
  3047.4000      7.7185      2.4484      0.0504     12.2209   -999.2500   -999.2500
  3047.5000      7.7172      2.4487      0.0469     12.2007   -999.2500   -999.2500
  3047.6000      7.7172      2.4586      0.0202     11.6006   -999.2500   -999.2500
  3047.7000      7.7172      2.4791      0.0428     10.3560   -999.2500   -999.2500
  3047.8000      7.7078      2.5000      0.0789      9.0892   -999.2500   -999.2500
  3047.9000      7.7078      2.5352      0.0787      6.9567   -999.2500   -999.2500
  3048.0000      7.6528      2.6319      0.0785      1.0949   -999.2500   -999.2500
  3048.1000      7.6528      2.6741      0.1043     -1.4586   -999.2500   -999.2500
  3048.2000      7.6528      2.2388      0.6283     24.9212   -999.2500   -999.2500
  3048.3000      7.1811      1.2695      0.0900     83.6649   -999.2500   -999.2500
  3048.4000      7.1811      0.4298      0.0900    134.5548   -999.2500   -999.2500
  3048.5000      5.2269      0.0815   -999.2500    155.6643   -999.2500   -999.2500
  3048.6000      5.2269      0.0084   -999.2500    160.0970   -999.2500   -999.2500
  3048.7000      5.2269      0.0005   -999.2500    160.5784   -999.2500   -999.2500
