~Version Information
VERS.                      2.0: CWLS Log ASCII Standard - VERSION 2.0
WRAP.                       NO: One line per depth step
~Well Information Block
STRT.FT               325.0000: 
STOP.FT              1013.5000: 
STEP.FT                 0.1000: 
NULL.                -999.2500: 
COMP.          Pioneer Natural Resources: COMPANY
WELL.                Doc 34-30: WELL
FLD.           Purgatoire River: FIELD
LOC.           454' FSL & 1386' FEL: LOCATION
CNTY.               Las Animas: COUNTY
SRVC.                Patterson: SERVICE COMPANY
DATE.          Thu Feb 16 07:19:58 2006: LOG DATE
UWI.           05 071 08694 00: UNIQUE WELL ID
STAT.                 Colorado: STATE
~Curve Information Block
DEPT.FT            0 000 00 00: Depth
DCAL.in                       : CDL Caliper
RHOB.g/cc                     : CDL Bulk Density
RHOC.g/cc                     : CDL Density Correction
DPOR.pu                       : CDL Density Porosity
GR.GAPI                       : Gamma Ray
NPOR.pu                       : Neutron Porosity
~Parameter Information Block
~A  Depth       DCAL        RHOB        RHOC        DPOR         GR         NPOR    
# ...
   411.4000      7.9969      2.3701      0.0505     16.9626     49.3147     15.7205
   411.5000      7.9971      2.3589      0.0253     17.6407     48.1912     15.4013
   411.6000      7.9971      2.3555      0.0445     17.8499     49.5333     15.5506
   411.7000      7.9971      2.3534      0.0686     17.9737     50.6125     15.9846
   411.8000      7.9965      2.3483      0.0029     18.2864     51.1554     16.4308
   411.9000      7.9965      2.3446      0.0397     18.5118     52.0036     16.5635
   412.0000      7.9956      2.3387      0.0270     18.8656     51.0485     16.3046
   412.1000      7.9956      2.3324      0.0154     19.2504     48.3197     15.8778
   412.2000      7.9956      2.3383      0.0075     18.8898     48.1273     15.7484
   412.3000      7.9961      2.3537      0.0201     17.9605     49.8629     16.3746
   412.4000      7.9961      2.3641      0.0387     17.3263     49.0682     17.2651
   412.5000      7.9963      2.3705      0.0259     16.9389     45.3286     17.2973
   412.6000      7.9963      2.3846      0.0458     16.0875     43.3335     16.6041
   412.7000      7.9963      2.4105      0.0196     14.5153     46.0538     16.1685
   412.8000      7.9955      2.4344      0.0934     13.0693     50.1214     16.1849
   412.9000      7.9955      2.4383      0.0668     12.8298     51.3611     16.3614
   413.0000      7.9953      2.4310      0.0190     13.2747     52.4020     16.6834
   413.1000      7.9953      2.4281      0.0088     13.4492     59.2834     17.1690
   413.2000      7.9953      2.4232      0.0265     13.7460     68.6837     17.3720
   413.3000      7.9960      2.4078      0.0369     14.6785     71.0531     17.1561
   413.4000      7.9960      2.3900     -0.0075     15.7560     66.4533     16.9334
   413.5000      7.9965      2.3765      0.0065     16.5745     61.2630     17.0362
   413.6000      7.9965      2.3623      0.0003     17.4334     56.1586     17.2455
   413.7000      7.9965      2.3479     -0.0114     18.3100     51.2851     17.0730
   413.8000      7.9963      2.3420     -0.0437     18.6672     50.1591     16.5371
   413.9000      7.9963      2.3443      0.0079     18.5294     53.8350     15.8945
   414.0000      7.9968      2.3521      0.0084     18.0563     58.5702     15.5256
   414.1000      7.9968      2.3726     -0.0208     16.8102     62.4913     15.7756
   414.2000      7.9968      2.4010      0.0498     15.0919     67.3637     16.4921
   414.3000      7.9990      2.4185      0.0722     14.0323     72.8248     17.1707
   414.4000      7.9990      2.4224      0.0657     13.7920     78.1562     17.4646
   414.5000      8.0004      2.4241      0.0356     13.6915     81.5492     17.2672
   414.6000      8.0004      2.4225      0.1233     13.7865     79.1439     16.8398
   414.7000      8.0004      2.4110      0.0472     14.4845     73.8834     16.7499
   414.8000      7.9985      2.3978      0.0637     15.2830     72.7547     17.2019
   414.9000      7.9985      2.3872      0.0420     15.9270     76.4639     17.8919
   415.0000      7.9964      2.3797     -0.0057     16.3793     80.4151     18.1371
   415.1000      7.9964      2.3783      0.0063     16.4677     81.8704     17.6700
   415.2000      7.9964      2.3729      0.0193     16.7937     81.9185     17.2136
   415.3000      7.9963      2.3578      0.0089     17.7066     80.8726     17.1505
   415.4000      7.9963      2.3444     -0.0014     18.5212     78.5177     16.9043
   415.5000      7.9968      2.3410      0.0212     18.7257     76.9585     16.4991
   415.6000      7.9968      2.3409      0.0484     18.7354     76.1718     16.8466
   415.7000      7.9968      2.3387     -0.0136     18.8675     74.9934     17.8543
   415.8000      7.9966      2.3366      0.0302     18.9940     74.8160     18.8022
   415.9000      7.9966      2.3317      0.0040     19.2900     74.8040     19.4645
   416.0000      7.9964      2.3283     -0.0149     19.4965     74.5403     19.3836
   416.1000      7.9964      2.3358      0.0364     19.0403     75.1106     18.5541
   416.2000      7.9964      2.3525      0.0312     18.0316     74.3685     18.0581
   416.3000      7.9972      2.3696      0.0593     16.9954     71.3384     18.1958
   416.4000      7.9972      2.3793      0.0573     16.4084     70.4413     18.1733
   416.5000      7.9980      2.3799      0.0659     16.3690     74.3995     17.6254
   416.6000      7.9980      2.3791      0.0655     16.4166     77.1275     16.8770
   416.7000      7.9980      2.3821      0.0672     16.2346     72.8996     16.4279
   416.8000      7.9973      2.3821      0.0583     16.2380     66.1652     16.7106
   416.9000      7.9973      2.3743      0.0506     16.7063     64.6367     17.4199
   417.0000      7.9969      2.3651      0.0578     17.2690     68.0240     17.8177
   417.1000      7.9969      2.3609      0.0650     17.5197     70.3539     17.7439
   417.2000      7.9969      2.3668      0.0431     17.1659     69.7000     17.6624
   417.3000      7.9972      2.3867      0.0555     15.9551     69.1720     17.8928
   417.4000      7.9972      2.4146      0.0722     14.2694     69.8406     18.2902
   417.5000      7.9971      2.4334      0.0671     13.1254     70.7245     18.7404
   417.6000      7.9971      2.4330      0.0807     13.1494     71.7167     18.9783
   417.7000      7.9971      2.4202      0.0645     13.9295     72.1277     18.9024
   417.8000      7.9967      2.4119      0.0482     14.4294     72.2811     18.8490
   417.9000      7.9967      2.4151      0.0540     14.2376     73.5972     18.9273
   418.0000      7.9957      2.4193      0.0663     13.9822     77.3712     19.1474
   418.1000      7.9957      2.4159      0.0425     14.1876     83.4165     19.4461
   418.2000      7.9957      2.4166      0.0191     14.1430     87.4414     19.5208
   418.3000      7.9946      2.4339      0.0317     13.0940     88.0050     19.5103
   418.4000      7.9946      2.4551      0.0408     11.8126     90.3418     19.9700
   418.5000      7.9950      2.4647      0.0324     11.2273     95.8734     20.8691
   418.6000      7.9950      2.4666      0.0154     11.1169    100.2907     21.6586
   418.7000      7.9950      2.4688     -0.0082     10.9794    104.6497     22.3452
   418.8000      7.9958      2.4762      0.0107     10.5356    112.5736     23.1184
   418.9000      7.9958      2.4923      0.0056      9.5576    117.8523     23.8856
   419.0000      7.9954      2.5100      0.0506      8.4822    112.7624     24.5701
   419.1000      7.9954      2.5146      0.0159      8.2083    103.3844     24.9974
   419.2000      7.9954      2.5101      0.0046      8.4762     97.9303     25.3083
   419.3000      7.9940      2.5099      0.0121      8.4887     98.8213     25.7806
   419.4000      7.9940      2.5163     -0.0016      8.1005    104.2201     26.1024
   419.5000      7.9926      2.5278     -0.0123      7.4067    108.7223     25.8392
   419.6000      7.9926      2.5450     -0.0360      6.3615    109.1666     25.2825
   419.7000      7.9926      2.5637      0.0081      5.2295    107.4514     25.1357
   419.8000      7.9916      2.5741     -0.0153      4.6004    108.1338     25.4910
   419.9000      7.9916      2.5776      0.0015      4.3895    112.6200     25.9824
   420.0000      7.9902      2.5820     -0.0216      4.1192    117.5167     26.4093
   420.1000      7.9902      2.5877      0.0519      3.7752    121.5284     26.8883
   420.2000      7.9902      2.5918      0.0462      3.5250    127.6821     27.3404
   420.3000      7.9898      2.6010      0.0379      2.9678    133.8754     27.3335
   420.4000      7.9898      2.6175      0.0895      1.9718    133.3048     27.2950
   420.5000      7.9903      2.6280      0.0863      1.3353    125.9275     28.0098
   420.6000      7.9903      2.6302      0.0499      1.1979    119.5197     28.7405
   420.7000      7.9903      2.6404      0.0684      0.5804    120.1599     28.4041
   420.8000      7.9906      2.6603      0.0933     -0.6223    125.0614     27.6259
   420.9000      7.9906      2.6691      0.0932     -1.1594    130.5013     27.4519
