~Version Information
VERS.                      2.0: CWLS Log ASCII Standard - VERSION 2.0
WRAP.                       NO: One line per depth step
~Well Information Block
STRT.FT                -4.2500: 
STOP.FT               745.0000: 
STEP.FT                 0.2500: 
NULL.                -999.2500: 
COMP.          Pioneer Natural Resources: COMPANY
WELL.                Zed 11-23: WELL
FLD.           Purgatoire River: FIELD
LOC.           641' FNL & 952' FWL: LOCATION
CNTY.               Las Animas: COUNTY
SRVC.                         : SERVICE COMPANY
DATE.          Fri Mar 03 16:43:06 2006: LOG DATE
UWI.           05 071 08702 00: UNIQUE WELL ID
STAT.                       CO: STATE
~Curve Information Block
DEPT.FT            0 000 00 00: Depth
GR.GAPI                       : Gamma Ray
CCL.                          : Casing Collar Locator
TT3.usec                      : CBL 3' Travel Time
AMP3.mV                       : CBL 3' Amplitude
~Parameter Information Block
~A  Depth        GR         CCL         TT3         AMP3    
# ...
   665.7500     68.8750      0.0000    669.1605     11.2534
   666.0000     72.8034      0.0000    676.6614     11.2908
   666.2500     75.4712      0.0000    669.1764     11.3499
   666.5000     76.6090      0.0000    656.0657     11.4173
   666.7500     76.4542      0.0000    644.0969     11.4978
   667.0000     75.2495      0.0000    631.5944     11.6133
   667.2500     73.1381      0.0000    615.4039     11.7865
   667.5000     70.4807      0.0000    601.3638     12.0263
   667.7500     68.0727      0.0000    602.3069     12.2976
   668.0000     66.9410      0.0000    625.0516     12.4658
   668.2500     67.6940      0.0000    663.1132     12.2978
   668.5000     69.8225      0.0000    703.2610     11.6274
   668.7500     71.7917      0.0000    735.9973     10.5808
   669.0000     72.2239      0.0000    757.7477      9.5678
   669.2500     71.1275      0.0000    766.1142      8.9761
   669.5000     69.8201      0.0000    757.5031      8.8926
   669.7500     69.5565      0.0000    730.0668      9.1346
   670.0000     70.2755      2.0000    687.8064      9.4836
   670.2500     70.6920      0.0000    642.0319      9.8461
   670.5000     69.5948      0.0000    608.0715     10.2434
   670.7500     67.0479      0.0000    596.6332     10.7152
   671.0000     64.3230      0.0000    605.1613     11.2438
   671.2500     62.6959      0.0000    618.9725     11.7489
   671.5000     62.3411      0.0000    622.4050     12.1501
   671.7500     62.3380      0.0000    608.5547     12.4298
   672.0000     61.6210      0.0000    580.1030     12.6298
   672.2500     60.0273      0.0000    544.6401     12.7895
   672.5000     58.6575      0.0000    510.0189     12.9022
   672.7500     59.0523      0.0000    480.9575     12.9316
   673.0000     61.6819      0.0000    457.4643     12.8632
   673.2500     65.3260      0.0000    436.8828     12.7274
   673.5000     68.1645      0.0000    417.9420     12.5694
   673.7500     69.3138      0.0000    402.0882     12.4100
   674.0000     69.1741      0.0000    391.1898     12.2513
   674.2500     68.6916      0.0000    385.3138     12.1065
   674.5000     68.6424      0.0000    382.9351     11.9965
   674.7500     69.3865      0.0000    382.3617     11.9271
   675.0000     70.9595      0.0000    382.5736     11.8870
   675.2500     73.3277      0.0000    383.3623     11.8662
   675.5000     76.3249      0.0000    385.1638     11.8663
   675.7500     79.0111      0.0000    388.6309     11.8962
   676.0000     79.4668      0.0000    393.6702     11.9610
   676.2500     76.2044      0.0000    398.6346     12.0530
   676.5000     70.0691      0.0000    401.1512     12.1495
   676.7500     64.1114      0.0000    400.5477     12.2214
   677.0000     61.1758      0.0000    398.9581     12.2499
   677.2500     61.7222      0.0000    399.0379     12.2354
   677.5000     63.9139      0.0000    400.7788     12.1923
   677.7500     65.5146      0.0000    401.5242     12.1389
   678.0000     65.6756      0.0000    399.1611     12.0907
   678.2500     65.1786      0.0000    394.3771     12.0563
   678.5000     65.2484      0.0000    389.5048     12.0366
   678.7500     66.2422      0.0000    386.0324     12.0271
   679.0000     67.3901      0.0000    383.7155     12.0244
   679.2500     67.6033      0.0000    381.4795     12.0272
   679.5000     66.3901      0.0000    378.7174     12.0299
   679.7500     64.1246      0.0000    375.9058     12.0200
   680.0000     61.7007      0.0000    374.1107     11.9852
   680.2500     59.9983      0.0000    373.7537     11.9208
   680.5000     59.4443      0.0000    374.0139     11.8321
   680.7500     59.8622      0.0000    373.7592     11.7319
   681.0000     60.7402      0.0000    372.9016     11.6383
   681.2500     61.7362      0.0000    372.4562     11.5660
   681.5000     62.9522      0.0000    373.2845     11.5203
   681.7500     64.6545      0.0000    375.1705     11.4989
   682.0000     66.6683      0.0000    377.2247     11.4982
   682.2500     68.2357      0.0000    378.8054     11.5141
   682.5000     68.6321      0.0000    379.8144     11.5387
   682.7500     67.7439      0.0000    380.3769     11.5646
   683.0000     66.0439      0.0000    380.5512     11.5973
   683.2500     64.2302      0.0000    380.3429     11.6601
   683.5000     62.8479      0.0000    379.8192     11.7723
   683.7500     62.1285      0.0000    379.1228     11.9159
   684.0000     62.1663      0.0000    378.4090     12.0398
   684.2500     62.9852      0.0000    377.7947     12.1103
   684.5000     64.2289      0.0000    377.3496     12.1441
   684.7500     65.1293      0.0000    377.0985     12.1713
   685.0000     65.1147      0.0000    377.0342     12.1922
   685.2500     64.3934      0.0000    377.1452     12.1931
   685.5000     63.8063      0.0000    377.4353     12.1834
   685.7500     64.0824      0.0000    377.9102     12.1881
   686.0000     65.2278      0.0000    378.5551     12.2190
   686.2500     66.6848      0.0000    379.3409     12.2702
   686.5000     68.1151      0.0000    380.3182     12.3320
   686.7500     69.8226      0.0000    381.7783     12.3964
   687.0000     72.1867      0.0000    384.4509     12.4561
   687.2500     74.8355      0.0000    389.4861     12.5023
   687.5000     76.7148      0.0000    397.9513     12.5219
   687.7500     76.9397      0.0000    410.0715     12.5004
   688.0000     75.4444      0.0000    424.8723     12.4373
   688.2500     73.0536      0.0000    440.0468     12.3553
   688.5000     71.1137      0.0000    451.5455     12.2855
   688.7500     70.6419      0.0000    454.3058     12.2441
   689.0000     71.4586      0.0000    445.6135     12.2257
   689.2500     72.3889      0.0000    428.2166     12.2177
   689.5000     72.5004      0.0000    408.6703     12.2133
   689.7500     71.9702      0.0000    392.1753     12.2136
   690.0000     71.6054      0.0000    379.8015     12.2225
   690.2500     71.7506      0.0000    370.4089     12.2429
   690.5000     71.9916      0.0000    363.7613     12.2753
   690.7500     71.8553      0.0000    361.0159     12.3183
   691.0000     71.4120      0.0000    362.8128     12.3653
   691.2500     71.0569      0.0000    367.7989     12.4031
   691.5000     71.0586      0.0000    373.3487     12.4158
   691.7500     71.5643      0.0000    377.4179     12.3940
   692.0000     72.6954      0.0000    379.4956     12.3428
   692.2500     74.2060      0.0000    380.0648     12.2798
   692.5000     75.2549      0.0000    379.7183     12.2275
   692.7500     75.0810      0.0000    379.0892     12.2024
   693.0000     74.0686      0.0000    379.8407     12.2097
   693.2500     73.8039      0.0000    385.4648     12.2448
   693.5000     75.7474      0.0000    399.5930     12.2990
   693.7500     79.9479      0.0000    421.4383     12.3559
   694.0000     85.2518      0.0000    442.9104     12.3884
   694.2500     90.6153      0.0000    452.6461     12.3799
   694.5000     95.7562      0.0000    444.5808     12.3450
   694.7500    100.5599      0.0000    422.4252     12.3191
   695.0000    104.5702      0.0000    395.9884     12.3339
   695.2500    107.5312      0.0000    374.4138     12.4113
   695.5000    109.8992      0.0000    362.7262     12.5617
   695.7500    112.0798      0.0000    362.5926     12.7686
   696.0000    113.3945      0.0000    373.5627     12.9790
   696.2500    112.5059      0.0000    391.9240     13.1345
   696.5000    108.9938      0.0000    409.1142     13.2193
   696.7500    104.0347      0.0000    414.8008     13.2651
   697.0000     99.2254      0.0000    404.6951     13.3098
   697.2500     95.0041      0.0000    384.5203     13.3665
   697.5000     90.7353      0.0000    364.5165     13.4336
   697.7500     86.3159      0.0000    351.0792     13.5133
   698.0000     83.0522      0.0000    344.4528     13.6024
   698.2500     82.5564      0.0000    341.9914     13.6706
   698.5000     85.0199      0.0000    341.4094     13.6716
   698.7500     89.0108      0.0000    341.7038     13.5910
   699.0000     92.8772      0.0000    342.8245     13.4730
