~Version Information
VERS.                      2.0: CWLS Log ASCII Standard - VERSION 2.0
WRAP.                       NO: One line per depth step
~Well Information Block
STRT.FT                -7.5000: 
STOP.FT              1517.5000: 
STEP.FT                 0.2500: 
NULL.                -999.2500: 
COMP.          Pioneer Natural Resources: COMPANY
WELL.          McClaren 13-34 Tr: WELL
FLD.           Purgatorie River: FIELD
LOC.           1934' FSL & 826' WL--: LOCATION
PROV.                       CO: PROVINCE
CNTY.               Las Animas: COUNTRY
SRVC.          Patterson Wireline: SERVICE COMPANY
DATE.          Fri Jul 15 13:10:35 2005: LOG DATE
UWI.           05 071 08437 00: UNIQUE WELL ID
~Curve Information Block
DEPT.FT            0 000 00 00: Depth
CCL.                          : Casing Collar Locator
TT3.usec                      : CBL 3' Travel Time
AMP3.mV                       : CBL 3' Amplitude
GR.GAPI                       : Gamma Ray
~Parameter Information Block
~A  Depth       CCL         TT3         AMP3         GR     
# ...
   696.0000      0.0000    304.1648     20.3779     86.0953
   696.2500      0.0000    304.2003     20.6110     80.6512
   696.5000      0.0000    304.3194     20.6134     77.2345
   696.7500      0.0000    304.4318     20.4640     75.0343
   697.0000      0.0000    304.4904     20.2446     74.4517
   697.2500      0.0000    304.4954     20.0197     77.0641
   697.5000      0.0000    304.4692     19.8279     83.6243
   697.7500      0.0000    304.4342     19.6832     92.5092
   698.0000      0.0000    304.4043     19.5867    100.5096
   698.2500      0.0000    304.4166     19.5332    105.1293
   698.5000      0.0000    304.5827     19.5003    106.1725
   698.7500      0.0000    305.3945     19.4340    105.2279
   699.0000      0.0000    308.3416     19.2524    103.7203
   699.2500      0.0000    316.6306     18.8743    101.9284
   699.5000      0.0000    334.7759     18.2609    100.1104
   699.7500      0.0000    365.9551     17.4342     99.5506
   700.0000      0.0000    409.3743     16.4579    101.4356
   700.2500      0.0000    461.8339     15.4150    105.2491
   700.5000      0.0000    521.0418     14.4271    109.1866
   700.7500      0.0000    582.6295     13.6727    111.7424
   701.0000      0.0000    634.2497     13.3104    112.3487
   701.2500      0.0000    660.4427     13.3350    111.2343
   701.5000      2.0000    657.2108     13.5350    109.4473
   701.7500      1.5341    637.7437     13.6236    108.4659
   702.0000      0.0000    620.3828     13.4135    108.9157
   702.2500      0.0000    610.4742     12.9375    109.9070
   702.5000      0.0000    594.5161     12.4966    110.3769
   702.7500      0.0000    554.7611     12.5377    110.9166
   703.0000      0.0000    490.1651     13.3110    113.3804
   703.2500      0.0000    419.4184     14.6022    118.6497
   703.5000      0.0000    363.5594     15.8998    125.5494
   703.7500      0.0000    330.4192     16.8372    131.9497
   704.0000      0.0000    315.1851     17.4010    136.2188
   704.2500      0.0000    309.5429     17.7516    137.7865
   704.5000      0.0000    307.7198     17.9879    137.2379
   704.7500      0.0000    307.1238     18.1160    135.8329
   705.0000      0.0000    306.9302     18.1344    134.0228
   705.2500      0.0000    306.9154     18.0662    130.4046
   705.5000      0.0000    307.0103     17.9326    123.1207
   705.7500      0.0000    307.1717     17.7502    112.5680
   706.0000      0.0000    307.3326     17.5554    102.0453
   706.2500      0.0000    307.4184     17.4016     95.3912
   706.5000      0.0000    307.3905     17.3323     94.2486
   706.7500      0.0000    307.2617     17.3754     97.5219
   707.0000      0.0000    307.0628     17.5601    102.8449
   707.2500      0.0000    306.8093     17.9159    108.3989
   707.5000      0.0000    306.5181     18.4367    113.6911
   707.7500      0.0000    306.2501     19.0388    118.8742
   708.0000      0.0000    306.1046     19.5617    123.6498
   708.2500      0.0000    306.1492     19.8382    127.2153
   708.5000      0.0000    306.3535     19.8020    128.9627
   708.7500      0.0000    306.6014     19.5362    128.7587
   709.0000      0.0000    306.7725     19.2069    127.0287
   709.2500      0.0000    306.8198     18.9501    124.9789
   709.5000      0.0000    306.7837     18.8178    124.1439
   709.7500      0.0000    306.7451     18.7969    125.2463
   710.0000      0.0000    306.7665     18.8436    127.8130
   710.2500      0.0000    306.8638     18.9096    130.9054
   710.5000      0.0000    307.0156     18.9671    133.7919
   710.7500      0.0000    307.1826     19.0229    136.0417
   711.0000      0.0000    307.3189     19.0991    137.5630
   711.2500      0.0000    307.3901     19.1932    138.6256
   711.5000      0.0000    307.4007     19.2656    139.3509
   711.7500      0.0000    307.3980     19.2738    139.1871
   712.0000      0.0000    307.4267     19.2220    137.4264
   712.2500      0.0000    307.4738     19.1703    134.3461
   712.5000      0.0000    307.4709     19.1883    131.2653
   712.7500      0.0000    307.3637     19.2924    129.3004
   713.0000      0.0000    307.1717     19.4338    128.7003
   713.2500      0.0000    306.9706     19.5500    129.5485
   713.5000      0.0000    306.8219     19.6189    132.0265
   713.7500      0.0000    306.7307     19.6575    135.2431
   714.0000      0.0000    306.6685     19.6802    136.8087
   714.2500      0.0000    306.6271     19.6675    134.7813
   714.5000      0.0000    306.6430     19.5773    129.8277
   714.7500      0.0000    306.7689     19.3896    124.7683
   715.0000      0.0000    307.0158     19.1411    122.0234
   715.2500      0.0000    307.3207     18.9139    121.7490
   715.5000      0.0000    307.5793     18.7793    122.3080
   715.7500      0.0000    307.7184     18.7497    122.1651
   716.0000      0.0000    307.7374     18.7845    121.0150
   716.2500      0.0000    307.6873     18.8384    119.2875
   716.5000      0.0000    307.6220     18.8939    117.2072
   716.7500      0.0000    307.5673     18.9484    114.5985
   717.0000      0.0000    307.5186     18.9948    111.2183
   717.2500      0.0000    307.4555     19.0261    107.1384
   717.5000      0.0000    307.3653     19.0479    103.1063
   717.7500      0.0000    307.2591     19.0773    100.3322
   718.0000      0.0000    307.1707     19.1325     99.3557
   718.2500      0.0000    307.1350     19.2227     99.1218
   718.5000      0.0000    307.1570     19.3423     97.6811
   718.7500      0.0000    307.2013     19.4736     93.9479
   719.0000      0.0000    307.2188     19.5918     88.5535
   719.2500      0.0000    307.1836     19.6708     83.0516
   719.5000      0.0000    307.1034     19.6968     78.6578
   719.7500      0.0000    307.0047     19.6863     75.8031
   720.0000      0.0000    306.9167     19.6799     74.6093
   720.2500      0.0000    306.8645     19.7060     75.4735
   720.5000      0.0000    306.8636     19.7500     79.0071
   720.7500      0.0000    306.9151     19.7729     85.3691
   721.0000      0.0000    307.0077     19.7578     93.8610
   721.2500      0.0000    307.1134     19.7304    103.3529
   721.5000      0.0000    307.1845     19.7374    112.9961
   721.7500      0.0000    307.1740     19.8127    122.3176
   722.0000      0.0000    307.0690     19.9536    130.7821
   722.2500      0.0000    306.9044     20.1190    137.5823
   722.5000      0.0000    306.7411     20.2455    141.8997
   722.7500      0.0000    306.6296     20.2743    143.1479
   723.0000      0.0000    306.5923     20.1727    140.9751
   723.2500      0.0000    306.6336     19.9371    135.4708
   723.5000      0.0000    306.7545     19.5904    127.7555
   723.7500      0.0000    306.9467     19.1868    120.0544
   724.0000      0.0000    307.1768     18.8051    114.5412
   724.2500      0.0000    307.3877     18.5232    111.8045
   724.5000      0.0000    307.5168     18.3967    110.6334
   724.7500      0.0000    307.5177     18.4508    109.4275
   725.0000      0.0000    307.3839     18.6619    107.6099
   725.2500      0.0000    307.1663     18.9459    105.5849
   725.5000      0.0000    306.9602     19.1874    103.8245
   725.7500      0.0000    306.8546     19.2969    102.4911
   726.0000      0.0000    306.8839     19.2476    101.8101
   726.2500      0.0000    307.0250     19.0660    102.2401
   726.5000      0.0000    307.2260     18.8067    103.9647
   726.7500      0.0000    307.4274     18.5427    106.5050
   727.0000      0.0000    307.5735     18.3498    109.0966
   727.2500      0.0000    307.6236     18.2725    111.2090
   727.5000      0.0000    307.5627     18.3097    112.5910
   727.7500      0.0000    307.4116     18.4297    113.2813
   728.0000      0.0000    307.2253     18.5850    113.7594
   728.2500      0.0000    307.0724     18.7173    114.5185
   728.5000      0.0000    307.0025     18.7741    115.2989
   728.7500      0.0000    307.0303     18.7316    115.2177
   729.0000      0.0000    307.1413     18.5938    113.8513
   729.2500      0.0000    307.3038     18.3755    111.9930
