~Version Information
VERS.                      2.0: CWLS Log ASCII Standard - VERSION 2.0
WRAP.                       NO: One line per depth step
~Well Information Block
STRT.FT                -7.0000: 
STOP.FT              2517.5000: 
STEP.FT                 0.2500: 
NULL.                -999.2500: 
COMP.          Pioneer Natural Resources: COMPANY
WELL.          Horsefeathers 24-34: WELL
FLD.           Purgatoire River: FIELD
LOC.           183' FSL & 1570' FWL: LOCATION
CNTY.               Las Animas: COUNTY
SRVC.                         : SERVICE COMPANY
DATE.          Fri Mar 17 10:06:37 2006: LOG DATE
UWI.           05 071 08675 00: UNIQUE WELL ID
STAT.                       CO: STATE
~Curve Information Block
DEPT.FT            0 000 00 00: Depth
GR.GAPI                       : Gamma Ray
CCL.                          : Casing Collar Locator
TT3.usec                      : CBL 3' Travel Time
AMP3.mV                       : CBL 3' Amplitude
~Parameter Information Block
~A  Depth        GR         CCL         TT3         AMP3    
# ...
   830.5000     82.9950      0.0000    555.2331      6.9721
   830.7500     90.6236      0.0000    595.6206      6.7952
   831.0000     98.0376      0.0000    604.0075      6.6494
   831.2500    105.0229      0.0000    582.8072      6.5550
   831.5000    111.5807      0.0000    546.9706      6.5264
   831.7500    116.6708      0.0000    513.1422      6.5590
   832.0000    119.1401      0.0000    491.8823      6.6250
   832.2500    119.6699      0.0000    486.9413      6.6911
   832.5000    120.5460      0.0000    497.7459      6.7405
   832.7500    123.1752      0.0000    521.6120      6.7761
   833.0000    126.6799      0.0000    554.9373      6.8065
   833.2500    129.1479      0.0000    593.3610      6.8333
   833.5000    129.4673      0.0000    632.0400      6.8509
   833.7500    127.8985      0.0000    667.0073      6.8515
   834.0000    125.6093      0.0000    696.2961      6.8314
   834.2500    123.8206      0.0000    719.3449      6.7948
   834.5000    122.9789      0.0000    736.1011      6.7551
   834.7500    122.8852      0.0000    747.3555      6.7309
   835.0000    123.7773      0.0000    755.1741      6.7390
   835.2500    126.4954      0.0000    761.6199      6.7841
   835.5000    130.7831      0.0000    766.1426      6.8512
   835.7500    134.1389      0.0000    763.8678      6.9093
   836.0000    133.5162      0.0000    747.2843      6.9316
   836.2500    127.9652      0.0000    711.8670      6.9152
   836.5000    119.1278      0.0000    662.2559      6.8830
   836.7500    109.8102      0.0000    613.3953      6.8662
   837.0000    102.6006      0.0000    583.9179      6.8833
   837.2500     99.1036      0.0000    585.4384      6.9349
   837.5000     99.5293      0.0000    615.2580      7.0131
   837.7500    102.7492      0.0000    658.1931      7.1123
   838.0000    106.9126      0.0000    695.8295      7.2289
   838.2500    110.4094      0.0000    714.9331      7.3541
   838.5000    112.7908      0.0000    710.1392      7.4711
   838.7500    115.0411      0.0000    684.8102      7.5586
   839.0000    118.6587      0.0000    652.1431      7.5980
   839.2500    124.0104      0.0000    630.2667      7.5800
   839.5000    129.7927      0.0000    629.7635      7.5098
   839.7500    134.5759      0.0000    645.3518      7.4029
   840.0000    138.3055      0.0000    662.0815      7.2721
   840.2500    141.3505      0.0000    669.7381      7.1186
   840.5000    142.6094      0.0000    670.1581      6.9374
   840.7500    140.0358      0.0000    672.1667      6.7298
   841.0000    133.2214      0.0000    682.2213      6.5040
   841.2500    124.3315      0.0000    699.8345      6.2596
   841.5000    116.2163      0.0000    719.5276      5.9818
   841.7500    110.3718      0.0000    736.3977      5.6738
   842.0000    106.7977      0.0000    749.5844      5.3990
   842.2500    104.9119      0.0000    760.1599      5.2581
   842.5000    104.0235      0.0000    767.2539      5.2885
   842.7500    103.1961      0.0000    768.6386      5.4060
   843.0000    101.3562      0.0000    764.6624      5.4863
   843.2500     98.0443      0.0000    759.5403      5.4876
   843.5000     94.1267      0.0000    757.9280      5.4596
   843.7500     91.3815      0.0000    760.2513      5.4590
   844.0000     91.0728     -2.0000    762.2234      5.4966
   844.2500     92.9162      0.0000    759.7327      5.5548
   844.5000     95.2239      0.0000    753.6313      5.6297
   844.7500     95.8304      0.0000    749.1309      5.7490
   845.0000     93.3633      0.0000    750.9006      5.9360
   845.2500     88.4299      0.0000    758.8388      6.1438
   845.5000     83.5999      0.0000    768.0760      6.2586
   845.7500     81.5135      0.0000    772.6380      6.2119
   846.0000     82.6342      0.0000    768.3338      6.0632
   846.2500     85.1197      0.0000    752.9678      5.9333
   846.5000     87.0220      0.0000    727.3105      5.8848
   846.7500     88.2151      0.0000    698.8914      5.8963
   847.0000     89.9331      0.0000    682.2816      5.9239
   847.2500     92.8285      0.0000    689.7701      5.9500
   847.5000     95.9783      0.0000    719.5380      5.9839
   847.7500     97.8105      0.0000    755.6625      6.0385
   848.0000     97.7938      0.0000    781.2246      6.1187
   848.2500     96.9242      0.0000    789.7544      6.2300
   848.5000     96.3946      0.0000    785.0631      6.3938
   848.7500     96.1149      0.0000    774.8430      6.6429
   849.0000     95.0152      0.0000    766.3326      7.0007
   849.2500     92.6882      0.0000    764.2038      7.4621
   849.5000     90.1540      0.0000    768.4586      7.9882
   849.7500     88.9249      0.0000    774.5543      8.5098
   850.0000     89.6252      0.0000    777.5565      8.9352
   850.2500     91.5312      0.0000    776.2427      9.1599
   850.5000     93.3438      0.0000    772.5038      9.0879
   850.7500     94.3291      0.0000    768.3792      8.6743
   851.0000     94.4628      0.0000    765.3882      7.9719
   851.2500     93.5429      0.0000    765.1924      7.1320
   851.5000     90.9289      0.0000    768.3610      6.3362
   851.7500     86.5585      0.0000    772.8782      5.7073
   852.0000     81.7764      0.0000    775.6704      5.2732
   852.2500     78.7213      0.0000    775.5505      5.0014
   852.5000     78.8374      0.0000    773.5536      4.8582
   852.7500     81.7258      0.0000    770.8664      4.8474
   853.0000     85.3738      0.0000    767.8342      5.0109
   853.2500     87.9841      0.0000    764.7493      5.3996
   853.5000     89.8913      0.0000    762.3462      6.0325
   853.7500     93.3656      0.0000    761.2172      6.8634
   854.0000    100.2544      0.0000    761.2978      7.7754
   854.2500    110.0594      0.0000    762.0942      8.6155
   854.5000    120.3640      0.0000    763.1859      9.2583
   854.7500    128.6507      0.0000    764.5071      9.6531
   855.0000    133.7567      0.0000    766.3490      9.8131
   855.2500    136.4173      0.0000    769.2020      9.7670
   855.5000    138.6233      0.0000    773.3824      9.5310
   855.7500    141.8557      0.0000    778.4807      9.1242
   856.0000    145.8600      0.0000    783.1531      8.5926
   856.2500    149.3384      0.0000    785.6913      8.0088
   856.5000    151.4433      0.0000    784.8630      7.4486
   856.7500    152.0569      0.0000    780.4379      6.9622
   857.0000    150.9222      0.0000    773.5935      6.5644
   857.2500    147.3337      0.0000    766.6904      6.2505
   857.5000    141.0539      0.0000    761.4656      6.0193
   857.7500    133.2123      0.0000    757.5008      5.8745
   858.0000    125.9136      0.0000    753.8564      5.8064
   858.2500    120.9039      0.0000    751.8600      5.7835
   858.5000    118.4747      0.0000    754.3209      5.7671
   858.7500    117.3139      0.0000    762.0116      5.7342
   859.0000    115.5475      0.0000    772.4724      5.6853
   859.2500    112.4962      0.0000    782.0472      5.6344
   859.5000    109.4770      0.0000    787.8543      5.5958
   859.7500    108.4343      0.0000    788.2454      5.5758
   860.0000    109.8038      0.0000    783.0916      5.5733
   860.2500    112.2198      0.0000    774.3515      5.5826
   860.5000    114.4881      0.0000    765.5643      5.5982
   860.7500    117.0963      0.0000    759.2117      5.6169
   861.0000    121.1089      0.0000    754.2300      5.6367
   861.2500    125.9828      0.0000    746.8757      5.6555
   861.5000    129.5089      0.0000    733.9913      5.6705
   861.7500    130.1145      0.0000    714.8517      5.6800
   862.0000    128.5940      0.0000    691.0597      5.6863
   862.2500    127.3590      0.0000    666.9822      5.6957
   862.5000    128.2251      0.0000    649.1861      5.7136
   862.7500    130.9577      0.0000    641.5843      5.7410
   863.0000    133.8628      0.0000    640.1254      5.7778
   863.2500    135.6056      0.0000    635.0636      5.8278
   863.5000    136.0827      0.0000    620.0649      5.8961
   863.7500    135.7482      0.0000    597.5778      5.9820
