~Version Information
VERS.                      2.0: CWLS Log ASCII Standard - VERSION 2.0
WRAP.                       NO: One line per depth step
~Well Information Block
STRT.FT                 0.5000: 
STOP.FT              2166.0000: 
STEP.FT                 0.2500: 
NULL.                -999.2500: 
COMP.          Pioneer Natural Resources: COMPANY
WELL.          Bear Cub Federal 11-23: WELL
FLD.           Purgatoire River: FIELD
LOC.           1225' FNL & 1268 ' FWL--: LOCATION
CNTY.               Las Animas: COUNTY
SRVC.                Patterson: SERVICE COMPANY
DATE.          Mon Jul 17 10:21:31 2006: LOG DATE
UWI.           05 071 08509 00: UNIQUE WELL ID
STAT.                 Colorado: STATE
~Curve Information Block
DEPT.FT            0 000 00 00: Depth
CCL.                          : Casing Collar Locator
TT3.usec                      : CBL 3' Travel Time
AMP3.mV                       : CBL 3' Amplitude
GR.GAPI                       : Gamma Ray
~Parameter Information Block
~A  Depth       CCL         TT3         AMP3         GR     
# ...
   570.0000      0.0000    769.8551      6.6926     85.4858
   570.2500      0.0000    760.6252      6.7015     88.4908
   570.5000      0.0000    746.2238      6.7163     91.9323
   570.7500      0.0000    738.8436      6.7146     92.5072
   571.0000      0.0000    734.2234      6.6953     89.9559
   571.2500      0.0000    735.9980      6.6808     86.8237
   571.5000      0.0000    745.0625      6.6827     82.6767
   571.7500      0.0000    753.8144      6.7182     81.2572
   572.0000      0.0000    766.8130      6.8467     80.6278
   572.2500      0.0000    772.7156      6.9780     80.1070
   572.5000      0.0000    774.1179      7.1956     77.5510
   572.7500      0.0000    769.6904      7.3183     74.4965
   573.0000      0.0000    757.9583      7.4347     69.1893
   573.2500      0.0000    750.1721      7.4722     66.4309
   573.5000      0.0000    744.1505      7.5044     65.2529
   573.7500      0.0000    745.2056      7.5308     66.8742
   574.0000      0.0000    752.5004      7.5939     72.5893
   574.2500      0.0000    758.7742      7.6494     77.8731
   574.5000      0.0000    767.0014      7.7366     86.1590
   574.7500      0.0000    771.3349      7.7853     90.7155
   575.0000      0.0000    777.5682      7.8242     94.4426
   575.2500      0.0000    782.2581      7.8230     94.5814
   575.5000      0.0000    789.5038      7.7946     92.4285
   575.7500      0.0000    793.5462      7.7745     90.6117
   576.0000      0.0000    797.4407      7.7592     88.8570
   576.2500      0.0000    798.6740      7.7536     88.6709
   576.5000      0.0000    799.1667      7.7348     89.9210
   576.7500      0.0000    798.9774      7.7148     91.5841
   577.0000      0.0000    798.3917      7.6828     94.4686
   577.2500      0.0000    797.9852      7.6553     96.0861
   577.5000      0.0000    797.5224      7.5714     97.6959
   577.7500      0.0000    797.3225      7.4684     98.3960
   578.0000      0.0000    797.0426      7.2432     99.2757
   578.2500      0.0000    796.6984      7.0664     99.7764
   578.5000      0.0000    795.5497      6.8195     99.8567
   578.7500      0.0000    794.1232      6.7041     98.8352
   579.0000      0.0000    790.5485      6.6504     94.7588
   579.2500      0.0000    786.9369      6.7004     90.3853
   579.5000      0.0000    779.6416      6.8740     82.6541
   579.7500      0.0000    774.0020      7.0176     77.9557
   580.0000      0.0000    765.2744      7.2023     73.6929
   580.2500      0.0000    759.1484      7.2818     73.3027
   580.5000      0.0000    748.8391      7.3498     75.5906
   580.7500      0.0000    742.0004      7.3861     77.9344
   581.0000      0.0000    736.0104      7.4545     81.4312
   581.2500      0.0000    737.4059      7.5097     83.7517
   581.5000      0.0000    748.1157      7.6014     87.6469
   581.7500      0.0000    758.7137      7.6705     90.5382
   582.0000      0.0000    774.4148      7.7981     94.8872
   582.2500      0.0000    782.4330      7.9025     97.5415
   582.5000      0.0000    788.7811      8.0703    100.9545
   582.7500      0.0000    788.8736      8.1639    102.6729
   583.0000      0.0000    783.8781      8.2343    103.6773
   583.2500      0.0000    778.9536      8.2355    102.8540
   583.5000      0.0000    773.1799      8.2323     99.5708
   583.7500      0.0000    772.0150      8.2808     96.9113
   584.0000      0.0000    774.5179      8.4821     94.4077
   584.2500      0.0000    777.8469      8.6838     94.6946
   584.5000      0.0000    782.1054      8.9824     98.2442
   584.7500      0.0000    782.6223      9.1097    101.8452
   585.0000      0.0000    778.7379      9.1309    106.4244
   585.2500      0.0000    774.1837      9.0407    107.2592
   585.5000      0.0000    768.5840      8.8115    103.9595
   585.7500      0.0000    767.8939      8.6399     99.6026
   586.0000      0.0000    772.3362      8.4201     93.1604
   586.2500      0.0000    777.5010      8.3245     90.7680
   586.5000      0.0000    784.3817      8.2632     91.3534
   586.7500      0.0000    786.2919      8.2531     93.9563
   587.0000      0.0000    783.5584      8.2132     98.6700
   587.2500      0.0000    778.3597      8.1325    101.0694
   587.5000      0.0000    768.1998      7.9087    103.1187
   587.7500      0.0000    762.3804      7.7080    103.8110
   588.0000      0.0000    758.9502      7.3886    103.6925
   588.2500      0.0000    760.5018      7.1962    102.2602
   588.5000      0.0000    765.0447      6.9689     98.0193
   588.7500      0.0000    766.8788      6.8590     94.8562
   589.0000      0.0000    766.4384      6.7421     92.0517
   589.2500      0.0000    765.5968      6.6843     92.1692
   589.5000      0.0000    767.5646      6.6002     94.4651
   589.7500      0.0000    772.1749      6.5268     96.1562
   590.0000      0.0000    782.3306      6.3686     97.0913
   590.2500      0.0000    789.0176      6.2326     96.4029
   590.5000      0.0000    796.0025      6.0119     94.4268
   590.7500      0.0000    798.3261      5.8795     93.4038
   591.0000      0.0000    799.4302      5.7540     93.5325
   591.2500      0.0000    799.3925      5.7475     94.9333
   591.5000      0.0000    799.1292      5.8858     98.3224
   591.7500      0.0000    799.1188      6.0746    100.7813
   592.0000      0.0000    799.6133      6.4537    104.1982
   592.2500      0.0000    800.3164      6.7232    106.2733
   592.5000      0.0000    801.6826      7.0769    108.5277
   592.7500      0.0000    802.4767      7.2611    108.7112
   593.0000      0.0000    803.1174      7.4916    106.2631
   593.2500      0.0000    803.5322      7.6556    103.2874
   593.5000      0.0000    805.8323      7.9715     98.8437
   593.7500      0.0000    809.3083      8.2301     97.1510
   594.0000      0.0000    816.8278      8.6412     97.7154
   594.2500      0.0000    821.9834      8.8877     99.8901
   594.5000      0.0000    827.8359      9.1478    103.7044
   594.7500      0.0000    830.1669      9.2207    105.1241
   595.0000      0.0000    831.7423      9.1632    104.3844
   595.2500      0.0000    831.7635      9.0220    102.0971
   595.5000      0.0000    830.5618      8.6950     96.2345
   595.7500      0.0000    829.3150      8.4337     90.8484
   596.0000      0.0000    827.8696      8.0531     82.2762
   596.2500      0.0000    827.7609      7.8625     78.0872
   596.5000      0.0000    829.0059      7.7545     76.1449
   596.7500      0.0000    830.3207      7.8067     77.2142
   597.0000      0.0000    831.9500      7.9729     79.7189
   597.2500      0.0000    832.2187      8.0507     80.7733
   597.5000      0.0000    830.3424      8.0078     80.5651
   597.7500      0.0000    826.9867      7.8710     79.0239
   598.0000      0.0000    818.8754      7.5804     74.6141
   598.2500      0.0000    812.6821      7.3816     70.7855
   598.5000      0.0000    805.6868      7.1330     65.3118
   598.7500      0.0000    803.7829      7.0117     62.6579
   599.0000      0.0000    803.8845      6.8818     60.6630
   599.2500      0.0000    804.2004      6.8048     60.5824
   599.5000      0.0000    803.2221      6.6620     62.2881
   599.7500      0.0000    801.4040      6.5484     64.7722
   600.0000      0.0000    796.6519      6.4040     70.4017
   600.2500      0.0000    792.2430      6.3657     74.7383
   600.5000      0.0000    786.0742      6.4233     80.0649
   600.7500      0.0000    784.3439      6.5213     81.9109
   601.0000      0.0000    786.8014      6.6999     82.4326
   601.2500      0.0000    790.5853      6.8030     82.3585
   601.5000      0.0000    795.2286      6.8665     83.1838
   601.7500      0.0000    794.8807      6.8127     84.4581
   602.0000      0.0000    784.8047      6.5775     86.6876
   602.2500      0.0000    770.3068      6.3543     87.8564
   602.5000      0.0000    740.6954      6.0262     88.2115
   602.7500      0.0000    723.3052      5.8682     87.0744
   603.0000      0.0000    718.2371      5.7670     83.6441
   603.2500      0.0000    734.4299      5.7795     81.3165
