~Version Information
VERS.                      2.0: CWLS Log ASCII Standard - VERSION 2.0
WRAP.                       NO: One line per depth step
~Well Information Block
STRT.FT               240.0000: 
STOP.FT              1338.7000: 
STEP.FT                 0.1000: 
NULL.                -999.2500: 
COMP.          Pioneer Natural Resources: COMPANY
WELL.            Hamburg 43-35: WELL
FLD.           Purgatoire River: FIELD
LOC.           2444' FSL & 950' FEL--: LOCATION
PROV.                 Colorado: PROVINCE
CNTY.               Las Animas: COUNTRY
SRVC.                Patterson: SERVICE COMPANY
DATE.          Sun Dec 04 11:50:58 2005: LOG DATE
UWI.           05 071 08607 00: UNIQUE WELL ID
~Curve Information Block
DEPT.FT            0 000 00 00: Depth
DCAL.in                       : CDL Caliper
RHOB.g/cc                     : CDL Bulk Density
RHOC.g/cc                     : CDL Density Correction
DPOR.pu                       : CDL Density Porosity
NPOR.pu                       : Neutron Porosity
GR.GAPI                       : Gamma Ray
~Parameter Information Block
~A  Depth       DCAL        RHOB        RHOC        DPOR        NPOR         GR     
# ...
   662.4000      8.0246      2.5423     -0.0191      6.5286     23.0415    101.6334
   662.5000      8.0265      2.5733      0.0204      4.6494     23.3386     99.7015
   662.6000      8.0265      2.5916      0.0432      3.5392     23.8723    101.6912
   662.7000      8.0265      2.5890      0.0259      3.6953     24.1435    105.0893
   662.8000      8.0257      2.5800      0.0127      4.2420     24.4419    110.0380
   662.9000      8.0257      2.5769      0.0390      4.4294     25.0192    116.9700
   663.0000      8.0223      2.5849      0.0089      3.9442     25.3174    124.6579
   663.1000      8.0223      2.6031      0.0372      2.8402     25.2675    129.4266
   663.2000      8.0223      2.6254      0.0367      1.4885     25.6135    128.2139
   663.3000      8.0250      2.6460      0.0770      0.2449     26.2503    125.8731
   663.4000      8.0250      2.6539      0.0804     -0.2374     26.5832    127.9120
   663.5000      8.0329      2.6471      0.0462      0.1729     26.7888    129.7629
   663.6000      8.0329      2.6419      0.0379      0.4929     27.3252    127.9425
   663.7000      8.0329      2.6521      0.0429     -0.1262     28.1573    128.8164
   663.8000      8.0396      2.6723      0.0439     -1.3539     28.5466    133.9650
   663.9000      8.0396      2.6770      0.1001     -1.6367     28.1691    136.4698
   664.0000      8.0432      2.6453      0.0651      0.2851     27.6138    135.6903
   664.1000      8.0432      2.5900      0.0195      3.6394     27.1177    136.7552
   664.2000      8.0432      2.5425     -0.0337      6.5181     26.6786    138.0558
   664.3000      8.0440      2.5248     -0.0270      7.5896     26.5705    137.3616
   664.4000      8.0440      2.5314      0.0464      7.1908     26.6686    138.9420
   664.5000      8.0448      2.5376      0.0481      6.8148     26.6821    144.7123
   664.6000      8.0448      2.5380     -0.0174      6.7879     26.5796    151.4384
   664.7000      8.0448      2.5452      0.0274      6.3521     26.2947    152.9336
   664.8000      8.0452      2.5532      0.0660      5.8690     25.8365    147.2607
   664.9000      8.0452      2.5482      0.0350      6.1703     25.3647    142.9909
   665.0000      8.0442      2.5358      0.0122      6.9201     25.0949    146.0663
   665.1000      8.0442      2.5296      0.0366      7.2941     25.1620    150.2846
   665.2000      8.0442      2.5367      0.0334      6.8694     25.1585    150.2442
   665.3000      8.0431      2.5534      0.0597      5.8545     24.6013    148.2486
   665.4000      8.0431      2.5679      0.0533      4.9763     23.8750    146.8299
   665.5000      8.0417      2.5741      0.0529      4.6015     23.4963    146.2205
   665.6000      8.0417      2.5737      0.0467      4.6229     23.3465    147.2130
   665.7000      8.0417      2.5656      0.0829      5.1158     23.2912    148.9235
   665.8000      8.0404      2.5503      0.0257      6.0419     23.1728    149.5591
   665.9000      8.0404      2.5370      0.0550      6.8493     22.7568    151.0110
   666.0000      8.0428      2.5331      0.0096      7.0857     21.9576    152.3803
   666.1000      8.0428      2.5408      0.0556      6.6178     20.9581    147.5478
   666.2000      8.0428      2.5491      0.0476      6.1156     20.0690    137.5486
   666.3000      8.0500      2.5442      0.0512      6.4116     19.4878    131.0701
   666.4000      8.0500      2.5326      0.0188      7.1180     19.0976    130.7027
   666.5000      8.0546      2.5298      0.0372      7.2831     18.6048    130.9004
   666.6000      8.0546      2.5417      0.0166      6.5628     17.8742    127.3572
   666.7000      8.0546      2.5613      0.0774      5.3758     17.0451    120.6646
   666.8000      8.0466      2.5770      0.0774      4.4222     16.6003    113.9750
   666.9000      8.0466      2.5839      0.0796      4.0070     16.8017    109.0617
   667.0000      8.0339      2.5793      0.0573      4.2850     17.1664    104.6997
   667.1000      8.0339      2.5700      0.0092      4.8505     17.2352    100.2229
   667.2000      8.0339      2.5718      0.0338      4.7418     17.0954     98.7869
   667.3000      8.0275      2.5867      0.0399      3.8360     17.0746    100.4016
   667.4000      8.0275      2.6010      0.0688      2.9686     17.3160    100.3324
   667.5000      8.0193      2.5994      0.0511      3.0694     17.5696     96.3079
   667.6000      8.0193      2.5799      0.0196      4.2465     17.7114     92.3313
   667.7000      8.0193      2.5561      0.0500      5.6902     17.8198     91.0785
   667.8000      8.0077      2.5405      0.0356      6.6334     18.0442     89.2055
   667.9000      8.0077      2.5425      0.0370      6.5164     18.4258     86.0625
   668.0000      7.9975      2.5616      0.0422      5.3604     18.6625     84.7197
   668.1000      7.9975      2.5819      0.0599      4.1261     18.7028     85.1077
   668.2000      7.9975      2.5882      0.0543      3.7428     19.0105     85.4998
   668.3000      7.9958      2.5814      0.0254      4.1597     19.7621     85.8122
   668.4000      7.9958      2.5703      0.0258      4.8307     20.5698     87.6869
   668.5000      8.0003      2.5623      0.0040      5.3154     21.2062     91.5911
   668.6000      8.0003      2.5592      0.0369      5.5017     21.8725     95.1050
   668.7000      8.0003      2.5567      0.0377      5.6516     22.7598     96.3584
   668.8000      8.0041      2.5529      0.0358      5.8823     23.8742     96.0076
   668.9000      8.0041      2.5491      0.0122      6.1151     24.8683     95.8163
   669.0000      8.0090      2.5490      0.0060      6.1222     25.5090     97.1040
   669.1000      8.0090      2.5527      0.0255      5.8961     25.7885     99.8715
   669.2000      8.0090      2.5593     -0.0114      5.4971     25.5215    104.0696
   669.3000      8.0132      2.5721      0.0185      4.7211     24.9626    110.3442
   669.4000      8.0132      2.5885      0.0389      3.7302     24.5148    117.1753
   669.5000      8.0134      2.6005      0.0542      3.0018     23.9250    120.8680
   669.6000      8.0134      2.6020      0.0693      2.9109     23.1689    120.7181
   669.7000      8.0134      2.5960      0.0638      3.2747     22.6032    120.3498
   669.8000      8.0127      2.5961      0.0507      3.2682     22.1244    121.4040
   669.9000      8.0127      2.6046      0.0728      2.7526     21.6347    122.7698
   670.0000      8.0119      2.6086      0.0627      2.5074     21.4047    125.0795
   670.1000      8.0119      2.6081      0.0231      2.5409     21.5157    125.4213
   670.2000      8.0119      2.6083      0.0861      2.5251     21.8112    117.7409
   670.3000      8.0113      2.6066      0.0394      2.6285     22.1580    105.6031
   670.4000      8.0113      2.6124      0.0384      2.2811     22.5172     99.3957
   670.5000      8.0130      2.6296      0.0673      1.2370     23.0578    102.1835
   670.6000      8.0130      2.6391      0.0602      0.6623     23.6689    107.9975
   670.7000      8.0130      2.6329      0.0266      1.0348     24.0169    111.2616
   670.8000      8.0157      2.6213      0.0468      1.7412     24.3050    112.6894
   670.9000      8.0157      2.6075      0.0477      2.5762     24.9294    118.1956
   671.0000      8.0164      2.5949     -0.0109      3.3408     25.9209    128.8471
   671.1000      8.0164      2.5926      0.0296      3.4803     26.7597    135.7912
   671.2000      8.0164      2.5968      0.0631      3.2240     26.7130    133.3570
   671.3000      8.0174      2.5991      0.0371      3.0840     26.0621    127.6247
   671.4000      8.0174      2.5941      0.0575      3.3908     25.6950    126.9954
   671.5000      8.0237      2.5759      0.0376      4.4897     25.6491    131.7915
   671.6000      8.0237      2.5544     -0.0080      5.7954     25.6805    137.6909
   671.7000      8.0237      2.5437      0.0231      6.4454     25.8816    141.4862
   671.8000      8.0303      2.5416      0.0467      6.5683     26.1777    144.2402
   671.9000      8.0303      2.5425      0.0128      6.5142     26.3587    149.7166
