~Version Information
VERS.                      2.0: CWLS Log ASCII Standard - VERSION 2.0
WRAP.                       NO: One line per depth step
~Well Information Block
STRT.FT               795.0000: 
STOP.FT              2279.7500: 
STEP.FT                 0.2500: 
NULL.                -999.2500: 
COMP.          Pioneer Natural Resources: COMPANY
WELL.            Wildcard 31-5: WELL
FLD.           Purgatoire River: FIELD
LOC.           624' FNL & 1852' FEL--: LOCATION
CNTY.               Las Animas: COUNTY
SRVC.                Patterson: SERVICE COMPANY
DATE.          Tue Mar 07 07:02:36 2006: LOG DATE
UWI.           05 071 08707 00: UNIQUE WELL ID
STAT.                 Colorado: STATE
~Curve Information Block
DEPT.FT            0 000 00 00: Depth
DIR.Ohm-m                     : IEL Induction Resistivity
SN.Ohm-m                      : IEL Short Normal
SP.mV                         : IEL Spontaneous Potential
GR.GAPI                       : Gamma Ray
~Parameter Information Block
~A  Depth       DIR          SN          SP          GR     
# ...
   996.0000     17.0309   2000.0000   1968.0000    117.4297
   996.2500     16.2261   2000.0000   1968.0000    116.8393
   996.5000     15.4994   2000.0000   1968.0000    114.1754
   996.7500     14.8731   2000.0000   1968.0000    112.5885
   997.0000     14.3644   2000.0000   1968.0000    111.5991
   997.2500     13.9762   2000.0000   1968.0000    111.7887
   997.5000     13.6946   2000.0000   1968.0000    112.5846
   997.7500     13.4913   2000.0000   1968.0000    113.0454
   998.0000     13.3295   2000.0000   1968.0000    113.5153
   998.2500     13.1698   2000.0000   1968.0000    113.9472
   998.5000     12.9789   2000.0000   1968.0000    115.1500
   998.7500     12.7375   2000.0000   1968.0000    116.2060
   999.0000     12.4456   2000.0000   1968.0000    117.6951
   999.2500     12.1199   2000.0000   1968.0000    118.5929
   999.5000     11.7853   2000.0000   1968.0000    120.3458
   999.7500     11.4644   2000.0000   1968.0000    122.0594
  1000.0000     11.1725   2000.0000   1968.0000    125.0885
  1000.2500     10.9155   2000.0000   1968.0000    126.8326
  1000.5000     10.6935   2000.0000   1968.0000    128.3943
  1000.7500     10.5040   2000.0000   1968.0000    128.8733
  1001.0000     10.3454   2000.0000   1968.0000    129.4243
  1001.2500     10.2194   2000.0000   1968.0000    129.9815
  1001.5000     10.1295   2000.0000   1968.0000    131.3011
  1001.7500     10.0787   2000.0000   1968.0000    132.4816
  1002.0000     10.0658   2000.0000   1968.0000    134.4849
  1002.2500     10.0827   2000.0000   1968.0000    135.7961
  1002.5000     10.1147   2000.0000   1968.0000    137.3079
  1002.7500     10.1435   2000.0000   1968.0000    137.6121
  1003.0000     10.1514   2000.0000   1968.0000    136.3572
  1003.2500     10.1256   2000.0000   1968.0000    134.4342
  1003.5000     10.0571   2000.0000   1968.0000    130.9961
  1003.7500      9.9394   2000.0000   1968.0000    129.1199
  1004.0000      9.7658   2000.0000   1968.0000    127.6600
  1004.2500      9.5307   2000.0000   1968.0000    127.5609
  1004.5000      9.2308   2000.0000   1968.0000    128.2998
  1004.7500      8.8686   2000.0000   1968.0000    129.2280
  1005.0000      8.4563   2000.0000   1968.0000    131.3672
  1005.2500      8.0195   2000.0000   1968.0000    133.3372
  1005.5000      7.5957   2000.0000   1968.0000    136.7776
  1005.7500      7.2257   2000.0000   1968.0000    139.1035
  1006.0000      6.9464   2000.0000   1968.0000    142.4695
  1006.2500      6.7953   2000.0000   1968.0000    144.6762
  1006.5000      6.8347   2000.0000   1968.0000    147.8351
  1006.7500      7.2109   2000.0000   1968.0000    149.6843
  1007.0000      8.3160   2000.0000   1968.0000    151.9427
  1007.2500     11.5153   2000.0000   1968.0000    153.1698
  1007.5000     27.0053   2000.0000   1968.0000    154.7627
  1007.7500 100000.0000   2000.0000   1968.0000    155.6512
  1008.0000 100000.0000   2000.0000   1968.0000    156.2845
  1008.2500 100000.0000   2000.0000   1968.0000    155.7368
  1008.5000 100000.0000   2000.0000   1968.0000    152.6319
  1008.7500 100000.0000   2000.0000   1968.0000    148.9478
  1009.0000 100000.0000   2000.0000   1968.0000    141.7013
  1009.2500 100000.0000   2000.0000   1968.0000    136.3145
  1009.5000 100000.0000   2000.0000   1968.0000    128.0858
  1009.7500 100000.0000   2000.0000   1968.0000    122.8509
  1010.0000 100000.0000   2000.0000   1968.0000    116.6090
  1010.2500 100000.0000   2000.0000   1968.0000    114.4259
  1010.5000 100000.0000   2000.0000   1968.0000    114.3008
  1010.7500 100000.0000   2000.0000   1968.0000    115.0569
  1011.0000 100000.0000   2000.0000   1968.0000    114.3376
  1011.2500     21.0246   2000.0000   1968.0000    111.6810
  1011.5000     16.7549   2000.0000   1968.0000    105.4491
  1011.7500     49.5590   2000.0000   1968.0000    101.2769
  1012.0000 100000.0000   2000.0000   1968.0000     97.0945
  1012.2500 100000.0000   2000.0000   1968.0000     96.0471
  1012.5000 100000.0000   2000.0000   1968.0000     96.3066
  1012.7500 100000.0000   2000.0000   1968.0000     96.9730
  1013.0000 100000.0000   2000.0000   1968.0000     98.1467
  1013.2500 100000.0000   2000.0000   1968.0000     99.2233
  1013.5000      6.8624   2000.0000   1968.0000    101.3866
  1013.7500      1.0921   2000.0000   1968.0000    102.5252
  1014.0000      0.3651   2000.0000   1968.0000    101.6168
  1014.2500      0.1202   2000.0000   1968.0000     98.2398
  1014.5000      0.0375   2000.0000   1968.0000     88.9745
  1014.7500      0.0140   2000.0000   1968.0000     80.9695
  1015.0000      0.0069   2000.0000   1968.0000     68.5134
  1015.2500      0.0044   2000.0000   1968.0000     61.0564
  1015.5000      0.0035   2000.0000   1968.0000     52.4213
  1015.7500      0.0032   2000.0000   1968.0000     48.6743
  1016.0000      0.0033   2000.0000   1968.0000     45.7564
  1016.2500      0.0038   2000.0000   1968.0000     45.1273
  1016.5000      0.0052   2000.0000   1968.0000     45.5286
  1016.7500      0.0088   2000.0000   1968.0000     46.5449
  1017.0000      0.0188   2000.0000   1968.0000     48.8369
  1017.2500      0.0484   2000.0000   1968.0000     50.5514
  1017.5000      0.1184   2000.0000   1968.0000     53.3185
  1017.7500      0.2049   2000.0000   1968.0000     55.8098
  1018.0000      0.2115   2000.0000   1968.0000     61.8620
  1018.2500      0.1325   2000.0000   1968.0000     67.7644
  1018.5000      0.0613   2000.0000   1968.0000     78.0794
  1018.7500      0.0284   2000.0000   1968.0000     84.1479
  1019.0000      0.0168   2000.0000   1968.0000     88.8763
  1019.2500      0.0140   2000.0000   1968.0000     88.3107
  1019.5000      0.0166   2000.0000   1968.0000     83.3487
  1019.7500      0.0270   2000.0000   1968.0000     79.3637
  1020.0000      0.0550   2000.0000   1968.0000     75.8107
  1020.2500      0.1239   2000.0000   1968.0000     76.0438
  1020.5000      0.2669   2000.0000   1968.0000     80.1191
  1020.7500      0.5213   2000.0000   1968.0000     84.6391
  1021.0000      0.9513   2000.0000   1968.0000     92.6944
  1021.2500      1.6161   2000.0000   1968.0000     98.1069
  1021.5000      2.3752   2000.0000   1968.0000    105.4349
  1021.7500      2.8922   2000.0000   1968.0000    109.8274
  1022.0000      3.1798   2000.0000   1968.0000    116.2250
  1022.2500      3.6523   2000.0000   1968.0000    120.3473
  1022.5000      5.0019   2000.0000   1968.0000    125.1381
  1022.7500     10.0812   2000.0000   1968.0000    126.4301
  1023.0000 100000.0000   2000.0000   1968.0000    124.6096
  1023.2500 100000.0000   2000.0000   1968.0000    121.1599
  1023.5000 100000.0000   2000.0000   1968.0000    114.1389
  1023.7500 100000.0000   2000.0000   1968.0000    109.3015
  1024.0000 100000.0000   2000.0000   1968.0000    103.4904
  1024.2500 100000.0000   2000.0000   1968.0000    101.3241
  1024.5000 100000.0000   2000.0000   1968.0000    101.0970
  1024.7500 100000.0000   2000.0000   1968.0000    102.6508
  1025.0000 100000.0000   2000.0000   1968.0000    106.5200
  1025.2500 100000.0000   2000.0000   1968.0000    109.6199
  1025.5000 100000.0000   2000.0000   1968.0000    114.5142
  1025.7500 100000.0000   2000.0000   1968.0000    117.7769
  1026.0000 100000.0000   2000.0000   1968.0000    122.6806
  1026.2500 100000.0000   2000.0000   1968.0000    126.0199
  1026.5000     14.9120   2000.0000   1968.0000    130.7510
  1026.7500      5.8827   2000.0000   1968.0000    133.1225
  1027.0000      4.1613   2000.0000   1968.0000    134.7190
  1027.2500      3.8919   2000.0000   1968.0000    134.7121
  1027.5000      4.5359   2000.0000   1968.0000    134.4697
  1027.7500      6.3175   2000.0000   1968.0000    134.7668
  1028.0000      8.4341   2000.0000   1968.0000    135.7064
  1028.2500      6.1232   2000.0000   1968.0000    136.0859
  1028.5000      2.6041   2000.0000   1968.0000    135.4462
  1028.7500      1.0635   2000.0000   1968.0000    133.9242
  1029.0000      0.4582   2000.0000   1968.0000    129.4147
  1029.2500      0.1864   2000.0000   1968.0000    124.4530
