~Version Information
 VERS.                                  2.0 : CWLS LAS VERSION
 WRAP.                                   NO : WRAPING MODE
 SWARE .                 MController 2.5.0J : SOFTWARE VERSION
~Well Information
 WELL.                     McDonald 33-31 R : WELL
 COMP.  Pioneer Natural Resources USA, Inc. : COMPANY
 FLD.                      Purgatoire River : FIELD
 LOC.                NW/SE Sec 31 T32S R66W : LOCATION
 DATE.                             09/22/05 : DATE(S) LOGGED
 SRVC.       BLANCO Geological Services LLC : SERVICE COMPANY
 STAT.                                   CO : STATE
 CNTY.                           Las Animas : COUNTY
 CTRY.                                  USA : COUNTRY
 API.                       05-071-08533-00 : API NUMBER
 STRT.FT                             377.00 : START DEPTH
 STOP.FT                            2310.00 : STOP DEPTH
 STEP.FT                               1.00 : DEPTH INCREMENT
 NULL.                                -9999 : NULL VALUE
~Curve information
 DEPTH.FT                                   :
 ROP.MIN/FT                                 :
 GAS.UNITS                                  :
~ASCII Log data
# ...
       777.0         0.30         16.2 
       778.0         0.30         10.2 
       779.0         0.37          8.2 
       780.0         2.12         17.6 
       781.0         0.33         20.3 
       782.0         0.20         21.3 
       783.0         0.23         22.8 
       784.0         0.23         23.1 
       785.0         0.20         23.1 
       786.0         0.23         23.4 
       787.0         0.25         24.6 
       788.0         0.23         26.4 
       789.0         0.20         26.3 
       790.0         0.20         25.0 
       791.0         0.17         23.7 
       792.0         0.17         21.6 
       793.0         0.17         21.4 
       794.0         0.20         20.6 
       795.0         0.23         15.4 
       796.0         0.20          9.2 
       797.0         0.23          4.8 
       798.0         0.23          2.0 
       799.0         0.23          1.2 
       800.0         0.20          0.6 
       801.0         0.17          0.5 
       802.0         0.20          0.4 
       803.0         0.25          0.5 
       804.0         0.23          0.4 
       805.0         0.33          0.1 
       806.0         0.23          0.2 
       807.0         0.27          0.3 
       808.0         0.20          0.1 
       809.0         0.23          0.4 
       810.0         1.53          0.7 
       811.0         0.42          0.6 
       812.0         0.30          0.8 
       813.0         0.27          0.8 
       814.0         0.17          0.7 
       815.0         0.20          0.7 
       816.0         0.27          0.8 
       817.0         0.23          0.9 
       818.0         0.23         13.3 
       819.0         0.23         69.8 
       820.0         0.20        106.1 
       821.0         0.23        169.9 
       822.0         0.20        185.7 
       823.0         0.17        185.5 
       824.0         0.17        185.3 
       825.0         0.15        195.0 
       826.0         0.17        210.4 
       827.0         0.20        231.6 
       828.0         0.17        240.1 
       829.0         0.13        241.4 
       830.0         0.17        240.7 
       831.0         0.20        238.7 
       832.0         0.17        237.8 
       833.0         0.23        237.6 
       834.0         0.23        232.9 
       835.0         0.30        224.2 
       836.0         0.23        203.8 
       837.0         0.23        179.5 
       838.0         0.20        150.9 
       839.0         0.23        126.8 
       840.0         1.72         99.5 
       841.0         0.43         59.2 
       842.0         0.37         69.1 
       843.0         0.27         69.8 
       844.0         0.30         69.4 
       845.0         0.33         64.7 
       846.0         0.52         56.1 
       847.0         0.43         46.2 
       848.0         0.43         42.6 
       849.0         0.47         41.4 
       850.0         0.50         40.3 
       851.0         0.47         38.6 
       852.0         0.43         35.8 
       853.0         0.42         35.9 
       854.0         0.30         35.9 
       855.0         0.27         35.0 
       856.0         0.27         33.5 
       857.0         0.27         31.5 
       858.0         0.27         30.2 
       859.0         0.30         28.6 
       860.0         0.27         27.0 
       861.0         0.33         25.6 
       862.0         0.30         25.9 
       863.0         0.17         26.1 
       864.0         0.13         26.9 
       865.0         0.17         27.1 
       866.0         0.15         26.3 
       867.0         0.17         24.8 
       868.0         0.13         20.2 
       869.0         0.17         17.1 
       870.0         1.83         13.6 
       871.0         0.17          6.4 
       872.0         0.20          8.4 
       873.0         0.13         11.0 
       874.0         0.13         14.4 
       875.0         0.20         17.7 
       876.0         0.12         16.9 
       877.0         0.10         13.6 
       878.0         0.13         11.2 
       879.0         0.17          7.4 
       880.0         0.30          3.8 
       881.0         0.17          1.4 
       882.0         0.23          1.2 
       883.0         0.23          1.0 
       884.0         0.20          1.0 
       885.0         0.20          1.1 
       886.0         0.27          1.1 
       887.0         0.23          1.2 
       888.0         0.20          1.5 
       889.0         0.27          1.2 
       890.0         0.20         38.8 
       891.0         0.23        129.6 
       892.0         0.22        174.9 
       893.0         0.20        189.2 
       894.0         0.20        195.9 
       895.0         0.20        199.7 
       896.0         0.20        200.1 
       897.0         0.23        198.0 
       898.0         0.20        183.6 
       899.0         0.23        161.7 
       900.0         2.85       2182.5 
       901.0         0.30        862.8 
       902.0         0.23        716.2 
       903.0         0.23        659.0 
       904.0         0.27        622.2 
       905.0         0.30        595.6 
       906.0         0.23        558.1 
       907.0         0.32        542.6 
       908.0         0.27        538.4 
       909.0         0.23        543.8 
       910.0         0.27        542.9 
       911.0         0.27        532.1 
       912.0         0.30        526.4 
       913.0         0.23        517.2 
       914.0         0.27        515.6 
       915.0         0.27        497.2 
       916.0         0.20        484.8 
       917.0         0.17        466.7 
       918.0         0.22        457.2 
       919.0         0.33        441.9 
       920.0         0.57        108.9 
       921.0         0.43         98.8 
       922.0         0.27         93.8 
       923.0         0.27         90.6 
       924.0         0.17         86.3 
       925.0         0.23         84.4 
       926.0         0.27         83.9 
       927.0         0.25         83.4 
       928.0         0.23         81.8 
       929.0         0.20         81.5 
       930.0         1.87         78.8 
       931.0         0.37         53.8 
       932.0         0.35         73.6 
       933.0         0.27         85.5 
       934.0         0.30         90.7 
       935.0         0.27         90.9 
       936.0         0.27         90.1 
       937.0         0.23         88.1 
       938.0         0.23         87.0 
       939.0         0.23         85.1 
       940.0         0.20         81.9 
       941.0         0.20         78.5 
       942.0         0.23         75.7 
       943.0         0.27         75.0 
       944.0         0.25         77.2 
       945.0         0.20         77.7 
       946.0         0.17         77.3 
       947.0         0.17         76.7 
       948.0         0.17         75.2 
       949.0         0.13         73.1 
       950.0         0.17         71.4 
       951.0         0.17         70.0 
       952.0         0.23         69.2 
       953.0         0.33         70.1 
       954.0         0.23         70.4 
       955.0         0.20         70.2 
       956.0         0.37         71.4 
       957.0         0.23         72.8 
       958.0         0.23         72.8 
       959.0         0.22         70.3 
       960.0        10.85         74.1 
       961.0         0.27         13.3 
       962.0         0.13         10.9 
       963.0         0.23         33.5 
       964.0         0.43         75.0 
       965.0         0.43        167.3 
       966.0         0.23        201.7 
       967.0         0.20        209.7 
       968.0         0.22        209.7 
       969.0         0.33        204.1 
       970.0         0.27        199.5 
       971.0         0.23        196.7 
       972.0         0.33        193.4 
       973.0         0.27        188.1 
       974.0         0.27        185.7 
       975.0         0.20        183.2 
       976.0         0.33        180.3 
