~Version Information
 VERS.                                  2.0 : CWLS LAS VERSION
 WRAP.                                   NO : WRAPING MODE
 SWARE .                 MController 2.5.0N : SOFTWARE VERSION
~Well Information
 WELL.                        Cleaver 24-12 : WELL
 COMP.    Pioneer Natural Resources USA Inc : COMPANY
 FLD.                      Purgatoire River : FIELD
 LOC.                SE/SW Sec 12 T32S R67W : LOCATION
 DATE.                         1/05-06/2006 : DATE(S) LOGGED
 SRVC.       BLANCO Geological Services LLC : SERVICE COMPANY
 STAT.                                   CO : STATE
 CNTY.                           Las Animas : COUNTY
 CTRY.                                  USA : COUNTRY
 API.                       05-071-08634-00 : API NUMBER
 STRT.FT                             461.00 : START DEPTH
 STOP.FT                            3055.00 : STOP DEPTH
 STEP.FT                               1.00 : DEPTH INCREMENT
 NULL.                                -9999 : NULL VALUE
~Curve information
 DEPTH.FT                                   :
 ROP.MIN/FT                                 :
 GAS.UNITS                                  :
~ASCII Log data
# ...
      1061.0         0.33          3.2 
      1062.0         0.37          5.8 
      1063.0         0.33          8.7 
      1064.0         0.35         12.2 
      1065.0         0.33         15.6 
      1066.0         0.33         17.6 
      1067.0         0.30         19.6 
      1068.0         0.27         20.9 
      1069.0         0.30         21.8 
      1070.0         0.30         22.9 
      1071.0         0.40         23.7 
      1072.0         0.33         23.9 
      1073.0         0.33         23.8 
      1074.0         0.35         23.6 
      1075.0         0.33         23.2 
      1076.0         5.35         30.3 
      1077.0         0.33          3.7 
      1078.0         0.33          3.8 
      1079.0         0.45          3.8 
      1080.0         0.40          2.7 
      1081.0         0.37          2.0 
      1082.0         0.37          1.7 
      1083.0         0.40          1.6 
      1084.0         0.43          1.7 
      1085.0         0.57          1.8 
      1086.0         0.43          1.8 
      1087.0         0.32          1.6 
      1088.0         0.30          1.6 
      1089.0         0.30          1.6 
      1090.0         0.43          1.5 
      1091.0         0.27          1.5 
      1092.0         0.30          1.8 
      1093.0         0.27          2.7 
      1094.0         0.30          4.7 
      1095.0         0.33          7.0 
      1096.0         0.30          9.6 
      1097.0         0.33         11.6 
      1098.0         0.32         13.8 
      1099.0         0.30         14.4 
      1100.0         0.33         16.2 
      1101.0         0.33         16.6 
      1102.0         0.33         17.4 
      1103.0         0.33         17.7 
      1104.0         0.30         17.6 
      1105.0         0.37         17.5 
      1106.0         6.03         16.5 
      1107.0         0.33          2.7 
      1108.0         0.43          2.8 
      1109.0         0.40          2.7 
      1110.0         0.35          2.8 
      1111.0         0.30          2.7 
      1112.0         0.30          3.0 
      1113.0         0.27          2.8 
      1114.0         0.33          3.0 
      1115.0         0.33          3.0 
      1116.0         0.30          3.3 
      1117.0         0.40          3.3 
      1118.0         0.37          3.3 
      1119.0         0.27          3.6 
      1120.0         0.27          3.7 
      1121.0         0.28          3.7 
      1122.0         0.23          3.5 
      1123.0         0.20          3.5 
      1124.0         0.30          3.3 
      1125.0         0.30          3.4 
      1126.0         0.33          3.2 
      1127.0         0.37          3.3 
      1128.0         0.33          3.3 
      1129.0         0.33          3.4 
      1130.0         0.43          3.8 
      1131.0         0.40          3.8 
      1132.0         0.45          3.7 
      1133.0         0.37          3.7 
      1134.0         0.23          3.8 
      1135.0         0.27          3.9 
      1136.0         5.25          4.1 
      1137.0         0.32          4.0 
      1138.0         0.40          3.6 
      1139.0         0.40          3.7 
      1140.0         0.40          3.6 
      1141.0         0.30          3.7 
      1142.0         0.23          3.8 
      1143.0         0.27          3.8 
      1144.0         0.67          3.9 
      1145.0         0.43          4.0 
      1146.0         0.32          3.9 
      1147.0         0.13          3.8 
      1148.0         0.27          3.9 
      1149.0         0.30          3.6 
      1150.0         0.30          3.7 
      1151.0         0.30          4.0 
      1152.0         0.27          4.2 
      1153.0         0.37          4.3 
      1154.0         0.53          4.3 
      1155.0         0.53          4.1 
      1156.0         0.45          4.1 
      1157.0         0.40          4.2 
      1158.0         0.40          4.2 
      1159.0         0.43          4.1 
      1160.0         0.70          4.0 
      1161.0         0.60          4.1 
      1162.0         0.43          4.2 
      1163.0         0.35          4.2 
      1164.0         0.33          4.1 
      1165.0         0.40          4.0 
      1166.0         5.42          4.1 
      1167.0         0.42          4.0 
      1168.0         0.43          4.1 
      1169.0         0.40          4.0 
      1170.0         0.43          4.1 
      1171.0         0.47          4.1 
      1172.0         0.63          4.2 
      1173.0         0.57          4.2 
      1174.0         0.55          4.2 
      1175.0         0.37          4.0 
      1176.0         0.30          4.0 
      1177.0         0.27          3.9 
      1178.0         0.27          3.9 
      1179.0         0.27          3.8 
      1180.0         0.30          3.9 
      1181.0         0.27          3.8 
      1182.0         0.30          3.8 
      1183.0         0.30          3.7 
      1184.0         0.33          3.9 
      1185.0         0.35          3.8 
      1186.0         0.33          3.7 
      1187.0         0.30          3.6 
      1188.0         0.40          3.7 
      1189.0         0.37          3.7 
      1190.0         0.33          3.7 
      1191.0         0.33          3.7 
      1192.0         0.30          3.6 
      1193.0         0.30          3.9 
      1194.0         0.17          3.7 
      1195.0         0.28          3.7 
      1196.0         5.55         24.2 
      1197.0         0.40         26.5 
      1198.0         0.50         24.3 
      1199.0         0.45         33.7 
      1200.0         0.33         43.8 
      1201.0         0.27         51.4 
      1202.0         0.17         55.0 
      1203.0         0.17         58.0 
      1204.0         0.13         59.6 
      1205.0         0.10         60.0 
      1206.0         0.20         60.1 
      1207.0         0.27         59.4 
      1208.0         0.37         54.8 
      1209.0         0.30         46.1 
      1210.0         0.30         41.0 
      1211.0         0.27         41.9 
      1212.0         0.22         45.4 
      1213.0         0.20         50.1 
      1214.0         0.27         57.0 
      1215.0         0.30         65.4 
      1216.0         0.23         71.8 
      1217.0         0.27         78.8 
      1218.0         0.23         84.1 
      1219.0         0.23         89.1 
      1220.0         0.27         93.9 
      1221.0         0.30         99.1 
      1222.0         0.27        108.4 
      1223.0         0.30        138.6 
      1224.0         0.20        155.9 
      1225.0         0.32        166.6 
      1226.0         3.62        160.9 
      1227.0         0.27         70.2 
      1228.0         0.53         71.6 
      1229.0         0.83         68.7 
      1230.0         0.63         44.9 
      1231.0         0.75         43.0 
      1232.0         0.30         46.3 
      1233.0         0.23         48.4 
      1234.0         0.30         49.4 
      1235.0         0.33         49.3 
      1236.0         0.37         47.5 
      1237.0         0.33         44.0 
      1238.0         0.40         47.3 
      1239.0         0.37         49.1 
      1240.0         0.40         49.2 
      1241.0         0.38         48.8 
      1242.0         0.33         48.1 
      1243.0         0.33         43.4 
      1244.0         0.30         35.6 
      1245.0         0.27         31.2 
      1246.0         0.30         34.3 
      1247.0         0.30         40.2 
      1248.0         0.27         48.0 
      1249.0         0.20         54.0 
      1250.0         0.20         59.9 
      1251.0         0.17         65.3 
      1252.0         0.17         69.2 
      1253.0         0.23         75.7 
      1254.0         0.45         89.7 
      1255.0         0.43        103.5 
      1256.0         6.63        185.4 
      1257.0         0.40         49.4 
      1258.0         0.60         41.3 
      1259.0         0.43         32.6 
      1260.0         0.53         35.7 
