~Version Information
VERS.                      2.0: CWLS Log ASCII Standard - VERSION 2.0
WRAP.                       NO: One line per depth step
~Well Information Block
STRT.FT               -14.7500: 
STOP.FT              1106.0000: 
STEP.FT                 0.2500: 
NULL.                -999.2500: 
COMP.          Pioneer Natural Resources: COMPANY
WELL.          Black Cat 13-32 Tr: WELL
FLD.           Purgatorie River: FIELD
LOC.           1679' FSL & 1150' FWL--: LOCATION
CNTY.               Las Animas: COUNTY
SRVC.          Patterson Wireline: SERVICE COMPANY
DATE.          Wed Mar 15 15:59:24 2006: LOG DATE
UWI.           05 071 08721 00: UNIQUE WELL ID
STAT.                       CO: STATE
~Curve Information Block
DEPT.FT            0 000 00 00: Depth
CCL.                          : Casing Collar Locator
TT3.usec                      : CBL 3' Travel Time
AMP3.mV                       : CBL 3' Amplitude
GR.GAPI                       : Gamma Ray
~Parameter Information Block
~A  Depth       CCL         TT3         AMP3         GR     
# ...
   856.2500      0.0000    371.9022      5.7565    139.1250
   856.5000      0.0000    380.1153      5.6821    133.6431
   856.7500      0.0000    388.5953      5.6078    128.0024
   857.0000      0.0000    395.4183      5.5509    123.8828
   857.2500      0.0000    399.3125      5.5297    120.6943
   857.5000      0.0000    400.2625      5.5473    117.1057
   857.7500      0.0000    398.7109      5.5873    112.5776
   858.0000      0.0000    394.8136      5.6251    107.2682
   858.2500      0.0000    388.8117      5.6389    101.4815
   858.5000      0.0000    381.9741      5.6164     95.9152
   858.7500      0.0000    376.6705      5.5576     91.8589
   859.0000      0.0000    374.9161      5.4768     90.2482
   859.2500      0.0000    376.6709      5.3984     90.5667
   859.5000      0.0000    379.8184      5.3468     91.3402
   859.7500      0.0000    381.7353      5.3354     91.6875
   860.0000      0.0000    380.6456      5.3637     91.8351
   860.2500      0.0000    375.9573      5.4196     92.2846
   860.5000      0.0000    368.2716      5.4861     92.9723
   860.7500      0.0000    359.3220      5.5482     93.1815
   861.0000      0.0000    351.2847      5.5986     92.1502
   861.2500      0.0000    345.6219      5.6377     89.8320
   861.5000      0.0000    342.5081      5.6679     86.8653
   861.7500      0.0000    341.2320      5.6908     83.7001
   862.0000      0.0000    340.9167      5.7079     80.2898
   862.2500      0.0000    340.9767      5.7212     76.8283
   862.5000      0.0000    341.5118      5.7276     74.1550
   862.7500      0.0000    343.8618      5.7123     73.0973
   863.0000      0.0000    351.1590      5.6498     73.8952
   863.2500      0.0000    367.7729      5.5258     76.3260
   863.5000      0.0000    396.9748      5.3626     79.7819
   863.7500      0.0000    438.2685      5.2115     83.0247
   864.0000      0.0000    487.3578      5.1025     84.3722
   864.2500      0.0000    538.5397      5.0203     82.6594
   864.5000      0.0000    586.6386      4.9475     78.2578
   864.7500      0.0000    628.6908      4.9046     73.2610
   865.0000      0.0000    666.2892      4.9164     70.5844
   865.2500      0.0000    704.5847      4.9658     72.5057
   865.5000      2.0000    745.6892      5.0138     79.5955
   865.7500      2.0000    783.5824      5.0501     90.5843
   866.0000      0.0000    807.5215      5.1064    103.1034
   866.2500      0.0000    810.7853      5.2230    114.9157
   866.5000      0.0000    796.2614      5.3932    124.9666
   866.7500      0.0000    773.6406      5.5440    133.4264
   867.0000      0.0000    751.3649      5.5945    140.7628
   867.2500      0.0000    732.2535      5.5431    146.8385
   867.5000      0.0000    716.1968      5.4645    150.8704
   867.7500      0.0000    703.7004      5.4205    152.0889
   868.0000      0.0000    695.7982      5.4068    150.4245
   868.2500      0.0000    692.6720      5.3828    146.6987
   868.5000      0.0000    693.7745      5.3171    142.3208
   868.7500      0.0000    698.4572      5.2046    138.7649
   869.0000      0.0000    705.5091      5.0645    136.8996
   869.2500      0.0000    712.4213      4.9310    136.2893
   869.5000      0.0000    716.1973      4.8336    135.2781
   869.7500      0.0000    715.6735      4.7813    132.4940
   870.0000      0.0000    712.5939      4.7637    128.4144
   870.2500      0.0000    709.7035      4.7619    124.7941
   870.5000      0.0000    708.0767      4.7546    122.4044
   870.7500      0.0000    706.7706      4.7226    119.8979
   871.0000      0.0000    704.5294      4.6528    115.1398
   871.2500      0.0000    701.0797      4.5452    107.4333
   871.5000      0.0000    697.0604      4.4144     98.5910
   871.7500      0.0000    693.3985      4.2840     92.0375
   872.0000      0.0000    690.8717      4.1759     90.4095
   872.2500      0.0000    690.0535      4.1066     93.3309
   872.5000      0.0000    691.5195      4.0926     97.4490
   872.7500      0.0000    695.7197      4.1475     98.9561
   873.0000      0.0000    702.0892      4.2680     96.3363
   873.2500      0.0000    708.2840      4.4284     91.0467
   873.5000      0.0000    711.1599      4.5914     86.1542
   873.7500      0.0000    709.3163      4.7241     84.3959
   874.0000      0.0000    704.4604      4.8067     86.9227
   874.2500      0.0000    699.7474      4.8345     93.3274
   874.5000      0.0000    696.9695      4.8172    102.4768
   874.7500      0.0000    695.7752      4.7743    112.9116
   875.0000      0.0000    694.9868      4.7295    122.7736
   875.2500      0.0000    693.5067      4.7057    130.4372
   875.5000      0.0000    689.6376      4.7159    135.5865
   875.7500      0.0000    680.9403      4.7587    138.9449
   876.0000      0.0000    666.6559      4.8228    140.7464
   876.2500      0.0000    650.5389      4.8987    140.2528
   876.5000      0.0000    639.6257      4.9803    136.8717
   876.7500      0.0000    638.9658      5.0561    130.9643
   877.0000      0.0000    648.1348      5.1073    123.5589
   877.2500      0.0000    662.8470      5.1190    116.0272
   877.5000      0.0000    678.2836      5.0911    110.0866
   877.7500      0.0000    690.5012      5.0361    107.3275
   878.0000      0.0000    696.5417      4.9695    108.2639
   878.2500      0.0000    694.2542      4.9078    111.8669
   878.5000      0.0000    682.0013      4.8688    116.2740
   878.7500      0.0000    659.3347      4.8652    120.2337
   879.0000      0.0000    628.6754      4.8941    123.8003
   879.2500      0.0000    595.6432      4.9383    127.3684
   879.5000      0.0000    566.6256      4.9817    130.3562
   879.7500      0.0000    545.4233      5.0210    131.3948
   880.0000      0.0000    530.8957      5.0620    129.5048
   880.2500      0.0000    517.4330      5.1066    124.3567
   880.5000      0.0000    499.5869      5.1471    115.6874
   880.7500      0.0000    476.9876      5.1722    103.6612
   881.0000      0.0000    453.7063      5.1785     90.0845
   881.2500      0.0000    433.7841      5.1712     78.2083
   881.5000      0.0000    419.3106      5.1518     70.5705
   881.7500      0.0000    412.0846      5.1069     67.2576
   882.0000      0.0000    415.4732      5.0169     66.5335
   882.2500      0.0000    434.1070      4.8798     66.8019
   882.5000      0.0000    470.9654      4.7224     67.8337
   882.7500      0.0000    523.0169      4.5851     70.5399
   883.0000      0.0000    579.7619      4.4942     76.0374
   883.2500      0.0000    628.2278      4.4482     84.9022
   883.5000      0.0000    660.7380      4.4278     96.7897
   883.7500      0.0000    678.0475      4.4156    110.1958
   884.0000      0.0000    686.1120      4.4066    122.6491
   884.2500      0.0000    691.2761      4.4050    131.7529
   884.5000      0.0000    697.7202      4.4152    136.5633
   884.7500      0.0000    706.9326      4.4334    138.1149
   885.0000      0.0000    718.1971      4.4496    138.6660
   885.2500      0.0000    730.0827      4.4577    140.2774
   885.5000      0.0000    742.0959      4.4646    143.7766
   885.7500      0.0000    754.6208      4.4830    148.7603
   886.0000      0.0000    767.2194      4.5129    154.3725
   886.2500      0.0000    777.6893      4.5362    160.0588
   886.5000      0.0000    782.9981      4.5334    165.6858
   886.7500      0.0000    780.8040      4.5017    170.7680
   887.0000      0.0000    770.5121      4.4511    173.7263
   887.2500      0.0000    753.9067      4.3892    172.7393
   887.5000      0.0000    734.9649      4.3169    167.6486
   887.7500      0.0000    718.0854      4.2397    160.3351
   888.0000      0.0000    705.7236      4.1740    153.0380
   888.2500      0.0000    697.8021      4.1402    146.7097
   888.5000      0.0000    693.2167      4.1472    140.8360
   888.7500      0.0000    691.2462      4.1823    134.2856
   889.0000      0.0000    691.6242      4.2192    126.3280
   889.2500      0.0000    694.1019      4.2348    117.0296
   889.5000      0.0000    698.5090      4.2197    106.7639
