~Version Information
VERS.                      2.0: CWLS Log ASCII Standard - VERSION 2.0
WRAP.                       NO: One line per depth step
~Well Information Block
STRT.FT               673.2000: 
STOP.FT              1510.5000: 
STEP.FT                 0.1000: 
NULL.                -999.2500: 
COMP.          Pioneer Natural Resources: COMPANY
WELL.          Hammerhead 24-24 Tr: WELL
FLD.           Purgatoire River: FIELD
LOC.           953' FSL & 1922' FWL: LOCATION
PROV.                 Colorado: PROVINCE
CNTY.               Las Animas: COUNTRY
SRVC.                Patterson: SERVICE COMPANY
DATE.          Mon Jan 30 07:27:57 2006: LOG DATE
UWI.           05 071 08669 00: UNIQUE WELL ID
~Curve Information Block
DEPT.FT            0 000 00 00: Depth
DCAL.in                       : CDL Caliper
RHOB.g/cc                     : CDL Bulk Density
RHOC.g/cc                     : CDL Density Correction
DPOR.pu                       : CDL Density Porosity
GR.GAPI                       : Gamma Ray
~Parameter Information Block
~A  Depth       DCAL        RHOB        RHOC        DPOR         GR     
# ...
  1065.2000      7.8415      2.5855      0.0826      3.9086    140.8526
  1065.3000      7.8412      2.5800      0.0623      4.2419    138.8501
  1065.4000      7.8412      2.5799      0.0876      4.2455    139.0219
  1065.5000      7.8406      2.5941      0.0657      3.3884    136.9266
  1065.6000      7.8406      2.6257      0.0566      1.4712    134.1279
  1065.7000      7.8406      2.6629      0.0803     -0.7813    132.0053
  1065.8000      7.8397      2.6889      0.0732     -2.3584    128.2796
  1065.9000      7.8397      2.7185      0.0475     -4.1487    122.0181
  1066.0000      7.8393      2.7756      0.0805     -7.6132    115.1615
  1066.1000      7.8393      2.8410      0.1377    -11.5739    108.6833
  1066.2000      7.8393      2.8794      0.1504    -13.9027    101.2961
  1066.3000      7.8396      2.8902      0.1515    -14.5585     93.9482
  1066.4000      7.8396      2.8835      0.1355    -14.1510     89.4859
  1066.5000      7.8392      2.8515      0.1220    -12.2131     87.8398
  1066.6000      7.8392      2.7931     -0.0150     -8.6729     86.3766
  1066.7000      7.8392      2.7311     -0.0562     -4.9132     85.0802
  1066.8000      7.8384      2.6839     -0.0406     -2.0527     83.6069
  1066.9000      7.8384      2.6486     -0.0480      0.0838     78.4839
  1067.0000      7.8386      2.6244     -0.0601      1.5486     73.1126
  1067.1000      7.8386      2.6199      0.0050      1.8213     74.7839
  1067.2000      7.8386      2.6269      0.0985      1.3974     80.9931
  1067.3000      7.8395      2.6318      0.0450      1.1030     85.3487
  1067.4000      7.8395      2.6331      0.0776      1.0212     85.1187
  1067.5000      7.8396      2.6267      0.0263      1.4091     80.3875
  1067.6000      7.8396      2.6182      0.0147      1.9293     75.6699
  1067.7000      7.8396      2.6191      0.0402      1.8741     75.2026
  1067.8000      7.8394      2.6256      0.1025      1.4816     77.3443
  1067.9000      7.8394      2.6344      0.0834      0.9461     78.7428
  1068.0000      7.8391      2.6529      0.0532     -0.1767     80.1464
  1068.1000      7.8391      2.6761      0.0919     -1.5838     83.4151
  1068.2000      7.8391      2.6885      0.0739     -2.3317     84.5135
  1068.3000      7.8387      2.6857      0.1056     -2.1618     79.7355
  1068.4000      7.8387      2.6729      0.0510     -1.3851     75.9448
  1068.5000      7.8379      2.6585      0.0401     -0.5156     79.9013
  1068.6000      7.8379      2.6516      0.0339     -0.0990     88.0567
  1068.7000      7.8379      2.6551      0.0409     -0.3082     93.5441
  1068.8000      7.8376      2.6576      0.0808     -0.4636     93.3159
  1068.9000      7.8376      2.6494      0.0313      0.0356     89.2288
  1069.0000      7.8376      2.6360      0.0172      0.8471     85.4916
  1069.1000      7.8376      2.6213      0.0439      1.7390     83.8775
  1069.2000      7.8376      2.6063      0.0016      2.6481     82.1697
  1069.3000      7.8366      2.6024     -0.0018      2.8875     80.0797
  1069.4000      7.8366      2.6072      0.0408      2.5968     80.9485
  1069.5000      7.8353      2.6025      0.0069      2.8802     84.1925
  1069.6000      7.8353      2.5863      0.0059      3.8590     85.3408
  1069.7000      7.8353      2.5729     -0.0009      4.6727     83.5213
  1069.8000      7.8344      2.5748     -0.0126      4.5593     83.0233
  1069.9000      7.8344      2.5904      0.0290      3.6146     87.4289
  1070.0000      7.8344      2.6067      0.0183      2.6231     90.1205
  1070.1000      7.8344      2.6145      0.0217      2.1518     84.3304
  1070.2000      7.8344      2.6160      0.0250      2.0632     78.3107
  1070.3000      7.8352      2.6150      0.0640      2.1237     81.3115
  1070.4000      7.8352      2.6082      0.0678      2.5347     89.4957
  1070.5000      7.8359      2.6021      0.0410      2.9044     96.8991
  1070.6000      7.8359      2.6092      0.0716      2.4705    105.5587
  1070.7000      7.8359      2.6189      0.0504      1.8848    115.6575
  1070.8000      7.8361      2.6102      0.0354      2.4110    119.9371
  1070.9000      7.8361      2.5890     -0.0208      3.6994    114.1108
  1071.0000      7.8357      2.5773      0.0011      4.4055    102.5571
  1071.1000      7.8357      2.5825      0.0096      4.0880     93.7057
  1071.2000      7.8357      2.5939      0.0493      3.3976     94.5528
  1071.3000      7.8350      2.5960      0.0323      3.2713    102.7958
  1071.4000      7.8350      2.5847      0.0281      3.9572    110.2026
  1071.5000      7.8339      2.5694     -0.0069      4.8874    112.9856
  1071.6000      7.8339      2.5635     -0.0246      5.2422    113.1317
  1071.7000      7.8339      2.5730      0.0126      4.6682    115.4110
  1071.8000      7.8323      2.5887      0.0110      3.7181    120.0622
  1071.9000      7.8323      2.5996      0.0296      3.0556    123.7552
  1072.0000      7.8313      2.6005      0.0521      2.9980    126.0428
  1072.1000      7.8313      2.5892      0.0196      3.6878    127.3110
  1072.2000      7.8313      2.5719     -0.0012      4.7324    126.7535
  1072.3000      7.8309      2.5596     -0.0282      5.4775    124.1152
  1072.4000      7.8309      2.5525     -0.0190      5.9075    121.0145
  1072.5000      7.8304      2.5422     -0.0071      6.5342    118.2586
  1072.6000      7.8304      2.5262     -0.0398      7.5036    115.7240
  1072.7000      7.8304      2.5080      0.0005      8.6036    112.6067
  1072.8000      7.8307      2.4944     -0.0170      9.4314    106.8422
  1072.9000      7.8307      2.4916      0.0017      9.6015     99.3160
  1073.0000      7.8309      2.4924      0.0219      9.5522     94.0644
  1073.1000      7.8309      2.4903     -0.0050      9.6768     90.8871
  1073.2000      7.8309      2.4928     -0.0157      9.5262     87.0634
  1073.3000      7.8295      2.5037      0.0372      8.8691     81.4973
  1073.4000      7.8295      2.5130      0.0348      8.3006     76.8992
  1073.5000      7.8264      2.5124      0.0084      8.3394     73.2175
  1073.6000      7.8264      2.5089      0.0369      8.5519     67.9074
  1073.7000      7.8264      2.5216      0.0817      7.7803     63.2692
  1073.8000      7.8195      2.5717      0.0565      4.7472     60.6152
  1073.9000      7.8195      2.6597      0.1083     -0.5904     56.5274
  1074.0000      7.8046      2.7428      0.1561     -5.6213     49.9190
  1074.1000      7.8046      2.7819      0.0961     -7.9912     45.9914
  1074.2000      7.8046      2.7913      0.1135     -8.5631     47.2499
  1074.3000      7.7814      2.7945      0.1768     -8.7579     47.4428
  1074.4000      7.7814      2.7824      0.1640     -8.0237     43.1736
  1074.5000      7.7594      2.7360      0.1720     -5.2105     39.0014
  1074.6000      7.7594      2.6720      0.0583     -1.3361     37.5760
  1074.7000      7.7594      2.6467     -0.0114      0.2020     36.6155
  1074.8000      7.7533      2.6906      0.0739     -2.4599     35.1358
  1074.9000      7.7533      2.7740      0.1590     -7.5177     35.4878
  1075.0000      7.7739      2.8579      0.1741    -12.5999     38.8971
  1075.1000      7.7739      2.9238      0.2234    -16.5920     44.4150
  1075.2000      7.7739      2.9545      0.2917    -18.4567     49.9911
  1075.3000      7.8159      2.9353      0.2898    -17.2902     54.8126
  1075.4000      7.8159      2.8729      0.1991    -13.5120     60.8792
  1075.5000      7.8674      2.7958      0.1291     -8.8348     69.4420
  1075.6000      7.8674      2.7236      0.1214     -4.4584     80.9274
  1075.7000      7.8674      2.6586      0.0577     -0.5217     94.2960
  1075.8000      7.9146      2.6018      0.0220      2.9226    105.9118
  1075.9000      7.9146      2.5600     -0.0331      5.4534    115.1311
  1076.0000      7.9362      2.5453     -0.0154      6.3452    123.3456
  1076.1000      7.9362      2.5573      0.0477      5.6182    128.6435
  1076.2000      7.9362      2.5836      0.0466      4.0214    130.1497
  1076.3000      7.9411      2.6117      0.1407      2.3199    130.0506
