~Version Information
VERS.                      2.0: CWLS Log ASCII Standard - VERSION 2.0
WRAP.                       NO: One line per depth step
~Well Information Block
STRT.FT               505.0000: 
STOP.FT               770.5000: 
STEP.FT                 0.1000: 
NULL.                -999.2500: 
COMP.          Pioneer Natural Resources: COMPANY
WELL.                Zed 11-23: WELL
FLD.           Purgatoire River: FIELD
LOC.           641' FNL & 952' FWL: LOCATION
CNTY.               Las Animas: COUNTY
SRVC.                Patterson: SERVICE COMPANY
DATE.          Mon Feb 27 07:12:43 2006: LOG DATE
UWI.           05 071 08702 00: UNIQUE WELL ID
STAT.                 Colorado: STATE
~Curve Information Block
DEPT.FT            0 000 00 00: Depth
DCAL.in                       : CDL Caliper
RHOB.g/cc                     : CDL Bulk Density
RHOC.g/cc                     : CDL Density Correction
DPOR.pu                       : CDL Density Porosity
GR.GAPI                       : Gamma Ray
NPOR.pu                       : Neutron Porosity
~Parameter Information Block
~A  Depth       DCAL        RHOB        RHOC        DPOR         GR         NPOR    
# ...
   524.2000      7.9265      1.8558     -0.1423     48.1306     58.6793     29.1507
   524.3000      7.9345      1.8767     -0.1177     46.8688     61.3980     26.9313
   524.4000      7.9345      1.9223     -0.0406     44.1039     61.4914     21.5089
   524.5000      7.9575      1.9750     -0.0312     40.9066     63.0587     19.7489
   524.6000      7.9575      2.0193      0.0404     38.2250     68.8671     23.7531
   524.7000      7.9575      2.0416      0.0514     36.8708     75.6024     29.4867
   524.8000      8.0074      2.0511      0.0160     36.2958     79.5172     28.8275
   524.9000      8.0074      2.0693      0.0723     35.1910     80.3578     22.5998
   525.0000      8.3165      2.0968      0.1108     33.5291     78.4899     19.0732
   525.1000      8.3165      2.1217      0.0978     32.0164     76.6585     21.6689
   525.2000      8.3165      2.1399      0.1104     30.9158     77.8317     27.2881
   525.3000      8.7701      2.1521      0.1082     30.1745     80.4348     29.0420
   525.4000      8.7701      2.1581      0.1659     29.8134     83.7630     27.4115
   525.5000      8.9067      2.1539      0.1356     30.0661     85.8880     27.5322
   525.6000      8.9067      2.1431      0.1133     30.7219     82.7787     29.7649
   525.7000      8.9067      2.1380      0.1078     31.0280     77.7707     31.4573
   525.8000      8.8716      2.1424      0.1219     30.7641     76.0794     30.6726
   525.9000      8.8716      2.1486      0.1104     30.3887     77.8420     27.4811
   526.0000      8.7512      2.1521      0.1217     30.1736     80.4379     24.0398
   526.1000      8.7512      2.1535      0.1274     30.0928     81.5343     23.0103
   526.2000      8.7512      2.1614      0.0868     29.6096     83.0562     25.2061
   526.3000      8.6367      2.1814      0.1364     28.3990     87.1857     28.3741
   526.4000      8.6367      2.1960      0.1582     27.5174     89.2854     27.6969
   526.5000      8.3902      2.1926      0.0915     27.7207     86.0770     23.0304
   526.6000      8.3902      2.1807      0.1427     28.4401     85.0046     20.1886
   526.7000      8.3902      2.1675      0.1119     29.2451     91.9861     21.7756
   526.8000      8.3408      2.1563      0.0989     29.9197     99.9665     25.0682
   526.9000      8.3408      2.1495      0.1058     30.3331    101.8245     25.5036
   527.0000      8.2841      2.1489      0.0710     30.3688    100.5583     22.1142
   527.1000      8.2841      2.1611      0.0920     29.6316     98.1029     18.5681
   527.2000      8.2841      2.1832      0.1303     28.2928     92.6661     19.0725
   527.3000      8.2743      2.2038      0.0874     27.0440     88.0657     23.6331
   527.4000      8.2743      2.2159      0.1348     26.3114     89.3221     27.8959
   527.5000      8.2846      2.2233      0.1101     25.8601     95.0251     28.5127
   527.6000      8.2846      2.2351      0.1445     25.1430     98.5049     26.8472
   527.7000      8.2846      2.2442      0.1666     24.5946     97.4340     23.6199
   527.8000      8.2859      2.2364      0.1585     25.0643     96.0570     18.1991
   527.9000      8.2859      2.2182      0.1323     26.1690     94.4024     13.2696
   528.0000      8.2926      2.2108      0.0989     26.6202     91.2861     13.9550
   528.1000      8.2926      2.2204      0.1028     26.0385     89.5827     20.3724
   528.2000      8.2926      2.2315      0.1495     25.3612     90.4048     27.8276
   528.3000      8.3032      2.2299      0.1757     25.4592     94.1324     31.7294
   528.4000      8.3032      2.2162      0.1264     26.2936     98.1276     31.9841
   528.5000      8.3157      2.2016      0.1463     27.1770     97.8812     29.6899
   528.6000      8.3157      2.2021      0.1364     27.1428     95.5990     25.9056
   528.7000      8.3157      2.2303      0.1269     25.4371     92.8341     22.1525
   528.8000      8.3087      2.2806      0.1989     22.3906     88.8834     20.6528
   528.9000      8.3087      2.3425      0.1968     18.6337     86.4078     23.1006
   529.0000      8.3272      2.4232      0.2635     13.7479     85.5253     27.8101
   529.1000      8.3272      2.5241      0.3772      7.6310     86.6591     30.7426
   529.2000      8.3272      2.6191      0.5033      1.8750     91.0243     30.1262
   529.3000      8.5882      2.6766      0.5148     -1.6139     95.0259     27.1882
   529.4000      8.5882      2.6965      0.4926     -2.8152     96.4487     25.2984
   529.5000      8.9362      2.7075      0.4242     -3.4841     94.3989     26.3408
   529.6000      8.9362      2.7325      0.3877     -5.0028     89.1367     27.8628
   529.7000      8.9362      2.7694      0.3599     -7.2345     83.3351     28.0324
   529.8000      9.5062      2.8078      0.3556     -9.5607     78.9059     28.5425
   529.9000      9.5062      2.8459      0.3294    -11.8750     76.2236     29.1619
   530.0000     10.2113      2.8813      0.3253    -14.0202     77.1110     29.0273
   530.1000     10.2113      2.9032      0.3073    -15.3472     80.0643     29.2080
   530.2000     10.2113      2.9004      0.2800    -15.1746     80.1405     29.8329
   530.3000     10.7012      2.8647      0.2637    -13.0116     78.0441     29.6066
   530.4000     10.7012      2.8031      0.1182     -9.2781     76.8912     28.1573
   530.5000     10.9658      2.7386      0.0910     -5.3701     75.6969     27.0779
   530.6000     10.9658      2.6853      0.0143     -2.1390     74.2391     28.1515
   530.7000     10.9658      2.6377     -0.0097      0.7442     74.9199     31.0846
   530.8000     11.0144      2.5594      0.0450      5.4880     80.9002     33.6050
   530.9000     11.0144      2.4115     -0.0193     14.4564     90.5991     33.4700
   531.0000     11.0193      2.2215     -0.1075     25.9681     94.9991     30.8743
   531.1000     11.0193      2.0614     -0.0905     35.6744     89.5788     28.6636
   531.2000     11.0193      1.9589     -0.0728     41.8826     82.1913     28.6417
   531.3000     10.9707      1.9044     -0.1039     45.1864     82.4979     29.1983
   531.4000     10.9707      1.9180     -0.1198     44.3643     85.7729     28.2513
   531.5000     10.6446      2.0335     -0.0378     37.3630     82.6645     27.6706
   531.6000     10.6446      2.2226      0.2490     25.9039     78.0299     28.5111
   531.7000     10.6446      2.4043      0.3833     14.8928     79.8408     28.3855
   531.8000     10.4446      2.5265      0.4332      7.4840     84.8669     27.8225
   531.9000     10.4446      2.5923      0.4724      3.4977     86.5989     28.9740
   532.0000     10.2705      2.6341      0.4239      0.9619     85.7163     29.9650
   532.1000     10.2705      2.6732      0.4086     -1.4086     86.5896     28.5735
   532.2000     10.2705      2.6960      0.3761     -2.7872     89.3538     27.4865
   532.3000     10.0072      2.6920      0.2169     -2.5443     90.9039     28.4985
   532.4000     10.0072      2.6802      0.1247     -1.8278     90.6260     28.6321
   532.5000      9.4065      2.6735      0.1090     -1.4272     89.9206     25.5696
   532.6000      9.4065      2.6554      0.1999     -0.3289     88.3992     21.0524
   532.7000      9.4065      2.6153      0.0424      2.1046     84.4107     17.7116
   532.8000      8.1399      2.5782      0.0306      4.3531     79.8910     17.7776
   532.9000      8.1399      2.5603      0.0735      5.4347     77.8794     20.9426
   533.0000      7.9690      2.5533      0.0308      5.8592     76.5473     21.8179
   533.1000      7.9690      2.5545      0.0487      5.7888     75.7585     17.6585
   533.2000      7.9690      2.5546      0.0967      5.7801     78.2132     14.4741
   533.3000      7.9724      2.5430      0.0064      6.4819     82.0446     16.4772
   533.4000      7.9724      2.5323      0.0422      7.1328     83.2071     20.5132
   533.5000      7.9766      2.5315      0.0677      7.1797     81.7508     21.5456
   533.6000      7.9766      2.5394      0.0329      6.7050     81.4847     19.2237
   533.7000      7.9766      2.5567      0.0610      5.6535     83.6548     16.6331
