~Version Information
VERS.                      2.0: CWLS Log ASCII Standard - VERSION 2.0
WRAP.                       NO: One line per depth step
~Well Information Block
STRT.FT                 2.0000: 
STOP.FT               698.7500: 
STEP.FT                 0.2500: 
NULL.                -999.2500: 
COMP.          XTO Energy Inc.: COMPANY
WELL.          Golden Eagle 20-14: WELL
FLD.           Purgatrorie River: FIELD
LOC.           587' FSL & 2478' FWL--: LOCATION
STAT.                       CO: State
CNTY.               Las Animas: COUNTY
CTRY. USA : Country
SECT. 20 : Section
TOWN. 33S : Township
RANG. 67W : Range
SRVC.          Patterson Wireline: SERVICE COMPANY
DATE.          Sat Dec 10 16:49:08 2005: LOG DATE
API.           05 071 08614 00: UNIQUE WELL ID
~Curve Information Block
DEPT.FT            0 000 00 00: Depth
MINMK.                        : Magnetic Mark Ticks
TEMP.degF                     : Downhole Temperature
DTMP.degF                     : Delta Temperature
~Parameter Information Block
~A  Depth      MINMK        TEMP        DTMP    
# ...
   294.2500      0.0000     58.7995      0.0243
   294.5000      0.0000     58.8054      0.0245
   294.7500      0.0000     58.8113      0.0246
   295.0000      1.0000     58.8173      0.0248
   295.2500      1.0000     58.8248      0.0250
   295.5000      1.0000     58.8309      0.0260
   295.7500      1.0000     58.8371      0.0262
   296.0000      0.0000     58.8433      0.0264
   296.2500      0.0000     58.8495      0.0258
   296.5000      0.0000     58.8574      0.0260
   296.7500      0.0000     58.8637      0.0262
   297.0000      0.0000     58.8701      0.0264
   297.2500      0.0000     58.8765      0.0266
   297.5000      0.0000     58.8830      0.0259
   297.7500      0.0000     58.8895      0.0270
   298.0000      0.0000     58.8960      0.0272
   298.2500      0.0000     58.9026      0.0274
   298.5000      0.0000     58.9093      0.0276
   298.7500      0.0000     58.9177      0.0278
   299.0000      0.0000     58.9245      0.0280
   299.2500      0.0000     58.9314      0.0282
   299.5000      0.0000     58.9382      0.0293
   299.7500      0.0000     58.9451      0.0286
   300.0000      0.0000     58.9520      0.0288
   300.2500      0.0000     58.9590      0.0289
   300.5000      0.0000     58.9678      0.0291
   300.7500      0.0000     58.9749      0.0302
   301.0000      0.0000     58.9820      0.0304
   301.2500      0.0000     58.9892      0.0306
   301.5000      0.0000     58.9964      0.0299
   301.7500      0.0000     59.0055      0.0301
   302.0000      0.0000     59.0129      0.0302
   302.2500      0.0000     59.0202      0.0304
   302.5000      0.0000     59.0276      0.0305
   302.7500      0.0000     59.0350      0.0297
   303.0000      0.0000     59.0425      0.0298
   303.2500      0.0000     59.0499      0.0298
   303.5000      0.0000     59.0575      0.0299
   303.7500      0.0000     59.0649      0.0300
   304.0000      0.0000     59.0724      0.0309
   304.2500      0.0000     59.0799      0.0310
   304.5000      0.0000     59.0875      0.0310
   304.7500      0.0000     59.0950      0.0310
   305.0000      0.0000     59.1044      0.0310
   305.2500      0.0000     59.1119      0.0310
   305.5000      0.0000     59.1194      0.0319
   305.7500      0.0000     59.1269      0.0319
   306.0000      0.0000     59.1344      0.0310
   306.2500      0.0000     59.1419      0.0310
   306.5000      0.0000     59.1513      0.0310
   306.7500      0.0000     59.1588      0.0310
   307.0000      0.0000     59.1663      0.0311
   307.2500      0.0000     59.1739      0.0311
   307.5000      0.0000     59.1815      0.0312
   307.7500      0.0000     59.1890      0.0312
   308.0000      0.0000     59.1966      0.0312
   308.2500      0.0000     59.2042      0.0322
   308.5000      0.0000     59.2137      0.0322
   308.7500      0.0000     59.2212      0.0321
   309.0000      0.0000     59.2288      0.0321
   309.2500      0.0000     59.2382      0.0320
   309.5000      0.0000     59.2458      0.0309
   309.7500      0.0000     59.2533      0.0308
   310.0000      0.0000     59.2607      0.0307
   310.2500      0.0000     59.2682      0.0297
   310.5000      0.0000     59.2756      0.0296
   310.7500      0.0000     59.2829      0.0295
   311.0000      0.0000     59.2902      0.0294
   311.2500      0.0000     59.2976      0.0294
   311.5000      0.0000     59.3049      0.0302
   311.7500      0.0000     59.3122      0.0303
   312.0000      0.0000     59.3195      0.0303
   312.2500      0.0000     59.3269      0.0304
   312.5000      0.0000     59.3360      0.0305
   312.7500      0.0000     59.3434      0.0316
   313.0000      0.0000     59.3509      0.0318
   313.2500      0.0000     59.3584      0.0320
   313.5000      0.0000     59.3659      0.0314
   313.7500      0.0000     59.3754      0.0317
   314.0000      0.0000     59.3831      0.0330
   314.2500      0.0000     59.3910      0.0333
   314.5000      0.0000     59.3988      0.0336
   314.7500      0.0000     59.4068      0.0330
   315.0000      0.0000     59.4168      0.0333
   315.2500      0.0000     59.4250      0.0336
   315.5000      0.0000     59.4332      0.0339
   315.7500      0.0000     59.4415      0.0342
   316.0000      0.0000     59.4498      0.0335
   316.2500      0.0000     59.4581      0.0337
   316.5000      0.0000     59.4666      0.0340
   316.7500      0.0000     59.4751      0.0354
   317.0000      0.0000     59.4838      0.0357
   317.2500      0.0000     59.4925      0.0360
   317.5000      0.0000     59.5012      0.0363
   317.7500      0.0000     59.5123      0.0366
   318.0000      0.0000     59.5212      0.0369
   318.2500      0.0000     59.5302      0.0384
   318.5000      0.0000     59.5393      0.0387
   318.7500      0.0000     59.5484      0.0367
   319.0000      0.0000     59.5576      0.0381
   319.2500      0.0000     59.5692      0.0383
   319.5000      0.0000     59.5786      0.0385
   319.7500      0.0000     59.5856      0.0387
   320.0000      0.0000     59.5973      0.0389
   320.2500      0.0000     59.6068      0.0390
   320.5000      0.0000     59.6163      0.0391
   320.7500      0.0000     59.6258      0.0403
   321.0000      0.0000     59.6353      0.0392
   321.2500      0.0000     59.6472      0.0393
   321.5000      0.0000     59.6567      0.0393
   321.7500      0.0000     59.6662      0.0393
   322.0000      0.0000     59.6758      0.0393
   322.2500      0.0000     59.6853      0.0381
   322.5000      0.0000     59.6949      0.0380
   322.7500      0.0000     59.7044      0.0391
   323.0000      0.0000     59.7139      0.0390
   323.2500      0.0000     59.7234      0.0388
   323.5000      0.0000     59.7328      0.0386
   323.7500      0.0000     59.7444      0.0383
   324.0000      0.0000     59.7537      0.0379
   324.2500      0.0000     59.7629      0.0375
   324.5000      0.0000     59.7720      0.0370
   324.7500      0.0000     59.7809      0.0364
   325.0000      0.0000     59.7897      0.0358
   325.2500      0.0000     59.7983      0.0352
   325.5000      0.0000     59.8068      0.0345
   325.7500      0.0000     59.8172      0.0339
   326.0000      0.0000     59.8253      0.0332
   326.2500      0.0000     59.8333      0.0334
   326.5000      0.0000     59.8410      0.0326
   326.7500      0.0000     59.8486      0.0309
   327.0000      0.0000     59.8561      0.0301
   327.2500      0.0000     59.8651      0.0294
   327.5000      0.0000     59.8721      0.0287
   327.7500      0.0000     59.8789      0.0280
   328.0000      0.0000     59.8856      0.0273
   328.2500      0.0000     59.8921      0.0258
   328.5000      0.0000     59.8985      0.0251
   328.7500      0.0000     59.9047      0.0251
   329.0000      0.0000     59.9107      0.0245
   329.2500      0.0000     59.9166      0.0238
   329.5000      0.0000     59.9223      0.0232
   329.7500      0.0000     59.9292      0.0226
   330.0000      0.0000     59.9346      0.0220
   330.2500      0.0000     59.9398      0.0220
   330.5000      0.0000     59.9449      0.0215
   330.7500      0.0000     59.9499      0.0203
   331.0000      0.0000     59.9547      0.0199
   331.2500      0.0000     59.9607      0.0195
   331.5000      0.0000     59.9653      0.0191
   331.7500      0.0000     59.9699      0.0188
   332.0000      0.0000     59.9743      0.0191
   332.2500      0.0000     59.9788      0.0182
   332.5000      0.0000     59.9832      0.0180
   332.7500      0.0000     59.9875      0.0178
   333.0000      0.0000     59.9929      0.0176
   333.2500      0.0000     59.9971      0.0175
   333.5000      0.0000     60.0013      0.0174
   333.7500      0.0000     60.0055      0.0173
   334.0000      0.0000     60.0096      0.0167
   334.2500      0.0000     60.0138      0.0166
   334.5000      0.0000     60.0179      0.0166
   334.7500      0.0000     60.0221      0.0171
   335.0000      0.0000     60.0262      0.0171
   335.2500      0.0000     60.0304      0.0171
   335.5000      0.0000     60.0345      0.0171
   335.7500      0.0000     60.0397      0.0171
