~Version Information
VERS.                      2.0: CWLS Log ASCII Standard - VERSION 2.0
WRAP.                       NO: One line per depth step
~Well Information Block
STRT.FT                10.0000: 
STOP.FT              1044.5000: 
STEP.FT                 0.1000: 
NULL.                -999.2500: 
COMP.          Pioneer Natural Resources: COMPANY
WELL.          Stags Leap 13-30: WELL
FLD.           Purgatorie River: FIELD
LOC.           1813' FSL & 117' FWL: LOCATION
PROV.                 Colorado: PROVINCE
CNTY.               Las Animas: COUNTRY
SRVC.                Patterson: SERVICE COMPANY
DATE.          Fri Dec 09 09:46:17 2005: LOG DATE
UWI.                          : UNIQUE WELL ID
~Curve Information Block
DEPT.FT            0 000 00 00: Depth
DCAL.in                       : CDL Caliper
RHOB.g/cc                     : CDL Bulk Density
RHOC.g/cc                     : CDL Density Correction
DPOR.pu                       : CDL Density Porosity
GR.GAPI                       : Gamma Ray
NPOR.pu                       : Neutron Porosity
~Parameter Information Block
~A  Depth       DCAL        RHOB        RHOC        DPOR         GR         NPOR    
# ...
   480.4000      8.0502      2.5637      0.0547      5.2328    147.9414     23.5119
   480.5000      8.0916      2.5616     -0.0150      5.3596    150.4239     23.9720
   480.6000      8.0916      2.5622      0.0747      5.3215    152.6644     24.4533
   480.7000      8.0916      2.5548      0.0593      5.7685    154.6463     24.8426
   480.8000      8.1077      2.5396      0.0354      6.6883    155.2787     25.1560
   480.9000      8.1077      2.5230      0.0337      7.6999    157.4095     25.4459
   481.0000      8.1024      2.5005      0.0127      9.0590    162.0460     25.5978
   481.1000      8.1024      2.4750      0.0133     10.6082    165.7832     25.6138
   481.2000      8.1024      2.4667     -0.0104     11.1070    166.8958     25.5353
   481.3000      8.1091      2.4838      0.1072     10.0721    165.0395     25.4860
   481.4000      8.1091      2.5136      0.0606      8.2695    160.9498     25.6980
   481.5000      8.1056      2.5511      0.0771      5.9912    157.7625     26.0118
   481.6000      8.1056      2.5889      0.1254      3.7043    156.4135     25.9777
   481.7000      8.1056      2.6139      0.1307      2.1889    155.6915     25.6456
   481.8000      8.0866      2.6266      0.1443      1.4211    155.9118     25.5134
   481.9000      8.0866      2.6322      0.1305      1.0781    157.5664     25.7255
   482.0000      8.1182      2.6321      0.1156      1.0864    158.2408     26.0584
   482.1000      8.1182      2.6218      0.1326      1.7079    155.8018     26.2801
   482.2000      8.1182      2.6003      0.0827      3.0125    151.4192     26.2568
   482.3000      8.1007      2.5792      0.0649      4.2882    146.1703     26.1544
   482.4000      8.1007      2.5665      0.0298      5.0600    142.1038     26.1375
   482.5000      8.0617      2.5634      0.0094      5.2504    142.5148     26.0301
   482.6000      8.0617      2.5676      0.0973      4.9910    146.8337     25.7126
   482.7000      8.0617      2.5664      0.0916      5.0685    149.5870     25.2985
   482.8000      8.0701      2.5528      0.0308      5.8908    147.5417     24.9298
   482.9000      8.0701      2.5405      0.0386      6.6393    144.9397     24.6852
   483.0000      8.0755      2.5427      0.0574      6.5019    145.4969     24.5259
   483.1000      8.0755      2.5559      0.0696      5.7046    147.6891     24.3474
   483.2000      8.0755      2.5697      0.1126      4.8641    150.2030     24.2488
   483.3000      8.0857      2.5865      0.0835      3.8509    150.8274     24.3449
   483.4000      8.0857      2.6094      0.1627      2.4591    146.7048     24.3886
   483.5000      8.1060      2.6237      0.1638      1.5933    139.2636     24.1953
   483.6000      8.1060      2.6162      0.1211      2.0475    132.4908     23.9163
   483.7000      8.1060      2.5952      0.0708      3.3231    128.8312     23.8872
   483.8000      8.0752      2.5759      0.0630      4.4911    127.2009     24.2001
   483.9000      8.0752      2.5618      0.0686      5.3453    126.2332     24.6247
   484.0000      8.0644      2.5531      0.0228      5.8704    127.3064     25.0335
   484.1000      8.0644      2.5566      0.0309      5.6633    130.6304     25.2886
   484.2000      8.0644      2.5714      0.0396      4.7634    132.6323     25.3214
   484.3000      8.0618      2.5870      0.0439      3.8196    130.6724     25.5278
   484.4000      8.0618      2.5912      0.0807      3.5656    126.0367     26.0521
   484.5000      8.0325      2.5835      0.0041      4.0288    122.2435     26.4702
   484.6000      8.0325      2.5733      0.0412      4.6498    121.3464     26.6651
   484.7000      8.0325      2.5610      0.0156      5.3941    122.2041     26.7083
   484.8000      8.0416      2.5555     -0.0175      5.7284    123.7721     26.4300
   484.9000      8.0416      2.5727      0.0053      4.6835    125.0723     25.8795
   485.0000      8.0266      2.6041      0.0479      2.7810    126.1443     25.4435
   485.1000      8.0266      2.6259      0.0920      1.4610    128.6022     25.1532
   485.2000      8.0266      2.6309      0.0592      1.1575    131.0326     24.7991
   485.3000      8.0318      2.6238      0.0656      1.5863    131.1604     24.4688
   485.4000      8.0318      2.6078      0.0130      2.5566    129.8445     24.1708
   485.5000      8.0140      2.5924      0.0238      3.4926    128.9706     23.6798
   485.6000      8.0140      2.5880      0.0167      3.7556    128.9082     23.0285
   485.7000      8.0140      2.5881      0.0755      3.7508    126.5017     22.3239
   485.8000      8.0307      2.5725      0.0470      4.6974    119.7894     21.4105
   485.9000      8.0307      2.5419      0.0068      6.5496    113.2594     20.4187
   486.0000      8.0699      2.5192     -0.0083      7.9265    108.8636     19.8188
   486.1000      8.0699      2.5160      0.0032      8.1208    104.7180     19.7006
   486.2000      8.0699      2.5221      0.0209      7.7518    102.6689     19.7739
   486.3000      8.0739      2.5210      0.0295      7.8168    102.0010     19.9350
   486.4000      8.0739      2.5045      0.0502      8.8188     99.5835     20.1232
   486.5000      8.0679      2.4871     -0.0201      9.8712     97.3671     20.0731
   486.6000      8.0679      2.4920      0.0229      9.5734     97.2674     19.8820
   486.7000      8.0679      2.5092      0.0455      8.5327     96.8070     19.8292
   486.8000      8.0819      2.5085      0.0161      8.5787     93.7828     19.9193
   486.9000      8.0819      2.4896     -0.0352      9.7194     88.9753     20.0460
   487.0000      8.0818      2.4758      0.0382     10.5584     86.1009     20.0968
   487.1000      8.0818      2.4762      0.0265     10.5354     87.9655     20.0495
   487.2000      8.0818      2.4923      0.0054      9.5556     92.1154     19.9895
   487.3000      8.0386      2.5239      0.0070      7.6440     92.9922     19.9461
   487.4000      8.0386      2.5545      0.0785      5.7850     90.2625     19.9716
   487.5000      8.0460      2.5606      0.0932      5.4200     88.3382     20.0364
   487.6000      8.0460      2.5381      0.0130      6.7794     90.0891     19.9954
   487.7000      8.0460      2.5085      0.0074      8.5771     96.3356     19.8672
   487.8000      8.0752      2.4927      0.0054      9.5346    105.4676     19.8844
   487.9000      8.0752      2.4902     -0.0162      9.6828    115.1284     20.1923
   488.0000      8.1239      2.4847     -0.0050     10.0200    123.8786     20.5743
   488.1000      8.1239      2.4667     -0.0241     11.1079    131.0189     20.8156
   488.2000      8.1239      2.4399      0.0158     12.7306    137.8649     20.9395
   488.3000      8.1209      2.4102      0.0095     14.5304    143.6134     20.9147
   488.4000      8.1209      2.3838     -0.0136     16.1310    146.4383     20.5965
   488.5000      8.1564      2.3639     -0.0136     17.3364    147.8182     20.2889
   488.6000      8.1564      2.3495     -0.0125     18.2099    149.7273     20.4983
   488.7000      8.1564      2.3505     -0.0367     18.1510    150.9818     21.1958
   488.8000      8.1518      2.3822      0.0046     16.2287    150.0341     22.0528
   488.9000      8.1518      2.4359      0.0634     12.9738    148.0490     22.7183
   489.0000      8.1382      2.4841      0.1097     10.0518    145.4582     22.8214
   489.1000      8.1382      2.5143      0.0432      8.2265    140.0347     22.6516
   489.2000      8.1382      2.5330      0.0631      7.0935    131.0423     22.6719
   489.3000      8.1412      2.5446      0.0316      6.3892    122.7180     22.6623
   489.4000      8.1412      2.5409      0.0646      6.6112    117.7299     22.3235
   489.5000      8.1377      2.5118      0.0269      8.3730    114.3801     21.6869
   489.6000      8.1377      2.4749     -0.0466     10.6136    112.0932     20.9930
   489.7000      8.1377      2.4585     -0.0388     11.6065    111.3554     20.4756
   489.8000      8.1289      2.4586     -0.0281     11.5980    110.3277     20.1405
   489.9000      8.1289      2.4557     -0.0062     11.7747    108.0583     19.8712
