~Version Information
VERS.                      2.0: CWLS Log ASCII Standard - VERSION 2.0
WRAP.                       NO: One line per depth step
~Well Information Block
STRT.FT               970.0000: 
STOP.FT              1882.0000: 
STEP.FT                 0.2500: 
NULL.                -999.2500: 
COMP.          Petrogulf Corporation: COMPANY
WELL.             Norton 9-14R: WELL
FLD.           Purgatorie River: FIELD
LOC.           725' FSL & 1103' FWL: LOCATION
PROV.                 Colorado: PROVINCE
CNTY.               Las Animas: COUNTRY
SRVC.                Patterson: SERVICE COMPANY
DATE.          Thu Oct 06 16:10:47 2005: LOG DATE
UWI.                          : UNIQUE WELL ID
~Curve Information Block
DEPT.FT            0 000 00 00: Depth
SP.mV                         : DIL Spontaneous Potential
RILD.Ohm-m                    : DIL Deep Resistivity
RILM.Ohm-m                    : DIL Medium Resistivity
RLL3.Ohm-m                    : DIL Shallow Resistivity
GR.GAPI                       : Gamma Ray
~Parameter Information Block
~A  Depth        SP         RILD        RILM        RLL3         GR     
# ...
  1138.0000    171.4418     40.4023     42.9462     68.4868    131.2406
  1138.2500    173.5596     39.5416     41.4362     68.2058    133.6743
  1138.5000    175.4275     38.6336     39.9566     62.4998    134.4124
  1138.7500    177.0049     37.6783     38.5635     52.9914    133.8617
  1139.0000    178.2544     36.6733     37.2953     43.2320    133.7531
  1139.2500    179.1783     35.6085     36.1576     36.4250    134.9436
  1139.5000    179.8320     34.4719     35.1194     34.0638    138.1501
  1139.7500    180.3096     33.2644     34.1219     35.9828    140.1919
  1140.0000    180.7131     32.0122     33.0982     40.8256    141.1326
  1140.2500    181.1235     30.7671     31.9988     46.3101    139.6048
  1140.5000    181.5848     29.5929     30.8125     49.7514    134.2662
  1140.7500    182.0994     28.5448     29.5714     49.2240    129.7582
  1141.0000    182.6261     27.6518     28.3379     44.6505    124.3417
  1141.2500    183.0857     26.9060     27.1806     37.7539    122.9491
  1141.5000    183.3790     26.2668     26.1523     30.8746    124.9039
  1141.7500    183.4233     25.6762     25.2770     25.7248    128.4893
  1142.0000    183.1866     25.0819     24.5482     22.9335    135.9827
  1142.2500    182.6973     24.4558     23.9339     22.2879    141.5210
  1142.5000    182.0207     23.7978     23.3876     23.1240    148.9478
  1142.7500    181.2227     23.1265     22.8612     24.5801    152.3125
  1143.0000    180.3450     22.4662     22.3178     25.7934    153.9835
  1143.2500    179.4009     21.8393     21.7406     26.1489    153.0609
  1143.5000    178.3867     21.2652     21.1345     25.4891    150.3633
  1143.7500    177.2981     20.7593     20.5208     24.1032    148.9775
  1144.0000    176.1391     20.3312     19.9273     22.4798    148.6524
  1144.2500    174.9240     19.9817     19.3803     21.0182    149.2698
  1144.5000    173.6781     19.7018     18.8983     19.9058    150.0350
  1144.7500    172.4410     19.4747     18.4909     19.1880    149.9177
  1145.0000    171.2648     19.2824     18.1599     18.8847    148.8665
  1145.2500    170.2010     19.1147     17.9021     19.0050    147.8441
  1145.5000    169.2804     18.9725     17.7121     19.4695    146.1561
  1145.7500    168.4987     18.8656     17.5846     20.0699    145.2159
  1146.0000    167.8124     18.8042     17.5159     20.5427    145.0173
  1146.2500    167.1446     18.7928     17.5043     20.6999    146.1437
  1146.5000    166.3989     18.8278     17.5500     20.5154    149.1412
  1146.7500    165.4873     18.8990     17.6535     20.1261    150.7956
  1147.0000    164.3695     18.9903     17.8143     19.7623    150.8826
  1147.2500    163.0801     19.0783     18.0279     19.6422    149.5742
  1147.5000    161.7174     19.1337     18.2836     19.8837    148.0115
  1147.7500    160.3984     19.1280     18.5615     20.4912    148.2817
  1148.0000    159.2115     19.0447     18.8316     21.4220    149.8297
  1148.2500    158.1948     18.8872     19.0560     22.6412    150.3353
  1148.5000    157.3380     18.6752     19.1947     24.0533    149.1062
  1148.7500    156.5911     18.4332     19.2153     25.3446    147.0339
  1149.0000    155.8820     18.1789     19.1028     25.9739    142.3808
  1149.2500    155.1495     17.9197     18.8630     25.4901    138.4576
  1149.5000    154.3719     17.6557     18.5196     23.9491    132.8096
  1149.7500    153.5678     17.3832     18.1040     21.9639    130.8902
  1150.0000    152.7673     17.0977     17.6454     20.2827    133.2699
  1150.2500    151.9817     16.7952     17.1644     19.3126    138.1317
  1150.5000    151.1931     16.4747     16.6725     18.9896    146.5861
  1150.7500    150.3648     16.1399     16.1756     18.9777    150.3405
  1151.0000    149.4606     15.8004     15.6789     18.9347    151.3331
  1151.2500    148.4605     15.4690     15.1901     18.6668    150.0021
  1151.5000    147.3657     15.1593     14.7206     18.1512    148.4111
  1151.7500    146.1954     14.8837     14.2836     17.4851    148.8845
  1152.0000    144.9802     14.6540     13.8924     16.8202    151.9013
  1152.2500    143.7538     14.4828     13.5578     16.3069    154.7978
  1152.5000    142.5462     14.3840     13.2883     16.0407    159.2891
  1152.7500    141.3797     14.3717     13.0909     16.0121    161.6704
  1153.0000    140.2692     14.4596     12.9729     16.0999    163.0578
  1153.2500    139.2295     14.6591     12.9442     16.1373    162.1459
  1153.5000    138.2880     14.9798     13.0189     16.0264    158.5978
  1153.7500    137.4919     15.4289     13.2164     15.8325    155.6097
  1154.0000    136.8962     16.0109     13.5616     15.8334    151.3194
  1154.2500    136.5350     16.7270     14.0851     16.6058    148.6360
  1154.5000    136.4022     17.5740     14.8222     19.2689    144.0204
  1154.7500    136.4596     18.5442     15.8130     25.9247    139.8520
  1155.0000    136.6723     19.6286     17.1006     40.1716    131.0007
  1155.2500    137.0449     20.8220     18.7291     67.4031    123.0763
  1155.5000    137.6314     22.1250     20.7397    114.2426    108.1422
  1155.7500    138.5054     23.5389     23.1626    186.0964     96.4779
  1156.0000    139.7017     25.0518     26.0040    282.6217     77.8734
  1156.2500    141.1657     26.6199     29.2227    393.4905     66.1310
  1156.5000    142.7639     28.1506     32.6910    498.6619     51.9039
  1156.7500    144.3580     29.4940     36.1432    575.0496     45.3442
  1157.0000    145.8863     30.4573     39.1357    606.2651     39.4708
  1157.2500    147.3901     30.8579     41.0873    589.3233     37.5421
  1157.5000    148.9767     30.6043     41.4705    534.3130     36.8286
  1157.7500    150.7555     29.7504     40.1025    457.7249     37.6750
  1158.0000    152.7915     28.4727     37.2987    374.1059     40.8798
  1158.2500    155.0884     26.9853     33.7108    291.7520     44.1106
  1158.5000    157.5811     25.4648     29.9985    214.6171     50.0024
  1158.7500    160.1259     24.0219     26.6099    146.5605     54.4755
  1159.0000    162.5152     22.7122     23.7531     92.3419     62.6023
  1159.2500    164.5417     21.5598     21.4692     54.9020     69.6367
  1159.5000    166.0861     20.5761     19.7144     33.1592     83.0206
  1159.7500    167.1651     19.7713     18.4154     22.9306     92.9733
  1160.0000    167.9028     19.1559     17.4984     19.4614    106.2504
  1160.2500    168.4541     18.7391     16.9028     19.1486    112.1200
  1160.5000    168.9367     18.5257     16.5861     19.8977    115.4275
  1160.7500    169.4061     18.5166     16.5250     20.8674    114.9723
  1161.0000    169.8700     18.7126     16.7146     22.2973    113.2630
  1161.2500    170.3212     19.1183     17.1666     25.7510    112.7668
  1161.5000    170.7718     19.7436     17.9066     34.9832    113.3915
  1161.7500    171.2734     20.6018     18.9711     57.3479    113.8398
  1162.0000    171.9050     21.7053     20.4048    104.7233    111.9757
  1162.2500    172.7253     23.0641     22.2565    191.7924    107.6338
  1162.5000    173.7214     24.6928     24.5757    329.8237     95.3754
  1162.7500    174.8030     26.6236     27.4088    516.9767     83.8183
  1163.0000    175.8414     28.9176     30.7991    730.6817     63.9725
  1163.2500    176.7059     31.6605     34.7905    930.1662     51.1148
  1163.5000    177.2717     34.9395     39.4397   1072.6705     35.3907
  1163.7500    177.4198     38.8074     44.8325   1135.0739     28.1622
  1164.0000    177.0518     43.2472     51.0985   1124.3722     22.0873
  1164.2500    176.1072     48.1528     58.4155   1068.3519     20.5457
  1164.5000    174.5687     53.3394     66.9961    996.0805     20.5670
  1164.7500    172.4640     58.5872     77.0488    925.4867     21.3600
  1165.0000    169.8686     63.6951     88.7102    864.4359     22.5206
  1165.2500    166.8973     68.4966    101.9440    817.2946     22.7101
  1165.5000    163.6741     72.8090    116.4072    787.0097     21.7903
  1165.7500    160.2948     76.3523    131.2990    771.8746     20.6955
