~Version Information
VERS.                      2.0: CWLS Log ASCII Standard - VERSION 2.0
WRAP.                       NO: One line per depth step
~Well Information Block
STRT.FT               264.2500: 
STOP.FT              1134.7500: 
STEP.FT                 0.2500: 
NULL.                -999.2500: 
COMP.          Pioneer Natural Resources: COMPANY
WELL.          Black Cat 13-32 Tr: WELL
FLD.           Purgatoire River: FIELD
LOC.           1679' FSL & 1150' FWL--: LOCATION
CNTY.               Las Animas: COUNTY
SRVC.                Patterson: SERVICE COMPANY
DATE.          Tue Mar 07 10:58:06 2006: LOG DATE
UWI.           05 071 08721 00: UNIQUE WELL ID
STAT.                 Colorado: STATE
~Curve Information Block
DEPT.FT            0 000 00 00: Depth
SN.Ohm-m                      : IEL Short Normal
SP.mV                         : IEL Spontaneous Potential
DIR.Ohm-m                     : IEL Induction Resistivity
GR.GAPI                       : Gamma Ray
~Parameter Information Block
~A  Depth        SN          SP         DIR          GR     
# ...
  1034.7500    596.4615   -367.9082     52.5483     58.8453
  1035.0000    596.4615   -375.2243     51.7226     57.3703
  1035.2500    596.4615   -383.1086     51.0513     56.7763
  1035.5000    596.4615   -391.2845     50.6242     56.7286
  1035.7500    596.4615   -399.4248     50.4278     57.1488
  1036.0000    596.4615   -407.1787     50.3643     58.1088
  1036.2500    596.4615   -414.2021     50.3293     58.7692
  1036.5000    596.4615   -420.1897     50.2870     59.4425
  1036.7500    596.4615   -424.9077     50.2680     59.5585
  1037.0000    596.4615   -428.2222     50.2890     59.3696
  1037.2500    596.4615   -430.1208     50.2804     59.2213
  1037.5000    596.4615   -430.7231     50.0965     59.2460
  1037.7500    596.4615   -430.2780     49.6108     59.4235
  1038.0000    596.4615   -429.1462     48.8097     59.6377
  1038.2500    596.4615   -427.7659     47.7972     59.5190
  1038.5000    596.4615   -426.6024     46.7091     58.8173
  1038.7500    596.4615   -426.0856     45.6229     58.1724
  1039.0000    596.4615   -426.5449     44.5294     57.3810
  1039.2500    596.4615   -428.1540     43.3670     57.0295
  1039.5000    596.4615   -430.9021     42.0726     56.4475
  1039.7500    596.4615   -434.5989     40.6101     55.8689
  1040.0000    596.4615   -438.9176     38.9677     54.9565
  1040.2500    596.4615   -443.4623     37.1507     54.6923
  1040.5000    596.4615   -447.8455     35.1869     55.4670
  1040.7500    596.4615   -451.7530     33.1341     57.0547
  1041.0000    596.4615   -454.9829     31.0705     61.4137
  1041.2500    596.4615   -457.4534     29.0708     65.7810
  1041.5000    596.4615   -459.1841     27.1826     74.4532
  1041.7500    596.4615   -460.2624     25.4202     81.2773
  1042.0000    596.4615   -460.8059     23.7739     91.9030
  1042.2500    596.4615   -460.9328     22.2294     98.4449
  1042.5000    596.4615   -460.7433     20.7840    106.2930
  1042.7500    596.4615   -460.3136     19.4495    109.8774
  1043.0000    596.4615   -459.6990     18.2464    113.0421
  1043.2500    596.4615   -458.9409     17.1947    114.2735
  1043.5000    596.4615   -458.0751     16.3084    116.0844
  1043.7500    596.4615   -457.1378     15.5934    117.8697
  1044.0000    596.4615   -456.1688     15.0465    121.8689
  1044.2500    596.4615   -455.2112     14.6577    125.2805
  1044.5000    596.4615   -454.3088     14.4143    130.6367
  1044.7500    596.4615   -453.5038     14.3058    133.6190
  1045.0000    596.4615   -452.8323     14.3280    136.0147
  1045.2500    596.4615   -452.3204     14.5260    135.8496
  1045.5000    596.4615   -451.9811     14.9035    132.9684
  1045.7500    596.4615   -451.8112     15.3693    129.4988
  1046.0000    596.4615   -451.7903     16.0114    122.2353
  1046.2500    596.4615   -451.8819     16.8402    116.0347
  1046.5000    596.4615   -452.0384     17.8592    104.7511
  1046.7500    596.4615   -452.2062     19.0652     96.2370
  1047.0000    596.4615   -452.3333     20.4505     83.3127
  1047.2500    596.4615   -452.3744     21.9975     75.6011
  1047.5000    596.4615   -452.2956     23.6630     66.7353
  1047.7500    596.4615   -452.0764     25.3546     62.9183
  1048.0000    596.4615   -451.7104     26.9145     60.0748
  1048.2500    596.4615   -451.2026     28.1387     59.7435
  1048.5000    596.4615   -450.5663     28.8425     60.9941
  1048.7500    596.4615   -449.8169     28.7492     62.7178
  1049.0000    596.4615   -448.9650     27.9777     66.2428
  1049.2500    596.4615   -448.0107     27.1038     69.0151
  1049.5000    596.4615   -446.9417     25.9244     73.6010
  1049.7500    596.4615   -445.7349     24.5352     77.0143
  1050.0000    596.4615   -444.3654     23.0186     83.1769
  1050.2500    596.4615   -442.8189     21.4636     88.3381
  1050.5000    596.4615   -441.1069     19.9606     97.7726
  1050.7500    596.4615   -439.2808     18.5810    104.7693
  1051.0000    596.4615   -437.4407     17.3650    115.1139
  1051.2500    596.4615   -435.7331     16.3275    121.3204
  1051.5000    596.4615   -434.3368     15.4708    129.1636
  1051.7500    596.4615   -433.4345     13.9833    133.3813
  1052.0000    596.4615   -433.1762     12.3932    138.0851
  1052.2500    596.4615   -433.6425     12.1323    139.9101
  1052.5000    596.4615   -434.8195     11.9747    140.1248
  1052.7500    596.4615   -436.5948     11.9058    138.4733
  1053.0000    596.4615   -438.7755     11.9100    133.9509
  1053.2500    596.4615   -441.1281     11.9715    130.3590
  1053.5000    596.4615   -443.4247     12.0775    125.4953
  1053.7500    596.4615   -445.4843     12.2224    123.1133
  1054.0000    596.4615   -447.1946     12.4102    121.0078
  1054.2500    596.4615   -448.5134     12.6537    120.3679
  1054.5000    596.4615   -449.4495     12.9675    120.0464
  1054.7500    596.4615   -450.0349     13.3171    120.0259
  1055.0000    596.4615   -450.3002     13.7018    119.8587
  1055.2500    596.4615   -450.2600     14.2088    119.2355
  1055.5000    596.4615   -449.9140     14.7273    116.6983
  1055.7500    596.4615   -449.2571     15.2138    113.7548
  1056.0000    596.4615   -448.2933     15.6326    108.1130
  1056.2500    596.4615   -447.0442     15.9667    104.3356
  1056.5000    596.4615   -445.5495     16.2205    100.0988
  1056.7500    596.4615   -443.8594     16.4125     98.8308
  1057.0000    596.4615   -442.0247     16.5639     99.5811
  1057.2500    596.4615   -440.0914     16.6889    101.5986
  1057.5000    596.4615   -438.0999     16.7900    105.9608
  1057.7500    596.4615   -436.0913     16.8579    109.0718
  1058.0000    596.4615   -434.1154     16.8768    112.8394
  1058.2500    596.4615   -432.2339     16.8922    114.2252
  1058.5000    596.4615   -430.5185     16.8936    114.4868
  1058.7500    596.4615   -429.0407     16.7719    113.9318
  1059.0000    596.4615   -427.8572     16.6679    113.3853
  1059.2500    596.4615   -426.9951     16.6220    113.8818
  1059.5000    596.4615   -426.4420     16.6577    116.1004
  1059.7500    596.4615   -426.1424     16.7759    118.0638
  1060.0000    596.4615   -426.0056     16.9582    120.4957
  1060.2500    596.4615   -425.9204     17.1734    121.2535
  1060.5000    596.4615   -425.7764     17.3864    120.8909
  1060.7500    596.4615   -425.4854     17.5669    119.8528
  1061.0000    596.4615   -424.9984     17.6965    117.7126
  1061.2500    596.4615   -424.3156     17.7733    116.2554
  1061.5000    596.4615   -423.4830     17.8124    114.4222
  1061.7500    596.4615   -422.5815     17.8423    113.5048
  1062.0000    596.4615   -421.7077     17.8978    112.5344
  1062.2500    596.4615   -420.9536     18.0094    112.0808
  1062.5000    596.4615   -420.3877     18.1958    111.4405
  1062.7500    596.4615   -420.0435     18.4630    110.7808
  1063.0000    596.4615   -419.9137     18.8095    108.8787
  1063.2500    596.4615   -419.9545     19.2323    106.7591
  1063.5000    596.4615   -420.0940     19.7280    102.3292
  1063.7500    596.4615   -420.2447     20.2905     98.8314
  1064.0000    596.4615   -420.3183     20.9106     93.4637
  1064.2500    596.4615   -420.2384     21.5767     90.2089
  1064.5000    596.4615   -419.9514     22.2730     86.4537
  1064.7500    596.4615   -419.4328     22.9727     84.9909
  1065.0000    596.4615   -418.6898     23.6299     84.6195
  1065.2500    596.4615   -417.7593     24.1810     85.6820
  1065.5000    596.4615   -416.7029     24.5598     89.4621
  1065.7500    596.4615   -415.5971     24.7206     93.4346
  1066.0000    596.4615   -414.5219     24.6538    100.6748
  1066.2500    596.4615   -413.5474     24.3845    105.2450
  1066.5000    596.4615   -412.7208     23.9617    109.8598
  1066.7500    596.4615   -412.0574     23.4482    111.1797
  1067.0000    596.4615   -411.5375     22.9135    111.7274
  1067.2500    596.4615   -411.1110     22.4258    112.1768
  1067.5000    596.4615   -410.7076     22.0424    114.0832
  1067.7500    596.4615   -410.2514     21.7984    116.1606
  1068.0000    596.4615   -409.6736     21.6993    119.4877
