~Version Information
VERS.                      2.0: CWLS Log ASCII Standard - VERSION 2.0
WRAP.                       NO: One line per depth step
~Well Information Block
STRT.FT                -7.0000: 
STOP.FT              3030.2500: 
STEP.FT                 0.2500: 
NULL.                -999.2500: 
COMP.          Pioneer Natural Resources: COMPANY
WELL.            Cleaver 24-12: WELL
FLD.           Purgatorie River: FIELD
LOC.           204' FSL & 2351' FWL--: LOCATION
CNTY.               Las Animas: COUNTY
SRVC.          Patterson Wireline: SERVICE COMPANY
DATE.          Thu Feb 02 12:17:57 2006: LOG DATE
UWI.           05 071 08634 00: UNIQUE WELL ID
STAT.                       CO: STATE
~Curve Information Block
DEPT.FT            0 000 00 00: Depth
CCL.                          : Casing Collar Locator
TT3.usec                      : CBL 3' Travel Time
AMP3.mV                       : CBL 3' Amplitude
GR.GAPI                       : Gamma Ray
~Parameter Information Block
~A  Depth       CCL         TT3         AMP3         GR     
# ...
  1601.0000      0.0000    632.8460     11.7051    147.1801
  1601.2500      0.0000    594.0535     11.6532    142.4352
  1601.5000      0.0000    550.4418     11.6518    134.9499
  1601.7500      0.0000    515.2310     11.6924    126.9349
  1602.0000      0.0000    499.2658     11.7549    120.3617
  1602.2500      0.0000    500.9203     11.8272    115.7498
  1602.5000      0.0000    504.8524     11.9054    112.0655
  1602.7500      0.0000    494.2567     11.9768    107.7687
  1603.0000      0.0000    465.8266     12.0142    102.1374
  1603.2500      0.0000    430.9392     11.9952     95.8175
  1603.5000      0.0000    402.9943     11.9214     90.2159
  1603.7500      0.0000    387.2498     11.8111     86.3290
  1604.0000      0.0000    382.6190     11.6783     84.1155
  1604.2500      0.0000    388.9535     11.5241     82.9802
  1604.5000      0.0000    409.9972     11.3498     82.6472
  1604.7500      0.0000    449.3933     11.1744     83.3256
  1605.0000      0.0000    502.8430     11.0350     84.9737
  1605.2500      0.0000    553.7458     10.9656     86.5818
  1605.5000      0.0000    580.4971     10.9718     86.4053
  1605.7500      0.0000    573.7758     11.0265     83.2532
  1606.0000      0.0000    547.6651     11.0889     77.8242
  1606.2500      0.0000    530.2324     11.1324     72.5620
  1606.5000      0.0000    540.7388     11.1536     69.8104
  1606.7500      0.0000    576.2475     11.1593     70.1532
  1607.0000      0.0000    619.0779     11.1489     72.4791
  1607.2500      0.0000    653.4349     11.1115     75.0489
  1607.5000      0.0000    673.9631     11.0392     76.3242
  1607.7500      0.0000    683.1783     10.9398     75.5483
  1608.0000      0.0000    685.9288     10.8357     73.2538
  1608.2500      0.0000    686.3413     10.7546     71.0917
  1608.5000      0.0000    686.8038     10.7260     70.7028
  1608.7500      0.0000    688.1728     10.7801     72.5355
  1609.0000      0.0000    690.9565     10.9388     75.5868
  1609.2500      0.0000    695.9846     11.1992     78.1080
  1609.5000      0.0000    703.2229     11.5293     78.6724
  1609.7500      0.0000    710.3069     11.8813     77.0845
  1610.0000      0.0000    713.4105     12.2145     74.5579
  1610.2500      0.0000    710.5202     12.5160     72.7375
  1610.5000      0.0000    703.6631     12.8028     72.2771
  1610.7500      0.0000    697.2148     13.0965     72.4482
  1611.0000      0.0000    694.0721     13.3977     72.0449
  1611.2500      0.0000    693.9384     13.6947     70.3613
  1611.5000      0.0000    694.8876     13.9812     67.4684
  1611.7500      0.0000    695.6964     14.2458     64.0518
  1612.0000      0.0000    696.4585     14.4457     61.0082
  1612.2500      0.0000    697.3733     14.5173     58.8731
  1612.5000      0.0000    697.5955     14.4231     57.5075
  1612.7500      0.0000    695.8798     14.1840     56.3466
  1613.0000      0.0000    692.3528     13.8665     54.8933
  1613.2500      0.0000    688.8500     13.5432     53.0771
  1613.5000      0.0000    687.1422     13.2631     51.3621
  1613.7500      0.0000    687.2972     13.0462     50.5400
  1614.0000      0.0000    688.1732     12.8957     51.1298
  1614.2500      0.0000    689.2211     12.8065     52.7967
  1614.5000      0.0000    691.0755     12.7594     54.5715
  1614.7500      0.0000    693.9588     12.7205     55.8001
  1615.0000      0.0000    695.7407     12.6555     56.6587
  1615.2500      0.0000    691.7476     12.5483     57.7050
  1615.5000      0.0000    676.6443     12.4021     59.3617
  1615.7500      0.0000    648.5588     12.2294     61.9681
  1616.0000      0.0000    614.3925     12.0434     65.7581
  1616.2500      0.0000    589.9440     11.8512     70.4838
  1616.5000      0.0000    589.2405     11.6522     75.5142
  1616.7500      0.0000    611.5501     11.4446     80.5737
  1617.0000      0.0000    641.9669     11.2391     86.0113
  1617.2500      0.0000    665.3422     11.0637     92.2081
  1617.5000      0.0000    676.8883     10.9494     99.0725
  1617.7500      0.0000    680.4515     10.9068    106.0944
  1618.0000      0.0000    681.5009     10.9194    112.4148
  1618.2500      0.0000    683.3325     10.9629    116.8461
  1618.5000      0.0000    686.9498     11.0274    118.4763
  1618.7500      0.0000    691.6926     11.1183    117.6227
  1619.0000      0.0000    695.9175     11.2373    116.0145
  1619.2500      0.0000    698.3768     11.3703    115.7015
  1619.5000      0.0000    699.3804     11.4937    117.7047
  1619.7500      0.0000    700.1177     11.5861    121.6099
  1620.0000      0.0000    700.9001     11.6317    126.0254
  1620.2500      0.0000    700.8322     11.6212    129.2006
  1620.5000      0.0000    699.2167     11.5593    129.6663
  1620.7500      0.0000    696.5766     11.4695    127.0334
  1621.0000      0.0000    694.1855     11.3813    122.4083
  1621.2500      0.0000    693.0541     11.3136    117.8418
  1621.5000      0.0000    693.6063     11.2721    115.1772
  1621.7500      0.0000    696.0870     11.2594    115.0285
  1622.0000      0.0000    700.6409     11.2775    116.4269
  1622.2500      0.0000    706.6315     11.3201    117.5230
  1622.5000      0.0000    712.3858     11.3700    117.0624
  1622.7500      0.0000    716.0983     11.4119    115.2581
  1623.0000      0.0000    716.9282     11.4455    113.3065
  1623.2500      0.0000    715.3318     11.4833    112.4525
  1623.5000      0.0000    712.7161     11.5298    113.4604
  1623.7500      0.0000    710.5965     11.5598    116.2301
  1624.0000      0.0000    709.5737     11.5156    119.6087
  1624.2500      0.0000    709.2029     11.3302    121.9635
  1624.5000      0.0000    709.0908     10.9638    122.2729
  1624.7500      0.0000    709.6703     10.4303    120.6864
  1625.0000      0.0000    711.4958      9.7998    118.0030
  1625.2500      0.0000    714.2867      9.1757    114.6552
  1625.5000      0.0000    717.2041      8.6631    110.1775
  1625.7500      0.0000    719.8123      8.3318    103.7006
  1626.0000      0.0000    722.3469      8.1820     95.2021
  1626.2500      0.0000    725.0812      8.1332     86.3761
  1626.5000      0.0000    727.7180      8.0635     80.0162
  1626.7500      0.0000    729.6876      7.8847     78.2567
  1627.0000      0.0000    731.1104      7.5959     81.2508
  1627.2500      0.0000    732.7487      7.2778     87.3605
  1627.5000      0.0000    734.2546      7.0447     94.3306
  1627.7500      0.0000    733.0421      6.9928    100.2175
  1628.0000      0.0000    726.4659      7.1642    103.5105
  1628.2500      0.0000    715.4637      7.5256    103.2006
  1628.5000      0.0000    704.8780      7.9766     99.5740
  1628.7500      0.0000    699.7134      8.3903     94.7947
  1629.0000      0.0000    701.7839      8.6743     91.8135
  1629.2500      0.0000    709.5539      8.8186     92.5064
  1629.5000      0.0000    719.4194      8.9051     97.1620
  1629.7500      0.0000    726.8105      9.0600    105.2432
  1630.0000      0.0000    727.8690      9.3738    115.6193
  1630.2500      0.0000    721.5375      9.8446    126.1115
  1630.5000      0.0000    710.0825     10.3935    133.9485
  1630.7500      0.0000    697.1644     10.9323    137.5535
  1631.0000      0.0000    684.9928     11.4149    137.7637
  1631.2500      0.0000    672.6229     11.8277    136.9577
  1631.5000      0.0000    656.9626     12.1494    136.9584
  1631.7500      0.0000    636.7663     12.3307    137.8977
  1632.0000      0.0000    615.9941     12.3296    138.8888
  1632.2500      0.0000    601.1968     12.1692    139.3176
  1632.5000      0.0000    595.0071     11.9276    139.2648
  1632.7500      0.0000    595.0217     11.6397    138.9928
  1633.0000      0.0000    599.2592     11.2557    138.3584
  1633.2500      0.0000    608.3303     10.7553    136.6924
  1633.5000      0.0000    621.7971     10.2478    133.1829
  1633.7500      0.0000    635.9478      9.8877    127.6200
  1634.0000      0.0000    644.4601      9.7314    121.0197
  1634.2500     -2.0000    639.0912      9.7307    115.3733
