~Version Information
VERS.                      2.0: CWLS Log ASCII Standard - VERSION 2.0
WRAP.                       NO: One line per depth step
~Well Information Block
STRT.FT                -7.5000: 
STOP.FT               988.5000: 
STEP.FT                 0.2500: 
NULL.                -999.2500: 
COMP.          Pioneer Natural Resources: COMPANY
WELL.          Stags Leap 13-30: WELL
FLD.           Purgatorie River: FIELD
LOC.           1813' FSL & 117' FWL--: LOCATION
PROV.                       CO: PROVINCE
CNTY.               Las Animas: COUNTRY
SRVC.          Patterson Wireline: SERVICE COMPANY
DATE.          Tue Dec 13 11:29:26 2005: LOG DATE
UWI.           05 071 08595 00: UNIQUE WELL ID
~Curve Information Block
DEPT.FT            0 000 00 00: Depth
CCL.                          : Casing Collar Locator
TT3.usec                      : CBL 3' Travel Time
AMP3.mV                       : CBL 3' Amplitude
GR.GAPI                       : Gamma Ray
~Parameter Information Block
~A  Depth       CCL         TT3         AMP3         GR     
# ...
   629.0000      0.0000    730.1829      7.9253    106.2242
   629.2500      0.0000    730.3782      7.8510    101.7713
   629.5000      0.0000    729.1882      7.9020    102.5907
   629.7500      0.0000    726.8213      8.0590    106.9228
   630.0000      0.0000    723.8292      8.2587    111.6158
   630.2500      0.0000    720.9576      8.4409    114.2237
   630.5000      0.0000    718.5674      8.5780    114.2283
   630.7500      0.0000    716.4446      8.6700    113.1415
   631.0000      0.0000    714.4924      8.7277    113.2934
   631.2500      0.0000    713.4158      8.7616    116.0340
   631.5000      0.0000    714.2510      8.7785    120.9950
   631.7500      0.0000    717.2176      8.7916    127.0125
   632.0000      0.0000    721.2621      8.8254    133.2645
   632.2500      0.0000    724.5781      8.8918    139.1360
   632.5000      0.0000    725.4348      8.9572    143.4453
   632.7500      0.0000    723.0222      8.9590    144.7659
   633.0000      0.0000    718.0901      8.8631    142.8035
   633.2500      0.0000    712.5973      8.6917    138.9194
   633.5000      0.0000    708.3454      8.4891    134.9604
   633.7500      0.0000    705.9835      8.2823    131.8473
   634.0000      0.0000    705.2934      8.0838    129.5287
   634.2500      0.0000    706.1327      7.9166    128.0050
   634.5000      0.0000    708.9407      7.8222    127.8451
   634.7500      0.0000    714.3465      7.8387    129.4369
   635.0000      0.0000    722.1906      7.9757    131.9628
   635.2500      0.0000    730.8947      8.2073    133.7011
   635.5000      0.0000    737.9925      8.4898    133.5955
   635.7500      0.0000    741.5210      8.7814    132.2353
   636.0000      0.0000    741.1154      9.0495    130.9162
   636.2500      0.0000    738.1103      9.2742    129.9108
   636.5000      0.0000    734.7520      9.4557    127.9634
   636.7500      0.0000    732.8024      9.6124    123.4387
   637.0000      0.0000    732.1068      9.7583    115.9636
   637.2500      0.0000    729.8822      9.8856    107.1698
   637.5000      0.0000    721.9535      9.9691     99.8437
   637.7500      0.0000    706.3918      9.9870     96.0779
   638.0000      0.0000    686.5944      9.9338     96.0923
   638.2500      0.0000    668.3540      9.8147     98.7644
   638.5000      0.0000    651.8163      9.6365    102.7595
   638.7500      0.0000    629.0257      9.4163    106.6443
   639.0000      0.0000    593.0204      9.2018    108.5133
   639.2500      0.0000    547.5833      9.0645    106.8243
   639.5000      0.0000    504.5952      9.0556    102.0892
   639.7500      0.0000    473.6114      9.1696     97.1357
   640.0000      0.0000    457.5026      9.3585     95.0133
   640.2500      0.0000    456.9433      9.5740     96.5386
   640.5000      0.0000    474.8344      9.7922     99.8751
   640.7500      0.0000    514.2784     10.0042    102.3522
   641.0000      0.0000    572.7054     10.1917    102.6559
   641.2500      0.0000    639.1061     10.3128    101.6191
   641.5000      0.0000    698.4935     10.3157    101.1650
   641.7500      0.0000    739.9344     10.1689    102.2986
   642.0000      0.0000    760.8412      9.8762    104.0857
   642.2500      0.0000    765.0482      9.4633    104.9719
   642.5000      0.0000    758.7806      8.9751    104.9304
   642.7500      0.0000    749.0178      8.4973    105.6038
   643.0000      0.0000    744.4312      8.1317    108.1742
   643.2500      0.0000    754.3719      7.9065    111.7367
   643.5000      0.0000    782.6324      7.7499    114.1526
   643.7500      0.0000    821.8090      7.6031    113.9324
   644.0000      0.0000    857.3213      7.5030    110.7953
   644.2500      0.0000    877.5419      7.5098    105.1373
   644.5000      0.0000    876.7978      7.6113     98.0368
   644.7500     -2.0000    850.7387      7.7533     91.6545
   645.0000      2.0000    798.1298      7.9103     88.4740
   645.2500      0.0000    731.3316      8.0921     89.5328
   645.5000      0.0000    677.4062      8.3232     93.5320
   645.7500      0.0000    659.7368      8.6341     97.6917
   646.0000      0.0000    678.3608      9.0181     99.4734
   646.2500      0.0000    712.2538      9.3866     97.9143
   646.5000      0.0000    739.6955      9.6482     93.5363
   646.7500      0.0000    753.0787      9.8503     87.0748
   647.0000      0.0000    756.6899     10.1579     78.9237
   647.2500      0.0000    756.7282     10.6631     70.0461
   647.5000      0.0000    755.8253     11.2659     62.3730
   647.7500      0.0000    754.0790     11.7614     57.3917
   648.0000      0.0000    751.6443     12.0117     54.8322
   648.2500      0.0000    749.3645     12.0193     53.4481
   648.5000      0.0000    748.0275     11.8755     52.7670
   648.7500      0.0000    747.9692     11.6789     53.3196
   649.0000      0.0000    749.2323     11.4955     55.1749
   649.2500      0.0000    751.4937     11.3559     57.0355
   649.5000      0.0000    753.7876     11.2642     57.2863
   649.7500      0.0000    754.8163     11.2110     55.6838
   650.0000      0.0000    753.9690     11.1830     53.7049
   650.2500      0.0000    751.8826     11.1639     53.3805
   650.5000      0.0000    749.7664     11.1335     55.8113
   650.7500      0.0000    748.3178     11.0755     60.4234
   651.0000      0.0000    747.3521     10.9936     65.2976
   651.2500      0.0000    746.0508     10.9196     68.3289
   651.5000      0.0000    743.2904     10.8951     68.5469
   651.7500      0.0000    738.1281     10.9393     66.6091
   652.0000      0.0000    730.6166     11.0331     64.0072
   652.2500      0.0000    722.3267     11.1350     61.8158
   652.5000      0.0000    715.7571     11.2096     60.1666
   652.7500      0.0000    712.9254     11.2431     58.5254
   653.0000      0.0000    714.1786     11.2471     56.2768
   653.2500      0.0000    717.8901     11.2584     53.4198
   653.5000      0.0000    721.3109     11.3296     50.9985
   653.7500      0.0000    722.5724     11.5052     50.7277
   654.0000      0.0000    722.4568     11.7961     54.0646
   654.2500      0.0000    723.9076     12.1627     61.4819
   654.5000      0.0000    729.3390     12.5211     72.2329
   654.7500      0.0000    738.3567     12.7945     84.7365
   655.0000      0.0000    747.9032     12.9774     97.4082
   655.2500      0.0000    754.3369     13.1330    109.1236
   655.5000      0.0000    755.6885     13.3092    118.9171
   655.7500      0.0000    752.6784     13.4686    125.7468
   656.0000      0.0000    747.9288     13.5144    129.0505
   656.2500      0.0000    743.8817     13.3764    129.5077
   656.5000      0.0000    741.2142     13.0570    128.9601
   656.7500      0.0000    739.2828     12.6092    129.2199
   657.0000      0.0000    737.7834     12.0950    130.6941
   657.2500      0.0000    737.3705     11.5652    132.3522
   657.5000      0.0000    738.6215     11.0619    133.1709
   657.7500      0.0000    741.0641     10.6365    133.3501
   658.0000      0.0000    743.5776     10.3595    133.9639
   658.2500      0.0000    745.4008     10.2917    135.7019
   658.5000      0.0000    746.4637     10.4303    138.1631
   658.7500      0.0000    747.0490     10.6985    140.2066
   659.0000      0.0000    747.4305     10.9966    140.7155
   659.2500      0.0000    747.7598     11.2519    139.1523
   659.5000      0.0000    748.0974     11.4154    135.8983
   659.7500      0.0000    748.5176     11.4430    132.2565
   660.0000      0.0000    749.2599     11.3085    129.7012
   660.2500      0.0000    750.6490     11.0348    128.7612
   660.5000      0.0000    752.5814     10.6930    128.6455
   660.7500      0.0000    753.9766     10.3669    128.0924
   661.0000      0.0000    753.1559     10.1183    126.5953
   661.2500      0.0000    749.2957      9.9686    124.7030
   661.5000      0.0000    743.3743      9.8897    123.0872
   661.7500      0.0000    737.1547      9.8110    121.7858
   662.0000      0.0000    731.3383      9.6598    120.8323
   662.2500      0.0000    725.3944      9.4176    121.2481
