~Version Information
VERS.                      2.0: CWLS Log ASCII Standard - VERSION 2.0
WRAP.                       NO: One line per depth step
~Well Information Block
STRT.FT               305.0000: 
STOP.FT              1376.5000: 
STEP.FT                 0.1000: 
NULL.                -999.2500: 
COMP.          Pioneer Natural Resources: COMPANY
WELL.               LPGC 32-32: WELL
FLD.           Purgatoire River: FIELD
LOC.           1937' FNL & 1661' FEL: LOCATION
PROV.                 Colorado: PROVINCE
CNTY.               Las Animas: COUNTRY
SRVC.                Patterson: SERVICE COMPANY
DATE.          Mon Jan 30 07:33:36 2006: LOG DATE
UWI.           05 071 08641 00: UNIQUE WELL ID
~Curve Information Block
DEPT.FT            0 000 00 00: Depth
DCAL.in                       : CDL Caliper
RHOB.g/cc                     : CDL Bulk Density
RHOC.g/cc                     : CDL Density Correction
DPOR.pu                       : CDL Density Porosity
GR.GAPI                       : Gamma Ray
NPOR.pu                       : Neutron Porosity
~Parameter Information Block
~A  Depth       DCAL        RHOB        RHOC        DPOR         GR         NPOR    
# ...
   938.6000      7.9583      2.5473      0.0685      6.2241    144.4297     25.6774
   938.7000      7.9583      2.5489      0.0476      6.1285    138.0434     27.0155
   938.8000      7.9539      2.5551      0.0425      5.7544    133.9730     28.5895
   938.9000      7.9539      2.5554      0.0800      5.7329    136.8483     28.7512
   939.0000      7.9549      2.5459      0.0028      6.3082    147.7855     27.2412
   939.1000      7.9549      2.5430     -0.0263      6.4828    157.5365     25.8542
   939.2000      7.9549      2.5518      0.0564      5.9496    155.5755     25.6141
   939.3000      7.9518      2.5527      0.0518      5.8975    147.7881     26.2645
   939.4000      7.9518      2.5433      0.0161      6.4657    146.4641     27.4331
   939.5000      7.9549      2.5396      0.0290      6.6934    153.2272     28.2318
   939.6000      7.9549      2.5411      0.0385      6.5996    162.3907     27.9412
   939.7000      7.9549      2.5351      0.0615      6.9633    166.1614     27.3810
   939.8000      7.9474      2.5095      0.0815      8.5133    161.2015     27.7274
   939.9000      7.9474      2.4671     -0.0048     11.0836    151.6338     28.5703
   940.0000      7.9548      2.4331      0.0050     13.1426    142.9628     28.6114
   940.1000      7.9548      2.4249      0.0235     13.6409    137.3239     27.8755
   940.2000      7.9548      2.4318      0.0681     13.2265    134.2124     27.5313
   940.3000      7.9589      2.4375      0.0636     12.8766    133.0473     27.6979
   940.4000      7.9589      2.4425      0.0676     12.5787    132.5251     27.4884
   940.5000      7.9658      2.4546      0.0491     11.8402    132.8477     26.5422
   940.6000      7.9658      2.4758      0.0387     10.5597    131.4570     25.0988
   940.7000      7.9658      2.4979      0.0882      9.2152    126.7660     24.1891
   940.8000      7.9750      2.5180      0.0747      7.9997    120.6007     24.7752
   940.9000      7.9750      2.5511      0.0375      5.9920    113.2017     26.0896
   941.0000      7.9732      2.5989      0.0856      3.0973    106.9064     26.7953
   941.1000      7.9732      2.6332      0.0851      1.0195    107.7855     26.6587
   941.2000      7.9732      2.6381      0.0809      0.7231    115.3537     26.1280
   941.3000      7.9916      2.6215      0.0253      1.7262    122.3674     25.6809
   941.4000      7.9916      2.5916      0.0726      3.5398    123.0010     24.9609
   941.5000      7.9936      2.5583     -0.0176      5.5570    116.7934     23.8157
   941.6000      7.9936      2.5440     -0.0063      6.4268    109.8372     23.3797
   941.7000      7.9936      2.5580      0.0357      5.5778    108.8823     23.9977
   941.8000      8.0024      2.5779      0.0366      4.3697    116.3772     24.5445
   941.9000      8.0024      2.5750     -0.0059      4.5460    126.2909     24.4249
   942.0000      8.0063      2.5443     -0.0222      6.4077    130.9031     24.1747
   942.1000      8.0063      2.5072     -0.0364      8.6534    128.8349     24.3575
   942.2000      8.0063      2.4915     -0.0516      9.6080    122.1286     24.9283
   942.3000      7.9956      2.5047     -0.0137      8.8034    115.9022     25.6922
   942.4000      7.9956      2.5222      0.0502      7.7441    116.6438     26.4533
   942.5000      8.0009      2.5158      0.0507      8.1322    126.3926     26.7555
   942.6000      8.0009      2.4919     -0.0353      9.5789    137.3119     26.8401
   942.7000      8.0009      2.4677      0.0343     11.0463    139.1801     27.1483
   942.8000      7.9907      2.4377      0.0470     12.8645    132.3023     27.2156
   942.9000      7.9907      2.3932      0.0294     15.5645    125.2025     26.4653
   943.0000      7.9886      2.3352      0.0481     19.0781    122.8298     25.3696
   943.1000      7.9886      2.2697      0.0377     23.0461    121.9316     25.2926
   943.2000      7.9886      2.2053      0.0142     26.9514    119.9564     26.6894
   943.3000      7.9970      2.1434      0.0434     30.7039    116.4873     28.4081
   943.4000      7.9970      2.0903     -0.0403     33.9204    109.5409     29.3235
   943.5000      7.9995      2.0647      0.0022     35.4746    104.4132     29.2330
   943.6000      7.9995      2.0744     -0.0086     34.8865    109.8061     28.5128
   943.7000      7.9995      2.1192      0.0496     32.1701    120.1483     27.7977
   943.8000      7.9968      2.1966      0.1196     27.4779    125.3862     27.2455
   943.9000      7.9968      2.2929      0.1826     21.6454    128.9859     26.8547
   944.0000      7.9949      2.3818      0.2464     16.2535    134.7228     27.2648
   944.1000      7.9949      2.4451      0.2585     12.4184    138.6134     28.1300
   944.2000      7.9949      2.4841      0.2102     10.0560    137.8441     28.3555
   944.3000      7.9987      2.5075      0.1211      8.6354    132.3218     28.1549
   944.4000      7.9987      2.5189      0.1478      7.9480    126.8754     27.8152
   944.5000      7.9956      2.5135      0.0816      8.2709    131.0037     27.0687
   944.6000      7.9956      2.5016      0.0491      8.9946    143.8545     26.6497
   944.7000      7.9956      2.5057      0.0733      8.7483    154.8889     27.2357
   944.8000      8.0065      2.5291      0.0740      7.3294    155.1477     27.7219
   944.9000      8.0065      2.5591      0.1298      5.5109    144.6238     27.0631
   945.0000      8.0147      2.5806      0.1594      4.2033    136.9583     26.2301
   945.1000      8.0147      2.5813      0.1237      4.1662    140.9739     26.0910
   945.2000      8.0147      2.5634      0.0786      5.2478    149.9371     26.4148
   945.3000      8.0564      2.5444      0.0842      6.4005    153.9549     26.9690
   945.4000      8.0564      2.5353      0.0936      6.9534    149.6523     27.1919
   945.5000      8.0108      2.5326      0.0887      7.1171    140.7673     26.8824
   945.6000      8.0108      2.5308      0.0724      7.2255    135.7811     26.4121
   945.7000      8.0108      2.5307      0.0622      7.2316    141.4501     25.6933
   945.8000      8.0480      2.5337      0.0493      7.0468    152.4305     25.1331
   945.9000      8.0480      2.5337      0.0929      7.0497    158.1490     25.9322
   946.0000      8.0606      2.5253      0.0854      7.5561    158.5469     27.6478
   946.1000      8.0606      2.5219      0.0517      7.7645    159.1745     28.6378
   946.2000      8.0606      2.5308      0.1084      7.2255    160.1161     28.6985
   946.3000      8.1089      2.5416      0.0971      6.5716    157.3891     28.9725
   946.4000      8.1089      2.5521      0.0810      5.9360    150.6094     30.0831
   946.5000      8.0933      2.5583      0.1014      5.5554    143.4677     30.8963
   946.6000      8.0933      2.5531      0.0760      5.8717    137.2863     30.1930
   946.7000      8.0933      2.5451      0.1056      6.3583    130.4171     28.8894
   946.8000      8.0855      2.5407      0.1272      6.6264    125.8447     28.0417
   946.9000      8.0855      2.5364      0.0158      6.8860    128.7348     27.5189
   947.0000      8.0705      2.5290      0.0582      7.3357    134.5959     27.3695
   947.1000      8.0705      2.5169     -0.0189      8.0640    136.6476     27.2961
   947.2000      8.0705      2.5074      0.0622      8.6452    136.7125     27.1463
   947.3000      8.0871      2.5030      0.0674      8.9100    139.9089     27.6550
   947.4000      8.0871      2.4974      0.0586      9.2466    149.4041     29.0820
   947.5000      8.1229      2.4844      0.0407     10.0374    158.2018     30.2268
   947.6000      8.1229      2.4726      0.0184     10.7487    154.9088     30.2592
   947.7000      8.1229      2.4851     -0.0329      9.9951    141.8988     29.5083
   947.8000      8.0525      2.5148      0.0807      8.1964    131.7095     28.0683
   947.9000      8.0525      2.5246      0.0911      7.5994    133.0759     26.4788
   948.0000      8.0668      2.5121     -0.0027      8.3550    139.9314     25.7901
   948.1000      8.0668      2.5090      0.0466      8.5433    140.2671     25.8280
