~Version Information
 VERS.                                  2.0 : CWLS LAS VERSION
 WRAP.                                   NO : WRAPING MODE
 SWARE .                 MController 2.5.0J : SOFTWARE VERSION
~Well Information
 WELL.                         Kraft 17-23R : WELL
 COMP.                Petrogulf Corporation : COMPANY
 FLD.                      Purgatoire River : FIELD
 LOC.                NE/SW Sec 17 T33S R67W : LOCATION
 DATE.                          10/10-11/05 : DATE(S) LOGGED
 SRVC.       BLANCO Geological Services LLC : SERVICE COMPANY
 STAT.                                   CO : STATE
 CNTY.                           Las Animas : COUNTY
 CTRY.                                  USA : COUNTRY
 API.                       05-071-08560-00 : API NUMBER
 STRT.FT                             101.00 : START DEPTH
 STOP.FT                            1920.00 : STOP DEPTH
 STEP.FT                               1.00 : DEPTH INCREMENT
 NULL.                                -9999 : NULL VALUE
~Curve information
 DEPTH.FT                                   :
 ROP.MIN/FT                                 :
 GAS.UNITS                                  :
~ASCII Log data
# ...
       901.0         0.37          8.2 
       902.0         0.27          3.9 
       903.0         0.27          2.2 
       904.0         0.23          1.7 
       905.0         0.23          2.4 
       906.0         0.27          2.6 
       907.0         0.35          2.5 
       908.0         0.30          2.2 
       909.0         0.20          2.3 
       910.0         0.37          2.4 
       911.0         0.23          2.7 
       912.0         0.28          3.0 
       913.0         0.30          3.3 
       914.0         0.23          3.5 
       915.0         0.20          3.4 
       916.0         0.20          3.5 
       917.0         0.27          3.8 
       918.0         0.25          3.7 
       919.0         0.23          4.2 
       920.0         0.20          4.4 
       921.0         0.13          4.6 
       922.0         0.17          4.6 
       923.0         0.15          4.5 
       924.0         0.17          4.3 
       925.0         0.17          4.2 
       926.0         0.17          4.1 
       927.0         0.17          4.2 
       928.0         1.05          4.4 
       929.0         0.20          4.9 
       930.0         0.23          4.4 
       931.0         0.25          4.3 
       932.0         0.23          4.4 
       933.0         0.23          4.1 
       934.0         0.20          4.2 
       935.0         0.23          4.2 
       936.0         0.23          4.6 
       937.0         0.23          4.4 
       938.0         0.23          4.6 
       939.0         0.20          4.6 
       940.0         0.20          4.4 
       941.0         0.18          4.5 
       942.0         0.20          4.2 
       943.0         0.13          4.7 
       944.0         0.13          4.6 
       945.0         0.17          4.9 
       946.0         0.13          4.8 
       947.0         0.13          4.6 
       948.0         0.13          4.5 
       949.0         0.10          4.5 
       950.0         0.27          4.5 
       951.0         0.20          4.3 
       952.0         0.22          4.2 
       953.0         0.20          4.6 
       954.0         0.17          4.9 
       955.0         0.17          5.0 
       956.0         0.10          4.5 
       957.0         0.10          4.9 
       958.0         1.55          5.6 
       959.0         0.20          5.3 
       960.0         0.13          5.1 
       961.0         0.27          5.1 
       962.0         0.30          4.7 
       963.0         0.27          4.4 
       964.0         0.27          4.4 
       965.0         0.22          4.3 
       966.0         0.20          4.1 
       967.0         0.20          4.3 
       968.0         0.20          4.3 
       969.0         0.20          4.1 
       970.0         0.20          4.3 
       971.0         0.20          4.3 
       972.0         0.20          4.3 
       973.0         0.17          4.1 
       974.0         0.22          4.2 
       975.0         0.20          4.3 
       976.0         0.37          4.4 
       977.0         0.20          4.3 
       978.0         0.20          4.4 
       979.0         0.32          4.4 
       980.0         0.17          4.2 
       981.0         0.27          4.3 
       982.0         0.17          4.4 
       983.0         0.33          4.7 
       984.0         0.27          4.5 
       985.0         0.18          4.9 
       986.0         0.20          5.0 
       987.0         0.17          5.1 
       988.0         2.92          5.3 
       989.0         0.27          5.0 
       990.0         0.27          8.4 
       991.0         0.20          9.5 
       992.0         0.10          9.2 
       993.0         0.07          8.6 
       994.0         0.10          8.5 
       995.0         0.12          7.3 
       996.0         0.20          6.5 
       997.0         0.27          5.5 
       998.0         0.30          5.0 
       999.0         0.27          5.0 
      1000.0         0.17          5.1 
      1001.0         0.10          4.6 
      1002.0         0.20          4.8 
      1003.0         0.30          4.9 
      1004.0         0.23          4.9 
      1005.0         0.20          5.0 
      1006.0         0.20          5.0 
      1007.0         0.17          4.7 
      1008.0         0.17          4.8 
      1009.0         0.17          4.9 
      1010.0         0.20          5.2 
      1011.0         0.18          5.2 
      1012.0         0.20          5.0 
      1013.0         0.17          5.1 
      1014.0         0.20          5.0 
      1015.0         0.20          4.6 
      1016.0         0.20          5.0 
      1017.0         0.27          4.8 
      1018.0         1.23          5.0 
      1019.0         0.23          5.0 
      1020.0         0.22          4.8 
      1021.0         0.30          4.8 
      1022.0         0.20          4.7 
      1023.0         0.23          5.3 
      1024.0         0.20          6.1 
      1025.0         0.20          6.8 
      1026.0         0.20          7.3 
      1027.0         0.17          7.3 
      1028.0         0.10          6.4 
      1029.0         0.10          5.7 
      1030.0         0.17          5.9 
      1031.0         0.17          5.2 
      1032.0         0.17          4.8 
      1033.0         0.27          4.6 
      1034.0         0.23          4.8 
      1035.0         0.20          4.3 
      1036.0         0.17          4.3 
      1037.0         0.22          4.5 
      1038.0         0.17          4.7 
      1039.0         0.20          4.2 
      1040.0         0.20          4.5 
      1041.0         0.17          4.6 
      1042.0         0.17          4.4 
      1043.0         0.20          4.6 
      1044.0         0.17          4.9 
      1045.0         0.17          4.8 
      1046.0         0.20          4.5 
      1047.0         0.20          5.1 
      1048.0         1.38          5.4 
      1049.0         0.33          5.4 
      1050.0         0.30          5.6 
      1051.0         0.23          5.6 
      1052.0         0.23          5.6 
      1053.0         0.23          6.1 
      1054.0         0.20          5.6 
      1055.0         0.23          5.6 
      1056.0         0.43          5.6 
      1057.0         0.30          5.3 
      1058.0         0.20          5.1 
      1059.0         0.17          6.6 
      1060.0         0.17          9.4 
      1061.0         0.18         13.6 
      1062.0         0.17         15.9 
      1063.0         0.10         14.6 
      1064.0         0.10         13.9 
      1065.0         0.10         11.6 
      1066.0         0.07          9.7 
      1067.0         0.10          8.5 
      1068.0         0.10          7.6 
      1069.0         0.10          6.3 
      1070.0         0.10          6.0 
      1071.0         0.17          5.5 
      1072.0         0.20          5.3 
      1073.0         0.23          5.3 
      1074.0         0.13          5.1 
      1075.0         0.17          4.8 
      1076.0         0.10          5.0 
      1077.0         0.17          5.0 
      1078.0         1.42          6.8 
      1079.0         0.23          6.7 
      1080.0         0.33          9.6 
      1081.0         0.23          9.6 
      1082.0         0.13          8.0 
      1083.0         0.10          9.7 
      1084.0         0.23         16.5 
      1085.0         0.20         17.5 
      1086.0         0.17         15.5 
      1087.0         0.07         13.3 
      1088.0         0.10         11.8 
      1089.0         0.07         10.5 
      1090.0         0.10          9.2 
      1091.0         0.20          8.4 
      1092.0         0.17          7.2 
      1093.0         0.23          6.4 
      1094.0         0.20          6.3 
      1095.0         0.17          6.1 
      1096.0         0.18          6.2 
      1097.0         0.30          6.3 
      1098.0         0.30          7.3 
      1099.0         0.17          7.7 
      1100.0         0.17          7.6 
