~Version Information
VERS.                      2.0: CWLS Log ASCII Standard - VERSION 2.0
WRAP.                       NO: One line per depth step
~Well Information Block
STRT.FT               840.0000: 
STOP.FT              1913.5000: 
STEP.FT                 0.2500: 
NULL.                -999.2500: 
COMP.          Petrogulf Corporation: COMPANY
WELL.             Kraft 17-23R: WELL
FLD.           Purgatorie River: FIELD
LOC.           1509' FSL & 1673' FWL: LOCATION
PROV.                 Colorado: PROVINCE
CNTY.               Las Animas: COUNTRY
SRVC.                Patterson: SERVICE COMPANY
DATE.          Tue Oct 11 13:03:25 2005: LOG DATE
UWI.                          : UNIQUE WELL ID
~Curve Information Block
DEPT.FT            0 000 00 00: Depth
SP.mV                         : DIL Spontaneous Potential
RILD.Ohm-m                    : DIL Deep Resistivity
RILM.Ohm-m                    : DIL Medium Resistivity
RLL3.Ohm-m                    : DIL Shallow Resistivity
GR.GAPI                       : Gamma Ray
~Parameter Information Block
~A  Depth        SP         RILD        RILM        RLL3         GR     
# ...
  1680.0000    217.0600     18.0674     23.4937     28.6669     70.9881
  1680.2500    218.9028     16.9340     21.1278     24.7732     74.7315
  1680.5000    220.6807     15.9251     18.9616     20.9955     81.4082
  1680.7500    222.3426     15.0544     17.0577     17.5442     87.2533
  1681.0000    223.8371     14.3250     15.4430     14.6502     98.7919
  1681.2500    225.1158     13.7330     14.1186     12.4222    107.7240
  1681.5000    226.1387     13.2688     13.0703     10.8234    120.8265
  1681.7500    226.8838     12.9163     12.2765      9.7533    128.2816
  1682.0000    227.3576     12.6542     11.7142      9.1447    136.7231
  1682.2500    227.5978     12.4584     11.3611      9.0406    140.4549
  1682.5000    227.6673     12.3049     11.1962      9.6340    143.2264
  1682.7500    227.6431     12.1738     11.1983     11.2076    143.2028
  1683.0000    227.6054     12.0516     11.3433     13.9130    140.5000
  1683.2500    227.6276     11.9322     11.6009     17.4772    137.0676
  1683.5000    227.7643     11.8177     11.9319     21.0993    129.7049
  1683.7500    228.0397     11.7157     12.2883     23.7431    123.4955
  1684.0000    228.4436     11.6354     12.6167     24.6776    113.0814
  1684.2500    228.9371     11.5818     12.8669     23.8388    106.4237
  1684.5000    229.4669     11.5508     13.0017     21.7470     99.0468
  1684.7500    229.9796     11.5274     13.0029     19.1288     96.8173
  1685.0000    230.4305     11.4874     12.8716     16.5795     97.9897
  1685.2500    230.7830     11.4022     12.6226     14.4423    101.5406
  1685.5000    231.0044     11.2464     12.2767     12.8479    109.9051
  1685.7500    231.0620     11.0058     11.8556     11.7867    116.3568
  1686.0000    230.9295     10.6819     11.3799     11.1511    124.9726
  1686.2500    230.6002     10.2921     10.8693     10.7619    129.0800
  1686.5000    230.0988      9.8646     10.3436     10.4199    132.7096
  1686.7500    229.4794      9.4300      9.8225      9.9813    133.9186
  1687.0000    228.8111      9.0143      9.3243      9.4114    134.5758
  1687.2500    228.1604      8.6350      8.8646      8.7751    134.4522
  1687.5000    227.5789      8.2996      8.4543      8.1855    133.8277
  1687.7500    227.0955      8.0083      8.0992      7.7537    133.3069
  1688.0000    226.7149      7.7569      7.7999      7.5583    132.2050
  1688.2500    226.4198      7.5407      7.5526      7.6222    131.0462
  1688.5000    226.1807      7.3562      7.3509      7.8934    128.8812
  1688.7500    225.9699      7.2030      7.1870      8.2453    127.6570
  1689.0000    225.7715      7.0825      7.0539      8.5165    126.8777
  1689.2500    225.5788      6.9980      6.9469      8.5826    127.0599
  1689.5000    225.3826      6.9530      6.8645      8.4135    127.7201
  1689.7500    225.1636      6.9501      6.8088      8.0728    127.9373
  1690.0000    224.8902      6.9902      6.7850      7.6739    127.2584
  1690.2500    224.5239      7.0715      6.7994      7.3422    125.9301
  1690.5000    224.0268      7.1898      6.8590      7.2013    122.9989
  1690.7500    223.3745      7.3392      6.9694      7.3576    121.2261
  1691.0000    222.5692      7.5126      7.1341      7.8639    120.5098
  1691.2500    221.6412      7.7037      7.3539      8.6864    121.6687
  1691.5000    220.6364      7.9089      7.6270      9.7137    124.6381
  1691.7500    219.5954      8.1285      7.9494     10.7988    126.0772
  1692.0000    218.5398      8.3676      8.3160     11.7877    125.5697
  1692.2500    217.4717      8.6351      8.7226     12.5237    123.2934
  1692.5000    216.3848      8.9404      9.1673     12.8828    118.3691
  1692.7500    215.2759      9.2881      9.6513     12.8822    115.3663
  1693.0000    214.1551      9.6729     10.1776     12.8017    112.8602
  1693.2500    213.0527     10.0765     10.7472     13.1846    112.4507
  1693.5000    212.0214     10.4680     11.3527     14.6257    111.9783
  1693.7500    211.1342     10.8105     11.9714     17.3938    110.5784
  1694.0000    210.4745     11.0699     12.5593     21.0840    106.2474
  1694.2500    210.1134     11.2239     13.0519     24.5741    102.5658
  1694.5000    210.0772     11.2682     13.3774     26.4799     97.9541
  1694.7500    210.3251     11.2166     13.4799     25.9414     96.6322
  1695.0000    210.7564     11.0950     13.3432     23.1678     98.2445
  1695.2500    211.2459     10.9324     12.9990     19.2549    101.4368
  1695.5000    211.6869     10.7523     12.5137     15.4492    107.6358
  1695.7500    212.0185     10.5682     11.9630     12.5123    111.5172
  1696.0000    212.2291     10.3838     11.4109     10.6001    115.9270
  1696.2500    212.3404     10.1961     10.9000      9.5190    118.0645
  1696.5000    212.3863      9.9992     10.4519      9.0080    120.6366
  1696.7500    212.3981      9.7888     10.0726      8.8609    121.9489
  1697.0000    212.3985      9.5654      9.7589      8.9232    123.0644
  1697.2500    212.4032      9.3352      9.5024      9.0721    123.3249
  1697.5000    212.4242      9.1083      9.2935      9.2381    123.4326
  1697.7500    212.4746      8.8957      9.1223      9.4314    123.4805
  1698.0000    212.5705      8.7059      8.9802      9.7084    123.7042
  1698.2500    212.7281      8.5438      8.8592     10.0747    124.0775
  1698.5000    212.9559      8.4116      8.7532     10.4135    124.7059
  1698.7500    213.2484      8.3096      8.6576     10.5378    124.7222
  1699.0000    213.5828      8.2373      8.5700     10.3450    123.9413
  1699.2500    213.9217      8.1931      8.4900      9.9201    123.4641
  1699.5000    214.2184      8.1739      8.4196      9.4681    124.2925
  1699.7500    214.4252      8.1754      8.3614      9.1521    126.3590
  1700.0000    214.5004      8.1927      8.3188      9.0043    131.3114
  1700.2500    214.4128      8.2222      8.2950      8.9688    134.9541
  1700.5000    214.1444      8.2630      8.2924      8.9867    139.0752
  1700.7500    213.6907      8.3168      8.3138      9.0325    140.2893
  1701.0000    213.0607      8.3874      8.3620      9.0937    140.0401
  1701.2500    212.2755      8.4788      8.4404      9.1505    139.0240
  1701.5000    211.3659      8.5929      8.5531      9.2041    136.8162
  1701.7500    210.3716      8.7282      8.7038      9.3313    134.9889
  1702.0000    209.3406      8.8805      8.8954      9.6904    131.9062
  1702.2500    208.3271      9.0430      9.1280     10.4262    129.7812
  1702.5000    207.3864      9.2084      9.3979     11.5281    126.7576
  1702.7500    206.5656      9.3706      9.6966     12.7707    125.0401
  1703.0000    205.8908      9.5256     10.0108     13.8229    123.0405
  1703.2500    205.3582      9.6735     10.3242     14.4536    121.8482
  1703.5000    204.9361      9.8177     10.6194     14.6506    119.5436
  1703.7500    204.5796      9.9644     10.8816     14.5508    117.4868
  1704.0000    204.2438     10.1202     11.1009     14.2782    114.3686
  1704.2500    203.8919     10.2896     11.2745     13.8670    113.1498
  1704.5000    203.4953     10.4720     11.4061     13.3216    113.7174
  1704.7500    203.0352     10.6616     11.5045     12.7028    115.5621
  1705.0000    202.5034     10.8490     11.5825     12.1276    119.1889
  1705.2500    201.9044     11.0248     11.6546     11.7008    121.2966
  1705.5000    201.2547     11.1829     11.7359     11.4762    123.0886
  1705.7500    200.5817     11.3207     11.8401     11.4789    123.4849
  1706.0000    199.9236     11.4366     11.9779     11.7466    124.1530
  1706.2500    199.3304     11.5277     12.1550     12.3649    125.3161
  1706.5000    198.8631     11.5894     12.3699     13.4874    127.6705
  1706.7500    198.5904     11.6180     12.6131     15.2636    128.5547
  1707.0000    198.5809     11.6129     12.8661     17.6023    127.3669
  1707.2500    198.8941     11.5764     13.1027     19.9399    124.9048
  1707.5000    199.5725     11.5114     13.2922     21.3848    119.9176
  1707.7500    200.6421     11.4183     13.4046     21.3037    116.5946
