~Version Information
 VERS.                                  2.0 : CWLS LAS VERSION
 WRAP.                                   NO : WRAPING MODE
 SWARE .                 MController 2.5.0J : SOFTWARE VERSION
~Well Information
 WELL.                         Norton 9-14R : WELL
 COMP.                Petrogulf Corporation : COMPANY
 FLD.                       Purgatoire River: FIELD
 LOC.                SW/SW Sec 9 T33S R67W  : LOCATION
 DATE.                            10/5-6/05 : DATE(S) LOGGED
 SRVC.       BLANCO Geological Services LLC : SERVICE COMPANY
 STAT.                                   CO : STATE
 CNTY.                           Las Animas : COUNTY
 CTRY.                                  USA : COUNTRY
 API.                       05-071-08444-00 : API NUMBER
 STRT.FT                              56.00 : START DEPTH
 STOP.FT                            1880.00 : STOP DEPTH
 STEP.FT                               1.00 : DEPTH INCREMENT
 NULL.                                -9999 : NULL VALUE
~Curve information
 DEPTH.FT                                   :
 ROP.MIN/FT                                 :
 GAS.UNITS                                  :
~ASCII Log data
# ...
      1256.0         2.25         39.3 
      1257.0         0.33         28.3 
      1258.0         0.30         19.1 
      1259.0         0.23         13.3 
      1260.0         0.23         11.2 
      1261.0         0.25          9.6 
      1262.0         0.23          9.1 
      1263.0         0.23          8.7 
      1264.0         0.23          8.2 
      1265.0         0.23          8.7 
      1266.0         0.27          8.4 
      1267.0         0.23          9.0 
      1268.0         0.27          9.3 
      1269.0         0.33          9.3 
      1270.0         0.33          9.5 
      1271.0         0.30          9.4 
      1272.0         0.33          9.1 
      1273.0         0.32          8.8 
      1274.0         0.27          8.4 
      1275.0         0.20          8.2 
      1276.0         0.20          8.1 
      1277.0         0.20          8.1 
      1278.0         0.17          8.4 
      1279.0         0.20          9.8 
      1280.0         0.17         12.7 
      1281.0         0.07         12.8 
      1282.0         0.20         13.8 
      1283.0         0.17         13.1 
      1284.0         0.17         12.2 
      1285.0         0.23         10.6 
      1286.0         2.08         42.9 
      1287.0         0.30         28.2 
      1288.0         0.33         21.2 
      1289.0         0.37         15.6 
      1290.0         0.30         11.9 
      1291.0         0.30         11.9 
      1292.0         0.27         11.7 
      1293.0         0.18         12.8 
      1294.0         0.13         15.1 
      1295.0         0.10         16.1 
      1296.0         0.13         15.6 
      1297.0         0.20         14.2 
      1298.0         0.27         12.6 
      1299.0         0.27         11.1 
      1300.0         0.30         10.2 
      1301.0         0.27          9.8 
      1302.0         0.27          9.5 
      1303.0         0.30          9.4 
      1304.0         0.30          9.2 
      1305.0         0.33          8.8 
      1306.0         0.38          9.3 
      1307.0         0.33          9.2 
      1308.0         0.27          8.5 
      1309.0         0.23          8.7 
      1310.0         0.17          8.6 
      1311.0         0.17          8.7 
      1312.0         0.17         11.5 
      1313.0         0.13         12.5 
      1314.0         0.20         12.2 
      1315.0         0.13         10.7 
      1316.0         1.62         36.2 
      1317.0         0.27         41.7 
      1318.0         0.27         40.7 
      1319.0         0.23         34.8 
      1320.0         0.33         27.1 
      1321.0         0.33         18.2 
      1322.0         0.33         13.0 
      1323.0         0.40         11.1 
      1324.0         0.33          9.7 
      1325.0         0.30          8.5 
      1326.0         7.18         11.6 
      1327.0         0.43         12.3 
      1328.0         0.33         13.0 
      1329.0         0.37         12.1 
      1330.0         0.30         10.1 
      1331.0         0.27          9.6 
      1332.0         0.30          9.4 
      1333.0         0.30          9.0 
      1334.0         0.37          8.5 
      1335.0         0.28          8.3 
      1336.0         0.30          8.4 
      1337.0         0.33          7.8 
      1338.0         0.30          7.5 
      1339.0         0.30          7.8 
      1340.0         0.27          7.8 
      1341.0         0.27          7.4 
      1342.0         0.27          7.7 
      1343.0         0.27          7.0 
      1344.0         0.27          7.4 
      1345.0         0.28          7.7 
      1346.0         2.92         39.6 
      1347.0         0.37         15.0 
      1348.0         0.47         13.8 
      1349.0         0.37         11.8 
      1350.0         0.37         10.6 
      1351.0         0.33          9.9 
      1352.0         0.32          8.9 
      1353.0         0.23          8.7 
      1354.0         0.20          8.6 
      1355.0         0.23          8.7 
      1356.0         0.17          9.2 
      1357.0         0.13         10.3 
      1358.0         0.27         11.9 
      1359.0         0.37         11.6 
      1360.0         0.37         10.9 
      1361.0         0.30          9.8 
      1362.0         0.17          9.8 
      1363.0         0.17          9.6 
      1364.0         0.25          9.1 
      1365.0         0.23          9.3 
      1366.0         0.37          8.9 
      1367.0         0.27          8.9 
      1368.0         0.27          9.5 
      1369.0         0.27          9.5 
      1370.0         0.27          9.6 
      1371.0         0.23          9.7 
      1372.0         0.23          9.2 
      1373.0         0.20          8.9 
      1374.0         0.13          8.9 
      1375.0         0.20          8.4 
      1376.0         4.93         52.8 
      1377.0         0.37         14.7 
      1378.0         0.23         13.0 
      1379.0         0.27         11.9 
      1380.0         0.27         10.8 
      1381.0         0.47         10.3 
      1382.0         0.30         10.8 
      1383.0         0.32         11.5 
      1384.0         0.43         11.6 
      1385.0         0.30         10.3 
      1386.0         0.37          9.1 
      1387.0         0.33          8.1 
      1388.0         0.37          8.0 
      1389.0         0.37          7.7 
      1390.0         0.40          7.9 
      1391.0         0.30          7.3 
      1392.0         0.38          7.8 
      1393.0         0.50          7.7 
      1394.0         0.37          8.2 
      1395.0         0.37          8.3 
      1396.0         0.33          8.3 
      1397.0         0.43          8.3 
      1398.0         0.30          8.2 
      1399.0         0.33          8.0 
      1400.0         0.43          8.4 
      1401.0         0.55          8.4 
      1402.0         0.53          8.3 
      1403.0         0.37          8.2 
      1404.0         0.30          7.9 
      1405.0         0.23          7.6 
      1406.0         3.25         51.7 
      1407.0         0.23         15.0 
      1408.0         0.43         14.1 
      1409.0         0.43         11.7 
      1410.0         0.38         10.6 
      1411.0         0.50         10.2 
      1412.0         0.33         10.0 
      1413.0         0.23         10.0 
      1414.0         0.23         10.6 
      1415.0         0.27         11.7 
      1416.0         0.30         11.7 
      1417.0         0.30         10.4 
      1418.0         0.23          9.7 
      1419.0         0.33          9.6 
      1420.0         0.27          8.4 
      1421.0         0.25          9.1 
      1422.0         0.23          8.4 
      1423.0         0.27          8.3 
      1424.0         0.27          8.4 
      1425.0         0.27          8.3 
      1426.0         0.23          8.3 
      1427.0         0.17          8.7 
      1428.0         0.20          8.6 
      1429.0         0.23          9.3 
      1430.0         0.27          9.4 
      1431.0         0.27          8.7 
      1432.0         0.30          9.0 
      1433.0         0.27          8.4 
      1434.0         0.32          8.9 
      1435.0         0.23          8.8 
      1436.0         3.32         44.2 
      1437.0         0.30         23.0 
      1438.0         0.27         18.9 
      1439.0         0.13         19.4 
      1440.0         0.33         19.4 
      1441.0         0.37         17.9 
      1442.0         0.43         17.9 
      1443.0         0.37         15.0 
      1444.0         0.40         13.7 
      1445.0         0.35         11.4 
      1446.0         0.30         11.2 
      1447.0         0.23         10.3 
      1448.0         0.23          9.9 
      1449.0         0.20         12.1 
      1450.0         0.30         12.6 
      1451.0         0.37         12.5 
      1452.0         0.27         12.2 
      1453.0         0.23         12.2 
      1454.0         0.23         12.8 
      1455.0         0.23         13.3 
