~Version Information
VERS.                      2.0: CWLS Log ASCII Standard - VERSION 2.0
WRAP.                       NO: One line per depth step
~Well Information Block
STRT.FT                 0.5000: 
STOP.FT              2166.0000: 
STEP.FT                 0.2500: 
NULL.                -999.2500: 
COMP.          Pioneer Natural Resources: COMPANY
WELL.          Bear Cub Federal 11-23: WELL
FLD.           Purgatoire River: FIELD
LOC.           1225' FNL & 1268 ' FWL--: LOCATION
CNTY.               Las Animas: COUNTY
SRVC.                Patterson: SERVICE COMPANY
DATE.          Mon Jul 17 10:21:31 2006: LOG DATE
UWI.           05 071 08509 00: UNIQUE WELL ID
STAT.                 Colorado: STATE
~Curve Information Block
DEPT.FT            0 000 00 00: Depth
CCL.                          : Casing Collar Locator
TT3.usec                      : CBL 3' Travel Time
AMP3.mV                       : CBL 3' Amplitude
GR.GAPI                       : Gamma Ray
~Parameter Information Block
~A  Depth       CCL         TT3         AMP3         GR     
# ...
   871.5000      0.0000    294.5130     27.8740    112.6808
   871.7500      0.0000    298.1612     25.6842    105.7812
   872.0000      0.0000    301.2161     22.8256     96.7317
   872.2500      0.0000    302.0984     21.2540     92.0616
   872.5000      0.0000    302.6265     19.4109     87.6181
   872.7500      0.0000    302.7792     18.5504     86.8441
   873.0000      0.0000    302.9077     17.9044     89.7650
   873.2500      0.0000    302.9520     17.9427     94.4483
   873.5000      0.0000    302.9856     18.6807    104.5688
   873.7500      0.0000    302.9999     19.5752    112.4098
   874.0000      0.0000    303.0013     21.4179    124.4410
   874.2500      0.0000    302.9753     22.9007    132.3211
   874.5000      0.0000    302.8792     25.2778    143.4496
   874.7500      0.0000    302.7624     26.7836    149.4222
   875.0000      0.0000    302.3662     28.6559    153.6668
   875.2500      0.0000    301.7061     29.5976    152.5987
   875.5000      0.0000    299.3280     30.7027    146.5005
   875.7500      0.0000    296.3120     31.4102    141.0785
   876.0000      0.0000    289.4772     32.6934    132.6782
   876.2500      0.0000    284.0154     33.7444    126.8083
   876.5000      0.0000    276.3831     35.4795    116.9883
   876.7500      0.0000    272.5887     36.5923    110.1601
   877.0000      0.0000    269.2186     37.9480    101.3488
   877.2500      0.0000    268.1723     38.5508     97.4760
   877.5000      0.0000    267.5862     38.9834     95.7456
   877.7500      0.0000    267.5020     39.0326     97.4891
   878.0000      0.0000    267.5123     38.9488    103.3390
   878.2500      0.0000    267.5328     38.8689    107.6998
   878.5000      0.0000    267.5705     38.6949    111.7209
   878.7500      0.0000    267.6292     38.4693    112.0443
   879.0000      0.0000    267.8141     37.8840    110.6309
   879.2500      0.0000    267.9980     37.3704    110.0303
   879.5000      0.0000    268.3017     36.6329    111.3513
   879.7500      0.0000    268.4730     36.3160    113.7832
   880.0000      0.0000    268.6227     36.2893    118.9595
   880.2500      0.0000    268.6392     36.6118    122.7490
   880.5000      0.0000    268.5464     37.5926    127.7549
   880.7500      0.0000    268.4154     38.5458    130.0978
   881.0000      0.0000    268.1346     40.3329    131.7456
   881.2500      0.0000    267.9104     41.6816    131.6982
   881.5000      0.0000    267.5681     43.7747    130.3223
   881.7500      0.0000    267.3632     45.1362    128.6452
   882.0000      0.0000    267.1135     47.0518    124.8842
   882.2500      0.0000    266.9838     48.2149    121.8676
   882.5000      0.0000    266.8340     49.6906    118.6343
   882.7500      0.0000    266.7624     50.4114    118.7024
   883.0000      0.0000    266.7012     51.0044    122.3063
   883.2500      0.0000    266.6934     51.0976    125.6935
   883.5000      0.0000    266.7266     50.9524    129.8192
   883.7500      0.0000    266.7707     50.7871    131.5347
   884.0000      0.0000    266.8518     50.5764    133.2088
   884.2500      0.0000    266.9070     50.4779    134.1253
   884.5000      0.0000    266.9831     50.3580    135.2352
   884.7500      0.0000    267.0270     50.2852    135.4134
   885.0000      0.0000    267.0791     50.2149    133.7427
   885.2500      0.0000    267.1009     50.2218    131.0377
   885.5000      0.0000    267.1073     50.3364    125.9191
   885.7500      0.0000    267.0925     50.4743    123.1931
   886.0000      0.0000    267.0461     50.7345    120.8369
   886.2500      0.0000    267.0050     50.9148    119.1841
   886.5000      0.0000    266.9377     51.1320    113.7499
   886.7500      0.0000    266.8976     51.1782    107.5578
   887.0000      0.0000    266.8974     50.9122     95.5117
   887.2500      0.0000    267.0409     50.3511     86.8466
   887.5000      0.0000    267.9162     48.5997     75.1954
   887.7500      0.0000    269.4066     46.6520     69.4822
   888.0000      0.0000    273.9503     42.5041     64.5262
   888.2500      0.0000    278.8162     39.1221     62.9434
   888.5000      0.0000    288.2541     33.8036     62.0660
   888.7500      0.0000    294.9195     30.5416     62.9125
   889.0000      0.0000    303.3394     26.6748     68.1478
   889.2500      0.0000    307.1201     24.9363     74.6710
   889.5000      0.0000    310.1010     23.4228     87.5569
   889.7500     -2.0000    310.9036     22.8645     96.8249
   890.0000      2.0000    311.5340     22.2324    109.8053
   890.2500      2.0000    312.1001     21.8176    116.9841
   890.5000      0.0000    313.6079     21.2947    124.1984
   890.7500      0.0000    314.8238     21.2385    126.3456
   891.0000      0.0000    315.3715     22.1370    127.0816
   891.2500      0.0000    313.6107     23.5881    127.7179
   891.5000      0.0000    306.7170     26.7861    131.2793
   891.7500      0.0000    299.8834     29.1654    135.3684
   892.0000      0.0000    288.6266     32.3961    142.0182
   892.2500      0.0000    281.8134     34.1049    145.4922
   892.5000      0.0000    274.1138     35.8797    148.1800
   892.7500      0.0000    270.9059     36.5338    148.2913
   893.0000      0.0000    268.4974     36.7984    146.4496
   893.2500      0.0000    267.9643     36.5912    144.3512
   893.5000      0.0000    267.9671     35.9271    140.8290
   893.7500      0.0000    268.2026     35.3905    138.5793
   894.0000      0.0000    268.6205     34.6479    135.5490
   894.2500      0.0000    268.8738     34.2563    134.0467
   894.5000      0.0000    269.2376     33.8297    133.7899
   894.7500      0.0000    269.5720     33.6215    135.4575
   895.0000      0.0000    270.5287     33.3696    139.7418
   895.2500      0.0000    271.6753     33.2253    142.2600
   895.5000      0.0000    274.3188     33.0362    143.2296
   895.7500      0.0000    276.6341     32.9221    141.9491
   896.0000      0.0000    280.8203     32.7261    139.7756
   896.2500      0.0000    284.1300     32.5290    140.0838
   896.5000      0.0000    289.7875     32.0336    143.5254
   896.7500      0.0000    293.6114     31.5302    145.6660
   897.0000      0.0000    298.3534     30.5102    144.3778
   897.2500      0.0000    300.4507     29.6863    140.1454
   897.5000      0.0000    302.0901     28.3463    132.5021
   897.7500      0.0000    302.5129     27.4782    129.3793
   898.0000      0.0000    302.7106     26.3945    129.5791
   898.2500      0.0000    302.7584     25.8976    131.8603
   898.5000      0.0000    302.8533     25.5313    134.7804
   898.7500      0.0000    302.9461     25.5097    134.6032
   899.0000      0.0000    303.0968     25.7094    130.6637
   899.2500      0.0000    303.1757     25.9287    127.1003
   899.5000      0.0000    303.2231     26.2742    124.5049
   899.7500      0.0000    303.2035     26.4652    126.3916
   900.0000      0.0000    303.1209     26.6573    134.5701
   900.2500      0.0000    303.0471     26.7329    141.8052
   900.5000      0.0000    302.9212     26.8061    151.0719
   900.7500      0.0000    302.8303     26.8448    154.2902
   901.0000      0.0000    302.7035     26.9041    153.9996
   901.2500      0.0000    302.6436     26.9477    151.4391
   901.5000      0.0000    302.6082     26.9931    146.7193
   901.7500      0.0000    302.6151     26.9707    144.1506
   902.0000      0.0000    302.6451     26.7886    141.8043
   902.2500      0.0000    302.6631     26.5573    141.1169
   902.5000      0.0000    302.6668     26.0845    141.4830
   902.7500      0.0000    302.6487     25.7163    143.0786
   903.0000      0.0000    302.6086     25.1099    147.6798
   903.2500      0.0000    302.6011     24.6688    151.4322
   903.5000      0.0000    302.6690     23.9533    156.0060
   903.7500      0.0000    302.7787     23.4573    157.5545
   904.0000      0.0000    303.0189     22.7469    157.0321
   904.2500      0.0000    303.1983     22.3414    154.4266
   904.5000      0.0000    303.4267     21.9084    146.7261
   904.7500      0.0000    303.5126     21.7730    139.4655
