~Version Information
 VERS.                                  2.0 : CWLS LAS VERSION
 WRAP.                                   NO : WRAPING MODE
 SWARE .                  MController 2.6.3 : SOFTWARE VERSION
~Well Information
 WELL.                          Lucky 21-36 : WELL
 COMP.    Pioneer Natural Resources USA Inc : COMPANY
 FLD.                      Purgatoire River : FIELD
 LOC.                NE/NW Sec 36 T32S R65W : LOCATION
 DATE.                           07/07/2008 : DATE(S) LOGGED
 SRVC.        Ismay Geological Services Ltd : SERVICE COMPANY
 STAT.                                   CO : STATE
 CNTY.                           Las Animas : COUNTY
 CTRY.                                  USA : COUNTRY
 API.                       05-071-08456-00 : API NUMBER
 STRT.FT                             441.00 : START DEPTH
 STOP.FT                            1450.00 : STOP DEPTH
 STEP.FT                               1.00 : DEPTH INCREMENT
 NULL.                                -9999 : NULL VALUE
~Curve information
 DEPTH.FT                                   :
 ROP.MIN/FT                                 :
 GAS.UNITS                                  :
~ASCII Log data
# ...
     1241.00         0.20         52.9 
     1242.00         0.23         51.8 
     1243.00         0.30         52.1 
     1244.00         0.30         57.8 
     1245.00         0.30         82.9 
     1246.00         0.30        112.0 
     1247.00         0.30        134.1 
     1248.00         0.20        144.7 
     1249.00         0.17        148.0 
     1250.00         0.20        155.5 
     1251.00         1.72        377.5 
     1252.00         0.23        259.4 
     1253.00         0.20        223.7 
     1254.00         0.33        187.9 
     1255.00         0.27        137.0 
     1256.00         0.23        117.5 
     1257.00         0.27        111.4 
     1258.00         0.23        103.7 
     1259.00         0.27        112.5 
     1260.00         0.25        120.1 
     1261.00         0.27        122.7 
     1262.00         0.20        122.7 
     1263.00         0.17        120.8 
     1264.00         0.17        118.2 
     1265.00         0.17        117.6 
     1266.00         0.13        113.5 
     1267.00         0.20        112.7 
     1268.00         0.17         98.5 
     1269.00         0.23        105.5 
     1270.00         0.20        117.5 
     1271.00         0.27        120.5 
     1272.00         0.23        122.8 
     1273.00         0.17        121.7 
     1274.00         0.20        118.9 
     1275.00         0.17        109.2 
     1276.00         0.17        106.5 
     1277.00         0.22         85.6 
     1278.00         0.23         73.9 
     1279.00         0.23         72.2 
     1280.00         0.23         68.8 
     1281.00         2.53        259.1 
     1282.00         0.45        168.2 
     1283.00         0.33        121.4 
     1284.00         0.33        120.0 
     1285.00         0.40        114.6 
     1286.00         0.67         88.4 
     1287.00         0.27         80.0 
     1288.00         0.30         95.5 
     1289.00         0.37        106.6 
     1290.00         0.35        115.0 
     1291.00         0.20        115.4 
     1292.00         0.23        113.9 
     1293.00         0.23        108.1 
     1294.00         0.20        103.2 
     1295.00         0.37         98.4 
     1296.00         0.30         92.7 
     1297.00         0.27         92.3 
     1298.00         0.27         94.7 
     1299.00         0.23         96.6 
     1300.00         0.23         91.8 
     1301.00         0.23         88.7 
     1302.00         0.27         72.6 
     1303.00         0.25         73.3 
     1304.00         0.27         79.0 
     1305.00         0.60         80.8 
     1306.00         0.37         70.2 
     1307.00         0.27         49.5 
     1308.00         0.27         39.6 
     1309.00         0.27         41.6 
     1310.00         0.23         42.7 
     1311.00         1.78        221.7 
     1312.00         0.23        223.6 
     1313.00         0.47        219.9 
     1314.00         0.30        167.7 
     1315.00         0.33        139.0 
     1316.00         0.30        109.3 
     1317.00         0.30         96.8 
     1318.00         0.30         86.5 
     1319.00         0.30         77.4 
     1320.00         0.28         69.4 
     1321.00         0.27         65.7 
     1322.00         0.23         62.1 
     1323.00         0.27         60.4 
     1324.00         0.23         57.4 
     1325.00         0.23         56.7 
     1326.00         0.33         58.4 
     1327.00         0.33         60.3 
     1328.00         0.30         62.4 
     1329.00         0.30         65.5 
     1330.00         0.33         67.8 
     1331.00         0.32         69.2 
     1332.00         0.33         70.1 
     1333.00         0.30         70.6 
     1334.00         0.30         68.7 
     1335.00         0.33         68.2 
     1336.00         0.33         69.4 
     1337.00         0.30         59.8 
     1338.00         0.33         44.9 
     1339.00         0.33         42.3 
     1340.00         0.43         46.0 
     1341.00         3.12        104.9 
     1342.00         0.30         96.0 
     1343.00         0.38         95.4 
     1344.00         0.30         88.6 
     1345.00         0.23         89.4 
     1346.00         0.27         90.5 
     1347.00         0.30         89.5 
     1348.00         0.27         83.9 
     1349.00         0.27         82.2 
     1350.00         0.27         75.4 
     1351.00         0.27         67.2 
     1352.00         0.27         62.0 
     1353.00         0.27         60.7 
     1354.00         0.33         61.5 
     1355.00         0.28         61.6 
     1356.00         0.37         59.6 
     1357.00         0.27         58.8 
     1358.00         0.30         58.9 
     1359.00         0.27         59.2 
     1360.00         0.27         59.3 
     1361.00         0.27         59.6 
     1362.00         0.27         59.0 
     1363.00         0.27         58.5 
     1364.00         0.30         59.1 
     1365.00         0.30         58.3 
     1366.00         0.30         54.4 
     1367.00         0.28         43.9 
     1368.00         0.27         40.6 
     1369.00         0.27         43.6 
     1370.00         0.27         45.3 
     1371.00         2.23        184.7 
     1372.00         0.42        161.9 
     1373.00         0.40        117.4 
     1374.00         0.30        110.2 
     1375.00         0.30         94.4 
     1376.00         0.63         81.6 
     1377.00         0.27         61.3 
     1378.00         0.27         58.4 
     1379.00         0.30         56.9 
     1380.00         0.27         55.0 
     1381.00         0.23         54.3 
     1382.00         0.28         53.7 
     1383.00         0.27         53.9 
     1384.00         0.27         54.0 
     1385.00         0.27         54.1 
     1386.00         0.23         54.8 
     1387.00         0.30         56.0 
     1388.00         0.23         56.2 
     1389.00         0.27         57.0 
     1390.00         0.27         56.9 
     1391.00         0.30         57.1 
     1392.00         0.27         57.1 
     1393.00         0.30         56.9 
     1394.00         0.28         56.8 
     1395.00         0.27         55.0 
     1396.00         0.30         50.9 
     1397.00         0.27         39.5 
     1398.00         0.30         34.1 
     1399.00         0.27         35.5 
     1400.00         0.27         36.6 
     1401.00         2.68        167.1 
     1402.00         0.47        126.4 
     1403.00         0.37         95.2 
     1404.00         0.37         79.2 
     1405.00         0.40         70.9 
     1406.00         0.50         59.0 
     1407.00         0.52         58.9 
     1408.00         0.63         59.2 
     1409.00         0.53         58.5 
     1410.00         0.50         60.0 
     1411.00         0.53         62.9 
     1412.00         0.53         61.7 
     1413.00         0.32         60.1 
     1414.00         0.30         59.0 
     1415.00         0.20         59.2 
     1416.00         0.27         59.3 
     1417.00         0.23         58.7 
     1418.00         0.33         57.9 
     1419.00         0.37         56.7 
     1420.00         0.20         56.9 
     1421.00         0.17         56.9 
     1422.00         0.20         57.4 
     1423.00         0.23         56.5 
     1424.00         0.20         54.9 
     1425.00         0.20         45.7 
     1426.00         0.23         37.6 
     1427.00         0.28         37.6 
     1428.00         0.30         39.2 
     1429.00         0.33         40.5 
     1430.00         0.37         48.9 
     1431.00         1.77        160.6 
     1432.00         0.42         80.8 
     1433.00         0.30         77.1 
     1434.00         0.37         75.9 
     1435.00         0.40         74.2 
     1436.00         0.47         70.5 
     1437.00         0.37         66.3 
     1438.00         0.43         63.6 
     1439.00         0.40         61.0 
     1440.00         0.37         63.9 
