~Version Information
VERS.                      2.0: CWLS Log ASCII Standard - VERSION 2.0
WRAP.                       NO: One line per depth step
~Well Information Block
STRT.FT               880.0000: 
STOP.FT              1996.5000: 
STEP.FT                 0.1000: 
NULL.                -999.2500: 
COMP.          Petrogulf Corporation: COMPANY
WELL.          Collister 17-31R: WELL
FLD.           Purgatorie River: FIELD
LOC.           962' FNL & 1520' FEL: LOCATION
PROV.                 Colorado: PROVINCE
CNTY.               Las Animas: COUNTRY
SRVC.                Patterson: SERVICE COMPANY
DATE.          Mon Sep 26 09:28:52 2005: LOG DATE
UWI.                          : UNIQUE WELL ID
~Curve Information Block
DEPT.FT            0 000 00 00: Depth
DCAL.in                       : CDL Caliper
RHOB.g/cc                     : CDL Bulk Density
RHOC.g/cc                     : CDL Density Correction
DPOR.pu                       : CDL Density Porosity
GR.GAPI                       : Gamma Ray
NPOR.pu                       : Neutron Porosity
~Parameter Information Block
~A  Depth       DCAL        RHOB        RHOC        DPOR         GR         NPOR    
# ...
   956.8000      8.1649      2.2588      0.2356     23.7083     95.9289     35.3089
   956.9000      8.1649      2.3555      0.2336     17.8480    100.9496     35.0685
   957.0000      8.1387      2.3999      0.2105     15.1572    104.4998     34.8993
   957.1000      8.1387      2.3977      0.0776     15.2938    109.6979     34.6718
   957.2000      8.1387      2.3955      0.0594     15.4213    116.9245     34.2131
   957.3000      8.0703      2.4221      0.0975     13.8129    121.9633     33.4471
   957.4000      8.0703      2.4538      0.0659     11.8900    124.2657     32.6927
   957.5000      8.0812      2.4601      0.0960     11.5077    127.4912     32.3595
   957.6000      8.0812      2.4419      0.0338     12.6130    131.1700     32.2499
   957.7000      8.0812      2.4203      0.0660     13.9195    133.9466     32.1040
   957.8000      8.1134      2.4095      0.0634     14.5731    138.2775     32.1316
   957.9000      8.1134      2.4123      0.1018     14.4041    142.6900     32.3157
   958.0000      8.1459      2.4189      0.1876     14.0058    142.6055     32.2770
   958.1000      8.1459      2.4048      0.1669     14.8598    138.3404     32.0131
   958.2000      8.1459      2.3521      0.1120     18.0557    133.6721     31.8373
   958.3000      8.1274      2.2673      0.0668     23.1962    132.4291     31.8153
   958.4000      8.1274      2.1742      0.0248     28.8389    136.3077     31.7806
   958.5000      8.0755      2.1028     -0.0191     33.1664    141.3194     31.8256
   958.6000      8.0755      2.0758     -0.0413     34.7974    140.9863     32.0838
   958.7000      8.0755      2.0905      0.0277     33.9096    135.0287     32.3493
   958.8000      8.0867      2.1258     -0.0066     31.7674    127.2908     32.4546
   958.9000      8.0867      2.1697      0.0546     29.1064    122.6936     32.5788
   959.0000      8.0547      2.2193      0.0948     26.1025    121.6709     32.9728
   959.1000      8.0547      2.2738      0.1456     22.7994    119.7216     33.3740
   959.2000      8.0547      2.3391      0.1449     18.8413    117.9923     33.3977
   959.3000      7.9756      2.4177      0.1934     14.0815    119.5334     33.1181
   959.4000      7.9756      2.4912      0.1688      9.6249    121.3225     32.5433
   959.5000      7.9569      2.5399      0.0978      6.6703    120.7291     31.4688
   959.6000      7.9569      2.5609      0.0896      5.3987    119.2278     30.0261
   959.7000      7.9569      2.5611      0.0440      5.3860    118.4043     28.6388
   959.8000      7.9611      2.5540      0.0490      5.8153    120.7117     27.5077
   959.9000      7.9611      2.5506      0.0197      6.0221    126.2588     26.5623
   960.0000      7.9634      2.5493      0.0683      6.1003    131.6650     25.7574
   960.1000      7.9634      2.5370      0.1127      6.8472    134.8077     25.3094
   960.2000      7.9634      2.5125      0.0596      8.3333    134.5131     25.1922
   960.3000      7.9602      2.4974      0.0211      9.2480    131.1124     25.1074
   960.4000      7.9602      2.4971      0.0302      9.2684    127.3648     25.2006
   960.5000      7.9579      2.4887      0.0532      9.7748    127.4537     25.7469
   960.6000      7.9579      2.4647      0.0085     11.2286    132.1058     26.6948
   960.7000      7.9579      2.4356      0.0507     12.9916    137.4319     27.7710
   960.8000      7.9671      2.3975      0.0595     15.3002    140.5955     28.4276
   960.9000      7.9671      2.3323      0.0719     19.2548    140.7658     28.5466
   961.0000      7.9704      2.2274      0.0566     25.6136    138.6345     28.6934
   961.1000      7.9704      2.0984     -0.0219     33.4287    136.5879     29.0382
   961.2000      7.9704      1.9795     -0.0662     40.6372    134.2086     29.3180
   961.3000      7.9706      1.8857     -0.0613     46.3223    128.4311     29.5206
   961.4000      7.9706      1.8186     -0.0774     50.3907    120.7287     29.8810
   961.5000      7.9766      1.7942     -0.0837     51.8650    115.6317     30.5480
   961.6000      7.9766      1.8306     -0.0415     49.6607    112.8387     31.4712
   961.7000      7.9766      1.9192      0.0835     44.2879    111.0521     32.5065
   961.8000      8.0331      2.0283      0.1950     37.6758    111.9736     33.4906
   961.9000      8.0331      2.1379      0.2152     31.0364    115.8059     34.0305
   962.0000      8.0630      2.2538      0.2236     24.0128    120.2663     33.9349
   962.1000      8.0630      2.3696      0.2568     16.9965    125.7438     33.5834
   962.2000      8.0630      2.4524      0.2044     11.9786    132.7297     33.2279
   962.3000      7.9591      2.4880      0.1332      9.8174    137.7004     32.6964
   962.4000      7.9591      2.4994      0.0463      9.1257    140.0708     31.9867
   962.5000      7.9271      2.5123      0.0333      8.3445    143.2125     31.2088
   962.6000      7.9271      2.5312      0.0637      7.2024    148.0836     30.4416
   962.7000      7.9271      2.5529      0.0359      5.8870    151.6890     29.9043
   962.8000      7.9192      2.5778      0.0637      4.3777    150.1858     29.5474
   962.9000      7.9192      2.6015      0.0750      2.9370    145.1524     29.0295
   963.0000      7.8782      2.6214      0.0835      1.7343    142.6546     28.2288
   963.1000      7.8782      2.6394      0.0630      0.6452    142.2400     27.2432
   963.2000      7.8782      2.6512      0.1067     -0.0726    139.4941     26.3477
   963.3000      7.8672      2.6519      0.0820     -0.1150    135.7874     25.8768
   963.4000      7.8672      2.6463      0.1026      0.2254    133.4174     25.8190
   963.5000      7.8626      2.6375      0.0810      0.7579    128.6362     25.8798
   963.6000      7.8626      2.6312      0.0221      1.1402    119.4016     25.7401
   963.7000      7.8626      2.6356      0.0791      0.8726    112.5588     25.1517
   963.8000      7.8468      2.6432      0.0658      0.4118    110.5402     24.2244
   963.9000      7.8468      2.6435      0.0679      0.3958    107.4257     23.3113
   964.0000      7.8283      2.6383      0.0693      0.7098    101.6584     22.3708
   964.1000      7.8283      2.6381      0.0674      0.7188     97.7635     21.2343
   964.2000      7.8283      2.6490      0.0861      0.0622     96.2894     20.0343
   964.3000      7.8184      2.6643      0.0604     -0.8692     92.9998     19.0844
   964.4000      7.8184      2.6743      0.0821     -1.4733     89.3414     18.6665
   964.5000      7.8264      2.6754      0.0617     -1.5380     90.0015     18.6926
   964.6000      7.8264      2.6738      0.0744     -1.4405     91.5403     18.8585
   964.7000      7.8264      2.6745      0.0478     -1.4877     89.9003     18.9170
   964.8000      7.8765      2.6761      0.0469     -1.5803     89.4333     18.6559
   964.9000      7.8765      2.6750      0.0592     -1.5161     92.8627     18.1818
   965.0000      7.9190      2.6684      0.0896     -1.1159     95.2089     17.9524
   965.1000      7.9190      2.6519      0.1094     -0.1168     94.9580     18.2601
   965.2000      7.9190      2.6263      0.0502      1.4378     96.8832     18.9552
   965.3000      7.9086      2.6023      0.0230      2.8914    100.8430     19.5539
   965.4000      7.9086      2.5846      0.0609      3.9641    101.7206     19.8790
   965.5000      7.8961      2.5722      0.0003      4.7149     98.2415     20.1415
   965.6000      7.8961      2.5684      0.0447      4.9434     94.6284     20.5137
   965.7000      7.8961      2.5706      0.0595      4.8100     95.7677     21.0380
   965.8000      7.9325      2.5778      0.0229      4.3785    103.3241     21.6400
   965.9000      7.9325      2.5890      0.0411      3.6970    113.9247     22.3429
   966.0000      7.9622      2.5961      0.0333      3.2691    119.9308     23.0980
   966.1000      7.9622      2.6053      0.0031      2.7104    118.5901     23.4927
   966.2000      7.9622      2.6345      0.0522      0.9404    112.9793     23.3987
   966.3000      7.9668      2.6793      0.0741     -1.7732    105.5420     23.2674
