~Version Information
VERS.                      2.0: CWLS Log ASCII Standard - VERSION 2.0
WRAP.                       NO: One line per depth step
~Well Information Block
STRT.FT               360.0000: 
STOP.FT              2475.0000: 
STEP.FT                 0.1000: 
NULL.                -999.2500: 
COMP.          Pioneer Natural Resources: COMPANY
WELL.          Hellzonfire 32-31: WELL
FLD.           Purgatoire River: FIELD
LOC.           1993' FNL & 2265' FEL: LOCATION
STAT.                 Colorado: State
CNTY.               Las Animas: COUNTY
CTRY. USA : Country
SECT. 31 : Section
TOWN. 32S : Township
RANG. 66W : Range
SRVC.                Patterson: SERVICE COMPANY
DATE.          Fri Sep 02 07:26:13 2005: LOG DATE
API.           05 071 08483 00: UNIQUE WELL ID
~Curve Information Block
DEPT.FT            0 000 00 00: Depth
DCAL.in                       : CDL Caliper
RHOB.g/cc                     : CDL Bulk Density
RHOC.g/cc                     : CDL Density Correction
DPOR.pu                       : CDL Density Porosity
GR.GAPI                       : Gamma Ray
NPOR.pu                       : Neutron Porosity
~Parameter Information Block
~A  Depth       DCAL        RHOB        RHOC        DPOR         GR         NPOR    
# ...
  1761.6000      7.9179      2.5929      0.0604      3.4581    106.2986     19.5107
  1761.7000      7.9179      2.6085      0.0652      2.5169    107.4123     19.3889
  1761.8000      7.7639      2.6138      0.1423      2.1929    102.7388     19.2815
  1761.9000      7.7639      2.6020      0.0573      2.9104     95.5250     19.0581
  1762.0000      7.9151      2.5935     -0.0022      3.4261     90.0287     18.9363
  1762.1000      7.9151      2.6075      0.0464      2.5735     89.3511     19.0471
  1762.2000      7.9151      2.6367      0.0811      0.8063     91.6317     19.4444
  1762.3000      8.1062      2.6593      0.0765     -0.5653     93.2439     19.9509
  1762.4000      8.1062      2.6644      0.0371     -0.8703     94.4035     19.9192
  1762.5000      8.1466      2.6594      0.0578     -0.5726     94.0199     19.4478
  1762.6000      8.1466      2.6480      0.0315      0.1228     90.7138     19.0895
  1762.7000      8.1466      2.6239      0.0197      1.5790     88.5928     18.7225
  1762.8000      8.1517      2.5916     -0.0133      3.5389     89.1300     18.1147
  1762.9000      8.1517      2.5644      0.0090      5.1882     86.3860     17.5574
  1763.0000      8.1365      2.5507     -0.0052      6.0210     79.9956     17.3730
  1763.1000      8.1365      2.5531     -0.0002      5.8724     76.6542     17.4682
  1763.2000      8.1365      2.5590      0.0245      5.5166     76.7477     17.7424
  1763.3000      8.1524      2.5533      0.0319      5.8633     77.2805     18.2623
  1763.4000      8.1524      2.5366      0.0170      6.8757     79.3127     18.8420
  1763.5000      8.1568      2.5139     -0.0186      8.2466     83.5101     19.1073
  1763.6000      8.1568      2.4929     -0.0056      9.5239     87.8379     18.9368
  1763.7000      8.1568      2.4837     -0.0076     10.0797     92.0972     18.4891
  1763.8000      8.1409      2.4893     -0.0055      9.7404     96.4101     18.0598
  1763.9000      8.1409      2.5029      0.0161      8.9181     98.0970     18.0938
  1764.0000      8.1237      2.5259      0.0369      7.5212     94.9234     18.7137
  1764.1000      8.1237      2.5596      0.0905      5.4791     87.7530     19.4116
  1764.2000      8.1237      2.5867      0.0855      3.8340     79.9570     19.9868
  1764.3000      8.0163      2.5946      0.1072      3.3590     75.3937     20.8981
  1764.4000      8.0163      2.5840      0.1038      4.0009     77.6274     21.7402
  1764.5000      7.9970      2.5638      0.0763      5.2242     85.1704     21.8103
  1764.6000      7.9970      2.5454      0.0624      6.3414     90.1297     21.6244
  1764.7000      7.9970      2.5320      0.0713      7.1529     88.4435     21.4677
  1764.8000      7.9799      2.5223      0.0587      7.7411     85.1948     20.9616
  1764.9000      7.9799      2.5123      0.0440      8.3480     82.6852     20.3851
  1765.0000      7.9890      2.5001      0.0471      9.0827     79.9566     20.1487
  1765.1000      7.9890      2.4990     -0.0168      9.1532     79.1622     20.1234
  1765.2000      7.9890      2.5184      0.0960      7.9760     79.4998     20.2617
  1765.3000      7.9935      2.5482      0.0943      6.1685     77.5262     20.1604
  1765.4000      7.9935      2.5736      0.1207      4.6290     74.0726     19.3477
  1765.5000      7.9976      2.5831      0.0870      4.0530     72.5229     18.6123
  1765.6000      7.9976      2.5758      0.0884      4.4953     75.5982     18.8273
  1765.7000      7.9976      2.5576      0.1097      5.6027     82.3392     19.7505
  1765.8000      7.9916      2.5346      0.0656      6.9916     87.8270     20.5135
  1765.9000      7.9916      2.5136      0.0717      8.2666     90.2843     20.6913
  1766.0000      7.9941      2.4999      0.0363      9.0996     89.9724     20.6450
  1766.1000      7.9941      2.5016      0.0512      8.9932     86.0518     20.4172
  1766.2000      7.9941      2.5171      0.0460      8.0570     80.8325     19.7253
  1766.3000      7.9962      2.5267      0.0821      7.4712     77.3846     19.1363
  1766.4000      7.9962      2.5212      0.0181      7.8048     78.1918     19.1472
  1766.5000      8.0030      2.5160      0.0492      8.1220     84.7473     19.2562
  1766.6000      8.0030      2.5190      0.1030      7.9418     91.2224     18.9033
  1766.7000      8.0030      2.5256      0.0806      7.5373     91.5130     18.3340
  1766.8000      8.0118      2.5321      0.1057      7.1425     87.6147     17.9494
  1766.9000      8.0118      2.5317      0.0492      7.1671     82.4078     17.7766
  1767.0000      8.0106      2.5335      0.0533      7.0621     74.9991     17.7109
  1767.1000      8.0106      2.5543      0.1158      5.8013     67.8018     17.7594
  1767.2000      8.0106      2.5823      0.1463      4.1046     65.5875     17.7339
  1767.3000      7.9929      2.5918      0.1135      3.5274     67.7854     17.5727
  1767.4000      7.9929      2.5805      0.0935      4.2146     72.1703     17.7750
  1767.5000      7.9859      2.5608      0.0983      5.4087     79.2007     18.4701
  1767.6000      7.9859      2.5385      0.1032      6.7572     87.5119     19.0330
  1767.7000      7.9859      2.5117      0.0904      8.3793     93.2983     18.9695
  1767.8000      7.9953      2.4821      0.0352     10.1768     96.2631     18.4763
  1767.9000      7.9953      2.4649     -0.0205     11.2201     98.4410     18.0347
  1768.0000      7.9958      2.4731      0.0319     10.7205     97.6705     17.8533
  1768.1000      7.9958      2.4930      0.0269      9.5172     93.6159     18.0421
  1768.2000      7.9958      2.5034      0.0487      8.8831     92.3758     18.7768
  1768.3000      7.9942      2.5026      0.0435      8.9329     95.3303     19.8140
  1768.4000      7.9942      2.5070      0.0413      8.6643     95.8994     20.6500
  1768.5000      8.0024      2.5295      0.0628      7.3033     88.2294     21.2715
  1768.6000      8.0024      2.5605      0.0837      5.4244     77.3864     21.4145
  1768.7000      8.0024      2.5691      0.1335      4.9060     71.5597     20.6154
  1768.8000      7.9969      2.5372      0.0534      6.8392     69.7522     19.5728
  1768.9000      7.9969      2.4869      0.0217      9.8826     67.0396     18.8992
  1769.0000      7.9922      2.4516     -0.0550     12.0265     64.5137     18.2744
  1769.1000      7.9922      2.4470      0.0098     12.3045     64.4196     17.6960
  1769.2000      7.9922      2.4563      0.0297     11.7406     62.4151     17.4412
  1769.3000      7.9994      2.4498      0.0601     12.1345     55.7464     17.4594
  1769.4000      7.9994      2.4277      0.0252     13.4723     49.3534     17.5405
  1769.5000      7.9781      2.4090      0.0359     14.6064     48.0658     17.6411
  1769.6000      7.9781      2.3978      0.0030     15.2866     51.1421     17.9098
  1769.7000      7.9781      2.3865      0.0381     15.9716     53.1662     18.2493
  1769.8000      7.9151      2.3792      0.0149     16.4114     51.2685     18.3740
  1769.9000      7.9151      2.3922      0.0533     15.6257     50.2777     18.2571
  1770.0000      7.8965      2.4226      0.1168     13.7839     53.4665     17.8115
  1770.1000      7.8965      2.4426      0.1121     12.5727     58.1121     17.0116
  1770.2000      7.8965      2.4296      0.1165     13.3563     61.5941     16.3716
  1770.3000      7.8709      2.3895      0.0935     15.7869     62.5233     16.3624
  1770.4000      7.8709      2.3518      0.0683     18.0754     59.7992     16.8328
  1770.5000      7.8348      2.3397      0.1014     18.8054     55.2596     17.3011
  1770.6000      7.8348      2.3580      0.1331     17.6952     51.8800     17.3891
  1770.7000      7.8348      2.4089      0.1561     14.6129     50.8528     17.0301
  1770.8000      7.5801      2.4884      0.1966      9.7911     51.9325     16.5504
  1770.9000      7.5801      2.5720      0.2983      4.7283     53.9806     16.3839
  1771.0000      7.5300      2.6287      0.3176      1.2882     55.8518     16.5859
  1771.1000      7.5300      2.6511      0.3004     -0.0638     57.4884     16.4534
