~Version Information
VERS.                      2.0: CWLS Log ASCII Standard - VERSION 2.0
WRAP.                       NO: One line per depth step
~Well Information Block
STRT.FT                 0.0000: 
STOP.FT              1238.2500: 
STEP.FT                 0.2500: 
NULL.                -999.2500: 
COMP.          Pioneer Natural Resources: COMPANY
WELL.                 Ray 34-6: WELL
FLD.           Purgatoire River: FIELD
LOC.           684' FSL & 2254' FEL: LOCATION
CNTY.               Las Animas: COUNTY
SRVC.                         : SERVICE COMPANY
DATE.          Fri Jun 23 09:23:24 2006: LOG DATE
UWI.           05 071 08695 00: UNIQUE WELL ID
STAT.                       CO: STATE
~Curve Information Block
DEPT.FT            0 000 00 00: Depth
GR.GAPI                       : Gamma Ray
CCL.                          : Casing Collar Locator
TT3.usec                      : CBL 3' Travel Time
AMP3.mV                       : CBL 3' Amplitude
~Parameter Information Block
~A  Depth        GR         CCL         TT3         AMP3    
# ...
   234.5000     93.9870      0.0000    446.7671     11.1023
   234.7500     94.3068      0.0000    435.3496     11.0323
   235.0000     93.5025      0.0000    441.6307     10.9159
   235.2500     91.4743      0.0000    460.5547     10.7728
   235.5000     88.8199      0.0000    485.5537     10.6074
   235.7500     86.2168      0.0000    512.0427     10.4521
   236.0000     84.0669      0.0000    537.8416     10.3594
   236.2500     82.5735      0.0000    562.1224     10.3353
   236.5000     81.9927      0.0000    583.9203     10.3304
   236.7500     82.7355      1.8350    600.7649     10.2998
   237.0000     85.0312      2.0000    607.9554     10.2339
   237.2500     88.2223      0.0000    598.9152     10.1509
   237.5000     90.5342      0.0000    568.6495     10.0960
   237.7500     90.1640      0.0000    520.1687     10.1295
   238.0000     86.9170      0.0000    466.5055     10.2724
   238.2500     82.5690      0.0000    422.7541     10.4794
   238.5000     79.4850      0.0000    395.8384     10.7014
   238.7500     78.9555      0.0000    383.2814     10.9420
   239.0000     80.6211      0.0000    379.6133     11.2086
   239.2500     82.8166      0.0000    380.7923     11.4561
   239.5000     83.3211      0.0000    383.6969     11.6255
   239.7500     80.6235      0.0000    385.0997     11.7061
   240.0000     75.2115      0.0000    382.6831     11.7322
   240.2500     69.4455      0.0000    376.2036     11.7440
   240.5000     65.8932      0.0000    367.2286     11.7658
   240.7500     65.8123      0.0000    357.9878     11.8042
   241.0000     69.0589      0.0000    350.3496     11.8500
   241.2500     74.8524      0.0000    345.2219     11.8924
   241.5000     82.2231      0.0000    342.6133     11.9362
   241.7500     90.0234      0.0000    342.2356     11.9998
   242.0000     97.0889      0.0000    343.9892     12.0917
   242.2500    102.5057      0.0000    347.7736     12.1943
   242.5000    105.6638      0.0000    352.9077     12.2843
   242.7500    106.4456      0.0000    358.1270     12.3657
   243.0000    105.6130      0.0000    362.5047     12.4609
   243.2500    104.5217      0.0000    366.2243     12.5668
   243.5000    104.0357      0.0000    370.1338     12.6425
   243.7500    103.8797      0.0000    374.8584     12.6565
   244.0000    103.1000      0.0000    380.7770     12.6325
   244.2500    100.9449      0.0000    388.3570     12.6225
   244.5000     97.4567      0.0000    397.7165     12.6383
   244.7500     93.5729      0.0000    407.7946     12.6337
   245.0000     90.6076      0.0000    416.4219     12.5643
   245.2500     89.4163      0.0000    421.5473     12.4426
   245.5000     89.9374      0.0000    422.6446     12.3229
   245.7500     91.4381      0.0000    421.2580     12.2439
   246.0000     93.2791      0.0000    420.5447     12.2017
   246.2500     95.6141      0.0000    424.9392     12.1706
   246.5000     99.2068      0.0000    440.2760     12.1390
   246.7500    104.2700      0.0000    471.1579     12.1210
   247.0000    109.5989      0.0000    514.5646     12.1377
   247.2500    113.1482      0.0000    557.1251     12.1894
   247.5000    113.3511      0.0000    583.0275     12.2459
   247.7500    109.7726      0.0000    585.1741     12.2654
   248.0000    103.0751      0.0000    567.7692     12.2226
   248.2500     95.0700      0.0000    541.3044     12.1205
   248.5000     88.4698      0.0000    516.7311     11.9762
   248.7500     85.5675      0.0000    500.0918     11.8049
   249.0000     86.6617      0.0000    491.6052     11.6196
   249.2500     89.9799      0.0000    493.0902     11.4407
   249.5000     93.2152      0.0000    513.2025     11.2930
   249.7500     95.0346      0.0000    558.7589     11.1907
   250.0000     95.3424      0.0000    622.0970     11.1309
   250.2500     94.6963      0.0000    682.8345     11.1010
   250.5000     93.8419      0.0000    722.4761     11.0901
   250.7500     93.5532      0.0000    735.4281     11.0917
   251.0000     94.3958      0.0000    729.3278     11.1055
   251.2500     96.2986      0.0000    719.2147     11.1448
   251.5000     98.3787      0.0000    718.9783     11.2438
   251.7500     99.5247      0.0000    732.3865     11.4393
   252.0000     99.3210      0.0000    751.5618     11.7316
   252.2500     98.3517      0.0000    766.6514     12.0705
   252.5000     97.7071      0.0000    776.3803     12.3958
   252.7500     98.3782      0.0000    787.5045     12.6939
   253.0000    100.9092      0.0000    805.6238     13.0112
   253.2500    105.1262      0.0000    828.5522     13.4157
   253.5000    109.9945      0.0000    848.3081     13.9582
   253.7500    113.9981      0.0000    858.0814     14.6738
   254.0000    115.9351      0.0000    856.7735     15.5959
   254.2500    115.4164      0.0000    848.2021     16.7215
   254.5000    112.8840      0.0000    837.6155     17.9431
   254.7500    109.4688      0.0000    828.7823     19.0529
   255.0000    106.7986      0.0000    822.4701     19.8718
   255.2500    106.5676      0.0000    816.5690     20.3815
   255.5000    109.8245      0.0000    807.3600     20.7157
   255.7500    116.1122      0.0000    791.3009     21.0228
   256.0000    123.1166      0.0000    767.9541     21.3431
   256.2500    127.7727      0.0000    743.0289     21.5944
   256.5000    128.4882      0.0000    726.3156     21.6441
   256.7500    126.3364      0.0000    723.6016     21.4071
   257.0000    123.7300      0.0000    731.6428     20.9152
   257.2500    122.0918      0.0000    742.8619     20.3138
   257.5000    121.2072      0.0000    753.1182     19.7902
   257.7500    120.5474      0.0000    762.8717     19.4906
   258.0000    120.2592      0.0000    772.8185     19.4757
   258.2500    120.4665      0.0000    781.5742     19.7182
   258.5000    120.3946      0.0000    787.6454     20.1205
   258.7500    119.0765      0.0000    791.4459     20.5316
   259.0000    116.7425      0.0000    794.3796     20.7798
   259.2500    114.8372      0.0000    796.9348     20.7538
   259.5000    114.7047      0.0000    798.2294     20.5014
   259.7500    116.7262      0.0000    796.6961     20.2418
   260.0000    120.5003      0.0000    790.5230     20.2470
   260.2500    125.0509      0.0000    777.6129     20.6789
   260.5000    128.9138      0.0000    755.8628     21.5010
   260.7500    130.8922      0.0000    724.3085     22.5008
   261.0000    131.0109      0.0000    684.4213     23.3946
   261.2500    130.3276      0.0000    639.8097     23.9691
   261.5000    129.8205      0.0000    594.5659     24.1881
   261.7500    129.7081      0.0000    552.9902     24.1887
   262.0000    129.6629      0.0000    520.7372     24.1620
   262.2500    129.3934      0.0000    504.5019     24.2210
   262.5000    128.9982      0.0000    509.9836     24.3379
   262.7500    128.8275      0.0000    539.5478     24.3553
   263.0000    128.9693      0.0000    589.4907     24.0577
   263.2500    128.8965      0.0000    648.8019     23.3042
   263.5000    127.7063      0.0000    703.2769     22.1339
   263.7500    124.7159      0.0000    743.0687     20.7393
   264.0000    119.9103      0.0000    766.4814     19.3542
   264.2500    113.9996      0.0000    777.4125     18.1860
   264.5000    108.1190      0.0000    780.9521     17.3937
   264.7500    103.3228      0.0000    780.9660     17.0407
   265.0000    100.1255      0.0000    779.5978     17.0571
   265.2500     98.5048      0.0000    777.6349     17.2933
   265.5000     98.3640      0.0000    775.1272     17.6470
   265.7500     99.7208      0.0000    771.3880     18.1496
   266.0000    102.3940      0.0000    763.7704     18.9275
   266.2500    105.8075      0.0000    747.4693     20.0681
   266.5000    109.1722      0.0000    718.5721     21.5197
   266.7500    111.7990      0.0000    677.9692     23.1234
   267.0000    113.5353      0.0000    631.0752     24.7273
   267.2500    115.1975      0.0000    583.9899     26.2272
   267.5000    118.2878      0.0000    542.4257     27.4941
   267.7500    123.7658      0.0000    514.7362     28.3225
