~Version Information
VERS.                      2.0: CWLS Log ASCII Standard - VERSION 2.0
WRAP.                       NO: One line per depth step
~Well Information Block
STRT.FT                10.0000: 
STOP.FT              1458.0000: 
STEP.FT                 0.1000: 
NULL.                -999.2500: 
COMP.          Pioneer Natural Resources: COMPANY
WELL.            Bordeaux 42-2: WELL
FLD.           Purgatorie River: FIELD
LOC.           1963' FNL & 1148' FEL: LOCATION
PROV.                 Colorado: PROVINCE
CNTY.               Las Animas: COUNTRY
SRVC.                Patterson: SERVICE COMPANY
DATE.          Tue Nov 29 07:11:03 2005: LOG DATE
UWI.                          : UNIQUE WELL ID
~Curve Information Block
DEPT.FT            0 000 00 00: Depth
DCAL.in                       : CDL Caliper
RHOB.g/cc                     : CDL Bulk Density
RHOC.g/cc                     : CDL Density Correction
DPOR.pu                       : CDL Density Porosity
GR.GAPI                       : Gamma Ray
NPOR.pu                       : Neutron Porosity
~Parameter Information Block
~A  Depth       DCAL        RHOB        RHOC        DPOR         GR         NPOR    
# ...
   682.0000      8.0060      2.1629      0.1707     29.5219    153.8402     23.1752
   682.1000      8.0060      2.1547      0.1803     30.0184    154.8228     22.9877
   682.2000      8.0060      2.1808      0.1824     28.4344    156.8562     23.1370
   682.3000      8.0298      2.2405      0.2100     24.8191    156.3576     23.8065
   682.4000      8.0298      2.3130      0.3161     20.4240    153.7138     24.6532
   682.5000      8.0570      2.3668      0.2983     17.1617    151.1624     25.3047
   682.6000      8.0570      2.3975      0.2319     15.3005    150.3865     25.9679
   682.7000      8.0570      2.4275      0.2189     13.4842    150.3835     26.7840
   682.8000      8.0657      2.4661      0.2727     11.1450    148.2367     27.4781
   682.9000      8.0657      2.5020      0.1988      8.9687    142.9781     27.9137
   683.0000      8.0357      2.5270      0.1299      7.4565    138.0373     28.1100
   683.1000      8.0357      2.5347      0.1617      6.9895    137.7077     28.0936
   683.2000      8.0357      2.5202      0.1197      7.8687    142.1988     28.0812
   683.3000      7.9953      2.4962      0.0867      9.3233    146.8441     28.0723
   683.4000      7.9953      2.4813      0.0796     10.2238    148.0797     27.8700
   683.5000      7.9545      2.4903      0.0303      9.6780    147.6817     27.6832
   683.6000      7.9545      2.5332      0.1039      7.0815    147.2178     27.8443
   683.7000      7.9545      2.6061      0.0648      2.6627    144.7462     28.3089
   683.8000      7.9406      2.6997      0.1133     -3.0113    140.2554     28.7960
   683.9000      7.9406      2.8065      0.1705     -9.4836    135.8792     29.2172
   684.0000      7.9379      2.9258      0.2040    -16.7132    130.0922     29.8039
   684.1000      7.9379      3.0572      0.2412    -24.6774    122.2048     30.7128
   684.2000      7.9379      3.1883      0.3033    -32.6243    115.8748     31.7843
   684.3000      7.9181      3.2985      0.2913    -39.3011    112.9636     32.6379
   684.4000      7.9181      3.3757      0.2460    -43.9792    111.2887     32.8541
   684.5000      7.8967      3.4216      0.2147    -46.7617    108.6890     32.4706
   684.6000      7.8967      3.4346      0.1436    -47.5509    105.6182     32.2597
   684.7000      7.8967      3.4027      0.0969    -45.6191    102.5953     32.4321
   684.8000      7.8893      3.3258      0.0204    -40.9580     99.3812     32.1343
   684.9000      7.8893      3.2255     -0.0313    -34.8769     97.8286     30.8647
   685.0000      7.9286      3.1113     -0.0396    -27.9580     99.7161     29.0372
   685.1000      7.9286      2.9659     -0.0810    -19.1473    103.4256     27.2072
   685.2000      7.9286      2.7943     -0.2146     -8.7448    106.0256     25.4532
   685.3000      7.9452      2.6377     -0.1989      0.7446    109.3048     23.7004
   685.4000      7.9452      2.5180     -0.2603      8.0016    116.9443     21.8667
   685.5000      7.9585      2.4242     -0.1439     13.6876    126.9214     20.0554
   685.6000      7.9585      2.3346     -0.0645     19.1124    135.6404     18.8133
   685.7000      7.9585      2.2483     -0.0609     24.3475    141.9205     18.3785
   685.8000      7.9963      2.1841      0.0633     28.2376    145.3190     18.4386
   685.9000      7.9963      2.1553      0.0938     29.9817    146.6498     18.8710
   686.0000      7.9623      2.1629      0.1100     29.5229    147.6087     19.8592
   686.1000      7.9623      2.1900      0.1194     27.8769    148.0157     21.2430
   686.2000      7.9623      2.2212      0.1081     25.9861    147.2672     22.5133
   686.3000      7.9598      2.2670      0.1202     23.2100    147.9310     23.4640
   686.4000      7.9598      2.3376      0.2184     18.9305    151.9046     24.1188
   686.5000      7.9518      2.4127      0.2710     14.3798    156.1358     24.3613
   686.6000      7.9518      2.4722      0.2350     10.7737    157.6393     24.2591
   686.7000      7.9518      2.5087      0.3089      8.5613    156.9686     23.9954
   686.8000      7.9484      2.5011      0.2866      9.0229    157.3065     23.6147
   686.9000      7.9484      2.4409      0.0920     12.6730    159.1313     23.1894
   687.0000      7.9468      2.3520      0.1289     18.0576    159.5434     22.7801
   687.1000      7.9468      2.2621      0.0443     23.5077    158.6672     22.3279
   687.2000      7.9468      2.1933      0.0383     27.6766    156.1257     21.9475
   687.3000      7.9538      2.1545      0.0271     30.0322    150.9998     21.8910
   687.4000      7.9538      2.1483     -0.0055     30.4032    147.3091     22.1543
   687.5000      7.9621      2.1752      0.0836     28.7786    147.8329     22.5384
   687.6000      7.9621      2.2188      0.1144     26.1325    149.4130     23.0982
   687.7000      7.9621      2.2638      0.1344     23.4076    150.5805     24.1614
   687.8000      7.9643      2.3104      0.1729     20.5845    153.9322     25.5269
   687.9000      7.9643      2.3628      0.1996     17.4089    157.9710     26.5365
   688.0000      7.9581      2.4148      0.1955     14.2526    159.5795     27.0925
   688.1000      7.9581      2.4599      0.1046     11.5242    158.7896     27.5519
   688.2000      7.9581      2.4989      0.1271      9.1570    156.9792     27.9531
   688.3000      7.9528      2.5222      0.1388      7.7483    155.1026     28.2643
   688.4000      7.9528      2.5167      0.0646      8.0767    153.3772     28.5417
   688.5000      7.9351      2.4945      0.0171      9.4235    151.9091     28.6055
   688.6000      7.9351      2.4818     -0.0213     10.1929    151.0084     28.4296
   688.7000      7.9351      2.4878     -0.0053      9.8308    149.9837     28.2163
   688.8000      7.9333      2.4997      0.0235      9.1068    146.8886     28.1178
   688.9000      7.9333      2.5012      0.0588      9.0188    143.6156     28.0193
   689.0000      7.9322      2.4888      0.0022      9.7687    144.2997     27.6953
   689.1000      7.9322      2.4804      0.0008     10.2818    147.2404     27.3140
   689.2000      7.9322      2.4951     -0.0261      9.3904    148.6105     27.1474
   689.3000      7.9438      2.5265      0.0093      7.4850    149.1079     26.9038
   689.4000      7.9438      2.5473      0.0481      6.2254    152.1657     26.1710
   689.5000      7.9371      2.5451      0.0334      6.3590    157.0726     25.1756
   689.6000      7.9371      2.5328      0.0277      7.1057    159.1765     24.4789
   689.7000      7.9371      2.5221      0.0263      7.7532    157.4537     24.2750
   689.8000      7.9486      2.5131      0.0206      8.2967    153.8839     24.3649
   689.9000      7.9486      2.5021      0.0198      8.9635    151.2190     24.4705
   690.0000      7.9478      2.4811      0.0368     10.2360    151.9794     24.3369
   690.1000      7.9478      2.4477      0.0169     12.2608    153.2050     23.8710
   690.2000      7.9478      2.4127     -0.0080     14.3809    151.4951     23.2707
   690.3000      7.9584      2.3880     -0.0286     15.8759    149.2903     22.8848
   690.4000      7.9584      2.3795      0.0198     16.3969    149.1694     22.7717
   690.5000      7.9567      2.3808      0.0337     16.3158    149.0902     22.5853
   690.6000      7.9567      2.3770      0.0352     16.5430    147.4982     22.2352
   690.7000      7.9567      2.3565      0.0263     17.7902    145.7524     21.9606
   690.8000      7.9540      2.3183      0.0056     20.1050    145.6959     21.8130
   690.9000      7.9540      2.2659      0.0348     23.2802    147.7758     21.7462
   691.0000      7.9922      2.1975      0.0255     27.4267    149.4350     21.6125
   691.1000      7.9922      2.1196     -0.0351     32.1445    148.3275     21.2513
   691.2000      7.9922      2.0508     -0.0897     36.3159    146.3989     20.7126
   691.3000      7.9658      2.0006     -0.0638     39.3606    146.7250     20.1593
   691.4000      7.9658      1.9689     -0.0768     41.2795    147.9348     19.9304
   691.5000      7.9567      1.9620     -0.0595     41.6968    146.3431     20.3112
