~Version Information
VERS.                      2.0: CWLS Log ASCII Standard - VERSION 2.0
WRAP.                       NO: One line per depth step
~Well Information Block
STRT.FT               650.0000: 
STOP.FT              2053.7000: 
STEP.FT                 0.1000: 
NULL.                -999.2500: 
COMP.          Pioneer Natural Resources: COMPANY
WELL.           Alabaster 11-8: WELL
FLD.           Purgatoire River: FIELD
LOC.           1249' FNL & 215' FWL--: LOCATION
PROV.                 Colorado: PROVINCE
CNTY.               Las Animas: COUNTRY
SRVC.                Patterson: SERVICE COMPANY
DATE.          Thu Jan 19 09:16:54 2006: LOG DATE
UWI.           05 071 08642 00: UNIQUE WELL ID
~Curve Information Block
DEPT.FT            0 000 00 00: Depth
DCAL.in                       : CDL Caliper
RHOB.g/cc                     : CDL Bulk Density
RHOC.g/cc                     : CDL Density Correction
DPOR.pu                       : CDL Density Porosity
NPOR.pu                       : Neutron Porosity
GR.GAPI                       : Gamma Ray
~Parameter Information Block
~A  Depth       DCAL        RHOB        RHOC        DPOR        NPOR         GR     
# ...
  1197.2000      8.0895      2.6477      0.1536      0.1384     19.6469    119.6528
  1197.3000      8.0946      2.6602      0.1458     -0.6192     20.5015    125.0673
  1197.4000      8.0946      2.6767      0.1594     -1.6176     21.0244    127.1729
  1197.5000      8.0932      2.6940      0.1217     -2.6688     21.6878    122.0876
  1197.6000      8.0932      2.6980      0.1284     -2.9108     22.7538    116.5407
  1197.7000      8.0932      2.6887      0.0300     -2.3474     24.1239    114.2203
  1197.8000      8.0922      2.6819      0.0485     -1.9339     25.4288    114.4299
  1197.9000      8.0922      2.6791      0.0668     -1.7625     26.1535    117.2729
  1198.0000      8.0972      2.6651      0.0751     -0.9126     26.3692    120.2550
  1198.1000      8.0972      2.6387      0.0513      0.6869     26.6237    119.4714
  1198.2000      8.0972      2.6144      0.0196      2.1606     26.8267    114.0527
  1198.3000      8.1047      2.6016      0.0179      2.9352     26.6228    108.0137
  1198.4000      8.1047      2.6001      0.0357      3.0247     26.1608    106.2835
  1198.5000      8.1085      2.5995      0.0478      3.0597     25.7269    108.7730
  1198.6000      8.1085      2.5864      0.0397      3.8552     25.4995    115.0102
  1198.7000      8.1085      2.5642     -0.0027      5.1988     25.5404    124.3019
  1198.8000      8.1071      2.5519     -0.0233      5.9466     25.6938    131.8453
  1198.9000      8.1071      2.5574      0.0248      5.6102     25.8093    135.2757
  1199.0000      8.1057      2.5725      0.0386      4.6977     25.9243    136.6822
  1199.1000      8.1057      2.5876      0.0974      3.7826     26.1111    138.9575
  1199.2000      8.1057      2.5940      0.0994      3.3967     26.1749    142.9784
  1199.3000      8.1060      2.5891      0.0449      3.6908     25.9527    145.8985
  1199.4000      8.1060      2.5759      0.0722      4.4912     25.6813    144.1628
  1199.5000      8.1044      2.5508      0.0467      6.0136     25.6334    140.3311
  1199.6000      8.1044      2.5171      0.0112      8.0568     25.6739    140.6836
  1199.7000      8.1044      2.4902     -0.0062      9.6864     25.4164    143.8407
  1199.8000      8.1029      2.4754      0.0111     10.5810     24.7906    144.2086
  1199.9000      8.1029      2.4716      0.0173     10.8105     23.9861    142.0379
  1200.0000      8.1029      2.4902     -0.0116      9.6824     23.2191    139.7708
  1200.1000      8.1029      2.5316      0.0690      7.1757     22.5923    136.7134
  1200.2000      8.1029      2.5661      0.1017      5.0878     22.0514    132.3896
  1200.3000      8.1007      2.5793      0.0582      4.2835     21.8115    130.1736
  1200.4000      8.1007      2.5865      0.1057      3.8514     22.0849    130.7197
  1200.5000      8.0979      2.5958      0.1099      3.2865     22.3941    133.4306
  1200.6000      8.0979      2.6057      0.1036      2.6858     22.1469    138.7594
  1200.7000      8.0979      2.6093      0.1048      2.4686     21.5050    143.9513
  1200.8000      8.0975      2.6033      0.0872      2.8279     21.0234    146.5374
  1200.9000      8.0975      2.5986      0.0471      3.1123     21.2648    147.8791
  1201.0000      8.0977      2.5982      0.0687      3.1418     22.0950    148.1569
  1201.1000      8.0977      2.5921      0.0742      3.5085     22.8987    143.4696
  1201.2000      8.0977      2.5828      0.0164      4.0714     23.3160    134.2715
  1201.3000      8.0982      2.5816      0.0458      4.1460     23.2567    127.2223
  1201.4000      8.0982      2.5819      0.0671      4.1246     23.1764    126.7635
  1201.5000      8.1014      2.5735      0.0135      4.6371     23.5003    131.1317
  1201.6000      8.1014      2.5665     -0.0037      5.0613     23.9735    133.8029
  1201.7000      8.1014      2.5739      0.0173      4.6148     24.3307    132.1209
  1201.8000      8.1068      2.5884      0.0135      3.7339     24.6902    131.6895
  1201.9000      8.1068      2.5959      0.0399      3.2793     25.0460    135.7632
  1202.0000      8.1093      2.5944      0.0239      3.3692     25.0978    141.1443
  1202.1000      8.1093      2.5922      0.0248      3.5026     24.9318    145.2736
  1202.2000      8.1093      2.5936      0.0308      3.4205     24.9098    145.9014
  1202.3000      8.1088      2.5962      0.0588      3.2625     24.9145    144.0070
  1202.4000      8.1088      2.5962      0.0604      3.2614     24.5458    143.9383
  1202.5000      8.1068      2.5891      0.0733      3.6913     23.9000    142.7722
  1202.6000      8.1068      2.5749      0.0592      4.5526     23.5443    136.0070
  1202.7000      8.1068      2.5595      0.0344      5.4845     23.5210    127.8858
  1202.8000      8.1032      2.5442      0.0389      6.4101     23.3635    123.1047
  1202.9000      8.1032      2.5290      0.0344      7.3329     22.9980    121.7027
  1203.0000      8.1016      2.5274     -0.0179      7.4317     22.6390    123.7595
  1203.1000      8.1016      2.5468      0.0279      6.2556     22.2013    129.0671
  1203.2000      8.1016      2.5590      0.0932      5.5151     21.5042    133.6842
  1203.3000      8.1044      2.5372      0.0267      6.8368     20.8257    134.4972
  1203.4000      8.1044      2.5008      0.0368      9.0454     20.6757    133.0458
  1203.5000      8.1060      2.4773      0.0615     10.4643     20.7937    131.1576
  1203.6000      8.1060      2.4677      0.0458     11.0469     20.6385    129.7117
  1203.7000      8.1060      2.4640      0.0478     11.2722     20.4708    129.8502
  1203.8000      8.1060      2.4699      0.0134     10.9174     20.6613    131.3836
  1203.9000      8.1060      2.4985      0.0221      9.1799     20.9223    132.2360
  1204.0000      8.1072      2.5430      0.1320      6.4877     21.0045    128.3641
  1204.1000      8.1072      2.5807      0.1004      4.1984     21.0376    119.0127
  1204.2000      8.1072      2.6048      0.1533      2.7424     21.0568    108.0691
  1204.3000      8.1050      2.6147      0.1289      2.1398     20.9754     98.5030
  1204.4000      8.1050      2.6217      0.1252      1.7125     20.9187     91.8097
  1204.5000      8.1005      2.6369      0.1421      0.7953     20.9392     87.6656
  1204.6000      8.1005      2.6534      0.1249     -0.2039     20.9499     83.4591
  1204.7000      8.1005      2.6666      0.0841     -1.0072     21.1414     78.9266
  1204.8000      8.1007      2.6786      0.0662     -1.7324     21.6246     77.1969
  1204.9000      8.1007      2.6847      0.1013     -2.1029     22.1076     78.5694
  1205.0000      8.1052      2.6787      0.0185     -1.7375     22.4006     81.0924
  1205.1000      8.1052      2.6649      0.0883     -0.9039     22.6921     82.4932
  1205.2000      8.1052      2.6495      0.0565      0.0330     23.1653     80.4920
  1205.3000      8.1085      2.6311      0.0876      1.1442     23.6063     77.9657
  1205.4000      8.1085      2.6126      0.0352      2.2654     23.7067     80.1945
  1205.5000      8.1084      2.6050      0.0560      2.7244     23.5643     86.3405
  1205.6000      8.1084      2.6079      0.0671      2.5502     23.3171     91.1656
  1205.7000      8.1084      2.6029      0.0640      2.8517     23.1743     92.7599
  1205.8000      8.1082      2.5825      0.0220      4.0919     23.1892     93.6642
  1205.9000      8.1082      2.5602      0.0096      5.4448     22.9982     96.7843
  1206.0000      8.1099      2.5456      0.0345      6.3276     22.6980    101.6549
  1206.1000      8.1099      2.5417     -0.0143      6.5618     22.5608    106.3519
  1206.2000      8.1099      2.5516     -0.0091      5.9625     22.4773    110.7182
  1206.3000      8.1090      2.5681      0.0317      4.9608     22.3354    113.3626
  1206.4000      8.1090      2.5785      0.0453      4.3363     22.2291    111.4144
  1206.5000      8.1073      2.5706      0.0878      4.8138     22.1214    108.0591
  1206.6000      8.1073      2.5427      0.0397      6.5036     22.0551    109.6036
  1206.7000      8.1073      2.5167     -0.0263      8.0762     22.4061    115.2886
