~Version Information
VERS.                      2.0: CWLS Log ASCII Standard - VERSION 2.0
WRAP.                       NO: One line per depth step
~Well Information Block
STRT.FT                -1.5000: 
STOP.FT              2898.5000: 
STEP.FT                 0.2500: 
NULL.                -999.2500: 
COMP.          Pioneer Natural Resources: COMPANY
WELL.          Hanginstone 21-27: WELL
FLD.           Purgatoire River: FIELD
LOC.           1186' FNL & 1606' FWL--: LOCATION
PROV.                 Colorado: PROVINCE
CNTY.               Las Animas: COUNTRY
SRVC.                Patterson: SERVICE COMPANY
DATE.          Mon Jan 23 11:03:53 2006: LOG DATE
UWI.           05 071 08632 00: UNIQUE WELL ID
~Curve Information Block
DEPT.FT            0 000 00 00: Depth
CCL.                          : Casing Collar Locator
TT3.usec                      : CBL 3' Travel Time
AMP3.mV                       : CBL 3' Amplitude
GR.GAPI                       : Gamma Ray
~Parameter Information Block
~A  Depth       CCL         TT3         AMP3         GR     
# ...
  2310.0000      0.0000    727.5693      5.9779    112.8924
  2310.2500      0.0000    736.6816      6.0807    118.7100
  2310.5000      0.0000    742.0511      6.1748    126.3951
  2310.7500      0.0000    740.5498      6.2495    134.5142
  2311.0000      0.0000    732.3555      6.3040    141.9898
  2311.2500      0.0000    720.0494      6.3523    148.1517
  2311.5000      0.0000    706.4440      6.4043    152.5723
  2311.7500      0.0000    693.5295      6.4474    154.9678
  2312.0000      0.0000    682.6063      6.4531    155.4456
  2312.2500      0.0000    673.8115      6.4058    154.8773
  2312.5000      0.0000    665.0339      6.3177    154.8868
  2312.7500      0.0000    653.0115      6.2120    156.8944
  2313.0000      0.0000    638.0544      6.1060    160.6972
  2313.2500      0.0000    627.9572      6.0130    164.3204
  2313.5000      0.0000    634.3812      5.9408    165.7834
  2313.7500      0.0000    662.6428      5.8887    164.9083
  2314.0000      0.0000    705.3469      5.8584    163.0303
  2314.2500      0.0000    747.4830      5.8574    161.1022
  2314.5000      0.0000    777.3206      5.8800    158.6022
  2314.7500      0.0000    791.6216      5.9064    154.5295
  2315.0000      0.0000    792.4331      5.9249    148.8817
  2315.2500      0.0000    782.1931      5.9360    142.4177
  2315.5000      0.0000    762.6131      5.9378    135.3365
  2315.7500      0.0000    736.5852      5.9238    127.2354
  2316.0000      0.0000    709.1610      5.8890    118.3563
  2316.2500      0.0000    685.5659      5.8409    110.0164
  2316.5000      0.0000    668.5657      5.8112    103.6138
  2316.7500      0.0000    658.3172      5.8375     99.7644
  2317.0000      0.0000    653.8553      5.9144     98.4606
  2317.2500      0.0000    653.4299      5.9892     99.2411
  2317.5000      0.0000    654.2982      6.0214    100.7983
  2317.7500      0.0000    654.1146      6.0173    101.2927
  2318.0000      0.0000    652.6975      6.0016    100.0143
  2318.2500      0.0000    651.7879      5.9926     98.5004
  2318.5000      0.0000    653.3113      6.0045     99.1772
  2318.7500      0.0000    658.1625      6.0438    102.5641
  2319.0000      0.0000    665.7652      6.1041    106.0179
  2319.2500      0.0000    673.8317      6.1758    105.5925
  2319.5000      0.0000    679.0849      6.2484     99.4742
  2319.7500      0.0000    679.4471      6.3044     89.7110
  2320.0000      0.0000    675.6426      6.3336     80.4310
  2320.2500      0.0000    670.3123      6.3504     74.4500
  2320.5000      0.0000    665.7656      6.3756     71.8359
  2320.7500      0.0000    662.8253      6.4145     71.4100
  2321.0000      0.0000    661.3224      6.4593     72.7145
  2321.2500      0.0000    661.0269      6.4966     76.1342
  2321.5000      0.0000    662.1125      6.5101     81.6027
  2321.7500      0.0000    665.1337      6.4897     87.8172
  2322.0000      0.0000    670.6318      6.4376     92.9586
  2322.2500      0.0000    678.4880      6.3652     96.1077
  2322.5000      0.0000    687.5666      6.2946     97.6746
  2322.7500      0.0000    696.1740      6.2497     98.3228
  2323.0000      0.0000    702.9472      6.2298     97.8685
  2323.2500      0.0000    706.9916      6.2055     95.5356
  2323.5000      0.0000    707.0099      6.1505     90.9633
  2323.7500      0.0000    700.7298      6.0632     84.6861
  2324.0000      0.0000    685.9589      5.9529     78.0248
  2324.2500      0.0000    662.9291      5.8300     72.7191
  2324.5000      0.0000    635.6467      5.7103     70.0053
  2324.7500      0.0000    609.9803      5.6107     69.4082
  2325.0000      0.0000    589.2242      5.5420     68.7185
  2325.2500      0.0000    571.8886      5.5125     65.8724
  2325.5000      0.0000    555.1140      5.5207     60.9622
  2325.7500      0.0000    539.4493      5.5426     55.8021
  2326.0000      0.0000    528.7733      5.5494     51.4923
  2326.2500      0.0000    526.2281      5.5412     47.3574
  2326.5000      0.0000    531.0865      5.5397     42.6876
  2326.7500      0.0000    538.6655      5.5572     38.5087
  2327.0000      0.0000    543.3544      5.5928     36.7427
  2327.2500      0.0000    543.4794      5.6369     38.1122
  2327.5000      0.0000    543.6439      5.6648     41.5012
  2327.7500      0.0000    551.1456      5.6511     44.8408
  2328.0000      0.0000    569.3730      5.5985     46.1569
  2328.2500      0.0000    594.6647      5.5245     44.4862
  2328.5000      0.0000    619.6634      5.4236     40.5008
  2328.7500      0.0000    639.7936      5.2819     36.0732
  2329.0000      0.0000    655.8686      5.1261     33.0791
  2329.2500      0.0000    670.1434      5.0159     32.9516
  2329.5000      0.0000    682.1718      4.9834     37.4026
  2329.7500     -2.0000    690.9957      5.0038     48.8728
  2330.0000      2.0000    699.9301      5.0322     69.1750
  2330.2500      2.0000    715.2106      5.0557     96.8494
  2330.5000      0.0000    738.6882      5.1172    125.9864
  2330.7500      0.0000    764.1361      5.2865    148.7402
  2331.0000      0.0000    782.1584      5.5911    160.1297
  2331.2500      0.0000    787.6253      5.9605    160.9113
  2331.5000      0.0000    782.1770      6.2579    155.9973
  2331.7500      0.0000    771.7488      6.3926    150.4593
  2332.0000      0.0000    762.7097      6.3913    146.8764
  2332.2500      0.0000    758.9309      6.3442    145.4190
  2332.5000      0.0000    760.7823      6.3130    145.3922
  2332.7500      0.0000    765.8868      6.3103    146.4990
  2333.0000      0.0000    770.1185      6.3306    148.8226
  2333.2500      0.0000    768.3577      6.3641    151.8985
  2333.5000      0.0000    756.3992      6.3947    154.4727
  2333.7500      0.0000    733.9594      6.4095    155.7499
  2334.0000      0.0000    705.9751      6.4056    156.5093
  2334.2500      0.0000    679.7639      6.3841    158.1980
  2334.5000      0.0000    660.2438      6.3506    161.1076
  2334.7500      0.0000    648.1660      6.3173    164.2906
  2335.0000      0.0000    642.2116      6.2918    166.9339
  2335.2500      0.0000    640.9446      6.2710    168.8360
  2335.5000      0.0000    642.5692      6.2540    169.8407
  2335.7500      0.0000    644.8453      6.2451    169.6371
  2336.0000      0.0000    646.5054      6.2400    167.8074
  2336.2500      0.0000    648.0352      6.2282    163.8741
  2336.5000      0.0000    650.4038      6.2131    157.9690
  2336.7500      0.0000    653.5996      6.2068    151.6962
  2337.0000      0.0000    656.8849      6.2056    147.6695
  2337.2500      0.0000    660.0413      6.1939    147.6679
  2337.5000      0.0000    663.8560      6.1756    151.1564
  2337.7500      0.0000    669.5142      6.1743    155.5398
  2338.0000      0.0000    677.7729      6.1982    157.8875
  2338.2500      0.0000    688.8875      6.2280    156.5876
  2338.5000      0.0000    703.1773      6.2468    151.7010
  2338.7500      0.0000    720.7230      6.2564    144.4108
  2339.0000      0.0000    739.3788      6.2552    136.5815
  2339.2500      0.0000    753.4552      6.2296    130.3439
  2339.5000      0.0000    756.2551      6.1813    127.1345
  2339.7500      0.0000    745.1716      6.1362    126.7146
  2340.0000      0.0000    724.1818      6.1067    127.2863
  2340.2500      0.0000    701.1069      6.0782    126.7634
  2340.5000      0.0000    682.5427      6.0486    123.9865
  2340.7500      0.0000    671.0353      6.0460    118.9197
  2341.0000      0.0000    665.9352      6.0809    112.0570
  2341.2500      0.0000    665.7756      6.1171    103.9308
  2341.5000      0.0000    669.5362      6.1292     95.0781
  2341.7500      0.0000    676.2487      6.1542     86.0314
  2342.0000      0.0000    684.2750      6.2429     77.2334
  2342.2500      0.0000    691.6039      6.3830     69.2837
  2342.5000      0.0000    696.9092      6.5196     63.4598
  2342.7500      0.0000    700.1205      6.6360     61.5663
  2343.0000      0.0000    701.9857      6.7585     64.5159
  2343.2500      0.0000    703.2922      6.8889     70.9431
