~Version Information
VERS.                      2.0: CWLS Log ASCII Standard - VERSION 2.0
WRAP.                       NO: One line per depth step
~Well Information Block
STRT.FT               350.0000: 
STOP.FT              2803.2000: 
STEP.FT                 0.1000: 
NULL.                -999.2500: 
COMP.          Pioneer Natural Resources: COMPANY
WELL.          Grey Goose 33-30: WELL
FLD.           Purgatoire River: FIELD
LOC.           2136' FSL & 2065' FEL--: LOCATION
STAT.                 Colorado: State
CNTY.               Las Animas: COUNTY
CTRY. USA : Country
SECT. 30 : Section
TOWN. 32S : Township
RANG. 67W : Range
SRVC.                Patterson: SERVICE COMPANY
DATE.          Fri Nov 04 09:27:53 2005: LOG DATE
API.           05 071 08546 00: UNIQUE WELL ID
~Curve Information Block
DEPT.FT            0 000 00 00: Depth
DCAL.in                       : CDL Caliper
DPOR.pu                       : CDL Density Porosity
NPOR.pu                       : Neutron Porosity
RHOB.g/cc                     : CDL Bulk Density
RHOC.g/cc                     : CDL Density Correction
GR.GAPI                       : Gamma Ray
~Parameter Information Block
~A  Depth       DCAL        DPOR        NPOR        RHOB        RHOC         GR     
# ...
  1655.6000      8.0622      6.6161     16.4510      2.5408      0.0686     66.5828
  1655.7000      8.0622      5.8695     17.2886      2.5532      0.0921     68.8655
  1655.8000      8.0635      5.4973     18.5499      2.5593      0.0635     71.0890
  1655.9000      8.0635      5.0404     19.4049      2.5668      0.0471     74.0174
  1656.0000      8.0639      4.2155     19.3702      2.5804      0.0910     74.7495
  1656.1000      8.0639      3.9080     18.8402      2.5855      0.0774     73.1298
  1656.2000      8.0639      4.4144     18.7469      2.5772      0.0732     72.9280
  1656.3000      8.0656      4.3452     19.3031      2.5783     -0.0015     73.2885
  1656.4000      8.0656      2.7596     20.0597      2.6045      0.0374     75.7691
  1656.5000      8.0672      0.7257     20.7623      2.6380      0.0505     82.9680
  1656.6000      8.0672     -0.0536     21.1678      2.6509      0.0842     89.7428
  1656.7000      8.0672      1.0270     20.9550      2.6331      0.0748     95.1995
  1656.8000      8.0662      2.5887     20.4746      2.6073      0.0171    103.4037
  1656.9000      8.0662      2.6919     20.4412      2.6056      0.0160    111.8023
  1657.0000      8.0639      1.3293     20.7964      2.6281      0.0625    113.3244
  1657.1000      8.0639     -0.2887     20.8009      2.6548      0.0380    106.9747
  1657.2000      8.0639     -1.3289     20.1959      2.6719      0.1043     99.3597
  1657.3000      8.0645     -1.2534     19.5558      2.6707      0.0642     96.8660
  1657.4000      8.0645     -0.4709     19.1583      2.6578      0.0819    100.2921
  1657.5000      8.0675      0.1046     18.6079      2.6483      0.0602    103.7852
  1657.6000      8.0675      0.4275     17.8948      2.6429      0.0411    104.3988
  1657.7000      8.0675      1.3503     17.5084      2.6277      0.0419    107.0392
  1657.8000      8.0673      3.1799     17.5495      2.5975      0.0157    113.5340
  1657.9000      8.0673      4.8904     17.6837      2.5693     -0.0084    115.5862
  1658.0000      8.0667      5.3939     17.5545      2.5610     -0.0170    109.0760
  1658.1000      8.0667      4.7123     16.9953      2.5722      0.0393    100.6397
  1658.2000      8.0667      3.7326     16.3904      2.5884      0.0354     94.8826
  1658.3000      8.0667      2.9774     16.4384      2.6009      0.0694     94.3418
  1658.4000      8.0667      2.4054     17.0370      2.6103      0.0666     97.7284
  1658.5000      8.0660      2.1630     17.4695      2.6143      0.0566    100.2366
  1658.6000      8.0660      2.6424     17.5518      2.6064      0.0534     99.3235
  1658.7000      8.0660      3.8340     17.5697      2.5867      0.0334     94.8784
  1658.8000      8.0679      4.7860     17.8322      2.5710      0.0220     89.8015
  1658.9000      8.0679      4.9133     17.9936      2.5689      0.0509     85.4391
  1659.0000      8.0722      4.8274     17.6565      2.5703      0.0186     80.2198
  1659.1000      8.0722      4.9068     17.1077      2.5690      0.0407     74.9490
  1659.2000      8.0722      5.0602     16.7230      2.5665      0.0435     73.5623
  1659.3000      8.0772      5.3166     16.4297      2.5623      0.0088     75.0760
  1659.4000      8.0772      5.6461     15.8315      2.5568      0.0097     74.3711
  1659.5000      8.0795      5.6942     15.1385      2.5560      0.0334     72.4534
  1659.6000      8.0795      5.1841     14.9216      2.5645      0.0148     72.6468
  1659.7000      8.0795      4.4239     15.0795      2.5770      0.0408     72.0920
  1659.8000      8.0787      4.0334     15.0438      2.5834      0.0078     69.2543
  1659.9000      8.0787      4.2184     14.5808      2.5804      0.0475     67.7796
  1660.0000      8.0801      4.4502     13.8996      2.5766      0.0243     69.2110
  1660.1000      8.0801      4.1998     13.2669      2.5807      0.0499     71.7299
  1660.2000      8.0801      3.4708     13.0241      2.5927      0.0238     71.0910
  1660.3000      8.0830      2.3026     13.3516      2.6120      0.0642     64.7526
  1660.4000      8.0830      1.4773     14.1529      2.6256      0.1061     58.5061
  1660.5000      8.0834      1.6625     15.3214      2.6226      0.0401     58.2908
  1660.6000      8.0834      2.1044     16.5631      2.6153      0.0555     60.8986
  1660.7000      8.0834      2.3270     17.1761      2.6116      0.0957     62.3728
  1660.8000      8.0832      2.6465     17.0062      2.6063      0.0406     65.5249
  1660.9000      8.0832      2.9980     16.7454      2.6005      0.0717     71.9704
  1661.0000      8.0837      3.1137     16.7945      2.5986      0.0708     77.7084
  1661.1000      8.0837      3.1765     16.8577      2.5976      0.0722     81.2269
  1661.2000      8.0837      3.4917     16.6831      2.5924      0.0466     85.6882
  1661.3000      8.0850      3.8669     16.5521      2.5862      0.0434     90.4569
  1661.4000      8.0850      3.9308     16.5389      2.5851      0.0449     90.9000
  1661.5000      8.0876      3.7734     16.5850      2.5877      0.0514     86.0275
  1661.6000      8.0876      3.7309     16.9181      2.5884      0.0384     80.2630
  1661.7000      8.0876      3.7560     17.2940      2.5880      0.0547     78.2678
  1661.8000      8.0892      3.5327     17.4987      2.5917      0.0426     80.0240
  1661.9000      8.0892      3.4514     17.6846      2.5931      0.0557     83.5561
  1662.0000      8.0872      4.0953     17.6586      2.5824      0.0228     86.6553
  1662.1000      8.0872      4.7254     17.3072      2.5720      0.0454     85.8574
  1662.2000      8.0872      4.4707     17.2070      2.5762      0.0501     81.0776
  1662.3000      8.0842      3.6835     17.8260      2.5892      0.0268     78.8399
  1662.4000      8.0842      3.1435     18.4243      2.5981      0.0593     80.9617
  1662.5000      8.0846      3.0136     18.4641      2.6003      0.0282     83.6813
  1662.6000      8.0846      2.4718     18.5535      2.6092      0.0507     90.0251
  1662.7000      8.0846      0.9351     18.9874      2.6346      0.0507    100.6840
  1662.8000      8.0875     -0.7547     19.5562      2.6625      0.0789    105.1971
  1662.9000      8.0875     -1.6127     20.5236      2.6766      0.0281     99.0230
  1663.0000      8.0894     -1.9138     21.9653      2.6816      0.1002     92.7190
  1663.1000      8.0894     -2.2502     22.9662      2.6871      0.0832     93.7903
  1663.2000      8.0894     -2.5490     22.9382      2.6921      0.0830     97.0137
  1663.3000      8.0913     -2.5072     22.5610      2.6914      0.0193     98.8171
  1663.4000      8.0913     -2.2714     22.7183      2.6875      0.0394    102.9567
  1663.5000      8.0965     -2.1293     23.3526      2.6851      0.0445    108.8194
  1663.6000      8.0965     -2.2711     23.8124      2.6875      0.0676    113.2726
  1663.7000      8.0965     -2.4291     24.1975      2.6901      0.0563    120.4117
  1663.8000      8.1087     -1.8947     25.0108      2.6813      0.0501    132.4866
  1663.9000      8.1087     -0.1612     25.7308      2.6527      0.0437    138.7428
  1664.0000      8.1247      2.5247     25.7602      2.6083      0.0072    134.5581
  1664.1000      8.1247      5.0512     25.6253      2.5667     -0.0328    132.2301
  1664.2000      8.1247      5.9831     25.6917      2.5513     -0.0436    135.8593
  1664.3000      8.1388      5.0150     25.6515      2.5673      0.0329    141.8952
  1664.4000      8.1388      3.6188     25.4568      2.5903      0.0698    150.7318
  1664.5000      8.1473      3.0019     25.5022      2.6005      0.0457    158.3961
  1664.6000      8.1473      2.6776     25.8904      2.6058      0.0614    161.0858
  1664.7000      8.1473      2.1697     26.1916      2.6142      0.0629    160.4492
  1664.8000      8.1548      2.1071     26.2364      2.6152      0.0848    158.5906
  1664.9000      8.1548      2.8483     26.0871      2.6030      0.0806    154.1575
  1665.0000      8.1618      3.7426     25.7545      2.5882      0.0563    148.2033
  1665.1000      8.1618      4.0793     25.4527      2.5827      0.0286    147.7028
