~Version Information
VERS.                      2.0: CWLS Log ASCII Standard - VERSION 2.0
WRAP.                       NO: One line per depth step
~Well Information Block
STRT.FT               619.7000: 
STOP.FT               951.7000: 
STEP.FT                 0.1000: 
NULL.                -999.2500: 
COMP.          Pioneer Natural Resources: COMPANY
WELL.          Screamin 12-29 Tr: WELL
FLD.           Purgatoire River: FIELD
LOC.           1979' FNL & 532' FWL--: LOCATION
CNTY.               Las Animas: COUNTY
SRVC.                Patterson: SERVICE COMPANY
DATE.          Fri Mar 31 15:43:57 2006: LOG DATE
UWI.           05 071 08660 00: UNIQUE WELL ID
STAT.                 Colorado: STATE
~Curve Information Block
DEPT.FT            0 000 00 00: Depth
DCAL.in                       : CDL Caliper
RHOB.g/cc                     : CDL Bulk Density
RHOC.g/cc                     : CDL Density Correction
DPOR.pu                       : CDL Density Porosity
GR.GAPI                       : Gamma Ray
~Parameter Information Block
~A  Depth       DCAL        RHOB        RHOC        DPOR         GR     
# ...
   821.3000      8.0115      2.4943      0.0349      9.4363    125.2605
   821.4000      8.0115      2.4991      0.0701      9.1425    121.2452
   821.5000      8.0014      2.5131      0.0392      8.2975    115.0655
   821.6000      8.0014      2.5480      0.0824      6.1834    112.5045
   821.7000      8.0014      2.5919      0.1075      3.5218    112.9935
   821.8000      7.9709      2.6175      0.1157      1.9684    113.2625
   821.9000      7.9709      2.6094      0.0706      2.4620    113.5416
   822.0000      7.9575      2.5726      0.0690      4.6914    115.3083
   822.1000      7.9575      2.5378     -0.0136      6.7992    118.2175
   822.2000      7.9575      2.5316      0.0452      7.1768    122.7103
   822.3000      7.9658      2.5375      0.0754      6.8197    127.1103
   822.4000      7.9658      2.5288      0.0494      7.3462    125.4834
   822.5000      7.9722      2.5032      0.0050      8.8980    119.4208
   822.6000      7.9722      2.4773     -0.0161     10.4677    115.4443
   822.7000      7.9722      2.4686      0.0276     10.9942    114.2755
   822.8000      7.9653      2.4809     -0.0192     10.2512    114.3127
   822.9000      7.9653      2.5021      0.0170      8.9610    114.5220
   823.0000      7.9524      2.5134      0.0285      8.2767    112.2702
   823.1000      7.9524      2.5074      0.0555      8.6395    108.9226
   823.2000      7.9524      2.4969     -0.0093      9.2766    108.1108
   823.3000      7.9441      2.4993      0.0280      9.1308    106.8987
   823.4000      7.9441      2.5176      0.0289      8.0255    103.6156
   823.5000      7.9389      2.5410      0.0265      6.6076    103.0499
   823.6000      7.9389      2.5512      0.0754      5.9867    107.3022
   823.7000      7.9389      2.5367      0.0444      6.8662    112.0980
   823.8000      7.9317      2.5005      0.0631      9.0580    114.0686
   823.9000      7.9317      2.4494      0.0204     12.1576    116.5045
   824.0000      7.9247      2.4007     -0.0423     15.1113    120.9748
   824.1000      7.9247      2.3765     -0.0060     16.5730    122.9912
   824.2000      7.9247      2.3701     -0.0030     16.9661    119.8551
   824.3000      7.9257      2.3579     -0.0013     17.7022    114.7190
   824.4000      7.9257      2.3357      0.0207     19.0467    112.0147
   824.5000      7.9304      2.3137     -0.0044     20.3834    112.3039
   824.6000      7.9304      2.3014     -0.0164     21.1293    113.8545
   824.7000      7.9304      2.3048      0.0373     20.9203    119.0887
   824.8000      7.9288      2.3292      0.0691     19.4454    127.3168
   824.9000      7.9288      2.3741      0.1198     16.7183    132.4237
   825.0000      7.9224      2.4215      0.1829     13.8499    133.1577
   825.1000      7.9224      2.4505      0.1543     12.0895    130.9226
   825.2000      7.9224      2.4623      0.1514     11.3729    127.7703
   825.3000      7.9191      2.4711      0.1172     10.8426    125.6691
   825.4000      7.9191      2.4835      0.1846     10.0889    125.2831
   825.5000      7.9195      2.4984      0.1476      9.1877    125.6200
   825.6000      7.9195      2.5163      0.1629      8.1053    126.6332
   825.7000      7.9195      2.5301      0.1391      7.2683    129.3864
   825.8000      7.9233      2.5252      0.1716      7.5608    131.7070
   825.9000      7.9233      2.4988      0.1054      9.1653    130.8226
   826.0000      7.9338      2.4645      0.0593     11.2429    126.9984
   826.1000      7.9338      2.4323      0.0814     13.1936    124.6371
   826.2000      7.9338      2.4059      0.0491     14.7913    126.5655
   826.3000      7.9465      2.3929      0.0893     15.5802    129.8536
   826.4000      7.9465      2.3952      0.0621     15.4400    131.2384
   826.5000      7.9587      2.4091      0.0501     14.6028    130.2729
   826.6000      7.9587      2.4316      0.0704     13.2341    126.9178
   826.7000      7.9587      2.4651      0.0733     11.2046    122.5459
   826.8000      7.9692      2.5057      0.1242      8.7455    121.7448
   826.9000      7.9692      2.5344      0.1550      7.0039    126.0641
   827.0000      7.9816      2.5372      0.1836      6.8333    130.0680
   827.1000      7.9816      2.5234      0.1601      7.6744    129.0306
   827.2000      7.9816      2.5201      0.1394      7.8752    125.6338
   827.3000      7.9915      2.5345      0.2104      7.0009    123.4040
   827.4000      7.9915      2.5342      0.2014      7.0170    122.1960
   827.5000      7.9863      2.5039      0.0908      8.8525    123.9410
   827.6000      7.9863      2.4764      0.0777     10.5194    129.0778
   827.7000      7.9863      2.4783      0.0615     10.4067    133.6561
   827.8000      7.9793      2.4976      0.0492      9.2342    137.4064
   827.9000      7.9793      2.5054      0.1083      8.7610    142.4798
   828.0000      7.9827      2.4891      0.0457      9.7542    147.1450
   828.1000      7.9827      2.4586      0.1081     11.5999    147.9679
   828.2000      7.9827      2.4167      0.0856     14.1423    143.6686
   828.3000      7.9883      2.3645      0.0565     17.3022    137.3834
   828.4000      7.9883      2.3232      0.0184     19.8083    131.8881
   828.5000      7.9949      2.3159      0.0613     20.2472    127.5880
   828.6000      7.9949      2.3357      0.1087     19.0505    125.4029
   828.7000      7.9949      2.3471      0.1170     18.3582    125.2790
   828.8000      7.9986      2.3322      0.0541     19.2622    126.5856
   828.9000      7.9986      2.3139      0.0102     20.3700    129.5862
   829.0000      7.9947      2.3162      0.0808     20.2280    132.6847
   829.1000      7.9947      2.3327      0.0829     19.2303    132.4889
   829.2000      7.9947      2.3480      0.1132     18.3012    129.8071
   829.3000      7.9803      2.3532      0.1201     17.9851    126.1253
   829.4000      7.9803      2.3486      0.0889     18.2637    119.9082
   829.5000      7.9700      2.3409      0.0891     18.7360    112.9780
   829.6000      7.9700      2.3290      0.0850     19.4560    109.1247
   829.7000      7.9700      2.3097      0.0742     20.6222    109.7316
   829.8000      7.9701      2.2897      0.0529     21.8391    114.2136
   829.9000      7.9701      2.2708      0.0719     22.9839    121.8685
   830.0000      7.9784      2.2429      0.0835     24.6707    130.5946
   830.1000      7.9784      2.2073      0.0342     26.8277    137.2713
   830.2000      7.9784      2.1801      0.0352     28.4802    139.5610
   830.3000      7.9899      2.1692      0.0670     29.1394    138.3140
   830.4000      7.9899      2.1686      0.1082     29.1755    136.6904
   830.5000      7.9925      2.1678      0.1122     29.2246    134.5519
   830.6000      7.9925      2.1635      0.1156     29.4857    131.8011
   830.7000      7.9925      2.1634      0.0930     29.4932    129.0725
   830.8000      7.9900      2.1758      0.1071     28.7389    128.0184
   830.9000      7.9900      2.2009      0.0864     27.2178    129.3781
   831.0000      7.9883      2.2353      0.1061     25.1352    130.7828
   831.1000      7.9883      2.2728      0.1401     22.8588    132.2003
   831.2000      7.9883      2.3014      0.1840     21.1272    136.0486
   831.3000      7.9868      2.3103      0.1403     20.5854    141.9216
   831.4000      7.9868      2.2963      0.0991     21.4369    146.1053
   831.5000      7.9827      2.2506      0.1055     24.2061    145.6244
   831.6000      7.9827      2.1659      0.0290     29.3376    139.5455
   831.7000      7.9827      2.0556      0.0117     36.0240    129.8674
   831.8000      7.9807      1.9414     -0.0654     42.9441    121.3625
   831.9000      7.9807      1.8413     -0.0890     49.0135    115.2396
   832.0000      7.9857      1.7656     -0.0905     53.6025    111.3559
   832.1000      7.9857      1.7182     -0.1364     56.4725    109.7323
   832.2000      7.9857      1.6952     -0.1029     57.8660    107.3591
   832.3000      7.9895      1.6797     -0.0432     58.8039    102.2065
   832.4000      7.9895      1.6580     -0.0359     60.1205     95.2728
