~Version Information
VERS.                      2.0: CWLS Log ASCII Standard - VERSION 2.0
WRAP.                       NO: One line per depth step
~Well Information Block
STRT.FT                -8.7500: 
STOP.FT              1035.7500: 
STEP.FT                 0.2500: 
NULL.                -999.2500: 
COMP.          Pioneer Natural Resources: COMPANY
WELL.                Mac 22-36: WELL
FLD.           Purgatorie River: FIELD
LOC.           2545' FNL & 1398' FWL--: LOCATION
PROV.                       CO: PROVINCE
CNTY.               Las Animas: COUNTRY
SRVC.          Patterson Wireline: SERVICE COMPANY
DATE.          Thu Dec 08 13:20:05 2005: LOG DATE
UWI.           08 071 08594 00: UNIQUE WELL ID
~Curve Information Block
DEPT.FT            0 000 00 00: Depth
CCL.                          : Casing Collar Locator
TT3.usec                      : CBL 3' Travel Time
AMP3.mV                       : CBL 3' Amplitude
GR.GAPI                       : Gamma Ray
~Parameter Information Block
~A  Depth       CCL         TT3         AMP3         GR     
# ...
   929.2500      0.0000    625.7587      6.1776     64.3325
   929.5000      0.0000    632.4522      6.1377     59.4086
   929.7500      0.0000    641.6569      6.0950     54.8209
   930.0000      0.0000    651.5673      6.0564     51.6780
   930.2500      0.0000    661.2592      6.0208     50.8685
   930.5000      0.0000    670.5298      5.9860     52.3831
   930.7500      0.0000    678.7133      5.9525     55.4515
   931.0000      0.0000    684.3889      5.9234     59.0227
   931.2500      0.0000    686.5351      5.8996     62.0849
   931.5000      0.0000    685.7120      5.8790     63.9650
   931.7500      0.0000    683.9553      5.8611     64.6149
   932.0000      0.0000    683.7089      5.8480     64.5874
   932.2500      0.0000    687.1167      5.8415     64.6099
   932.5000      0.0000    696.1544      5.8374     65.2228
   932.7500      0.0000    712.4861      5.8262     66.8207
   933.0000      0.0000    735.8512      5.7980     69.7609
   933.2500      0.0000    762.2982      5.7490     74.0797
   933.5000      0.0000    785.2034      5.6838     79.0279
   933.7500      0.0000    799.0862      5.6129     83.0981
   934.0000      0.0000    802.5379      5.5473     84.7753
   934.2500      0.0000    797.9944      5.4953     83.4309
   934.5000      0.0000    789.6658      5.4624     79.5003
   934.7500      0.0000    781.4410      5.4506     73.8310
   935.0000      0.0000    775.5252      5.4575     67.1465
   935.2500      0.0000    772.2077      5.4747     60.2823
   935.5000      0.0000    770.6760      5.4902     54.5029
   935.7500      0.0000    770.0296      5.4944     51.1448
   936.0000      0.0000    769.7527      5.4848     50.9078
   936.2500      0.0000    769.7290      5.4667     53.5195
   936.5000      0.0000    770.1595      5.4468     57.9664
   936.7500      0.0000    771.5837      5.4290     62.8576
   937.0000      0.0000    774.8522      5.4133     66.6164
   937.2500      0.0000    780.6204      5.4006     67.8895
   937.5000      0.0000    788.2339      5.3967     66.4280
   937.7500      0.0000    794.7903      5.4086     63.5145
   938.0000      0.0000    795.6699      5.4393     61.1182
   938.2500      0.0000    786.9142      5.4863     60.4153
   938.5000      0.0000    767.9930      5.5460     61.0929
   938.7500      0.0000    742.5066      5.6147     62.0954
   939.0000      0.0000    715.7765      5.6867     63.0167
   939.2500      0.0000    691.5267      5.7544     64.5048
   939.5000      0.0000    670.9310      5.8113     67.1816
   939.7500      0.0000    654.1464      5.8542     70.4760
   940.0000      0.0000    641.5453      5.8830     72.9318
   940.2500      0.0000    633.2621      5.9006     73.6910
   940.5000      0.0000    628.4657      5.9099     73.4487
   940.7500      0.0000    625.7010      5.9126     73.8592
   941.0000      0.0000    623.6822      5.9102     76.1436
   941.2500      0.0000    621.7297      5.9040     80.2366
   941.5000      0.0000    620.2286      5.8936     84.8818
   941.7500      0.0000    620.8205      5.8759     88.2682
   942.0000      0.0000    625.3721      5.8483     88.8855
   942.2500      0.0000    634.3167      5.8134     86.1817
   942.5000      0.0000    646.2022      5.7777     80.6648
   942.7500      0.0000    658.6476      5.7485     73.7593
   943.0000      0.0000    669.2113      5.7299     67.7522
   943.2500      0.0000    675.8781      5.7218     65.0239
   943.5000      0.0000    677.9578      5.7211     66.3434
   943.7500      0.0000    676.6533      5.7255     70.1585
   944.0000      0.0000    674.0389      5.7385     74.1739
   944.2500      0.0000    671.6109      5.7695     77.3062
   944.5000      0.0000    670.2624      5.8255     79.7006
   944.7500      0.0000    670.9361      5.8995     81.4675
   945.0000      0.0000    673.9794      5.9686     82.3252
   945.2500      0.0000    677.5349      6.0071     82.3674
   945.5000      0.0000    676.8706      6.0023     82.2723
   945.7500      0.0000    665.5624      5.9614     82.5093
   946.0000      0.0000    638.6404      5.9038     82.9601
   946.2500      0.0000    596.8924      5.8495     83.4727
   946.5000      0.0000    548.8274      5.8138     84.1244
   946.7500      0.0000    506.7931      5.8087     84.6353
   947.0000      0.0000    480.0161      5.8447     84.1692
   947.2500      0.0000    471.7801      5.9268     82.3513
   947.5000      0.0000    482.2557      6.0477     80.2076
   947.7500      0.0000    510.8840      6.1863     79.4263
   948.0000      0.0000    554.1808      6.3155     80.5446
   948.2500      0.0000    603.0942      6.4160     82.1877
   948.5000      0.0000    645.9106      6.4827     82.4589
   948.7500      0.0000    675.0390      6.5223     81.1424
   949.0000      0.0000    690.3451      6.5478     80.2361
   949.2500      0.0000    696.4212      6.5744     82.1450
   949.5000      0.0000    698.0660      6.6138     87.4910
   949.7500      0.0000    698.1601      6.6664     94.7354
   950.0000      0.0000    697.9579      6.7173    101.5851
   950.2500      0.0000    698.0112      6.7439    106.5118
   950.5000      0.0000    698.7124      6.7305    109.0552
   950.7500      0.0000    700.3062      6.6770    109.0454
   951.0000      0.0000    702.3358      6.5958    106.1431
   951.2500      0.0000    702.9786      6.4992    100.6072
   951.5000      0.0000    699.2001      6.3935     94.1596
   951.7500      0.0000    688.6122      6.2858     89.1831
   952.0000      0.0000    672.4256      6.1932     86.7973
   952.2500      0.0000    656.7995      6.1396     86.1891
   952.5000      0.0000    649.8201      6.1377     85.8808
   952.7500      0.0000    655.5919      6.1757     85.0539
   953.0000      0.0000    671.6259      6.2233     83.5277
   953.2500      0.0000    692.5522      6.2568     81.1355
   953.5000      0.0000    714.6823      6.2831     77.6932
   953.7500      0.0000    735.7021      6.3333     73.5901
   954.0000      0.0000    752.0762      6.4262     70.0985
   954.2500      0.0000    759.6921      6.5413     68.7750
   954.5000      0.0000    757.0228      6.6348     70.4452
   954.7500      0.0000    746.2620      6.6757     74.8052
   955.0000      0.0000    731.7143      6.6606     80.7231
   955.2500      0.0000    717.8873      6.5971     86.6500
   955.5000      0.0000    708.2996      6.4863     91.0674
   955.7500      0.0000    705.0936      6.3269     92.9809
   956.0000      0.0000    709.2944      6.1371     92.1564
   956.2500      0.0000    720.3757      5.9645     89.1053
   956.5000      0.0000    734.5884      5.8672     85.0500
   956.7500      0.0000    744.8629      5.8804     81.6530
   957.0000      0.0000    745.0004      5.9983     80.2817
   957.2500      0.0000    734.8918      6.1812     81.3250
   957.5000      0.0000    720.4517      6.3743     84.0885
   957.7500      0.0000    708.2239      6.5283     87.0450
   958.0000      0.0000    700.8754      6.6099     88.2787
   958.2500      0.0000    697.3323      6.5973     86.4725
   958.5000      0.0000    695.3974      6.4710     81.9395
   958.7500      0.0000    693.8817      6.2184     76.4499
   959.0000      0.0000    693.5868      5.8537     71.9513
   959.2500      0.0000    697.2028      5.4305     69.4425
   959.5000      0.0000    707.4594      5.0269     68.6351
   959.7500      0.0000    724.1939      4.7207     68.3294
   960.0000      0.0000    743.0958      4.5745     67.2309
   960.2500      0.0000    758.3447      4.6146     64.7354
   960.5000      0.0000    767.2398      4.7974     61.2642
   960.7500      2.0000    771.9192      5.0144     58.0019
   961.0000      0.0000    775.8943      5.1532     56.1995
   961.2500      0.0000    779.5051      5.1514     56.5521
   961.5000      0.0000    780.0078      4.9986     58.9617
   961.7500      0.0000    775.6780      4.7347     62.5880
   962.0000      0.0000    768.3295      4.4650     66.1573
   962.2500      0.0000    761.1891      4.3327     68.7640
   962.5000      0.0000    754.2545      4.4230     70.6582
