~Version Information
VERS.                      2.0: CWLS Log ASCII Standard - VERSION 2.0
WRAP.                       NO: One line per depth step
~Well Information Block
STRT.FT              1186.0000: 
STOP.FT              1577.0000: 
STEP.FT                 0.2500: 
NULL.                -999.2500: 
COMP.          XTO Energy Inc.: COMPANY
WELL.          Golden Eagle 19-10: WELL
FLD.           Purgatorie River: FIELD
LOC.           2684' FSL & 1825' FEL--: LOCATION
CNTY.               Las Animas: COUNTY
SRVC.          Superior Well Services: SERVICE COMPANY
DATE.          Mon Dec 11 16:19:11 2006: LOG DATE
UWI.           05 071 08697 00: UNIQUE WELL ID
STAT.                       CO: STATE
~Curve Information Block
DEPT.FT            0 000 00 00: Depth
CCL.                          : Casing Collar Locator
TT3.usec                      : CBL 3' Travel Time
AMP3.mV                       : CBL 3' Amplitude
GR.GAPI                       : Gamma Ray
~Parameter Information Block
~A  Depth       CCL         TT3         AMP3         GR     
# ...
  1219.5000      0.0000    803.8618      3.5061     67.2613
  1219.7500     -2.0000    802.4659      3.5070     65.1209
  1220.0000      0.0000    801.9503      3.4967     63.7253
  1220.2500      0.0000    802.7603      3.4730     64.2017
  1220.5000      0.0000    803.1458      3.4448     66.2580
  1220.7500      0.0000    801.2413      3.4315     68.4367
  1221.0000      0.0000    796.4792      3.4500     69.3814
  1221.2500      0.0000    789.2079      3.4963     68.7625
  1221.5000      0.0000    779.8755      3.5439     67.0990
  1221.7500      0.0000    769.2625      3.5691     65.0962
  1222.0000      0.0000    759.3862      3.5765     63.3511
  1222.2500      0.0000    753.4819      3.5967     62.3453
  1222.5000      0.0000    754.0049      3.6574     62.3996
  1222.7500      0.0000    760.0767      3.7552     63.6740
  1223.0000      0.0000    767.4600      3.8590     66.0511
  1223.2500      0.0000    771.9778      3.9382     68.7574
  1223.5000      0.0000    773.1006      3.9821     70.3216
  1223.7500      0.0000    774.0135      3.9978     69.4754
  1224.0000      0.0000    777.8869      3.9981     66.3984
  1224.2500     -2.0000    783.6287      3.9938     62.9836
  1224.5000      0.0000    785.5576      3.9917     61.6536
  1224.7500      0.0000    778.6193      3.9943     63.6677
  1225.0000      0.0000    764.3239      3.9955     68.2801
  1225.2500      0.0000    749.7082      3.9727     73.3381
  1225.5000      0.0000    739.5379      3.8954     76.7451
  1225.7500      0.0000    731.5880      3.7555     77.6056
  1226.0000      0.0000    721.0244      3.5863     76.3050
  1226.2500      0.0000    707.2990      3.4459     73.8391
  1226.5000      0.0000    694.5617      3.3845     71.2098
  1226.7500      0.0000    686.6802      3.4190     69.2060
  1227.0000      0.0000    684.4563      3.5285     68.3386
  1227.2500      0.0000    687.5864      3.6760     68.7119
  1227.5000      0.0000    696.8807      3.8414     69.8105
  1227.7500      0.0000    713.6759      4.0246     70.4917
  1228.0000      0.0000    738.1298      4.2171     69.4869
  1228.2500      0.0000    768.3344      4.3859     66.1215
  1228.5000      0.0000    799.6824      4.5064     60.6317
  1228.7500      2.0000    825.4261      4.6191     53.9758
  1229.0000     -2.0000    840.0655      4.8477     47.4925
  1229.2500     -2.0000    841.5776      5.3367     42.4032
  1229.5000      2.0000    827.7156      6.1772     39.1357
  1229.7500      0.0000    792.0968      7.4676     37.1517
  1230.0000      0.0000    729.1407      9.5174     35.6970
  1230.2500      0.0000    642.6364     12.9155     34.6100
  1230.5000      0.0000    545.9714     18.1477     34.2203
  1230.7500      0.0000    455.0977     24.9105     34.7388
  1231.0000      0.0000    382.5609     31.9175     36.0294
  1231.2500      0.0000    333.9771     37.8196     37.8667
  1231.5000      0.0000    306.4024     42.4834     40.2093
  1231.7500      0.0000    291.3261     47.0396     43.1304
  1232.0000      0.0000    281.0929     52.5254     46.4016
  1232.2500      0.0000    272.6911     58.7784     49.2629
  1232.5000      0.0000    266.3470     64.7272     50.7868
  1232.7500      0.0000    262.5227     69.3589     50.5289
  1233.0000      0.0000    260.7453     72.2209     49.0383
  1233.2500      0.0000    260.1179     73.3382     48.1139
  1233.5000      0.0000    259.9807     73.0758     50.3199
  1233.7500      0.0000    260.0235     72.1299     57.2758
  1234.0000      0.0000    260.1226     71.3728     67.7348
  1234.2500      0.0000    260.2528     71.3312     77.7215
  1234.5000      0.0000    260.5550     71.6322     83.3462
  1234.7500      0.0000    261.4679     71.0614     83.7373
  1235.0000      0.0000    263.6699     68.4588     81.1960
  1235.2500      0.0000    267.6994     63.7893     78.8725
  1235.5000      0.0000    273.4864     58.3139     78.8644
  1235.7500      0.0000    280.3170     53.4980     82.1362
  1236.0000      0.0000    287.2775     49.7397     88.7651
  1236.2500      0.0000    293.5297     46.4393     97.3739
  1236.5000      0.0000    298.1079     43.2587    105.0996
  1236.7500      0.0000    299.8203     40.8618    109.2948
  1237.0000      0.0000    297.8228     40.2446    109.6124
  1237.2500      0.0000    292.5558     41.5642    108.3301
  1237.5000      0.0000    286.0602     43.8154    108.6630
  1237.7500      0.0000    280.9324     45.7081    112.6014
  1238.0000      0.0000    278.5065     46.8243    119.6779
  1238.2500      0.0000    277.9264     47.8885    127.3387
  1238.5000      0.0000    277.0964     49.9582    132.8174
  1238.7500      0.0000    274.6406     53.4440    135.0716
  1239.0000      0.0000    270.9000     57.9269    134.9774
  1239.2500      0.0000    267.1809     62.6386    134.0942
  1239.5000      0.0000    264.4477     66.8611    133.9184
  1239.7500      0.0000    262.8503     70.0733    135.8904
  1240.0000      0.0000    262.0695     72.0833    140.8159
  1240.2500      0.0000    261.7420     73.0762    147.9241
  1240.5000      0.0000    261.6234     73.4355    155.2243
  1240.7500      0.0000    261.5863     73.5045    160.9153
  1241.0000      0.0000    261.5777     73.4816    164.0478
  1241.2500      0.0000    261.5797     73.4468    164.3320
  1241.5000      0.0000    261.5876     73.4161    162.1727
  1241.7500      0.0000    261.5986     73.3867    158.7832
  1242.0000      0.0000    261.6095     73.3555    155.6556
  1242.2500      0.0000    261.6188     73.3251    153.8676
  1242.5000      0.0000    261.6260     73.3036    153.8616
  1242.7500      0.0000    261.6312     73.2971    155.4018
  1243.0000      0.0000    261.6342     73.3068    157.5612
  1243.2500      0.0000    261.6351     73.3335    159.3052
  1243.5000      0.0000    261.6335     73.3834    160.3336
  1243.7500      0.0000    261.6289     73.4645    160.9904
  1244.0000      0.0000    261.6211     73.5760    161.2930
  1244.2500      0.0000    261.6110     73.7043    160.4457
  1244.5000      0.0000    261.6006     73.8293    157.5388
  1244.7500      0.0000    261.5915     73.9346    152.5582
  1245.0000      0.0000    261.5839     74.0108    146.4697
  1245.2500      0.0000    261.5779     74.0481    140.4437
  1245.5000      0.0000    261.5749     74.0313    135.1500
  1245.7500      0.0000    261.5771     73.9518    130.6221
  1246.0000      0.0000    261.5850     73.8235    126.6761
  1246.2500      0.0000    261.5970     73.6828    123.4760
  1246.5000      0.0000    261.6092     73.5723    121.5558
  1246.7500      0.0000    261.6178     73.5242    121.3258
  1247.0000      0.0000    261.6207     73.5517    122.9852
  1247.2500      0.0000    261.6181     73.6454    126.9807
  1247.5000      0.0000    261.6112     73.7769    133.7052
  1247.7500      0.0000    261.6005     73.9107    142.0867
  1248.0000      0.0000    261.5860     74.0169    149.1802
  1248.2500      0.0000    261.5689     74.0771    152.2656
  1248.5000      0.0000    261.5518     74.0873    151.4000
  1248.7500      0.0000    261.5370     74.0577    149.3236
  1249.0000      0.0000    261.5255     74.0100    149.0756
  1249.2500      0.0000    261.5175     73.9672    152.1212
  1249.5000      0.0000    261.5135     73.9458    157.9926
  1249.7500      0.0000    261.5142     73.9547    164.4449
  1250.0000      0.0000    261.5176     73.9974    168.1823
  1250.2500      0.0000    261.5202     74.0675    167.0768
  1250.5000      0.0000    261.5191     74.1478    162.4113
  1250.7500      0.0000    261.5143     74.2147    157.9984
  1251.0000      0.0000    261.5088     74.2452    156.6063
  1251.2500      0.0000    261.5059     74.2244    157.8217
  1251.5000      0.0000    261.5063     74.1592    159.2314
  1251.7500      0.0000    261.5058     74.0840    158.8138
  1252.0000      0.0000    261.4981     74.0390    156.1443
  1252.2500      0.0000    261.4800     74.0350    151.9177
  1252.5000      0.0000    261.4543     74.0432    146.7499
  1252.7500      0.0000    261.4283     74.0262    140.6142
