~Version Information
VERS.                      2.0: CWLS Log ASCII Standard - VERSION 2.0
WRAP.                       NO: One line per depth step
~Well Information Block
STRT.FT                -7.5000: 
STOP.FT              1336.0000: 
STEP.FT                 0.2500: 
NULL.                -999.2500: 
COMP.          Pioneer Natural Resources: COMPANY
WELL.               LPGC 32-32: WELL
FLD.           Purgatorie River: FIELD
LOC.           1937' FNL & 1661' FEL--: LOCATION
CNTY.               Las Animas: COUNTY
SRVC.          Patterson Wireline: SERVICE COMPANY
DATE.          Fri Feb 03 09:39:42 2006: LOG DATE
UWI.           05 071 08641 00: UNIQUE WELL ID
STAT.                       CO: STATE
~Curve Information Block
DEPT.FT            0 000 00 00: Depth
CCL.                          : Casing Collar Locator
TT3.usec                      : CBL 3' Travel Time
AMP3.mV                       : CBL 3' Amplitude
GR.GAPI                       : Gamma Ray
~Parameter Information Block
~A  Depth       CCL         TT3         AMP3         GR     
# ...
   595.5000      0.0000    307.5339     20.7072     90.6209
   595.7500      0.0000    307.5224     20.6828     94.6552
   596.0000      0.0000    307.5143     20.6126     98.2513
   596.2500      0.0000    307.5086     20.5306    100.9246
   596.5000      0.0000    307.4825     20.4778    103.5479
   596.7500      0.0000    307.4069     20.4829    107.8186
   597.0000      0.0000    307.2824     20.5462    114.8583
   597.2500      0.0000    307.1588     20.6369    124.2699
   597.5000      0.0000    307.1129     20.7124    134.3821
   597.7500      0.0000    307.2007     20.7454    143.2009
   598.0000      0.0000    307.4164     20.7363    149.0327
   598.2500      0.0000    307.6810     20.7114    150.6396
   598.5000      0.0000    307.8757     20.7108    147.7587
   598.7500      0.0000    307.9184     20.7681    141.7766
   599.0000      0.0000    307.8327     20.8823    135.1562
   599.2500      0.0000    307.8026     21.0068    129.8316
   599.5000      0.0000    308.2408     21.0717    126.4614
   599.7500      0.0000    309.8916     21.0231    124.8293
   600.0000      0.0000    313.9160     20.8455    124.1284
   600.2500      0.0000    321.9467     20.5630    123.2622
   600.5000      0.0000    336.4683     20.2131    121.9664
   600.7500      0.0000    361.1719     19.7642    121.5936
   601.0000      0.0000    398.4899     19.0517    123.9317
   601.2500      0.0000    443.1227     17.9158    128.9037
   601.5000      0.0000    479.1954     16.4753    133.6989
   601.7500      0.0000    490.6706     15.1451    134.4691
   602.0000      0.0000    478.0758     14.2873    129.1857
   602.2500      0.0000    461.5329     13.9178    119.3046
   602.5000      2.0000    464.2588     13.7976    108.9517
   602.7500      0.0000    494.0602     13.7148    102.4270
   603.0000     -1.6095    540.7277     13.6347    102.0342
   603.2500      0.0000    587.7689     13.6698    107.5586
   603.5000      0.0000    622.3930     13.9782    117.1443
   603.7500      0.0000    634.6840     14.6490    128.4120
   604.0000      0.0000    615.3695     15.6170    139.0591
   604.2500      0.0000    562.7810     16.6884    147.1917
   604.5000      0.0000    490.4928     17.6711    151.7042
   604.7500      0.0000    421.1353     18.4693    152.3268
   605.0000      0.0000    370.8920     19.0681    149.2786
   605.2500      0.0000    341.9991     19.4819    143.2501
   605.5000      0.0000    328.2791     19.7363    135.6878
   605.7500      0.0000    323.2792     19.8724    128.4328
   606.0000      0.0000    322.7000     19.9447    122.7630
   606.2500      0.0000    323.1862     20.0091    118.9550
   606.5000      0.0000    322.1391     20.1040    116.5699
   606.7500      0.0000    318.8741     20.2402    114.8159
   607.0000      0.0000    314.6305     20.4122    113.0239
   607.2500      0.0000    311.0401     20.6163    111.3297
   607.5000      0.0000    308.8035     20.8510    110.6414
   607.7500      0.0000    307.6836     21.1027    111.3944
   608.0000      0.0000    307.1696     21.3357    112.4472
   608.2500      0.0000    306.9120     21.5025    111.7754
   608.5000      0.0000    306.7635     21.5707    108.4610
   608.7500      0.0000    306.6756     21.5499    103.6712
   609.0000      0.0000    306.6187     21.4922     99.6170
   609.2500      0.0000    306.5608     21.4621     98.0054
   609.5000      0.0000    306.4812     21.4932     99.5242
   609.7500      0.0000    306.3835     21.5677    104.0081
   610.0000      0.0000    306.2878     21.6396    110.6019
   610.2500      0.0000    306.2085     21.6786    118.1393
   610.5000      0.0000    306.1423     21.6884    125.5723
   610.7500      0.0000    306.0787     21.6876    131.9299
   611.0000      0.0000    306.0161     21.6824    136.3075
   611.2500      0.0000    305.9671     21.6615    138.4520
   611.5000      0.0000    305.9530     21.6109    139.1741
   611.7500      0.0000    305.9959     21.5293    139.8794
   612.0000      0.0000    306.1052     21.4368    141.6715
   612.2500      0.0000    306.2646     21.3677    144.6822
   612.5000      0.0000    306.4348     21.3492    147.9685
   612.7500      0.0000    306.5759     21.3834    150.2914
   613.0000      0.0000    306.6667     21.4509    151.3439
   613.2500      0.0000    306.7102     21.5288    151.8992
   613.5000      0.0000    306.7325     21.5984    152.6581
   613.7500      0.0000    306.7743     21.6394    153.4997
   614.0000      0.0000    306.8728     21.6275    153.8747
   614.2500      0.0000    307.0465     21.5445    153.2190
   614.5000      0.0000    307.3292     21.3877    151.0439
   614.7500      0.0000    307.8687     21.1715    147.4229
   615.0000      0.0000    309.0675     20.9172    143.6690
   615.2500      0.0000    311.6136     20.6368    142.1136
   615.5000      0.0000    316.1516     20.3260    144.7117
   615.7500      0.0000    322.6206     19.9736    151.5005
   616.0000      0.0000    329.8858     19.5749    160.2672
   616.2500      0.0000    336.3224     19.1328    167.8240
   616.5000      0.0000    340.9706     18.6483    171.9182
   616.7500      0.0000    344.1342     18.1190    172.2696
   617.0000      0.0000    346.9056     17.5577    169.9980
   617.2500      0.0000    350.1498     17.0064    165.9894
   617.5000      0.0000    353.8946     16.5233    159.8830
   617.7500      0.0000    357.7109     16.1504    150.8240
   618.0000      0.0000    361.5336     15.8999    138.9279
   618.2500      0.0000    365.5225     15.7706    125.5741
   618.5000      0.0000    368.9193     15.7656    112.5712
   618.7500      0.0000    369.8469     15.8836    101.4989
   619.0000      0.0000    366.9557     16.1031     93.5149
   619.2500      0.0000    360.9528     16.3881     89.2138
   619.5000      0.0000    354.0092     16.7141     88.5950
   619.7500      0.0000    347.7761     17.0870     91.1087
   620.0000      0.0000    342.2177     17.5414     95.5221
   620.2500      0.0000    336.2272     18.1115     99.9127
   620.5000      0.0000    329.1289     18.7884    102.2339
   620.7500      0.0000    321.5606     19.5055    101.2945
   621.0000      0.0000    314.9651     20.1816     97.5127
   621.2500      0.0000    310.3699     20.7808     92.7178
   621.5000      0.0000    307.7760     21.3128     88.8525
   621.7500      0.0000    306.5341     21.7805     86.6641
   622.0000      0.0000    305.9890     22.1557     85.7507
   622.2500      0.0000    305.7521     22.4118     85.7407
   622.5000      0.0000    305.6513     22.5545     86.9065
   622.7500      0.0000    305.6184     22.6108     89.5940
   623.0000      0.0000    305.6289     22.5996     93.6101
   623.2500      0.0000    305.6847     22.5131     98.3398
   623.5000      0.0000    305.8107     22.3199    103.0181
   623.7500      0.0000    306.0330     21.9936    106.7221
   624.0000      0.0000    306.3505     21.5497    108.4453
   624.2500      0.0000    306.7216     21.0560    107.4968
   624.5000      0.0000    307.0793     20.6019    104.0599
   624.7500      0.0000    307.3621     20.2477     99.5563
   625.0000      0.0000    307.5449     19.9953     96.1800
   625.2500      0.0000    307.6495     19.7990     95.3687
   625.5000      0.0000    307.7245     19.6068     96.4376
   625.7500      0.0000    307.8136     19.3954     97.1885
   626.0000      0.0000    307.9371     19.1724     96.2100
   626.2500      0.0000    308.0907     18.9569     94.2029
   626.5000      0.0000    308.2470     18.7655     92.7270
   626.7500      0.0000    308.3633     18.6141     92.3129
   627.0000      0.0000    308.4035     18.5187     92.4107
   627.2500      0.0000    308.3625     18.4883     92.6743
   627.5000      0.0000    308.2677     18.5169     93.4380
   627.7500      0.0000    308.1574     18.5817     94.9384
   628.0000      0.0000    308.0616     18.6485     96.5937
   628.2500      0.0000    307.9954     18.6890     97.2580
   628.5000      0.0000    307.9582     18.7011     96.1706
   628.7500      0.0000    307.9361     18.7105     93.6840
