~Version Information
VERS.                      2.0: CWLS Log ASCII Standard - VERSION 2.0
WRAP.                       NO: One line per depth step
~Well Information Block
STRT.FT                -4.2500: 
STOP.FT               745.0000: 
STEP.FT                 0.2500: 
NULL.                -999.2500: 
COMP.          Pioneer Natural Resources: COMPANY
WELL.                Zed 11-23: WELL
FLD.           Purgatoire River: FIELD
LOC.           641' FNL & 952' FWL: LOCATION
CNTY.               Las Animas: COUNTY
SRVC.                         : SERVICE COMPANY
DATE.          Fri Mar 03 16:43:06 2006: LOG DATE
UWI.           05 071 08702 00: UNIQUE WELL ID
STAT.                       CO: STATE
~Curve Information Block
DEPT.FT            0 000 00 00: Depth
GR.GAPI                       : Gamma Ray
CCL.                          : Casing Collar Locator
TT3.usec                      : CBL 3' Travel Time
AMP3.mV                       : CBL 3' Amplitude
~Parameter Information Block
~A  Depth        GR         CCL         TT3         AMP3    
# ...
   464.7500     60.3654      0.0000    724.0430      9.2713
   465.0000     61.3694      0.0000    724.0895      9.3134
   465.2500     60.9620      0.0000    724.4841      9.4088
   465.5000     58.7224      0.0000    726.1146      9.4968
   465.7500     55.3694      0.0000    730.4120      9.4849
   466.0000     51.9113      0.0000    738.4434      9.3056
   466.2500     49.1040      0.0000    749.2846      8.9857
   466.5000     47.6017      0.0000    759.5416      8.6497
   466.7500     47.8703      0.0000    765.5161      8.4092
   467.0000     49.5969      0.0000    766.1577      8.2502
   467.2500     51.6393      0.0000    763.6576      8.0855
   467.5000     53.0359      0.0000    761.7819      7.8987
   467.7500     53.9455      0.0000    764.3743      7.7584
   468.0000     55.2563     -1.1127    774.0134      7.7058
   468.2500     57.3229     -2.0000    789.4378      7.7087
   468.5000     59.4233      0.0000    803.7938      7.7278
   468.7500     60.3840      0.0000    807.1693      7.7852
   469.0000     59.4355      0.0000    793.2097      7.9614
   469.2500     56.5757      0.0000    764.8889      8.3237
   469.5000     52.5566      0.0000    734.1061      8.8399
   469.7500     48.6652      0.0000    714.1966      9.3729
   470.0000     46.2556      0.0000    710.8935      9.7921
   470.2500     46.2050      0.0000    719.9238     10.0610
   470.5000     48.5688      0.0000    732.7606     10.1950
   470.7500     52.5670      0.0000    743.2316     10.1926
   471.0000     56.9096      0.0000    749.3697     10.0601
   471.2500     60.2851      0.0000    752.1405      9.8674
   471.5000     61.7089      0.0000    753.7183      9.7299
   471.7500     60.7710      0.0000    755.7894      9.7325
   472.0000     57.9736      0.0000    758.5190      9.8734
   472.2500     54.7888      0.0000    761.0389     10.0707
   472.5000     52.8706      0.0000    762.6518     10.2191
   472.7500     52.8131      0.0000    763.2283     10.2673
   473.0000     53.8378      0.0000    762.8286     10.2581
   473.2500     54.8473      0.0000    761.4120     10.2882
   473.5000     55.4355      0.0000    759.1679     10.4190
   473.7500     55.6923      0.0000    756.9940     10.6264
   474.0000     55.6235      0.0000    756.2029     10.8268
   474.2500     55.2314      0.0000    757.4318     10.9427
   474.5000     54.7471      0.0000    759.9715     10.9495
   474.7500     54.3629      0.0000    762.3235     10.8799
   475.0000     54.0188      0.0000    763.1218     10.7904
   475.2500     53.8125      0.0000    761.4566     10.7185
   475.5000     54.3393      0.0000    756.9579     10.6631
   475.7500     56.1231      0.0000    750.2559     10.5988
   476.0000     58.6511      0.0000    743.2084     10.5010
   476.2500     60.4050      0.0000    737.9219     10.3673
   476.5000     60.2124      0.0000    735.2126     10.2281
   476.7500     58.4792      0.0000    734.4926     10.1330
   477.0000     56.8794      0.0000    735.4184     10.1116
   477.2500     56.9270      0.0000    739.0576     10.1466
   477.5000     58.9335      0.0000    746.8303     10.1930
   477.7500     62.1490      0.0000    758.4989     10.2160
   478.0000     65.6820      0.0000    771.4824     10.2040
   478.2500     69.2088      0.0000    782.0027     10.1599
   478.5000     72.7570      0.0000    787.0482     10.0948
   478.7500     75.9050      0.0000    785.9886     10.0293
   479.0000     77.5514      0.0000    780.8112      9.9859
   479.2500     76.7467      0.0000    774.6787      9.9726
   479.5000     73.6872      0.0000    769.9431      9.9778
   479.7500     69.8009      0.0000    767.2499      9.9855
   480.0000     66.8582      0.0000    766.0508      9.9947
   480.2500     65.8327      0.0000    765.5663     10.0211
   480.5000     66.3049      0.0000    765.3262     10.0797
   480.7500     66.8690      0.0000    765.1896     10.1707
   481.0000     66.2516      0.0000    765.1572     10.2778
   481.2500     64.2831      0.0000    765.2419     10.3753
   481.5000     61.9798      0.0000    765.5885     10.4380
   481.7500     60.6930      0.0000    766.8053     10.4532
   482.0000     61.0446      0.0000    770.2845     10.4249
   482.2500     62.5185      0.0000    777.8870     10.3667
   482.5000     63.8463      0.0000    790.4006     10.2927
   482.7500     63.7750      0.0000    805.9659     10.2149
   483.0000     61.8746      0.0000    820.9426     10.1395
   483.2500     58.8472      0.0000    832.9877     10.0647
   483.5000     55.8851      0.0000    842.3633      9.9899
   483.7500     53.7153      0.0000    849.7932      9.9280
   484.0000     52.4222      0.0000    854.0197      9.9061
   484.2500     51.9395      0.0000    851.7685      9.9539
   484.5000     52.2410      0.0000    840.0521     10.0836
   484.7500     53.0668      0.0000    819.3102     10.2697
   485.0000     53.8675      0.0000    794.4716     10.4513
   485.2500     54.3023      0.0000    772.3395     10.5775
   485.5000     54.7243      0.0000    757.7686     10.6538
   485.7500     55.8102      0.0000    751.7505     10.7238
   486.0000     57.5543      0.0000    751.9142     10.8020
   486.2500     59.0301      0.0000    754.8229     10.8484
   486.5000     59.4705      0.0000    759.1677     10.8156
   486.7500     59.2063      0.0000    768.1584     10.6983
   487.0000     59.1841      0.0000    788.3478     10.5274
   487.2500     59.8620      0.0000    823.7669     10.3396
   487.5000     60.9388      0.0000    868.8899     10.1677
   487.7500     61.8750      0.0000    908.7443     10.0386
   488.0000     62.2339      0.0000    929.4902      9.9604
   488.2500     61.6245      0.0000    929.9047      9.9127
   488.5000     59.8308      0.0000    921.1729      9.8557
   488.7500     57.2689      0.0000    915.9247      9.7539
   489.0000     55.0104      0.0000    918.2552      9.5959
   489.2500     53.9564      0.0000    922.3375      9.4048
   489.5000     54.0970      0.0000    918.0335      9.2417
   489.7500     54.9398      0.0000    897.2401      9.1962
   490.0000     56.5436      0.0000    855.8547      9.3586
   490.2500     59.5860      0.0000    793.2014      9.7766
   490.5000     64.2615      0.0000    714.3440     10.4184
   490.7500     69.5462      0.0000    632.6784     11.1733
   491.0000     73.8156      0.0000    564.6504     11.8994
   491.2500     75.9390      0.0000    519.3094     12.4699
   491.5000     75.7033      0.0000    494.1312     12.7766
   491.7500     73.5736      0.0000    480.4522     12.7427
   492.0000     70.3651      0.0000    470.9514     12.3857
   492.2500     67.0583      0.0000    462.7521     11.8501
   492.5000     64.6448      0.0000    456.1042     11.3333
   492.7500     63.7967      0.0000    451.8260     10.9711
   493.0000     64.4747      0.0000    449.9060     10.7961
   493.2500     65.9658      0.0000    449.7261     10.7825
   493.5000     67.3769      0.0000    450.8712     10.8896
   493.7500     68.0478      0.0000    453.5569     11.0525
   494.0000     67.6701      0.0000    458.3543     11.1594
   494.2500     66.3277      0.0000    465.5942     11.0896
   494.5000     64.4469      0.0000    475.4479     10.8036
   494.7500     62.6041      0.0000    489.4184     10.3867
   495.0000     61.3666      0.0000    511.7508      9.9834
   495.2500     61.1484      0.0000    547.4926      9.6915
   495.5000     61.9303      0.0000    596.8158      9.5211
   495.7500     63.0949      0.0000    651.1812      9.4316
   496.0000     63.8065      0.0000    697.2050      9.3903
   496.2500     63.7880      0.0000    725.5370      9.4013
   496.5000     63.6361      0.0000    735.9363      9.4945
   496.7500     64.1284      0.0000    734.8132      9.6897
   497.0000     65.2396      0.0000    729.5266      9.9694
   497.2500     66.0068      0.0000    724.6090     10.2737
   497.5000     65.2071      0.0000    721.2205     10.5152
   497.7500     62.0620      0.0000    718.2329     10.6106
   498.0000     56.7485      0.0000    713.3752     10.5227
