~Version Information
VERS.                      2.0: CWLS Log ASCII Standard - VERSION 2.0
WRAP.                       NO: One line per depth step
~Well Information Block
STRT.FT               555.0000: 
STOP.FT              2286.5000: 
STEP.FT                 0.1000: 
NULL.                -999.2500: 
COMP.          Pioneer Natural Resources: COMPANY
WELL.          Roadster 41-33 Kv: WELL
FLD.           Purgatoire River: FIELD
LOC.           903' FNL & 248' FEL: LOCATION
PROV.                 Colorado: PROVINCE
CNTY.               Las Animas: COUNTRY
SRVC.                Patterson: SERVICE COMPANY
DATE.          Thu Dec 15 10:28:25 2005: LOG DATE
UWI.           05 071 08615 00: UNIQUE WELL ID
~Curve Information Block
DEPT.FT            0 000 00 00: Depth
DCAL.in                       : CDL Caliper
RHOB.g/cc                     : CDL Bulk Density
RHOC.g/cc                     : CDL Density Correction
DPOR.pu                       : CDL Density Porosity
GR.GAPI                       : Gamma Ray
NPOR.pu                       : Neutron Porosity
~Parameter Information Block
~A  Depth       DCAL        RHOB        RHOC        DPOR         GR         NPOR    
# ...
  2273.4000      7.8205      2.6289      0.1093      1.2764   -999.2500     54.4399
  2273.5000      7.8436      2.6167      0.0448      2.0204   -999.2500   -999.2500
  2273.6000      7.8436      2.6156      0.0562      2.0843   -999.2500   -999.2500
  2273.7000      7.8436      2.6266      0.1092      1.4189   -999.2500   -999.2500
  2273.8000      7.8128      2.6338      0.1065      0.9798   -999.2500   -999.2500
  2273.9000      7.8128      2.6296      0.1106      1.2360   -999.2500   -999.2500
  2274.0000      7.8577      2.6257      0.0480      1.4703   -999.2500   -999.2500
  2274.1000      7.8577      2.6330      0.0730      1.0316   -999.2500   -999.2500
  2274.2000      7.8577      2.6383      0.1009      0.7084   -999.2500   -999.2500
  2274.3000      7.8246      2.6288      0.0810      1.2839   -999.2500   -999.2500
  2274.4000      7.8246      2.6125      0.0844      2.2731   -999.2500   -999.2500
  2274.5000      7.8211      2.5997      0.0866      3.0501   -999.2500   -999.2500
  2274.6000      7.8211      2.5933      0.0596      3.4372   -999.2500   -999.2500
  2274.7000      7.8211      2.5944      0.0584      3.3675   -999.2500   -999.2500
  2274.8000      7.8343      2.5970      0.0841      3.2124   -999.2500   -999.2500
  2274.9000      7.8343      2.5898      0.0276      3.6464   -999.2500   -999.2500
  2275.0000      7.8380      2.5729      0.0431      4.6749   -999.2500   -999.2500
  2275.1000      7.8380      2.5562      0.0336      5.6836   -999.2500   -999.2500
  2275.2000      7.8380      2.5504      0.0287      6.0368   -999.2500   -999.2500
  2275.3000      7.8438      2.5547      0.0540      5.7760   -999.2500   -999.2500
  2275.4000      7.8438      2.5584      0.0290      5.5486   -999.2500   -999.2500
  2275.5000      7.8549      2.5588      0.0312      5.5272   -999.2500   -999.2500
  2275.6000      7.8549      2.5604      0.0357      5.4332   -999.2500   -999.2500
  2275.7000      7.8549      2.5646      0.0608      5.1787   -999.2500   -999.2500
  2275.8000      7.8567      2.5697      0.0587      4.8694   -999.2500   -999.2500
  2275.9000      7.8567      2.5768      0.0492      4.4373   -999.2500   -999.2500
  2276.0000      7.8541      2.5886      0.0370      3.7212   -999.2500   -999.2500
  2276.1000      7.8541      2.6034      0.0747      2.8235   -999.2500   -999.2500
  2276.2000      7.8541      2.6164      0.0849      2.0347   -999.2500   -999.2500
  2276.3000      7.8571      2.6236      0.0844      1.5971   -999.2500   -999.2500
  2276.4000      7.8571      2.6226      0.0587      1.6613   -999.2500   -999.2500
  2276.5000      7.8351      2.6103      0.0817      2.4048   -999.2500   -999.2500
  2276.6000      7.8351      2.5884      0.0346      3.7358   -999.2500   -999.2500
  2276.7000      7.8351      2.5700      0.0258      4.8487   -999.2500   -999.2500
  2276.8000      7.8518      2.5662      0.0238      5.0789   -999.2500   -999.2500
  2276.9000      7.8518      2.5723      0.0264      4.7116   -999.2500   -999.2500
  2277.0000      7.8477      2.5761      0.0564      4.4783   -999.2500   -999.2500
  2277.1000      7.8477      2.5781      0.0179      4.3560   -999.2500   -999.2500
  2277.2000      7.8477      2.5872      0.0650      3.8081   -999.2500   -999.2500
  2277.3000      7.8456      2.5936      0.0646      3.4188   -999.2500   -999.2500
  2277.4000      7.8456      2.5806      0.0417      4.2061   -999.2500   -999.2500
  2277.5000      7.8576      2.5525      0.0195      5.9065   -999.2500   -999.2500
  2277.6000      7.8576      2.5240      0.0054      7.6388   -999.2500   -999.2500
  2277.7000      7.8576      2.5054      0.0056      8.7634   -999.2500   -999.2500
  2277.8000      7.8514      2.5101      0.0051      8.4777   -999.2500   -999.2500
  2277.9000      7.8514      2.5421      0.0555      6.5409   -999.2500   -999.2500
  2278.0000      7.8345      2.5808      0.0757      4.1956   -999.2500   -999.2500
  2278.1000      7.8345      2.6021      0.1038      2.9060   -999.2500   -999.2500
  2278.2000      7.8345      2.6059      0.0808      2.6704   -999.2500   -999.2500
  2278.3000      7.8396      2.6070      0.1090      2.6058   -999.2500   -999.2500
  2278.4000      7.8396      2.6077      0.0924      2.5657   -999.2500   -999.2500
  2278.5000      7.8437      2.6033      0.0964      2.8291   -999.2500   -999.2500
  2278.6000      7.8437      2.5934      0.0713      3.4296   -999.2500   -999.2500
  2278.7000      7.8437      2.5764      0.0563      4.4585   -999.2500   -999.2500
  2278.8000      7.8461      2.5525      0.0534      5.9086   -999.2500   -999.2500
  2278.9000      7.8461      2.5343      0.0228      7.0103   -999.2500   -999.2500
  2279.0000      7.8423      2.5389      0.0225      6.7322   -999.2500   -999.2500
  2279.1000      7.8423      2.5601      0.0696      5.4493   -999.2500   -999.2500
  2279.2000      7.8423      2.5786      0.0260      4.3253   -999.2500   -999.2500
  2279.3000      7.8514      2.5909      0.0784      3.5836   -999.2500   -999.2500
  2279.4000      7.8514      2.6032      0.0497      2.8382   -999.2500   -999.2500
  2279.5000      7.8453      2.6151      0.1154      2.1178   -999.2500   -999.2500
  2279.6000      7.8453      2.6169      0.1022      2.0050   -999.2500   -999.2500
  2279.7000      7.8453      2.6139      0.0575      2.1908   -999.2500   -999.2500
  2279.8000      7.8012      2.6171      0.0757      1.9955   -999.2500   -999.2500
  2279.9000      7.8012      2.6201      0.0686      1.8148   -999.2500   -999.2500
  2280.0000      7.8002      2.6140      0.0758      2.1846   -999.2500   -999.2500
  2280.1000      7.8002      2.6012      0.0596      2.9580   -999.2500   -999.2500
  2280.2000      7.8002      2.5904      0.0520      3.6151   -999.2500   -999.2500
  2280.3000      7.8029      2.5818      0.0558      4.1358   -999.2500   -999.2500
  2280.4000      7.8029      2.5650      0.0498      5.1515   -999.2500   -999.2500
  2280.5000      7.8137      2.5390      0.0116      6.7283   -999.2500   -999.2500
  2280.6000      7.8137      2.5128     -0.0074      8.3126   -999.2500   -999.2500
  2280.7000      7.8137      2.4899      0.0147      9.7004   -999.2500   -999.2500
  2280.8000      7.7983      2.4691      0.0273     10.9619   -999.2500   -999.2500
  2280.9000      7.7983      2.4558     -0.0039     11.7679   -999.2500   -999.2500
  2281.0000      7.7904      2.4535      0.0251     11.9089   -999.2500   -999.2500
  2281.1000      7.7904      2.4521      0.0147     11.9954   -999.2500   -999.2500
  2281.2000      7.7904      2.4471      0.0234     12.2990   -999.2500   -999.2500
  2281.3000      7.7907      2.4454      0.0329     12.3986   -999.2500   -999.2500
  2281.4000      7.7907      2.4491      0.0366     12.1737   -999.2500   -999.2500
  2281.5000      7.7929      2.4550      0.0529     11.8165   -999.2500   -999.2500
  2281.6000      7.7929      2.4631      0.0253     11.3252   -999.2500   -999.2500
  2281.7000      7.7929      2.4717      0.0615     10.8080   -999.2500   -999.2500
  2281.8000      7.8113      2.4764      0.0300     10.5203   -999.2500   -999.2500
  2281.9000      7.8113      2.4821      0.0389     10.1743   -999.2500   -999.2500
  2282.0000      7.8235      2.4882      0.0444      9.8064   -999.2500   -999.2500
  2282.1000      7.8235      2.4833      0.0556     10.1040   -999.2500   -999.2500
  2282.2000      7.8235      2.4688     -0.0023     10.9828   -999.2500   -999.2500
  2282.3000      7.8211      2.4612     -0.0083     11.4422   -999.2500   -999.2500
  2282.4000      7.8211      2.4660      0.0402     11.1526   -999.2500   -999.2500
  2282.5000      7.7892      2.4741      0.0302     10.6583   -999.2500   -999.2500
  2282.6000      7.7892      2.4788      0.0488     10.3768   -999.2500   -999.2500
  2282.7000      7.7892      2.4829      0.0162     10.1269   -999.2500   -999.2500
  2282.8000      7.7642      2.4899      0.0774      9.7045   -999.2500   -999.2500
  2282.9000      7.7642      2.4973      0.0370      9.2553   -999.2500   -999.2500
