~Version Information
VERS.                      2.0: CWLS Log ASCII Standard - VERSION 2.0
WRAP.                       NO: One line per depth step
~Well Information Block
STRT.FT               555.0000: 
STOP.FT              2322.2500: 
STEP.FT                 0.2500: 
NULL.                -999.2500: 
COMP.          Pioneer Natural Resources: COMPANY
WELL.          Fittipaldi 21-12: WELL
FLD.           Purgatoire River: FIELD
LOC.           207' FNL & 2110' FWL--: LOCATION
CNTY.               Las Animas: COUNTY
SRVC.                Patterson: SERVICE COMPANY
DATE.          Tue Mar 21 10:27:48 2006: LOG DATE
UWI.           05 071 08492 00: UNIQUE WELL ID
STAT.                 Colorado: STATE
~Curve Information Block
DEPT.FT            0 000 00 00: Depth
SN.Ohm-m                      : IEL Short Normal
SP.mV                         : IEL Spontaneous Potential
DIR.Ohm-m                     : IEL Induction Resistivity
GR.GAPI                       : Gamma Ray
~Parameter Information Block
~A  Depth        SN          SP         DIR          GR     
# ...
  1359.0000   2000.0000   1990.0000     20.9414     78.8361
  1359.2500   2000.0000   1990.0000     21.6220     94.8650
  1359.5000   2000.0000   1990.0000     22.3031     89.9382
  1359.7500   2000.0000   1990.0000     23.0485     87.2233
  1360.0000   2000.0000   1990.0000     23.9208     84.0515
  1360.2500   2000.0000   1990.0000     24.9542     98.8830
  1360.5000   2000.0000   1990.0000     26.1360     96.1314
  1360.7500     33.9131   1990.0000     27.4019     93.9365
  1361.0000     34.3521   1990.0000     28.6420     89.1303
  1361.2500     34.1399     -9.1625     29.7191     84.4505
  1361.5000     33.3432     -9.3889     30.4995     75.3480
  1361.7500     32.2735     -9.5646     30.8918     68.9309
  1362.0000     31.3091     -9.6800     30.8728     61.8453
  1362.2500     30.7366     -9.7356     30.4814     60.3898
  1362.5000     30.6404     -9.7389     29.7844     63.7214
  1362.7500     30.8319     -9.6996     28.8407     68.7413
  1363.0000     30.9488     -9.6269     27.6902     78.3036
  1363.2500     30.7035     -9.5270     26.3706     85.1209
  1363.5000     30.0372     -9.4029     24.9421     95.2786
  1363.7500     29.0850     -9.2553     23.4931    101.7660
  1364.0000     28.0677     -9.0858     22.1220    110.6036
  1364.2500     27.1972     -8.8987     20.9088    115.6202
  1364.5000     26.5868     -8.7005     19.9004    121.4047
  1364.7500     26.2011     -8.4995     19.1129    123.8382
  1365.0000     25.9064     -8.3029     18.5438    124.9816
  1365.2500     25.6039     -8.1149     18.1860    124.0111
  1365.5000     25.3121     -7.9361     18.0343    120.0369
  1365.7500     25.1280     -7.7641     18.0848    115.8430
  1366.0000     25.1410     -7.5949     18.3276    107.9758
  1366.2500     25.3885     -7.4257     18.7399    102.4681
  1366.5000     25.8269     -7.2557     19.2815     95.0476
  1366.7500     26.3073     -7.0861     19.8983     90.9014
  1367.0000     26.6272     -6.9199     20.5280     85.6176
  1367.2500     26.6474     -6.7602     21.1058     82.5782
  1367.5000     26.3543     -6.6096     21.5672     79.1497
  1367.7500     25.8382     -6.4687     21.8537     78.2789
  1368.0000     25.2577     -6.3359     21.9271     80.3818
  1368.2500     24.7890     -6.2065     21.7826     84.3159
  1368.5000     24.5294     -6.0728     21.4466     92.8051
  1368.7500     24.4278     -5.9251     20.9584     98.6999
  1369.0000     24.3228     -5.7533     20.3517    105.4367
  1369.2500     24.0497     -5.5490     19.6515    107.8929
  1369.5000     23.5355     -5.3077     18.8820    109.0047
  1369.7500     22.8355     -5.0294     18.0743    108.8075
  1370.0000     22.0861     -4.7177     17.2658    108.6818
  1370.2500     21.4074     -4.3771     16.4938    109.6934
  1370.5000     20.8558     -4.0101     15.7871    114.1936
  1370.7500     20.4440     -3.6150     15.1596    119.1905
  1371.0000     20.1599     -3.1859     14.6103    127.5924
  1371.2500     19.9636     -2.7149     14.1284    131.8119
  1371.5000     19.8030     -2.1954     13.7012    133.7205
  1371.7500     19.6446     -1.6260     13.3199    132.2683
  1372.0000     19.4729     -1.0140     12.9815    128.3647
  1372.2500     19.2726     -0.3760     12.6887    125.9285
  1372.5000     19.0459      0.2628     12.4492    123.6529
  1372.7500     18.8339      0.8707     12.2746    123.4523
  1373.0000     18.6648      1.4143     12.1772    125.6807
  1373.2500     18.4780      1.8623     12.1650    128.4782
  1373.5000     18.1492      2.1921     12.2367    132.0799
  1373.7500     17.6079      2.3943     12.3783    132.2434
  1374.0000     16.8931      2.4767     12.5626    127.6485
  1374.2500     16.0872      2.4647     12.7531    121.8442
  1374.5000     15.2369      2.3969     12.9139    111.1663
  1374.7500     14.3842      2.3152     13.0232    104.1693
  1375.0000     13.6664      2.2531     13.0818     96.4068
  1375.2500     13.3140      2.2237     13.1095     94.4425
  1375.5000     13.4983      2.2153     13.1313     97.3356
  1375.7500     14.2044      2.1942     13.1613    102.2461
  1376.0000     15.2687      2.1171     13.1945    110.2859
  1376.2500     16.4997      1.9472     13.2102    113.8258
  1376.5000     17.7369      1.6685     13.1867    114.7740
  1376.7500     18.8386      1.2929     13.1170    113.1190
  1377.0000     19.6817      0.8565     13.0151    109.4588
  1377.2500     20.1924      0.4101     12.9095    107.2319
  1377.5000     20.3581      0.0044     12.8292    104.8001
  1377.7500     20.2075     -0.3210     12.7935    103.8750
  1378.0000     19.7929     -0.5448     12.8094    104.0268
  1378.2500     19.1743     -0.6645     12.8736    105.5391
  1378.5000     18.3913     -0.6930     12.9769    109.9436
  1378.7500     17.4607     -0.6519     13.1079    113.6763
  1379.0000     16.4386     -0.5666     13.2552    118.6295
  1379.2500     15.4828     -0.4605     13.4081    120.5366
  1379.5000     14.8080     -0.3524     13.5556    120.9356
  1379.7500     14.5703     -0.2541     13.6867    120.1787
  1380.0000     14.8067     -0.1699     13.7915    118.9010
  1380.2500     15.4493     -0.0967     13.8627    118.3679
  1380.5000     16.3412     -0.0264     13.8942    118.2722
  1380.7500     17.2509      0.0522     13.8779    118.9731
  1381.0000     17.9284      0.1501     13.8026    122.0175
  1381.2500     18.1995      0.2758     13.6569    125.6853
  1381.5000     18.0355      0.4332     13.4378    133.2631
  1381.7500     17.5430      0.6214     13.1580    138.9669
  1382.0000     16.8918      0.8351     12.8469    146.8566
  1382.2500     16.2458      1.0663     12.5418    150.7586
  1382.5000     15.7332      1.3066     12.2751    153.4898
  1382.7500     15.4283      1.5501     12.0652    153.0325
  1383.0000     15.3279      1.7952     11.9159    149.3395
  1383.2500     15.3504      2.0457     11.8223    145.4496
  1383.5000     15.3856      2.3115     11.7771    138.7783
  1383.7500     15.3662      2.6058     11.7725    134.4643
  1384.0000     15.2998      2.9427     11.8001    128.7922
  1384.2500     15.2380      3.3331     11.8496    125.5852
  1384.5000     15.2134      3.7813     11.9115    121.6737
  1384.7500     15.2062      4.2832     11.9796    119.8241
  1385.0000     15.1771      4.8264     12.0529    118.5853
  1385.2500     15.1182      5.3922     12.1337    118.9318
  1385.5000     15.0567      5.9591     12.2232    121.0268
  1385.7500     15.0109      6.5066     12.3177    123.0847
  1386.0000     14.9622      7.0183     12.4063    126.1873
  1386.2500     14.8779      7.4842     12.4737    127.5620
  1386.5000     14.7579      7.9026     12.5060    127.2493
  1386.7500     14.6431      8.2808     12.4987    124.9945
  1387.0000     14.5727      8.6356     12.4613    119.3056
  1387.2500     14.5472      8.9913     12.4146    115.3179
  1387.5000     14.5414      9.3770     12.3826    111.3176
  1387.7500     14.5408      9.8196     12.3833    110.3255
  1388.0000     14.5563     10.3370     12.4237    110.0353
  1388.2500     14.6139     10.9305     12.5004    109.5728
  1388.5000     14.7347     11.5811     12.6061    107.8784
  1388.7500     14.9128     12.2519     12.7362    106.7002
  1389.0000     15.1081     12.8957     12.8909    106.5210
  1389.2500     15.2668     13.4662     13.0721    107.8394
  1389.5000     15.3562     13.9297     13.2776    110.5680
  1389.7500     15.3853     14.2722     13.5001    111.3322
  1390.0000     15.3977     14.5014     13.7294    109.2881
  1390.2500     15.4407     14.6412     13.9552    106.2515
  1390.5000     15.5363     14.7246     14.1694    101.4675
  1390.7500     15.6818     14.7848     14.3669     99.2768
  1391.0000     15.8752     14.8503     14.5480     98.1071
  1391.2500     16.1212     14.9412     14.7188     98.4554
  1391.5000     16.4049     15.0699     14.8884     99.9821
  1391.7500     16.6735     15.2419     15.0615    101.4416
  1392.0000     16.8631     15.4569     15.2332    103.9679
  1392.2500     16.9354     15.7095     15.3930    105.5135
