~Version Information
VERS.                      2.0: CWLS Log ASCII Standard - VERSION 2.0
WRAP.                       NO: One line per depth step
~Well Information Block
STRT.FT                 0.0000: 
STOP.FT               816.5000: 
STEP.FT                 0.1000: 
NULL.                -999.2500: 
COMP.          Pioneer Natural Resources: COMPANY
WELL.           Weissach 32-32: WELL
FLD.           Purgatorie River: FIELD
LOC.           2193' FNL & 2256' FEL: LOCATION
STAT.                 Colorado: State
CNTY.               Las Animas: COUNTY
CTRY. USA : Country
SECT. 32 : Section
TOWN. 33S : Township
RANG. 66W : Range
SRVC.                Patterson: SERVICE COMPANY
DATE.          Mon Sep 26 09:15:29 2005: LOG DATE
API. 05-071-08523                         : UNIQUE WELL ID
~Curve Information Block
DEPT.FT            0 000 00 00: Depth
DCAL.in                       : CDL Caliper
RHOB.g/cc                     : CDL Bulk Density
RHOC.g/cc                     : CDL Density Correction
DPOR.pu                       : CDL Density Porosity
GR.GAPI                       : Gamma Ray
NPOR.pu                       : Neutron Porosity
~Parameter Information Block
~A  Depth       DCAL        RHOB        RHOC        DPOR         GR         NPOR    
# ...
   316.8000      8.1238      2.3253      2.0000     -0.0065     48.3273     21.1932
   316.9000      8.1238      2.3381      2.0000     -0.0062     48.4603     20.8227
   317.0000      8.1293      2.3357      2.0000     -0.0063     49.1366     20.8049
   317.1000      8.1293      2.3202      2.0000     -0.0066     50.5523     20.9741
   317.2000      8.1293      2.3124      2.0000     -0.0068     51.3519     21.1320
   317.3000      8.1299      2.3201      2.0000     -0.0066     50.5637     21.2474
   317.4000      8.1299      2.3390      2.0000     -0.0062     48.8722     21.3901
   317.5000      8.1219      2.3698      2.0000     -0.0056     48.4506     21.3873
   317.6000      8.1219      2.4025      2.0000     -0.0050     50.1874     21.0558
   317.7000      8.1219      2.4236      2.0000     -0.0045     52.2006     20.5052
   317.8000      8.1221      2.4416      2.0000     -0.0042     51.6679     20.0710
   317.9000      8.1221      2.4682      2.0000     -0.0036     48.1119     19.8397
   318.0000      8.1247      2.4888      2.0000     -0.0032     44.0073     19.5083
   318.1000      8.1247      2.4883      2.0000     -0.0032     42.2636     18.9023
   318.2000      8.1247      2.4820      2.0000     -0.0034     43.0020     18.5219
   318.3000      8.1281      2.4904      2.0000     -0.0032     43.4169     18.7799
   318.4000      8.1281      2.5156      2.0000     -0.0027     41.5486     19.2030
   318.5000      8.1282      2.5435      2.0000     -0.0021     38.7794     19.1849
   318.6000      8.1282      2.5511      2.0000     -0.0020     38.4604     18.6528
   318.7000      8.1282      2.5392      2.0000     -0.0022     40.8758     17.9295
   318.8000      8.1255      2.5333      2.0000     -0.0023     42.8083     17.1804
   318.9000      8.1255      2.5318      2.0000     -0.0024     42.8436     16.2978
   319.0000      8.1203      2.5102      2.0000     -0.0028     43.4086     15.4628
   319.1000      8.1203      2.4709      2.0000     -0.0036     47.3901     15.1331
   319.2000      8.1203      2.4336      2.0000     -0.0043     52.6148     15.4792
   319.3000      8.1210      2.4098      2.0000     -0.0048     55.3861     16.1409
   319.4000      8.1210      2.3954      2.0000     -0.0051     55.9245     16.4971
   319.5000      8.1179      2.3566      2.0000     -0.0059     55.7809     16.5322
   319.6000      8.1179      2.2818      2.0000     -0.0074     55.2720     16.5973
   319.7000      8.1179      2.2489      2.0000     -0.0080     53.9413     16.7501
   319.8000      8.1292      2.3157      2.0000     -0.0067     52.3540     17.0095
   319.9000      8.1292      2.4000      2.0000     -0.0050     51.9932     17.1787
   320.0000      8.1211      2.4294      2.0000     -0.0044     52.9686     17.1524
   320.1000      8.1211      2.4354      2.0000     -0.0043     53.0879     17.1468
   320.2000      8.1211      2.4482      2.0000     -0.0040     51.9880     17.1848
   320.3000      8.1234      2.4479      2.0000     -0.0040     51.3600     17.2457
   320.4000      8.1234      2.4186      2.0000     -0.0046     51.3080     17.6454
   320.5000      8.1275      2.3825      2.0000     -0.0054     52.1454     18.3985
   320.6000      8.1275      2.3658      2.0000     -0.0057     54.6189     18.7810
   320.7000      8.1275      2.3649      2.0000     -0.0057     56.9522     18.5419
   320.8000      8.1253      2.3616      2.0000     -0.0058     57.4070     18.3952
   320.9000      8.1253      2.3582      2.0000     -0.0058     57.0998     18.7667
   321.0000      8.1259      2.3639      2.0000     -0.0057     56.7112     19.2532
   321.1000      8.1259      2.3777      2.0000     -0.0054     56.6757     19.4509
   321.2000      8.1259      2.3928      2.0000     -0.0051     58.1874     19.4071
   321.3000      8.1181      2.3904      2.0000     -0.0052     60.4309     19.2240
   321.4000      8.1181      2.3613      2.0000     -0.0058     62.4098     19.1638
   321.5000      8.1115      2.3303      2.0000     -0.0064     63.9052     19.4911
   321.6000      8.1115      2.3184      2.0000     -0.0066     63.1003     19.9684
   321.7000      8.1115      2.3148      2.0000     -0.0067     60.0437     20.4068
   321.8000      8.1143      2.3050      2.0000     -0.0069     58.2258     20.8682
   321.9000      8.1143      2.2924      2.0000     -0.0072     58.4728     21.2583
   322.0000      8.1118      2.2876      2.0000     -0.0073     57.7569     21.5289
   322.1000      8.1118      2.2919      2.0000     -0.0072     56.3624     21.6361
   322.2000      8.1118      2.3104      2.0000     -0.0068     58.0699     21.5461
   322.3000      8.1188      2.3443      2.0000     -0.0061     62.4466     21.4119
   322.4000      8.1188      2.3700      2.0000     -0.0056     64.8767     21.4693
   322.5000      8.1150      2.3759      2.0000     -0.0055     63.9021     21.9924
   322.6000      8.1150      2.3742      2.0000     -0.0055     61.4876     22.9166
   322.7000      8.1150      2.3634      2.0000     -0.0057     59.6122     23.4629
   322.8000      8.1168      2.3501      2.0000     -0.0060     59.6946     22.8609
   322.9000      8.1168      2.3521      2.0000     -0.0060     61.5700     21.4574
   323.0000      8.1196      2.3624      2.0000     -0.0058     62.7451     20.5562
   323.1000      8.1196      2.3737      2.0000     -0.0055     61.9339     20.7652
   323.2000      8.1196      2.3863      2.0000     -0.0053     59.9432     21.3626
   323.3000      8.1155      2.3873      2.0000     -0.0053     57.3570     21.4002
   323.4000      8.1155      2.3789      2.0000     -0.0054     55.7198     20.9590
   323.5000      8.1121      2.3772      2.0000     -0.0055     55.0458     20.6130
   323.6000      8.1121      2.3748      2.0000     -0.0055     53.1128     20.2524
   323.7000      8.1121      2.3634      2.0000     -0.0057     51.4298     19.9351
   323.8000      8.1134      2.3605      2.0000     -0.0058     52.6754     20.0592
   323.9000      8.1134      2.3676      2.0000     -0.0057     56.1752     20.4714
   324.0000      8.1111      2.3648      2.0000     -0.0057     59.6597     20.8792
   324.1000      8.1111      2.3557      2.0000     -0.0059     61.7681     21.0865
   324.2000      8.1111      2.3582      2.0000     -0.0058     62.3351     20.9231
   324.3000      8.1141      2.3648      2.0000     -0.0057     61.3676     20.4598
   324.4000      8.1141      2.3593      2.0000     -0.0058     59.8438     19.9742
   324.5000      8.1084      2.3392      2.0000     -0.0062     58.9817     35.8479
   324.6000      8.1084      2.3184      2.0000     -0.0066     58.4407     35.7746
   324.7000      8.1084      2.3118      2.0000     -0.0068     57.8476     35.8138
   324.8000      8.0998      2.3142      2.0000     -0.0067     57.9821     35.9155
   324.9000      8.0998      2.3148      2.0000     -0.0067     57.8341     35.7776
   325.0000      8.1010      2.3221      2.0000     -0.0066     56.3166     35.4348
   325.1000      8.1010      2.3439      2.0000     -0.0061     54.8841     35.2135
   325.2000      8.1010      2.3698      2.0000     -0.0056     55.0956     35.3267
   325.3000      8.0961      2.3732      2.0000     -0.0055     56.2524     35.5923
   325.4000      8.0961      2.3200      2.0000     -0.0066     57.4101     35.4981
   325.5000      8.1006      2.2170      2.0000     -0.0087     58.0311     34.9771
   325.6000      8.1006      2.1094      2.0000     -0.0108     57.3974     34.3586
   325.7000      8.1006      2.0248      2.0000     -0.0125     56.8683     33.6068
   325.8000      8.0861      1.9749      2.0000     -0.0135     58.5180     32.4474
   325.9000      8.0861      1.9696     -0.6532     -0.0136     61.4402     30.8758
   326.0000      8.0780      2.0018     -0.5468     -0.0130     62.8634     29.1776
   326.1000      8.0780      2.0476     -0.5321     -0.0121     63.8457     27.6659
   326.2000      8.0780      2.0955     -0.4448     -0.0111     66.3417     26.3957
   326.3000      8.0842      2.1467     -0.3276     -0.0101     68.9541     25.1428
