~Version Information
VERS.                      2.0: CWLS Log ASCII Standard - VERSION 2.0
WRAP.                       NO: One line per depth step
~Well Information Block
STRT.FT               845.0000: 
STOP.FT              2102.0000: 
STEP.FT                 0.1000: 
NULL.                -999.2500: 
COMP.          Petrogulf Corporation: COMPANY
WELL.               YWAM 7-32R: WELL
FLD.           Purgatorie River: FIELD
LOC.           2355' FNL & 2376' FEL: LOCATION
PROV.                 Colorado: PROVINCE
CNTY.               Las Animas: COUNTRY
SRVC.                Patterson: SERVICE COMPANY
DATE.          Fri Sep 30 11:07:31 2005: LOG DATE
UWI.                          : UNIQUE WELL ID
~Curve Information Block
DEPT.FT            0 000 00 00: Depth
DCAL.in                       : CDL Caliper
RHOB.g/cc                     : CDL Bulk Density
RHOC.g/cc                     : CDL Density Correction
DPOR.pu                       : CDL Density Porosity
GR.GAPI                       : Gamma Ray
NPOR.pu                       : Neutron Porosity
~Parameter Information Block
~A  Depth       DCAL        RHOB        RHOC        DPOR         GR         NPOR    
# ...
   931.4000      8.2296      2.5444     -0.0179      6.3977    143.0745     28.0584
   931.5000      8.2294      2.5583      0.0181      5.5562    141.8388     28.0207
   931.6000      8.2294      2.5700      0.0306      4.8470    142.5396     28.0142
   931.7000      8.2294      2.5763     -0.0173      4.4684    143.5884     27.8132
   931.8000      8.2285      2.5851      0.0248      3.9327    140.6817     27.2039
   931.9000      8.2285      2.5935      0.0453      3.4240    133.5402     26.5280
   932.0000      8.2226      2.5924      0.0501      3.4910    127.2636     26.0736
   932.1000      8.2226      2.5898      0.0093      3.6457    125.1680     25.8237
   932.2000      8.2226      2.5979      0.0270      3.1597    126.5266     25.7277
   932.3000      8.2257      2.6063      0.0655      2.6468    129.9525     25.7056
   932.4000      8.2257      2.6066      0.0390      2.6324    134.6287     25.6094
   932.5000      8.2161      2.6124      0.0118      2.2783    138.5530     25.3567
   932.6000      8.2161      2.6298      0.0988      1.2233    137.4295     25.2375
   932.7000      8.2161      2.6429      0.0835      0.4315    132.2063     25.6234
   932.8000      8.2077      2.6397      0.0775      0.6224    129.3022     26.2586
   932.9000      8.2077      2.6242      0.0578      1.5620    128.0094     26.5547
   933.0000      8.2103      2.6085      0.0556      2.5179    123.4938     26.4440
   933.1000      8.2103      2.6025      0.0597      2.8779    117.4611     26.0327
   933.2000      8.2103      2.6095      0.0206      2.4545    113.2935     25.1929
   933.3000      8.1996      2.6252      0.0496      1.5011    111.5052     24.1119
   933.4000      8.1996      2.6420      0.0320      0.4826    111.2259     23.1677
   933.5000      8.2005      2.6541      0.0555     -0.2469    112.6077     22.3666
   933.6000      8.2005      2.6556      0.0352     -0.3381    117.2438     21.7364
   933.7000      8.2005      2.6425      0.0764      0.4563    123.2901     21.5619
   933.8000      8.1862      2.6186      0.0491      1.9027    127.5679     21.8395
   933.9000      8.1862      2.6021     -0.0034      2.9035    129.2941     22.1462
   934.0000      8.1570      2.6062      0.0175      2.6544    128.6642     22.2327
   934.1000      8.1570      2.6179      0.0756      1.9467    128.3075     21.9493
   934.2000      8.1570      2.6184      0.0413      1.9159    129.6478     21.1564
   934.3000      8.1825      2.6080      0.0244      2.5435    131.0251     20.3362
   934.4000      8.1825      2.5968      0.0231      3.2248    132.2280     20.1243
   934.5000      8.1872      2.5941      0.0329      3.3877    133.9155     20.3703
   934.6000      8.1872      2.6041      0.0291      2.7828    134.3847     20.6461
   934.7000      8.1872      2.6142      0.0580      2.1691    132.9951     21.0926
   934.8000      8.1581      2.6094      0.0438      2.4623    131.7222     21.9222
   934.9000      8.1581      2.5990      0.0222      3.0936    129.6540     23.0764
   935.0000      8.1796      2.6091     -0.0086      2.4770    123.9594     24.2707
   935.1000      8.1796      2.6573      0.0025     -0.4399    118.9447     24.9897
   935.2000      8.1796      2.7356      0.0524     -5.1866    118.8867     24.9045
   935.3000      8.1902      2.8170      0.0985    -10.1230    118.6819     24.1162
   935.4000      8.1902      2.8844      0.0793    -14.2090    114.3930     23.1731
   935.5000      8.1331      2.9394      0.0942    -17.5414    109.1271     22.9258
   935.6000      8.1331      2.9764      0.1325    -19.7816    105.3656     23.4183
   935.7000      8.1331      2.9864      0.0981    -20.3866    101.3523     23.8209
   935.8000      8.1453      2.9719      0.0847    -19.5119     96.8243     23.9397
   935.9000      8.1453      2.9358      0.0217    -17.3239     95.4428     24.1837
   936.0000      8.1467      2.8775     -0.0366    -13.7855     99.5772     24.7426
   936.1000      8.1467      2.7971     -0.0626     -8.9153    104.2412     25.4266
   936.2000      8.1467      2.7033     -0.0591     -3.2281    103.8801     25.8590
   936.3000      8.1624      2.6226     -0.0841      1.6596    103.5395     26.0892
   936.4000      8.1624      2.5812     -0.0330      4.1686    110.5974     26.2960
   936.5000      8.1477      2.5617      0.0928      5.3538    123.3517     26.5226
   936.6000      8.1477      2.5226      0.0904      7.7206    135.2589     26.8829
   936.7000      8.1477      2.4523      0.0713     11.9835    141.4188     27.2005
   936.8000      8.1459      2.3692      0.0292     17.0179    141.6046     27.5695
   936.9000      8.1459      2.2979      0.0619     21.3386    142.0465     28.4047
   937.0000      8.1513      2.2521      0.0469     24.1150    149.0285     29.4551
   937.1000      8.1513      2.2344      0.0707     25.1905    158.9790     30.2719
   937.2000      8.1513      2.2408      0.0721     24.7977    163.7203     30.7447
   937.3000      8.1647      2.2639      0.0917     23.4018    160.8377     30.8023
   937.4000      8.1647      2.2977      0.1248     21.3514    155.3155     30.6044
   937.5000      8.1800      2.3390      0.1313     18.8486    153.3945     30.5643
   937.6000      8.1800      2.3848      0.1901     16.0701    154.3467     30.8856
   937.7000      8.1800      2.4349      0.2043     13.0356    155.8819     31.3905
   937.8000      8.1586      2.4825      0.1670     10.1505    158.8331     31.6765
   937.9000      8.1586      2.5166      0.0988      8.0848    159.9433     31.5610
   938.0000      8.1651      2.5419      0.0477      6.5532    156.4662     31.1991
   938.1000      8.1651      2.5652      0.0777      5.1409    153.7060     30.8393
   938.2000      8.1651      2.5801      0.0116      4.2347    154.3551     30.5548
   938.3000      8.1667      2.5867      0.0031      3.8350    153.7406     30.1645
   938.4000      8.1667      2.5889      0.0110      3.7011    148.1649     29.5130
   938.5000      8.2031      2.5832      0.0353      4.0509    139.3236     28.7587
   938.6000      8.2031      2.5730     -0.0320      4.6694    132.6428     28.2653
   938.7000      8.2031      2.5688     -0.0033      4.9237    131.1913     28.0537
   938.8000      8.1754      2.5707     -0.0195      4.8077    133.2597     27.7011
   938.9000      8.1754      2.5737     -0.0281      4.6266    136.2546     27.1310
   939.0000      8.1457      2.5764     -0.0318      4.4587    137.2541     26.6904
   939.1000      8.1457      2.5781     -0.0053      4.3585    135.4756     26.5493
   939.2000      8.1457      2.5737      0.0064      4.6222    134.1593     26.6142
   939.3000      8.1730      2.5653     -0.0087      5.1316    135.8287     26.7056
   939.4000      8.1730      2.5631      0.0224      5.2683    138.9774     26.7365
   939.5000      8.1562      2.5678      0.0668      4.9834    140.5150     26.7660
   939.6000      8.1562      2.5685      0.0705      4.9405    140.6639     26.7232
   939.7000      8.1562      2.5571      0.0440      5.6292    139.6648     26.4952
   939.8000      8.1625      2.5389      0.0552      6.7318    137.9383     26.2307
   939.9000      8.1625      2.5224      0.0372      7.7339    139.6691     26.2125
   940.0000      8.1794      2.5088      0.0487      8.5561    146.2114     26.5568
   940.1000      8.1794      2.5004      0.0213      9.0647    153.4750     27.1981
   940.2000      8.1794      2.5023      0.0556      8.9507    157.3898     28.0404
   940.3000      8.2245      2.5111      0.0640      8.4179    158.0007     28.7446
   940.4000      8.2245      2.5193      0.1063      7.9201    156.9838     28.8596
   940.5000      8.2705      2.5233      0.0657      7.6772    154.5284     28.4940
   940.6000      8.2705      2.5229      0.0590      7.7047    151.0057     28.3042
   940.7000      8.2705      2.5252      0.0289      7.5650    148.2446     28.5677
   940.8000      8.2840      2.5399      0.0706      6.6709    147.6614     28.9232
   940.9000      8.2840      2.5606      0.1119      5.4187    148.5485     29.0324
