~Version Information
VERS.                      2.0: CWLS Log ASCII Standard - VERSION 2.0
WRAP.                       NO: One line per depth step
~Well Information Block
STRT.FT                10.0000: 
STOP.FT               907.0000: 
STEP.FT                 0.1000: 
NULL.                -999.2500: 
COMP.          Pioneer Natural Resources: COMPANY
WELL.           Hartford 31-18: WELL
FLD.           Purgatorie River: FIELD
LOC.           375' FNL & 1660' FEL: LOCATION
PROV.                 Colorado: PROVINCE
CNTY.               Las Animas: COUNTRY
SRVC.                Patterson: SERVICE COMPANY
DATE.          Mon Nov 21 07:39:41 2005: LOG DATE
UWI.            05-071-08555              : UNIQUE WELL ID
~Curve Information Block
DEPT.FT            0 000 00 00: Depth
DCAL.in                       : CDL Caliper
RHOB.g/cc                     : CDL Bulk Density
RHOC.g/cc                     : CDL Density Correction
DPOR.pu                       : CDL Density Porosity
GR.GAPI                       : Gamma Ray
NPOR.pu                       : Neutron Porosity
~Parameter Information Block
~A  Depth       DCAL        RHOB        RHOC        DPOR         GR         NPOR    
# ...
   595.6000      7.9778      2.5792      0.0235      4.2936     39.3427      6.4768
   595.7000      7.9778      2.5811      0.0610      4.1764     41.5505      8.0654
   595.8000      7.9556      2.5759      0.0568      4.4934     43.6513     10.3822
   595.9000      7.9556      2.5601      0.0385      5.4455     45.9533     12.4516
   596.0000      7.9396      2.5421      0.0134      6.5389     49.3738     13.5230
   596.1000      7.9396      2.5336     -0.0114      7.0544     54.0613     13.5556
   596.2000      7.9396      2.5318      0.0104      7.1640     59.6857     12.7331
   596.3000      7.9710      2.5246      0.0215      7.6023     65.4288     10.6854
   596.4000      7.9710      2.5066      0.0337      8.6934     70.5395      8.5020
   596.5000      7.9325      2.4781     -0.0007     10.4198     75.8757     10.0162
   596.6000      7.9325      2.4449     -0.0165     12.4281     81.4966     13.9254
   596.7000      7.9325      2.4186      0.0134     14.0223     86.9475     17.0575
   596.8000      7.9895      2.4067     -0.0080     14.7480    103.3518     17.9764
   596.9000      7.9895      2.4140     -0.0175     14.3046    106.2930     16.8940
   597.0000      7.9808      2.4380      0.0386     12.8476    104.0395     16.2303
   597.1000      7.9808      2.4618      0.0823     11.4090    101.4324     17.6711
   597.2000      7.9808      2.4705      0.0876     10.8804    102.7002     20.1486
   597.3000      7.9691      2.4738      0.0391     10.6808    104.8189     21.2999
   597.4000      7.9691      2.4944      0.0901      9.4279    103.9052     20.4563
   597.5000      7.9918      2.5286      0.1606      7.3550    100.7650     18.7720
   597.6000      7.9918      2.5495      0.2021      6.0912     99.3913     17.9234
   597.7000      7.9918      2.5479      0.1545      6.1892    102.7222     18.7773
   597.8000      7.9642      2.5333      0.1605      7.0745    119.3382     20.8408
   597.9000      7.9642      2.5142      0.0972      8.2276    120.6818     21.8089
   598.0000      7.9148      2.5022      0.1085      8.9589    117.6598     19.8025
   598.1000      7.9148      2.5085      0.0792      8.5764    114.1578     16.9507
   598.2000      7.9148      2.5300      0.0951      7.2701    110.9204     16.2599
   598.3000      7.9054      2.5475      0.1515      6.2128    109.1509     18.3770
   598.4000      7.9054      2.5504      0.0972      6.0388    110.3090     21.1995
   598.5000      7.9292      2.5438      0.1016      6.4352    113.0530     21.9699
   598.6000      7.9292      2.5254      0.0559      7.5488    113.6485     20.9468
   598.7000      7.9292      2.5007      0.0271      9.0468    110.4585     19.2364
   598.8000      7.9324      2.4939     -0.0048      9.4588    122.0578     17.8814
   598.9000      7.9324      2.5181      0.0320      7.9925    123.9464     18.2211
   599.0000      7.9632      2.5541      0.0665      5.8132    130.4236     19.5042
   599.1000      7.9632      2.5685      0.1136      4.9421    132.1716     19.1630
   599.2000      7.9632      2.5575      0.0211      5.6059    126.6774     18.1877
   599.3000      7.9938      2.5473      0.0414      6.2233    122.7807     19.3520
   599.4000      7.9938      2.5471      0.0391      6.2339    125.0297     22.4966
   599.5000      8.0106      2.5440      0.0546      6.4273    129.0912     25.0310
   599.6000      8.0106      2.5332      0.0229      7.0779    133.4124     25.3211
   599.7000      8.0106      2.5264      0.0108      7.4930    136.2152     23.6582
   599.8000      8.0229      2.5277      0.0313      7.4109    134.5130     20.7842
   599.9000      8.0229      2.5345      0.0171      7.0006    131.7190     18.5246
   600.0000      8.0212      2.5474      0.0555      6.2173    131.9455     18.5879
   600.1000      8.0212      2.5598      0.0597      5.4679    135.2810     20.8994
   600.2000      8.0212      2.5646      0.0441      5.1785    138.9040     22.8529
   600.3000      7.9983      2.5623      0.0531      5.3165    139.2456     21.9894
   600.4000      7.9983      2.5533      0.0491      5.8603    137.8057     20.5067
   600.5000      7.9933      2.5424      0.0255      6.5210    137.0517     20.2183
   600.6000      7.9933      2.5388      0.0339      6.7416    135.2513     19.8283
   600.7000      7.9933      2.5423      0.0224      6.5301    132.5582     19.6566
   600.8000      7.9931      2.5426      0.0457      6.5076    133.1443     21.3081
   600.9000      7.9931      2.5335      0.0163      7.0632    137.3432     23.5551
   601.0000      7.9598      2.5132      0.0302      8.2890    139.8792     24.1783
   601.1000      7.9598      2.4862      0.0016      9.9297    137.2901     23.0791
   601.2000      7.9598      2.4719     -0.0446     10.7946    131.8703     20.6149
   601.3000      7.9856      2.4817      0.0054     10.1971    126.7743     17.9943
   601.4000      7.9856      2.4992      0.0266      9.1395    124.2042     17.2199
   601.5000      7.9731      2.5097      0.0227      8.5019    127.5189     19.1187
   601.6000      7.9731      2.5170      0.0150      8.0622    135.5708     22.0881
   601.7000      7.9731      2.5241      0.0322      7.6300    141.2465     22.6482
   601.8000      7.9640      2.5287      0.0168      7.3523    141.1683     20.9433
   601.9000      7.9640      2.5270      0.0535      7.4542    137.4607     20.4309
   602.0000      7.9745      2.5201      0.0139      7.8750    132.3490     22.2248
   602.1000      7.9745      2.5165      0.0059      8.0929    127.7784     23.7761
   602.2000      7.9745      2.5148      0.0258      8.1917    125.5505     22.1391
   602.3000      7.9991      2.5091      0.0222      8.5394    125.6896     19.3998
   602.4000      7.9991      2.5028      0.0303      8.9202    126.2944     18.8336
   602.5000      7.9830      2.4946      0.0517      9.4207    126.2129     20.9130
   602.6000      7.9830      2.4845     -0.0148     10.0312    127.4778     23.6842
   602.7000      7.9830      2.4857     -0.0252      9.9571    130.7794     24.2473
   602.8000      8.0024      2.4987     -0.0209      9.1711    132.1729     22.0783
   602.9000      8.0024      2.5061      0.0220      8.7218    130.4687     20.0573
   603.0000      8.0112      2.5049     -0.0126      8.7920    130.8213     20.5776
   603.1000      8.0112      2.5102      0.0331      8.4721    133.8616     23.2653
   603.2000      8.0112      2.5220      0.0829      7.7587    133.7305     25.4951
   603.3000      7.9836      2.5265      0.0255      7.4831    130.7494     25.0608
   603.4000      7.9836      2.5182      0.0595      7.9879    130.8389     22.0131
   603.5000      7.9536      2.5020      0.0104      8.9668    132.4014     18.4424
   603.6000      7.9536      2.4936      0.0069      9.4813    130.5426     17.0198
   603.7000      7.9536      2.4998      0.0349      9.1059    128.4741     18.6047
   603.8000      7.9502      2.5086      0.0689      8.5681    130.0183     21.4529
   603.9000      7.9502      2.5116      0.0627      8.3909    132.2441     22.1626
   604.0000      7.9524      2.5173      0.0357      8.0449    132.1154     20.6428
   604.1000      7.9524      2.5285      0.0989      7.3641    130.0946     19.5240
   604.2000      7.9524      2.5343      0.0725      7.0132    125.3546     20.0344
   604.3000      7.9602      2.5381      0.0629      6.7796    117.8252     21.1398
   604.4000      7.9602      2.5525      0.0836      5.9065    113.1652     20.4065
   604.5000      7.9664      2.5810      0.0630      4.1800    115.8381     19.1230
   604.6000      7.9664      2.6144      0.1231      2.1571    120.7573     20.0603
   604.7000      7.9664      2.6359      0.1293      0.8554    118.5571     22.6325
   604.8000      7.9548      2.6457      0.0793      0.2634    109.9524     23.9215
   604.9000      7.9548      2.6571      0.1128     -0.4305    103.5543     22.4839
   605.0000      7.9293      2.6683      0.1478     -1.1074    100.6210     19.6343
   605.1000      7.9293      2.6704      0.0829     -1.2348     95.5917     17.8145
