~Version Information
VERS.                      2.0: CWLS Log ASCII Standard - VERSION 2.0
WRAP.                       NO: One line per depth step
~Well Information Block
STRT.FT                -8.5000: 
STOP.FT              2591.0000: 
STEP.FT                 0.2500: 
NULL.                -999.2500: 
COMP.          Pioneer Natural Resources: COMPANY
WELL.             Aviator 12-4: WELL
FLD.           Purgatorie River: FIELD
LOC.           1969' FNL & 732' FWL--: LOCATION
CNTY.               Las Animas: COUNTY
SRVC.          Patterson Wireline: SERVICE COMPANY
DATE.          Wed Apr 19 09:09:26 2006: LOG DATE
UWI.           05 071 08714 00: UNIQUE WELL ID
STAT.                       CO: STATE
~Curve Information Block
DEPT.FT            0 000 00 00: Depth
CCL.                          : Casing Collar Locator
TT3.usec                      : CBL 3' Travel Time
AMP3.mV                       : CBL 3' Amplitude
GR.GAPI                       : Gamma Ray
~Parameter Information Block
~A  Depth       CCL         TT3         AMP3         GR     
# ...
   494.0000      0.0000    788.5784     11.3543     44.6760
   494.2500      0.0000    788.4313     11.4017     42.8780
   494.5000      0.0000    788.2232     11.4502     40.1820
   494.7500      0.0000    788.0253     11.5048     36.8378
   495.0000      0.0000    787.8309     11.5728     34.1629
   495.2500      0.0000    787.5783     11.6656     33.0009
   495.5000      0.0000    787.1641     11.7812     32.9775
   495.7500      0.0000    786.0775     11.8985     33.2824
   496.0000      0.0000    782.3076     12.0019     33.5964
   496.2500      0.0000    770.6433     12.1069     34.0532
   496.5000      0.0000    742.2598     12.2561     34.7708
   496.7500      0.0000    688.8171     12.4860     35.7493
   497.0000      0.0000    610.8077     12.7976     37.0592
   497.2500      0.0000    522.2991     13.1483     38.9141
   497.5000      0.0000    444.1230     13.4742     41.4662
   497.7500      0.0000    390.3153     13.7281     44.5085
   498.0000      0.0000    361.4157     13.9065     47.5420
   498.2500      0.0000    349.2558     14.0415     50.3699
   498.5000      0.0000    345.1921     14.1671     53.6004
   498.7500      0.0000    344.0570     14.2957     58.1785
   499.0000      0.0000    343.7364     14.4207     64.1535
   499.2500      0.0000    343.5940     14.5300     70.1979
   499.5000      0.0000    343.4916     14.6116     74.7451
   499.7500      0.0000    343.4157     14.6550     77.2704
   500.0000      0.0000    343.3927     14.6536     78.0736
   500.2500      0.0000    343.4695     14.6059     77.5173
   500.5000      0.0000    343.7763     14.5135     76.2855
   500.7500      0.0000    344.9119     14.3821     75.6681
   501.0000      0.0000    348.9537     14.2234     76.4479
   501.2500      0.0000    361.0543     14.0496     77.7186
   501.5000      0.0000    389.8610     13.8644     77.5660
   501.7500      0.0000    443.5481     13.6630     74.8289
   502.0000      0.0000    521.5736     13.4427     69.9549
   502.2500      0.0000    609.9124     13.2123     64.6647
   502.5000      0.0000    687.8077     12.9899     61.1736
   502.7500      0.0000    741.3173     12.7877     61.1920
   503.0000      0.0000    769.9991     12.5979     64.9664
   503.2500      0.0000    782.0684     12.3978     71.1597
   503.5000      0.0000    786.1392     12.1701     77.8987
   503.7500      0.0000    787.3072     11.9171     84.0221
   504.0000      0.0000    787.6134     11.6555     89.2924
   504.2500      0.0000    787.6428     11.4054     93.5761
   504.5000      0.0000    787.5237     11.1856     96.2208
   504.7500      0.0000    787.3085     11.0099     96.4404
   505.0000      0.0000    787.0408     10.8768     94.1829
   505.2500      0.0000    786.7862     10.7658     90.4882
   505.5000      0.0000    786.6188     10.6523     87.0712
   505.7500      0.0000    786.5714     10.5278     85.4983
   506.0000      0.0000    786.5931     10.4034     86.4364
   506.2500      0.0000    786.5840     10.2936     89.4454
   506.5000      0.0000    786.4752     10.2019     93.5208
   506.7500      0.0000    786.2694     10.1220     97.8375
   507.0000      0.0000    786.0250     10.0505    101.9591
   507.2500      0.0000    785.8138      9.9963    105.6390
   507.5000      0.0000    785.6830      9.9805    108.6883
   507.7500      0.0000    785.6404     10.0229    110.8387
   508.0000      0.0000    785.6929     10.1269    111.4933
   508.2500      0.0000    785.9287     10.2730    109.7521
   508.5000      0.0000    786.5988     10.4259    104.9760
   508.7500      0.0000    788.0389     10.5542     97.5680
   509.0000      0.0000    790.2357     10.6481     89.2970
   509.2500      0.0000    792.3228     10.7228     82.6187
   509.5000      0.0000    792.4982     10.8069     79.2266
   509.7500      0.0000    788.4713     10.9295     78.9949
   510.0000      0.0000    777.3120     11.1148     80.3495
   510.2500      0.0000    755.4122     11.3752     81.7590
   510.5000      0.0000    721.1331     11.6954     82.9587
   510.7500      0.0000    679.7968     12.0180     84.7499
   511.0000      0.0000    644.9166     12.2586     87.6584
   511.2500      0.0000    631.4624     12.3508     91.1453
   511.5000      0.0000    645.9435     12.2874     94.5116
   511.7500      0.0000    681.8801     12.1206     98.2020
   512.0000      0.0000    724.2917     11.9247    103.2868
   512.2500      0.0000    759.3392     11.7538    109.5034
   512.5000      0.0000    781.0061     11.6225    114.6800
   512.7500      0.0000    790.5414     11.5154    116.5944
   513.0000      0.0000    792.2252     11.4099    114.9630
   513.2500      0.0000    790.2833     11.2920    111.3991
   513.5000      0.0000    787.6498     11.1636    107.8845
   513.7500      0.0000    785.7028     11.0460    105.4005
   514.0000      0.0000    784.5823     10.9790    103.6630
   514.2500      0.0000    783.9367     11.0009    102.1563
   514.5000      0.0000    783.3287     11.1226    101.3014
   514.7500      0.0000    782.0344     11.3208    101.8116
   515.0000      0.0000    778.1000     11.5595    102.8126
   515.2500      0.0000    767.1452     11.8147    101.8571
   515.5000      0.0000    742.9499     12.0766     97.4378
   515.7500      0.0000    702.9826     12.3342     90.6972
   516.0000      0.0000    656.8966     12.5649     84.1473
   516.2500      0.0000    626.5711     12.7410     79.3596
   516.5000      0.0000    629.4705     12.8455     76.4192
   516.7500      0.0000    658.8386     12.8854     74.8867
   517.0000      0.0000    685.3228     12.8893     74.2647
   517.2500      0.0000    682.6926     12.8903     73.7200
   517.5000      0.0000    651.9568     12.9056     72.4495
   517.7500      0.0000    619.4685     12.9318     70.6931
   518.0000      0.0000    610.7261     12.9612     69.8291
   518.2500      0.0000    626.5664     12.9969     71.1828
   518.5000      0.0000    646.5213     13.0499     74.9291
   518.7500      0.0000    651.8005     13.1241     80.1582
   519.0000      0.0000    637.6986     13.2118     85.7005
   519.2500      0.0000    605.6656     13.3062     90.7617
   519.5000      0.0000    556.0119     13.4094     94.8474
   519.7500      0.0000    493.7752     13.5270     97.3380
   520.0000      0.0000    432.8573     13.6597     97.5623
   520.2500      0.0000    387.2834     13.7999     95.4536
   520.5000      0.0000    361.2387     13.9327     91.8984
   520.7500      0.0000    349.8115     14.0386     88.2899
   521.0000      0.0000    346.1009     14.0973     85.7780
   521.2500      0.0000    346.1595     14.0912     84.7951
   521.5000      0.0000    350.3009     14.0079     85.1172
   521.7500      0.0000    363.5616     13.8466     86.3052
   522.0000      0.0000    395.1869     13.6201     88.0234
   522.2500      0.0000    453.9768     13.3480     89.9160
   522.5000      0.0000    539.2822     13.0478     91.3745
   522.7500      0.0000    635.8029     12.7385     91.7654
   523.0000      0.0000    720.9182     12.4480     91.0414
   523.2500      0.0000    779.4171     12.2091     89.9193
   523.5000      0.0000    810.7833     12.0427     89.1023
   523.7500      0.0000    823.9506     11.9434     88.4806
   524.0000      0.0000    828.3299     11.8822     87.5135
   524.2500      0.0000    829.5283     11.8249     86.3332
   524.5000      0.0000    829.8304     11.7494     86.1519
   524.7500      0.0000    829.9249     11.6511     88.4337
   525.0000      0.0000    829.9718     11.5401     93.4876
   525.2500      0.0000    829.9679     11.4366     99.7583
   525.5000      0.0000    829.7574     11.3629    104.8556
   525.7500      0.0000    829.0195     11.3361    107.6028
   526.0000      0.0000    827.3982     11.3645    108.8306
   526.2500      0.0000    824.9281     11.4425    109.8851
   526.5000      0.0000    822.4359     11.5410    110.7575
   526.7500      0.0000    821.1675     11.6095    110.4277
   527.0000      0.0000    821.5627     11.6053    108.8814
   527.2500      0.0000    822.4074     11.5256    107.6668
