~Version Information
VERS.                      2.0: CWLS Log ASCII Standard - VERSION 2.0
WRAP.                       NO: One line per depth step
~Well Information Block
STRT.FT               665.0000: 
STOP.FT              2193.5000: 
STEP.FT                 0.1000: 
NULL.                -999.2500: 
COMP.          Pioneer Natural Resources: COMPANY
WELL.          Bear Cub Federal 11-23: WELL
FLD.           Purgatoire River: FIELD
LOC.           1225' FNL & 1268' FWL--: LOCATION
CNTY.               Las Animas: COUNTY
SRVC.                Patterson: SERVICE COMPANY
DATE.          Tue Jun 20 09:14:02 2006: LOG DATE
UWI.           05 071 08509 00: UNIQUE WELL ID
STAT.                 Colorado: STATE
~Curve Information Block
DEPT.FT            0 000 00 00: Depth
DCAL.in                       : CDL Caliper
RHOB.g/cc                     : CDL Bulk Density
RHOC.g/cc                     : CDL Density Correction
DPOR.pu                       : CDL Density Porosity
NPOR.pu                       : Neutron Porosity
GR.GAPI                       : Gamma Ray
~Parameter Information Block
~A  Depth       DCAL        RHOB        RHOC        DPOR        NPOR         GR     
# ...
   761.0000      7.8160      2.4025      0.0063     15.0004     14.2720     59.5147
   761.1000      7.8160      2.3857      0.0295     16.0169     15.5523     63.5054
   761.2000      7.8160      2.3579      0.0362     17.7006     16.1327     67.5392
   761.3000      7.8138      2.3079      0.0798     20.7356     15.6965     71.6035
   761.4000      7.8138      2.2329      0.0237     25.2793     14.7280     75.9223
   761.5000      7.8125      2.1507      0.0235     30.2593     13.8246     78.0710
   761.6000      7.8125      2.0834      0.0571     34.3399     13.3496     76.2195
   761.7000      7.8125      2.0367      0.0889     37.1678     13.2428     72.2545
   761.8000      7.8118      2.0015      0.1062     39.3031     13.1090     71.4510
   761.9000      7.8118      1.9714      0.0620     41.1243     12.8024     76.2451
   762.0000      7.8111      1.9537      0.0014     42.1978     12.3764     82.6421
   762.1000      7.8111      1.9527      0.0451     42.2617     11.9300     87.6044
   762.2000      7.8111      1.9566      0.0683     42.0222     11.7463     90.8445
   762.3000      7.8121      1.9551      0.0693     42.1175     11.8509     90.6582
   762.4000      7.8121      1.9520      0.0484     42.3054     11.9715     88.4290
   762.5000      7.8137      1.9571      0.0492     41.9950     12.0588     87.2089
   762.6000      7.8137      1.9732      0.0447     41.0167     12.2622     86.3638
   762.7000      7.8137      1.9918      0.0680     39.8930     12.5993     85.9227
   762.8000      7.8140      2.0014      0.0532     39.3072     12.9787     85.8966
   762.9000      7.8140      2.0051      0.0292     39.0848     13.2343     85.9322
   763.0000      7.8133      2.0201     -0.0126     38.1771     13.2666     87.9224
   763.1000      7.8133      2.0566      0.0481     35.9666     13.2885     93.9428
   763.2000      7.8133      2.1090      0.0473     32.7853     13.5712    104.2415
   763.3000      7.8139      2.1683      0.0909     29.1956     14.1001    114.0962
   763.4000      7.8139      2.2309      0.0583     25.4016     14.5448    117.2141
   763.5000      7.8167      2.2981      0.1247     21.3300     14.8477    114.9943
   763.6000      7.8167      2.3606      0.1689     17.5373     15.2575    114.4931
   763.7000      7.8167      2.4075      0.1133     14.6986     15.9048    118.1521
   763.8000      7.8174      2.4442      0.1142     12.4725     16.9724    121.8673
   763.9000      7.8174      2.4859      0.0806      9.9454     18.5029    123.6488
   764.0000      7.8155      2.5340      0.1253      7.0295     20.0245    126.0611
   764.1000      7.8155      2.5717      0.1189      4.7481     21.1891    131.1627
   764.2000      7.8155      2.5925      0.0814      3.4857     22.1081    138.4541
   764.3000      7.8147      2.6032      0.0933      2.8385     22.7617    142.8805
   764.4000      7.8147      2.5940      0.0864      3.3930     23.1479    141.5619
   764.5000      7.8163      2.5516      0.0686      5.9622     23.3483    139.2563
   764.6000      7.8163      2.4938      0.0072      9.4664     23.2781    140.2505
   764.7000      7.8163      2.4514      0.0019     12.0342     23.2930    140.2013
   764.8000      7.8181      2.4344     -0.0009     13.0638     23.6485    135.1577
   764.9000      7.8181      2.4381      0.0297     12.8435     23.9909    132.5932
   765.0000      7.8193      2.4489      0.0671     12.1870     24.2194    136.2520
   765.1000      7.8193      2.4534      0.0659     11.9123     24.5843    140.7781
   765.2000      7.8193      2.4513      0.0859     12.0427     25.1492    144.8601
   765.3000      7.8188      2.4423      0.1101     12.5878     25.7899    147.4899
   765.4000      7.8188      2.4241      0.0988     13.6930     26.0405    147.8801
   765.5000      7.8171      2.4074      0.1234     14.7058     25.7688    149.6290
   765.6000      7.8171      2.4052      0.1499     14.8379     25.5500    153.3358
   765.7000      7.8171      2.4179      0.1446     14.0655     25.5663    155.2375
   765.8000      7.8161      2.4395      0.1824     12.7581     25.5866    153.8314
   765.9000      7.8161      2.4680      0.1809     11.0316     25.7355    148.7019
   766.0000      7.8169      2.4974      0.2230      9.2466     26.0869    141.4790
   766.1000      7.8169      2.5105      0.2187      8.4520     26.3136    133.9631
   766.2000      7.8169      2.5092      0.1238      8.5318     26.1565    126.8118
   766.3000      7.8170      2.5191      0.1757      7.9318     25.7331    123.5133
   766.4000      7.8170      2.5418      0.2730      6.5584     25.5509    126.3142
   766.5000      7.8141      2.5573      0.2913      5.6193     25.8321    131.4307
   766.6000      7.8141      2.5633      0.2858      5.2536     26.2280    133.8236
   766.7000      7.8141      2.5646      0.2481      5.1747     26.4775    134.0714
   766.8000      7.8103      2.5519      0.1774      5.9455     26.5510    136.2073
   766.9000      7.8103      2.5209      0.1153      7.8236     26.4970    139.8716
   767.0000      7.8094      2.4903      0.0468      9.6762     26.4751    142.4964
   767.1000      7.8094      2.4800      0.0795     10.3055     26.4405    145.8423
   767.2000      7.8094      2.4874      0.0880      9.8536     26.1400    148.4023
   767.3000      7.8109      2.5048      0.0860      8.8018     25.5360    145.9257
   767.4000      7.8109      2.5242      0.1406      7.6223     24.7622    140.4489
   767.5000      7.8105      2.5339      0.1365      7.0381     23.9464    135.4173
   767.6000      7.8105      2.5359      0.1357      6.9132     23.4615    133.2698
   767.7000      7.8105      2.5426      0.1292      6.5090     23.5312    136.0277
   767.8000      7.8082      2.5505      0.1443      6.0327     23.8029    140.8073
   767.9000      7.8082      2.5449      0.1381      6.3724     23.9329    141.2204
   768.0000      7.8078      2.5239      0.1156      7.6443     23.9653    134.6133
   768.1000      7.8078      2.5053      0.0782      8.7726     24.1019    124.2345
   768.2000      7.8078      2.5043      0.0799      8.8302     24.2944    116.5175
   768.3000      7.8086      2.5098      0.1103      8.4975     24.2798    120.4452
   768.4000      7.8086      2.5000      0.1104      9.0914     24.2033    135.8006
   768.5000      7.8087      2.4719      0.0691     10.7956     24.3161    144.7870
   768.6000      7.8087      2.4390      0.0710     12.7853     24.6142    139.9115
   768.7000      7.8087      2.4217      0.0399     13.8392     25.1096    134.5268
   768.8000      7.8099      2.4300      0.1008     13.3325     25.7884    135.0159
   768.9000      7.8099      2.4502      0.0916     12.1099     26.2218    136.1439
   769.0000      7.8119      2.4672      0.0616     11.0801     25.9909    136.3135
   769.1000      7.8119      2.4781      0.1136     10.4170     25.4044    137.0356
   769.2000      7.8119      2.4834      0.1586     10.0994     24.9072    136.0994
   769.3000      7.8120      2.4896      0.1593      9.7188     24.6108    133.4028
   769.4000      7.8120      2.4999      0.1570      9.0978     24.4936    133.3300
   769.5000      7.8101      2.5006      0.2076      9.0524     24.4853    136.4498
   769.6000      7.8101      2.4786      0.2022     10.3873     24.3361    138.4392
   769.7000      7.8101      2.4431      0.1221     12.5417     23.8588    139.1519
   769.8000      7.8089      2.4194      0.0296     13.9759     23.1881    138.8271
   769.9000      7.8089      2.4191      0.0402     13.9944     22.6483    137.2342
   770.0000      7.8138      2.4293      0.0901     13.3786     22.3276    136.5171
   770.1000      7.8138      2.4363      0.1016     12.9496     21.9949    134.6197
   770.2000      7.8138      2.4393      0.1218     12.7671     21.7751    129.8385
   770.3000      7.8257      2.4447      0.1089     12.4441     21.8208    125.6759
   770.4000      7.8257      2.4576      0.1051     11.6627     21.7938    125.8090
   770.5000      7.8336      2.4710      0.1239     10.8501     21.6160    128.7792
