~Version Information
VERS.                      2.0: CWLS Log ASCII Standard - VERSION 2.0
WRAP.                       NO: One line per depth step
~Well Information Block
STRT.FT                -5.5000: 
STOP.FT              2262.7500: 
STEP.FT                 0.2500: 
NULL.                -999.2500: 
COMP.          Pioneer Natural Resources: COMPANY
WELL.             Baa Baa 34-1: WELL
FLD.           Purgatorie River: FIELD
LOC.           617' FSL & 2289' FEL------: LOCATION
STAT.                       CO: State
CNTY.               Las Animas: COUNTY
CTRY. USA : Country
SECT. 1 : Section
TOWN. 33S : Township
RANG. 67W : Range
SRVC.          Patterson Wireline: SERVICE COMPANY
DATE.          Mon Sep 12 14:08:52 2005: LOG DATE
API.           05 071 08502 00: UNIQUE WELL ID
~Curve Information Block
DEPT.FT            0 000 00 00: Depth
LTEN.lb                       : Surface Line Tension
CCL.                          : Casing Collar Locator
TT3.usec                      : CBL 3' Travel Time
AMP3.mV                       : CBL 3' Amplitude
GR.GAPI                       : Gamma Ray
~Parameter Information Block
~A  Depth       LTEN        CCL         TT3         AMP3         GR     
# ...
  1030.5000  -4527.8677      0.0000    721.2252      2.2359     53.1781
  1030.7500  -4533.1958      0.0000    716.7636      2.3111     61.4735
  1031.0000  -4538.5244      0.0000    713.3315      2.4710     71.6362
  1031.2500  -4533.1958      0.0000    712.4337      2.7390     82.2785
  1031.5000  -4531.8638      0.0000    713.6400      3.1219     91.9193
  1031.7500  -4537.1924      0.0000    715.4263      3.6130     99.4184
  1032.0000  -4535.8604      0.0000    717.3702      4.2044    104.2049
  1032.2500  -4537.1924      0.0000    720.7499      4.8841    106.6102
  1032.5000  -4533.1958      0.0000    726.6145      5.6134    108.1693
  1032.7500  -4530.5317      0.0000    733.6841      6.3139    111.0539
  1033.0000  -4531.8638      0.0000    738.6116      6.8913    116.6243
  1033.2500  -4530.5317      0.0000    738.6185      7.2861    124.2902
  1033.5000  -4530.5317      0.0000    734.1219      7.5057    131.7746
  1033.7500  -4534.5283      0.0000    728.9198      7.6105    136.5999
  1034.0000  -4534.5283      0.0000    727.8110      7.6667    137.4133
  1034.2500  -4533.1958      0.0000    733.6669      7.7050    134.2780
  1034.5000  -4539.8569      0.0000    745.5104      7.7154    128.4910
  1034.7500  -4529.1997      0.0000    758.2883      7.6725    122.3489
  1035.0000  -4538.5244      0.0000    765.2089      7.5636    118.1647
  1035.2500  -4537.1924      0.0000    762.2336      7.4011    116.7600
  1035.5000  -4530.5317      0.0000    751.2665      7.2171    117.2888
  1035.7500  -4533.1958      0.0000    738.7109      7.0484    118.8699
  1036.0000  -4530.5317      0.0000    730.6517      6.9171    121.6199
  1036.2500  -4530.5317      0.0000    729.2237      6.8205    125.5181
  1036.5000  -4534.5283      0.0000    732.7719      6.7395    129.1851
  1036.7500  -4535.8604      0.0000    738.7674      6.6619    130.8730
  1037.0000  -4534.5283      0.0000    746.5336      6.5956    130.2022
  1037.2500  -4534.5283      0.0000    757.1808      6.5585    128.0302
  1037.5000  -4535.8604      0.0000    771.0609      6.5574    125.0301
  1037.7500  -4533.1958      0.0000    785.9573      6.5790    121.3385
  1038.0000  -4534.5283      0.0000    797.6365      6.5970    117.5045
  1038.2500  -4538.5244      0.0000    801.5955      6.5873    115.0271
  1038.5000  -4534.5283      0.0000    795.6132      6.5369    115.4760
  1038.7500  -4530.5317      0.0000    782.8300      6.4443    118.9209
  1039.0000  -4534.5283      0.0000    771.7151      6.3148    123.1563
  1039.2500  -4534.5283      0.0000    769.8755      6.1590    124.7825
  1039.5000  -4533.1958      0.0000    777.0503      5.9935    121.4800
  1039.7500  -4531.8638      0.0000    786.3692      5.8415    113.4332
  1040.0000  -4535.8604      0.0000    792.8015      5.7329    102.8437
  1040.2500  -4533.1958      0.0000    797.6552      5.7038     92.4739
  1040.5000  -4539.8569      0.0000    804.0756      5.7843     84.4211
  1040.7500  -4533.1958      0.0000    811.2769      5.9683     79.6159
  1041.0000  -4531.8638      0.0000    815.2554      6.1858     78.0894
  1041.2500  -4537.1924      0.0000    813.4280      6.3210     79.5997
  1041.5000  -4533.1958      0.0000    806.6634      6.2839     83.7556
  1041.7500  -4538.5244      0.0000    797.5427      6.0786     89.6153
  1042.0000  -4539.8569      0.0000    788.1818      5.8025     95.7984
  1042.2500  -4533.1958      0.0000    779.8589      5.5803    101.4145
  1042.5000  -4533.1958      0.0000    773.4207      5.4913    106.6141
  1042.7500  -4538.5244      0.0000    768.8255      5.5438    111.8260
  1043.0000  -4533.1958      0.0000    764.8955      5.6957    116.4733
  1043.2500  -4533.1958      0.0000    761.0037      5.8919    118.8041
  1043.5000  -4535.8604      0.0000    758.9443      6.0879    117.4198
  1043.7500  -4531.8638      0.0000    761.5355      6.2571    112.9682
  1044.0000  -4530.5317      0.0000    769.1016      6.3886    108.0245
  1044.2500  -4533.1958      0.0000    778.5880      6.4810    105.2873
  1044.5000  -4539.8569      0.0000    786.3530      6.5364    105.9258
  1044.7500  -4538.5244      0.0000    790.8033      6.5581    109.3520
  1045.0000  -4533.1958      0.0000    792.2579      6.5532    114.2314
  1045.2500  -4533.1958      0.0000    791.3333      6.5320    119.5597
  1045.5000  -4530.5317      0.0000    788.1297      6.5001    124.8273
  1045.7500  -4533.1958      0.0000    782.8679      6.4554    129.5530
  1046.0000  -4537.1924      0.0000    776.8201      6.3972    133.1555
  1046.2500  -4537.1924      0.0000    771.8985      6.3381    135.2861
  1046.5000  -4531.8638      0.0000    769.0751      6.3020    135.8506
  1046.7500  -4527.8677      0.0000    767.9100      6.3074    134.5637
  1047.0000  -4529.1997      0.0000    767.8428      6.3531    130.9687
  1047.2500  -4530.5317      0.0000    768.9037      6.4224    125.4161
  1047.5000  -4537.1924      0.0000    770.8815      6.4986    119.7615
  1047.7500  -4534.5283      0.0000    772.9228      6.5776    116.2988
  1048.0000  -4531.8638      0.0000    774.3640      6.6694    115.7592
  1048.2500  -4538.5244      0.0000    775.3032      6.7841    116.7350
  1048.5000  -4534.5283      0.0000    776.3124      6.9128    117.2923
  1048.7500  -4533.1958      0.0000    777.9176      7.0235    116.9813
  1049.0000  -4533.1958      0.0000    779.9996      7.0784    117.1096
  1049.2500  -4531.8638      0.0000    781.5270      7.0598    119.0993
  1049.5000  -4529.1997      0.0000    781.5070      6.9821    122.6513
  1049.7500  -4537.1924      0.0000    780.3669      6.8701    125.4248
  1050.0000  -4538.5244      0.0000    779.8162      6.7163    124.6435
  1050.2500  -4533.1958      0.0000    780.9407      6.4823    119.2653
  1050.5000  -4533.1958      0.0000    782.7204      6.1707    110.7981
  1050.7500  -4530.5317      0.0000    782.8944      5.8648    102.3197
  1051.0000  -4527.8677      0.0000    780.4728      5.6582     96.6219
  1051.2500  -4535.8604      0.0000    777.3540      5.5714     94.8691
  1051.5000  -4533.1958      0.0000    777.7922      5.5623     96.6271
  1051.7500  -4535.8604     -2.0000    786.3099      5.5951    100.7603
  1052.0000  -4535.8604      0.0000    804.4835      5.6809    106.0194
  1052.2500  -4531.8638      0.0000    827.3466      5.8706    111.1951
  1052.5000  -4530.5317      0.0000    843.6956      6.2033    115.2243
  1052.7500  -4533.1958      0.0000    843.4840      6.6382    117.2137
  1053.0000  -4533.1958      0.0000    826.3619      7.0481    116.6314
  1053.2500  -4530.5317      0.0000    801.7402      7.3192    113.9834
  1053.5000  -4535.8604      0.0000    780.0349      7.4416    111.0398
  1053.7500  -4537.1924      0.0000    764.6940      7.4788    109.6225
  1054.0000  -4529.1997      0.0000    752.7538      7.4825    110.1972
  1054.2500  -4537.1924      0.0000    741.0976      7.4678    112.2388
  1054.5000  -4533.1958      0.0000    730.0752      7.4365    115.7098
  1054.7500  -4533.1958      0.0000    721.6979      7.3912    121.1995
  1055.0000  -4534.5283      0.0000    716.7538      7.3359    128.4903
  1055.2500  -4534.5283      0.0000    714.4207      7.2799    135.9254
  1055.5000  -4535.8604      0.0000    713.5170      7.2424    141.6449
  1055.7500  -4537.1924      0.0000    713.3408      7.2447    144.9050
  1056.0000  -4534.5283      0.0000    713.8187      7.2966    145.9327
  1056.2500  -4535.8604      0.0000    715.3288      7.3886    145.1489
  1056.5000  -4525.2031      0.0000    718.2044      7.4990    143.1539
  1056.7500  -4533.1958      0.0000    721.8949      7.6051    141.1294
  1057.0000  -4535.8604      0.0000    724.5051      7.6855    140.4400
  1057.2500  -4530.5317      0.0000    723.4171      7.7178    141.4241
  1057.5000  -4538.5244      0.0000    716.6027      7.6818    142.8106
  1057.7500  -4537.1924      0.0000    703.9927      7.5686    142.6507
  1058.0000  -4530.5317      0.0000    688.7854      7.3898    139.7359
  1058.2500  -4530.5317      0.0000    677.3657      7.1835    134.1433
