~Version Information
VERS.                      2.0: CWLS Log ASCII Standard - VERSION 2.0
WRAP.                       NO: One line per depth step
~Well Information Block
STRT.FT               262.8000: 
STOP.FT              1134.7000: 
STEP.FT                 0.1000: 
NULL.                -999.2500: 
COMP.          Pioneer Natural Resources: COMPANY
WELL.          Black Cat 13-32 Tr: WELL
FLD.           Purgatoire River: FIELD
LOC.           1679' FSL & 1150' FWL--: LOCATION
CNTY.               Las Animas: COUNTY
SRVC.                Patterson: SERVICE COMPANY
DATE.          Tue Mar 07 12:42:54 2006: LOG DATE
UWI.           05 071 08721 00: UNIQUE WELL ID
STAT.                 Colorado: STATE
~Curve Information Block
DEPT.FT            0 000 00 00: Depth
DCAL.in                       : CDL Caliper
RHOB.g/cc                     : CDL Bulk Density
RHOC.g/cc                     : CDL Density Correction
DPOR.pu                       : CDL Density Porosity
GR.GAPI                       : Gamma Ray
~Parameter Information Block
~A  Depth       DCAL        RHOB        RHOC        DPOR         GR     
# ...
   710.8000      7.8171      2.6556      0.1762     -0.3383    100.7204
   710.9000      7.8171      2.6438      0.1271      0.3760    103.6137
   711.0000      7.8471      2.6157      0.1005      2.0758    106.7933
   711.1000      7.8471      2.5910      0.0520      3.5782    103.3525
   711.2000      7.8471      2.5812      0.0470      4.1712     96.2656
   711.3000      7.8586      2.5855      0.0623      3.9081     91.2009
   711.4000      7.8586      2.5918      0.0725      3.5267     86.7542
   711.5000      7.8587      2.5928      0.0536      3.4678     82.8727
   711.6000      7.8587      2.5974     -0.0043      3.1900     83.2796
   711.7000      7.8587      2.6066      0.0061      2.6330     86.8652
   711.8000      7.8585      2.6001      0.0406      3.0264     87.1539
   711.9000      7.8585      2.5721     -0.0072      4.7208     81.5551
   712.0000      7.8571      2.5382      0.0186      6.7768     75.8594
   712.1000      7.8571      2.5083     -0.0498      8.5852     74.1096
   712.2000      7.8571      2.4920     -0.0442      9.5737     72.9086
   712.3000      7.8519      2.4947     -0.0015      9.4098     71.0823
   712.4000      7.8519      2.5109     -0.0340      8.4315     71.8771
   712.5000      7.8462      2.5298      0.0065      7.2819     74.3157
   712.6000      7.8462      2.5318      0.0650      7.1619     74.2355
   712.7000      7.8462      2.5096     -0.0039      8.5078     72.8158
   712.8000      7.8393      2.4923      0.0012      9.5553     75.0029
   712.9000      7.8393      2.5134     -0.0026      8.2808     82.5805
   713.0000      7.8281      2.5748      0.1136      4.5568     91.1372
   713.1000      7.8281      2.6399      0.1623      0.6094     93.6183
   713.2000      7.8281      2.6657      0.1579     -0.9492     91.9238
   713.3000      7.8202      2.6476      0.1258      0.1485     93.2357
   713.4000      7.8202      2.6181      0.0290      1.9310     96.0707
   713.5000      7.8229      2.6047      0.0897      2.7456     96.7235
   713.6000      7.8229      2.6061      0.0724      2.6594     97.4819
   713.7000      7.8229      2.6138      0.0636      2.1921    100.3920
   713.8000      7.8290      2.6217      0.0826      1.7158    103.7976
   713.9000      7.8290      2.6231      0.0547      1.6303    106.3638
   714.0000      7.8340      2.6201      0.0333      1.8107    106.7654
   714.1000      7.8340      2.6161      0.0633      2.0541    104.5391
   714.2000      7.8340      2.6078      0.0453      2.5550    102.5562
   714.3000      7.8354      2.6003      0.0235      3.0092    101.2793
   714.4000      7.8354      2.6021      0.0503      2.9053     98.0784
   714.5000      7.8343      2.6033      0.0761      2.8277     93.1823
   714.6000      7.8343      2.5885      0.0578      3.7293     90.1449
   714.7000      7.8343      2.5654      0.0178      5.1251     90.4093
   714.8000      7.8360      2.5492      0.0678      6.1075     91.4240
   714.9000      7.8360      2.5355      0.0358      6.9416     90.2580
   715.0000      7.8434      2.5174      0.0213      8.0389     86.0755
   715.1000      7.8434      2.5029      0.0021      8.9144     80.3328
   715.2000      7.8434      2.5065     -0.0044      8.6979     77.0109
   715.3000      7.8534      2.5292      0.0327      7.3236     77.5943
   715.4000      7.8534      2.5530      0.0350      5.8770     80.0295
   715.5000      7.8599      2.5608      0.0361      5.4052     81.7452
   715.6000      7.8599      2.5590      0.0170      5.5156     79.3493
   715.7000      7.8599      2.5646      0.0508      5.1753     72.8067
   715.8000      7.8582      2.5717      0.1110      4.7472     65.4054
   715.9000      7.8582      2.5651      0.0607      5.1469     60.0202
   716.0000      7.8503      2.5464      0.0532      6.2758     59.6198
   716.1000      7.8503      2.5203      0.0408      7.8594     63.5155
   716.2000      7.8503      2.4868      0.0570      9.8914     66.5739
   716.3000      7.8427      2.4553     -0.0242     11.7995     64.7564
   716.4000      7.8427      2.4420     -0.0350     12.6064     59.2556
   716.5000      7.8373      2.4496      0.0036     12.1453     54.8812
   716.6000      7.8373      2.4670      0.0188     11.0938     53.8486
   716.7000      7.8373      2.4814      0.0243     10.2185     54.6503
   716.8000      7.8357      2.4909      0.0077      9.6415     56.4809
   716.9000      7.8357      2.4980      0.0467      9.2112     58.4101
   717.0000      7.8370      2.4973      0.0578      9.2558     59.4526
   717.1000      7.8370      2.4931      0.0139      9.5082     61.0960
   717.2000      7.8370      2.5035      0.0340      8.8808     62.9615
   717.3000      7.8394      2.5290      0.0807      7.3334     61.3221
   717.4000      7.8394      2.5446      0.1381      6.3885     56.1653
   717.5000      7.8455      2.5364      0.0837      6.8831     53.1740
   717.6000      7.8455      2.5200      0.0646      7.8817     54.2693
   717.7000      7.8455      2.5166      0.0393      8.0836     55.7136
   717.8000      7.8542      2.5272      0.1109      7.4438     55.8459
   717.9000      7.8542      2.5340      0.0442      7.0293     55.3437
   718.0000      7.8593      2.5299      0.0409      7.2761     54.1544
   718.1000      7.8593      2.5178      0.0477      8.0142     50.9966
   718.2000      7.8593      2.5080     -0.0093      8.6046     46.7753
   718.3000      7.8622      2.5117      0.0400      8.3799     43.9960
   718.4000      7.8622      2.5163      0.0607      8.1041     43.7234
   718.5000      7.8651      2.5072      0.0408      8.6517     45.1910
   718.6000      7.8651      2.4949      0.0131      9.3995     45.8566
   718.7000      7.8651      2.4940      0.0470      9.4552     47.2447
   718.8000      7.8662      2.5093     -0.0153      8.5285     51.0495
   718.9000      7.8662      2.5343      0.0573      7.0130     51.9241
   719.0000      7.8655      2.5480      0.0552      6.1802     48.6179
   719.1000      7.8655      2.5440      0.0197      6.4218     48.3978
   719.2000      7.8655      2.5378      0.0265      6.8005     54.0027
   719.3000      7.8642      2.5340      0.0501      7.0299     61.5246
   719.4000      7.8642      2.5252      0.0143      7.5630     68.9893
   719.5000      7.8622      2.5224     -0.0053      7.7311     74.4158
   719.6000      7.8622      2.5427      0.0051      6.5051     74.4199
   719.7000      7.8622      2.5733      0.0555      4.6496     72.5067
   719.8000      7.8603      2.5875      0.0683      3.7860     74.4221
   719.9000      7.8603      2.5849      0.0195      3.9428     80.3614
   720.0000      7.8613      2.5772      0.0400      4.4139     88.0841
   720.1000      7.8613      2.5576      0.0251      5.5989     92.9309
   720.2000      7.8613      2.5259     -0.0200      7.5207     94.4566
   720.3000      7.8625      2.5054     -0.0576      8.7663     97.7908
   720.4000      7.8625      2.5112     -0.0309      8.4116    102.9213
   720.5000      7.8586      2.5217      0.0727      7.7744    108.7270
   720.6000      7.8586      2.5073      0.0877      8.6455    116.8702
   720.7000      7.8586      2.4892      0.0040      9.7444    124.7040
   720.8000      7.8504      2.5059      0.1044      8.7356    127.3838
   720.9000      7.8504      2.5375      0.1477      6.8205    127.5746
   721.0000      7.8427      2.5458      0.1157      6.3133    129.4283
   721.1000      7.8427      2.5388      0.0895      6.7389    128.6423
   721.2000      7.8427      2.5410      0.0889      6.6039    123.9613
   721.3000      7.8415      2.5503      0.1126      6.0455    120.0196
   721.4000      7.8415      2.5524      0.0497      5.9125    116.4694
   721.5000      7.8481      2.5467      0.0544      6.2590    109.3860
   721.6000      7.8481      2.5323      0.0861      7.1343     96.7948
   721.7000      7.8481      2.5075      0.0419      8.6352     84.2198
   721.8000      7.8544      2.4861     -0.0059      9.9357     79.3607
   721.9000      7.8544      2.4863     -0.0220      9.9213     81.8133
