~Version Information
VERS.                      2.0: CWLS Log ASCII Standard - VERSION 2.0
WRAP.                       NO: One line per depth step
~Well Information Block
STRT.FT                -9.2500: 
STOP.FT              1854.7500: 
STEP.FT                 0.2500: 
NULL.                -999.2500: 
COMP.          Pioneer Natural Resources: COMPANY
WELL.          State Wildlife 32-16 Tr: WELL
FLD.           Purgatoire River: FIELD
LOC.           1838' FNL & 1850' FEL--: LOCATION
STAT.                       CO: State
CNTY.               Las Animas: COUNTY
CTRY. USA : Country
SECT. 16 : Section
TOWN. 32S : Township
RANG. 66W : Range
SRVC.          Patterson Wireline: SERVICE COMPANY
DATE.          Tue Nov 22 10:17:13 2005: LOG DATE
API.           05 071 08568 00: UNIQUE WELL ID
~Curve Information Block
DEPT.FT            0 000 00 00: Depth
CCL.                          : Casing Collar Locator
TT3.usec                      : CBL 3' Travel Time
AMP3.mV                       : CBL 3' Amplitude
GR.GAPI                       : Gamma Ray
~Parameter Information Block
~A  Depth       CCL         TT3         AMP3         GR     
# ...
  1330.7500      0.0000    738.1437      9.2251    123.2941
  1331.0000      0.0000    737.1498      9.0533    119.1839
  1331.2500      0.0000    734.9407      8.9330    120.2017
  1331.5000      0.0000    729.8004      8.8632    123.3685
  1331.7500      0.0000    719.7381      8.8062    125.8542
  1332.0000      0.0000    704.3503      8.7316    127.3222
  1332.2500      0.0000    686.8307      8.6502    129.2794
  1332.5000      0.0000    673.7838      8.5979    132.9532
  1332.7500      0.0000    671.6055      8.5938    137.7440
  1333.0000      0.0000    681.7083      8.6211    141.1229
  1333.2500      0.0000    699.1500      8.6489    140.1820
  1333.5000      0.0000    716.3983      8.6603    134.0429
  1333.7500      0.0000    728.4616      8.6570    125.1035
  1334.0000      0.0000    734.6017      8.6446    117.5263
  1334.2500      0.0000    736.3365      8.6225    114.0715
  1334.5000      0.0000    734.8129      8.5906    114.2840
  1334.7500      0.0000    729.7879      8.5629    115.5950
  1335.0000      0.0000    720.2978      8.5630    115.7438
  1335.2500      0.0000    705.7702      8.6053    113.9585
  1335.5000      0.0000    685.7657      8.6833    110.6149
  1335.7500      0.0000    658.2271      8.7808    106.9023
  1336.0000      0.0000    619.6599      8.8874    104.6640
  1336.2500      0.0000    569.6827      8.9988    105.3216
  1336.5000      0.0000    515.2692      9.1058    108.3793
  1336.7500      0.0000    467.8607      9.1900    111.5844
  1337.0000      0.0000    435.3557      9.2356    113.1374
  1337.2500      0.0000    417.8275      9.2443    113.5425
  1337.5000      0.0000    410.2471      9.2360    114.8100
  1337.7500      0.0000    407.3260      9.2337    117.8185
  1338.0000      0.0000    405.7799      9.2472    120.9121
  1338.2500      0.0000    403.9995      9.2719    121.4036
  1338.5000      0.0000    401.1495      9.3010    118.2133
  1338.7500      0.0000    397.0063      9.3367    112.8077
  1339.0000      0.0000    392.4708      9.3848    107.7334
  1339.2500      0.0000    389.8831      9.4406    104.5622
  1339.5000      0.0000    392.5264      9.4864    103.2039
  1339.7500      0.0000    404.3064      9.5065    102.7053
  1340.0000      0.0000    430.0895      9.4998    102.2861
  1340.2500      0.0000    474.2374      9.4732    101.7460
  1340.5000      0.0000    535.5643      9.4243    101.3695
  1340.7500      0.0000    603.6042      9.3405    101.6911
  1341.0000      0.0000    663.0315      9.2158    103.2607
  1341.2500      0.0000    703.5594      9.0627    106.3486
  1341.5000      0.0000    725.0262      8.9039    110.5719
  1341.7500      0.0000    733.8484      8.7533    114.8310
  1342.0000      0.0000    736.9075      8.6133    117.7456
  1342.2500      0.0000    738.7727      8.4904    118.1244
  1342.5000      0.0000    742.1260      8.4068    115.3276
  1342.7500      0.0000    748.4424      8.3934    109.8677
  1343.0000      0.0000    757.3917      8.4689    103.7470
  1343.2500      0.0000    766.1180      8.6251     99.6628
  1343.5000      0.0000    770.5709      8.8259     99.3499
  1343.7500      0.0000    768.8787      9.0203    102.3628
  1344.0000      0.0000    763.3394      9.1619    106.3257
  1344.2500      0.0000    758.3563      9.2227    108.6011
  1344.5000      0.0000    756.3141      9.1951    108.1331
  1344.7500      0.0000    755.8764      9.0888    105.9883
  1345.0000      0.0000    754.1526      8.9354    104.2432
  1345.2500      0.0000    749.7504      8.7962    104.3300
  1345.5000      0.0000    743.2444      8.7452    106.3127
  1345.7500      0.0000    735.1735      8.8217    109.3709
  1346.0000      0.0000    724.2823      8.9947    112.4920
  1346.2500      0.0000    707.2677      9.1828    114.6118
  1346.5000      0.0000    679.4946      9.3136    114.6157
  1346.7500      0.0000    637.4448      9.3661    111.8361
  1347.0000      0.0000    583.6783      9.3614    106.6884
  1347.2500      0.0000    530.4670      9.3253    100.5756
  1347.5000      0.0000    496.0417      9.2676     95.0004
  1347.7500      0.0000    494.2795      9.1970     90.8911
  1348.0000      0.0000    526.0513      9.1446     88.7051
  1348.2500      0.0000    578.8804      9.1542     88.7491
  1348.5000      0.0000    634.4819      9.2442     91.1033
  1348.7500      0.0000    678.0563      9.3884     95.4202
  1349.0000      0.0000    703.0433      9.5418    101.0543
  1349.2500      0.0000    710.3586      9.6821    107.4239
  1349.5000      0.0000    705.5974      9.8244    114.1334
  1349.7500      0.0000    696.5856      9.9992    120.8166
  1350.0000      0.0000    690.8468     10.2150    126.9793
  1350.2500      0.0000    692.9105     10.4454    131.8727
  1350.5000      0.0000    703.0453     10.6560    134.5642
  1350.7500      0.0000    718.0557     10.8391    134.6504
  1351.0000      0.0000    732.9031     11.0109    133.2012
  1351.2500      0.0000    742.2739     11.1795    132.4621
  1351.5000      0.0000    742.3265     11.3218    133.8015
  1351.7500      0.0000    732.4745     11.3947    136.0537
  1352.0000      0.0000    716.0618     11.3706    136.6405
  1352.2500      0.0000    699.2275     11.2639    134.5178
  1352.5000      0.0000    688.3483     11.1229    131.3570
  1352.7500      0.0000    687.1516     10.9893    129.5462
  1353.0000      0.0000    694.9685     10.8674    129.7985
  1353.2500      0.0000    707.0917     10.7331    131.2725
  1353.5000      0.0000    716.8306     10.5668    133.3128
  1353.7500      0.0000    717.3300     10.3746    136.0377
  1354.0000      0.0000    702.1212     10.1833    139.2930
  1354.2500      0.0000    666.4678     10.0177    141.7849
  1354.5000      0.0000    611.4414      9.8838    141.7433
  1354.7500      0.0000    547.0431      9.7675    138.5968
  1355.0000      0.0000    488.3953      9.6486    133.9351
  1355.2500      0.0000    446.6558      9.5153    130.2556
  1355.5000      0.0000    423.8326      9.3749    128.4752
  1355.7500      0.0000    416.1161      9.2509    127.2876
  1356.0000      0.0000    420.9356      9.1646    125.2218
  1356.2500      0.0000    440.5620      9.1188    122.6793
  1356.5000      0.0000    479.0552      9.1000    121.5255
  1356.7500      0.0000    534.9598      9.0971    122.9355
  1357.0000      0.0000    597.2155      9.1100    125.9077
  1357.2500      0.0000    650.2695      9.1408    127.9331
  1357.5000      0.0000    684.3210      9.1812    127.0676
  1357.7500      0.0000    700.3384      9.2095    123.1329
  1358.0000      0.0000    706.3543      9.1986    117.0608
  1358.2500      0.0000    710.4581      9.1265    109.7284
  1358.5000      0.0000    716.3657      8.9854    101.7460
  1358.7500      0.0000    723.3899      8.7899     93.9078
  1359.0000      0.0000    729.2826      8.5814     87.4300
  1359.2500      0.0000    732.7499      8.4139     83.6834
  1359.5000      0.0000    733.7240      8.3307     83.6322
  1359.7500      0.0000    732.1555      8.3505     87.3635
  1360.0000      0.0000    727.2018      8.4700     94.0897
  1360.2500      0.0000    717.7246      8.6647    102.5661
  1360.5000      0.0000    703.7518      8.8865    111.5079
  1360.7500      0.0000    687.3882      9.0746    119.8918
  1361.0000      0.0000    671.8867      9.1772    127.2846
  1361.2500      0.0000    659.7987      9.1570    133.7357
  1361.5000      0.0000    652.2413      8.9811    138.9406
  1361.7500      0.0000    649.2631      8.6306    141.8156
  1362.0000      0.0000    649.6446      8.1434    141.6317
  1362.2500      0.0000    649.8909      7.6305    139.3182
  1362.5000      0.0000    644.2971      7.2126    136.7625
  1362.7500      0.0000    627.9221      6.9353    134.8495
  1363.0000      0.0000    601.6912      6.7692    132.7792
  1363.2500      0.0000    575.0768      6.6732    129.2620
  1363.5000      0.0000    561.1425      6.6284    124.1642
  1363.7500      0.0000    566.3323      6.6314    119.1892
  1364.0000     -2.0000    585.1743      6.6853    116.8430
