~Version Information
VERS.                      2.0: CWLS Log ASCII Standard - VERSION 2.0
WRAP.                       NO: One line per depth step
~Well Information Block
STRT.FT                -6.5000: 
STOP.FT              1758.0000: 
STEP.FT                 0.2500: 
NULL.                -999.2500: 
COMP.          Pioneer Natural Resources: COMPANY
WELL.           Rolls 14-14 Tr: WELL
FLD.           Purgatorie River: FIELD
LOC.           473' FSL & 817' FWL--: LOCATION
PROV.                       CO: PROVINCE
CNTY.               Las Animas: COUNTRY
SRVC.          Patterson Wireline: SERVICE COMPANY
DATE.          Mon Aug 08 11:51:25 2005: LOG DATE
UWI.           05 071 08454 00: UNIQUE WELL ID
~Curve Information Block
DEPT.FT            0 000 00 00: Depth
CCL.                          : Casing Collar Locator
TT3.usec                      : CBL 3' Travel Time
AMP3.mV                       : CBL 3' Amplitude
GR.GAPI                       : Gamma Ray
~Parameter Information Block
~A  Depth       CCL         TT3         AMP3         GR     
# ...
  1266.5000      0.0000    787.3723      8.2479    100.9697
  1266.7500      0.0000    751.5746      8.2023     89.4317
  1267.0000      0.0000    730.9759      7.9737     80.8298
  1267.2500      0.0000    736.9584      7.5710     76.9332
  1267.5000      0.0000    762.5134      7.0804     77.6149
  1267.7500      0.0000    787.4201      6.6252     81.4872
  1268.0000      0.0000    796.6316      6.2906     87.2587
  1268.2500     -2.0000    792.3932      6.0794     94.3380
  1268.5000     -2.0000    788.6246      5.9322    102.0886
  1268.7500     -1.6266    795.6321      5.7853    108.9835
  1269.0000      0.0000    811.5308      5.6175    113.1888
  1269.2500      0.0000    826.5203      5.4655    114.0283
  1269.5000      0.0000    832.1586      5.4042    112.3964
  1269.7500      0.0000    826.7623      5.4894    109.6858
  1270.0000      0.0000    814.9954      5.6942    106.6361
  1270.2500      0.0000    803.6786      5.9086    103.3018
  1270.5000      0.0000    796.7012      6.0246     99.9589
  1270.7500      0.0000    793.4382      6.0224     97.6795
  1271.0000      0.0000    791.7368      5.9654     97.5311
  1271.2500      0.0000    790.8265      5.9209     99.1173
  1271.5000      0.0000    790.6643      5.9022    100.5392
  1271.7500      0.0000    790.5852      5.8783    100.3796
  1272.0000      0.0000    790.4412      5.8201     99.2311
  1272.2500      0.0000    791.9033      5.7322     98.5793
  1272.5000      0.0000    797.0504      5.6480     98.7039
  1272.7500      0.0000    806.2222      5.6048     98.7317
  1273.0000      0.0000    817.9420      5.6179     98.3564
  1273.2500      0.0000    830.0815      5.6704     98.0574
  1273.5000      0.0000    840.5829      5.7217     97.5028
  1273.7500      0.0000    848.0284      5.7365     95.2484
  1274.0000      0.0000    852.2148      5.7119     90.8028
  1274.2500      0.0000    854.0258      5.6773     86.0600
  1274.5000      0.0000    854.6210      5.6650     83.7803
  1274.7500      0.0000    854.8050      5.6797     84.9750
  1275.0000      0.0000    854.9277      5.6968     88.2294
  1275.2500      0.0000    855.0882      5.6859     91.2714
  1275.5000      0.0000    855.2974      5.6358     92.7118
  1275.7500      0.0000    855.5146      5.5622     92.5231
  1276.0000      0.0000    855.5456      5.4983     91.5511
  1276.2500      0.0000    854.8468      5.4743     90.8826
  1276.5000      0.0000    852.2991      5.4974     91.2330
  1276.7500      0.0000    846.3237      5.5490     92.3874
  1277.0000      0.0000    836.0825      5.6000     93.2586
  1277.2500      0.0000    823.5552      5.6291     92.9580
  1277.5000      0.0000    814.0641      5.6297     91.8475
  1277.7500      0.0000    812.9528      5.6088     91.2459
  1278.0000      0.0000    820.8413      5.5826     92.3047
  1278.2500      0.0000    832.9880      5.5697     95.5977
  1278.5000      0.0000    843.5640      5.5813    101.5074
  1278.7500      0.0000    849.6295      5.6110    110.0131
  1279.0000      0.0000    851.1611      5.6338    119.7660
  1279.2500      0.0000    849.1067      5.6187    128.1193
  1279.5000      0.0000    844.6695      5.5495    132.8033
  1279.7500      0.0000    839.8325      5.4374    133.5942
  1280.0000      0.0000    836.9221      5.3197    132.1464
  1280.2500      0.0000    836.7540      5.2385    130.3787
  1280.5000      0.0000    837.8912      5.2121    129.1702
  1280.7500      0.0000    838.5610      5.2221    128.2060
  1281.0000      0.0000    838.7740      5.2309    126.4568
  1281.2500      0.0000    839.6903      5.2152    122.8467
  1281.5000      0.0000    841.4102      5.1861    117.1409
  1281.7500      0.0000    842.5776      5.1798    110.5213
  1282.0000      0.0000    842.3061      5.2287    104.8395
  1282.2500      0.0000    841.5291      5.3343    101.0942
  1282.5000      0.0000    841.7461      5.4672     98.9261
  1282.7500      0.0000    842.8553      5.5947     97.2991
  1283.0000      0.0000    843.0018      5.7092     95.1542
  1283.2500      0.0000    840.6438      5.8288     91.8360
  1283.5000      0.0000    836.2328      5.9733     87.7784
  1283.7500      0.0000    831.7729      6.1436     84.7294
  1284.0000      0.0000    829.0815      6.3193     84.7547
  1284.2500      0.0000    828.5674      6.4706     88.8082
  1284.5000      0.0000    829.3162      6.5710     96.1704
  1284.7500      0.0000    830.0302      6.6064    104.9132
  1285.0000      0.0000    829.8834      6.5755    112.8055
  1285.2500      0.0000    828.7025      6.4884    118.1685
  1285.5000      0.0000    826.7242      6.3677    120.4344
  1285.7500      0.0000    824.4349      6.2416    120.3855
  1286.0000      0.0000    822.4504      6.1281    119.8656
  1286.2500      0.0000    821.2537      6.0267    120.7724
  1286.5000      0.0000    820.9655      5.9322    124.0247
  1286.7500      0.0000    821.3998      5.8529    129.4838
  1287.0000      0.0000    822.3847      5.8067    136.4225
  1287.2500      0.0000    824.0007      5.7965    143.3783
  1287.5000      0.0000    826.3531      5.7963    147.7791
  1287.7500      0.0000    829.1063      5.7685    146.9808
  1288.0000      0.0000    831.4666      5.6973    140.6702
  1288.2500      0.0000    832.7265      5.6020    131.8863
  1288.5000      0.0000    832.5819      5.5180    124.9171
  1288.7500      0.0000    830.9814      5.4653    122.1134
  1289.0000      0.0000    828.1515      5.4343    122.9639
  1289.2500      0.0000    824.8525      5.3978    125.8233
  1289.5000      0.0000    822.2105      5.3378    129.8389
  1289.7500      0.0000    821.0573      5.2631    135.1716
  1290.0000      0.0000    821.2883      5.2012    141.8848
  1290.2500      0.0000    821.7524      5.1706    148.9379
  1290.5000      0.0000    821.2314      5.1624    154.1843
  1290.7500      0.0000    820.0288      5.1505    155.5045
  1291.0000      0.0000    820.1725      5.1218    152.3683
  1291.2500      0.0000    823.4433      5.0903    146.4530
  1291.5000      0.0000    829.5929      5.0836    140.5134
  1291.7500      0.0000    836.8582      5.1171    136.4789
  1292.0000      0.0000    843.4962      5.1826    134.4565
  1292.2500      0.0000    848.3701      5.2581    133.1615
  1292.5000      0.0000    850.6929      5.3272    131.1018
  1292.7500      0.0000    849.8519      5.3899    127.6017
  1293.0000      0.0000    845.6154      5.4581    123.1485
  1293.2500      0.0000    838.6301      5.5436    118.8997
  1293.5000      0.0000    830.6840      5.6452    115.5847
  1293.7500      0.0000    823.9998      5.7415    112.7992
  1294.0000      0.0000    819.8716      5.8009    109.8749
  1294.2500      0.0000    818.0617      5.8086    107.5529
  1294.5000      0.0000    817.5803      5.7825    108.0892
  1294.7500      0.0000    817.8282      5.7572    113.2023
  1295.0000      0.0000    818.8417      5.7481    121.9316
  1295.2500      0.0000    820.5701      5.7373    130.5410
  1295.5000      0.0000    822.1431      5.6978    134.7124
  1295.7500      0.0000    822.0867      5.6257    132.4995
  1296.0000      0.0000    819.3861      5.5449    125.4632
  1296.2500      0.0000    814.3713      5.4823    116.8681
  1296.5000      0.0000    808.6816      5.4426    109.0472
  1296.7500      0.0000    804.4226      5.4073    102.6970
  1297.0000      0.0000    802.8325      5.3558     97.9435
  1297.2500      0.0000    803.2906      5.2818     94.9018
  1297.5000      0.0000    803.9874      5.1826     92.9935
  1297.7500      0.0000    803.8615      5.0399     90.6277
  1298.0000      0.0000    803.6608      4.8274     86.3091
  1298.2500      0.0000    805.2311      4.5422     79.8648
  1298.5000      0.0000    809.8162      4.2204     72.3400
  1298.7500      0.0000    816.2135      3.9182     65.0704
  1299.0000      0.0000    820.6895      3.6834     59.2447
  1299.2500      0.0000    820.1496      3.5408     55.9539
  1299.5000      0.0000    815.5701      3.4934     56.0090
  1299.7500      0.0000    810.7713      3.5284     59.6732
