~Version Information
VERS.                      2.0: CWLS Log ASCII Standard - VERSION 2.0
WRAP.                       NO: One line per depth step
~Well Information Block
STRT.FT               -10.2500: 
STOP.FT              2437.2500: 
STEP.FT                 0.2500: 
NULL.                -999.2500: 
COMP.          Pioneer Natural Resources: COMPANY
WELL.          Hellzonfire 32-31: WELL
FLD.           Purgatorie River: FIELD
LOC.           1993' FNL & 2265' FEL------: LOCATION
STAT.                       CO: State
CNTY.               Las Animas: COUNTY
CTRY. USA : Country
SECT. 31 : Section
TOWN. 32S : Township
RANG. 66W : Range
SRVC.          Patterson Wireline: SERVICE COMPANY
DATE.          Thu Sep 08 11:10:17 2005: LOG DATE
API.           05 071 08483 00: UNIQUE WELL ID
~Curve Information Block
DEPT.FT            0 000 00 00: Depth
CCL.                          : Casing Collar Locator
TT3.usec                      : CBL 3' Travel Time
AMP3.mV                       : CBL 3' Amplitude
GR.GAPI                       : Gamma Ray
~Parameter Information Block
~A  Depth       CCL         TT3         AMP3         GR     
# ...
  1597.7500      0.0000    645.7820     12.8459     56.2515
  1598.0000      0.0000    627.8310     12.7519     53.5492
  1598.2500      0.0000    621.1922     12.6578     50.8038
  1598.5000      0.0000    628.0912     12.5520     48.7468
  1598.7500      0.0000    641.9778     12.4278     47.9452
  1599.0000      0.0000    654.5969     12.2888     48.5593
  1599.2500      0.0000    662.0518     12.1480     50.3956
  1599.5000      0.0000    664.6860     12.0247     53.0571
  1599.7500      0.0000    663.7052     11.9382     55.8051
  1600.0000      0.0000    658.7822     11.9056     57.4636
  1600.2500      0.0000    648.5344     11.9445     56.9984
  1600.5000      0.0000    633.8330     12.0743     54.3937
  1600.7500      0.0000    621.0382     12.3018     50.7067
  1601.0000      0.0000    619.7350     12.6040     47.1594
  1601.2500      0.0000    634.1798     12.9339     44.3442
  1601.5000      0.0000    657.3022     13.2468     42.3222
  1601.7500      0.0000    675.0880     13.5196     41.2115
  1602.0000      0.0000    677.0455     13.7511     41.4177
  1602.2500      0.0000    663.0636     13.9547     43.2187
  1602.5000      0.0000    642.8453     14.1501     46.1733
  1602.7500      0.0000    629.2651     14.3538     49.1058
  1603.0000      0.0000    629.4456     14.5742     50.8834
  1603.2500      0.0000    640.8719     14.8115     51.3251
  1603.5000      0.0000    656.1318     15.0501     51.3054
  1603.7500      0.0000    669.8033     15.2505     51.8358
  1604.0000      0.0000    680.3309     15.3588     53.0186
  1604.2500      0.0000    688.2827     15.3348     54.0423
  1604.5000      0.0000    694.8116     15.1728     54.2333
  1604.7500      0.0000    700.9919     14.8995     53.9021
  1605.0000      0.0000    707.5892     14.5614     54.0081
  1605.2500      0.0000    715.1900     14.2120     55.1013
  1605.5000      0.0000    723.7385     13.8992     56.7872
  1605.7500      0.0000    731.0402     13.6502     58.2204
  1606.0000      0.0000    732.6351     13.4615     58.7776
  1606.2500      0.0000    725.0964     13.3032     58.1333
  1606.5000      0.0000    709.9467     13.1298     56.1892
  1606.7500      0.0000    693.2479     12.8879     53.3925
  1607.0000      0.0000    681.0831     12.5254     50.9432
  1607.2500      0.0000    676.1337     12.0099     50.2362
  1607.5000      0.0000    677.8722     11.3584     51.8124
  1607.7500      0.0000    684.1337     10.6575     54.7703
  1608.0000      0.0000    691.9837     10.0426     57.3768
  1608.2500      0.0000    698.3527      9.6238     58.5588
  1608.5000      0.0000    701.0613      9.4102     58.6990
  1608.7500      0.0000    699.7104      9.3078     58.7073
  1609.0000      0.0000    695.9006      9.1955     58.6271
  1609.2500      0.0000    692.4980      9.0055     57.6916
  1609.5000      0.0000    691.7994      8.7408     55.4985
  1609.7500      0.0000    693.6407      8.4419     52.6630
  1610.0000      0.0000    695.3642      8.1541     50.4535
  1610.2500      0.0000    693.9402      7.9175     49.8580
  1610.5000      0.0000    688.2214      7.7692     50.7021
  1610.7500      0.0000    679.3347      7.7377     51.8014
  1611.0000      0.0000    669.2620      7.8248     52.2055
  1611.2500      0.0000    659.4039      7.9859     51.9229
  1611.5000      0.0000    650.5228      8.1376     51.3086
  1611.7500      0.0000    643.4189      8.1981     50.4299
  1612.0000      0.0000    638.9650      8.1298     49.4600
  1612.2500      0.0000    637.8494      7.9428     49.1834
  1612.5000      0.0000    640.8855      7.6719     50.5011
  1612.7500      0.0000    648.5770      7.3626     53.4111
  1613.0000      0.0000    658.9152      7.0751     56.7166
  1613.2500      0.0000    666.4599      6.8861     58.7937
  1613.5000      0.0000    666.0397      6.8740     58.6501
  1613.7500      0.0000    657.9380      7.0960     56.5277
  1614.0000      0.0000    648.0954      7.5577     53.7164
  1614.2500      0.0000    643.2800      8.1863     51.6604
  1614.5000      0.0000    647.2772      8.8280     51.1397
  1614.7500      0.0000    660.5546      9.3072     52.3117
  1615.0000      0.0000    680.5249      9.5287     55.1182
  1615.2500      0.0000    701.7037      9.5380     59.3246
  1615.5000      0.0000    718.2823      9.4753     64.7445
  1615.7500      0.0000    728.0659      9.4625     71.8457
  1616.0000      0.0000    733.2283      9.5326     81.7097
  1616.2500      0.0000    737.2525      9.6466     95.0743
  1616.5000      0.0000    741.8131      9.7571    111.6022
  1616.7500      0.0000    746.0977      9.8501    129.7335
  1617.0000      0.0000    748.0507      9.9397    146.8442
  1617.2500      0.0000    746.1617     10.0414    160.1059
  1617.5000      0.0000    740.6931     10.1584    168.1169
  1617.7500      0.0000    733.6214     10.2903    171.8371
  1618.0000      0.0000    727.4539     10.4418    173.5170
  1618.2500      0.0000    723.8374     10.6147    174.5183
  1618.5000      0.0000    722.7891     10.7978    174.3113
  1618.7500      0.0000    723.0507     10.9782    171.5387
  1619.0000      0.0000    723.2972     11.1603    165.7957
  1619.2500      0.0000    722.9663     11.3639    158.2792
  1619.5000      0.0000    722.2068     11.6009    150.8497
  1619.7500      0.0000    721.6962     11.8587    144.5636
  1620.0000      0.0000    722.5156     12.1026    138.9724
  1620.2500      0.0000    725.5527     12.2891    132.7780
  1620.5000      0.0000    730.6413     12.3845    125.5652
  1620.7500      0.0000    736.2458     12.3817    119.2113
  1621.0000      0.0000    740.0206     12.3025    117.2509
  1621.2500      0.0000    740.6084     12.1838    122.0588
  1621.5000      0.0000    739.9089     12.0655    132.3629
  1621.7500      0.0000    743.2414     11.9838    143.9417
  1622.0000      0.0000    755.6528     11.9560    152.8467
  1622.2500      0.0000    776.4547     11.9582    157.5539
  1622.5000      0.0000    796.8636     11.9240    158.4422
  1622.7500      0.0000    804.7281     11.7840    156.5514
  1623.0000      0.0000    794.2321     11.5117    153.3513
  1623.2500      0.0000    771.2719     11.1357    150.5917
  1623.5000      0.0000    748.2443     10.7123    149.0717
  1623.7500      0.0000    734.1302     10.2937    147.6561
  1624.0000      0.0000    729.8926      9.9108    144.4373
  1624.2500      0.0000    731.0801      9.5717    138.9092
  1624.5000      0.0000    732.6574      9.2716    132.2559
  1624.7500      0.0000    731.9354      9.0085    125.7451
  1625.0000      0.0000    728.7562      8.7921    119.8911
  1625.2500      0.0000    724.2078      8.6365    115.0145
  1625.5000      0.0000    719.5799      8.5479    111.2440
  1625.7500      0.0000    716.2234      8.5270    107.8158
  1626.0000      0.0000    715.6955      8.5790    103.6069
  1626.2500      0.0000    719.6169      8.7115     98.6692
  1626.5000      0.0000    728.9198      8.9178     94.3107
  1626.7500      0.0000    742.5412      9.1691     91.4839
  1627.0000      0.0000    756.8358      9.4296     89.9156
  1627.2500      0.0000    767.2729      9.6792     88.9355
  1627.5000      0.0000    771.3914      9.9199     88.3926
  1627.7500      0.0000    769.5641     10.1633     88.5511
  1628.0000      0.0000    762.2200     10.4159     89.5338
  1628.2500      0.0000    746.3912     10.6759     91.1713
  1628.5000      0.0000    715.6564     10.9365     93.3493
  1628.7500      0.0000    665.0608     11.1872     96.1702
  1629.0000      0.0000    598.4565     11.4138     99.3734
  1629.2500      0.0000    531.9791     11.6067    101.8723
  1629.5000      0.0000    488.3189     11.7619    102.6012
  1629.7500      0.0000    484.2235     11.8475    101.9081
  1630.0000      0.0000    520.2890     11.7691    101.5530
  1630.2500      0.0000    580.1495     11.4223    102.9549
  1630.5000      0.0000    639.6351     10.8169    105.4908
  1630.7500      0.0000    680.2200     10.1142    106.7233
  1631.0000      0.0000    697.8915      9.5010    104.5900
