~Version Information
VERS.                      2.0: CWLS Log ASCII Standard - VERSION 2.0
WRAP.                       NO: One line per depth step
~Well Information Block
STRT.FT               538.0000: 
STOP.FT              1769.0000: 
STEP.FT                 0.1000: 
NULL.                -999.2500: 
COMP.          Pioneer Natural Resources: COMPANY
WELL.            Dude 43-34 Tr: WELL
FLD.           Purgatoire River: FIELD
LOC.           2083' FSL & 1042' FEL: LOCATION
PROV.                 Colorado: PROVINCE
CNTY.               Las Animas: COUNTRY
SRVC.                Patterson: SERVICE COMPANY
DATE.          Thu Jan 26 07:02:09 2006: LOG DATE
UWI.           05 071 08676 00: UNIQUE WELL ID
~Curve Information Block
DEPT.FT            0 000 00 00: Depth
DCAL.in                       : CDL Caliper
RHOB.g/cc                     : CDL Bulk Density
RHOC.g/cc                     : CDL Density Correction
DPOR.pu                       : CDL Density Porosity
GR.GAPI                       : Gamma Ray
~Parameter Information Block
~A  Depth       DCAL        RHOB        RHOC        DPOR         GR     
# ...
  1680.4000      7.8607      2.6399      0.0951      0.6094     52.5326
  1680.5000      7.8638      2.6200      0.1144      1.8176     54.6923
  1680.6000      7.8638      2.5886      0.0146      3.7201     55.1495
  1680.7000      7.8638      2.5679      0.0434      4.9734     54.5577
  1680.8000      7.8832      2.5587      0.0546      5.5340     54.0675
  1680.9000      7.8832      2.5341      0.0673      7.0227     53.5886
  1681.0000      7.8840      2.4747      0.0392     10.6249     53.0508
  1681.1000      7.8840      2.3847     -0.0260     16.0789     51.4565
  1681.2000      7.8840      2.2808     -0.0095     22.3743     48.8049
  1681.3000      7.8721      2.1661      0.0067     29.3281     46.0096
  1681.4000      7.8721      2.0322     -0.0667     37.4394     42.9651
  1681.5000      7.8836      1.8903     -0.1079     46.0438     41.6884
  1681.6000      7.8836      1.7637     -0.1320     53.7139     45.0374
  1681.7000      7.8836      1.6644     -0.1598     59.7356     52.0036
  1681.8000      7.8924      1.6020     -0.1270     63.5131     58.6595
  1681.9000      7.8924      1.5989     -0.0698     63.7056     61.9797
  1682.0000      7.9264      1.6689      0.0383     59.4580     62.0534
  1682.1000      7.9264      1.7942      0.1958     51.8637     61.5984
  1682.2000      7.9264      1.9381      0.2146     43.1452     62.1307
  1682.3000      8.0254      2.0745      0.2285     34.8815     62.4135
  1682.4000      8.0254      2.1992      0.2706     27.3205     63.1403
  1682.5000      8.1306      2.3269      0.2951     19.5795     66.8139
  1682.6000      8.1306      2.4645      0.3215     11.2412     72.1161
  1682.7000      8.1306      2.5840      0.3481      3.9991     74.2949
  1682.8000      7.9688      2.6531      0.2215     -0.1873     74.3653
  1682.9000      7.9688      2.6678      0.2341     -1.0781     78.0065
  1683.0000      7.8813      2.6419      0.1572      0.4904     83.3827
  1683.1000      7.8813      2.6070      0.1233      2.6049     85.0718
  1683.2000      7.8813      2.5880      0.0824      3.7573     84.5956
  1683.3000      7.8674      2.5752      0.0832      4.5323     85.9451
  1683.4000      7.8674      2.5569      0.0559      5.6401     89.2914
  1683.5000      7.9084      2.5511      0.0474      5.9923     91.4269
  1683.6000      7.9084      2.5702      0.0988      4.8388     91.5910
  1683.7000      7.9084      2.5922      0.1091      3.5056     92.9866
  1683.8000      7.9585      2.5949      0.1012      3.3370     96.1168
  1683.9000      7.9585      2.5901      0.1010      3.6303     97.4521
  1684.0000      7.9084      2.6040      0.1164      2.7855     97.4961
  1684.1000      7.9084      2.6356      0.1409      0.8748    100.7894
  1684.2000      7.9084      2.6561      0.1982     -0.3724    107.1036
  1684.3000      7.8541      2.6525      0.1396     -0.1544    108.9482
  1684.4000      7.8541      2.6385      0.1463      0.6992    101.5722
  1684.5000      7.8394      2.6281      0.1175      1.3281     91.6761
  1684.6000      7.8394      2.6270      0.1530      1.3959     89.9642
  1684.7000      7.8394      2.6305      0.0891      1.1826     97.1021
  1684.8000      7.8320      2.6286      0.0954      1.2996    101.3759
  1684.9000      7.8320      2.6220      0.0433      1.6975     95.9498
  1685.0000      7.8599      2.6247      0.0566      1.5339     88.0047
  1685.1000      7.8599      2.6416      0.0899      0.5097     84.7090
  1685.2000      7.8599      2.6617      0.0971     -0.7118     83.7729
  1685.3000      7.8714      2.6672      0.1403     -1.0403     79.2157
  1685.4000      7.8714      2.6434      0.1373      0.3978     71.6709
  1685.5000      7.8784      2.5989      0.0941      3.0956     68.4452
  1685.6000      7.8784      2.5702      0.0164      4.8334     72.2739
  1685.7000      7.8784      2.5829      0.0769      4.0694     79.6614
  1685.8000      7.8661      2.6174      0.1278      1.9727     84.2371
  1685.9000      7.8661      2.6432      0.1296      0.4105     81.8191
  1686.0000      7.8653      2.6557      0.1126     -0.3483     76.4555
  1686.1000      7.8653      2.6643      0.1203     -0.8647     74.5755
  1686.2000      7.8653      2.6710      0.1288     -1.2706     76.5865
  1686.3000      7.8564      2.6761      0.1036     -1.5839     80.4756
  1686.4000      7.8564      2.6727      0.1678     -1.3759     86.7156
  1686.5000      7.8504      2.6468      0.1366      0.1929     94.1134
  1686.6000      7.8504      2.6116      0.1123      2.3288     99.2179
  1686.7000      7.8504      2.5987      0.0523      3.1111    101.5712
  1686.8000      7.8576      2.6151      0.0962      2.1121    101.4131
  1686.9000      7.8576      2.6387      0.1389      0.6846    100.9017
  1687.0000      7.8442      2.6532      0.0477     -0.1928    102.3069
  1687.1000      7.8442      2.6630      0.0935     -0.7864    101.1901
  1687.2000      7.8442      2.6691      0.1011     -1.1593     95.2704
  1687.3000      7.8547      2.6667      0.1068     -1.0097     89.2507
  1687.4000      7.8547      2.6588      0.0817     -0.5323     87.1273
  1687.5000      7.8891      2.6519      0.0707     -0.1146     85.9467
  1687.6000      7.8891      2.6490      0.0343      0.0586     82.2360
  1687.7000      7.8891      2.6486      0.0698      0.0862     77.2434
  1687.8000      7.9064      2.6438      0.0659      0.3741     70.7391
  1687.9000      7.9064      2.6362      0.0671      0.8339     63.6750
  1688.0000      7.8997      2.6360      0.0574      0.8496     62.0422
  1688.1000      7.8997      2.6438      0.0932      0.3783     66.7932
  1688.2000      7.8997      2.6543      0.0895     -0.2619     72.4819
  1688.3000      7.8683      2.6662      0.1187     -0.9833     76.9762
  1688.4000      7.8683      2.6771      0.1273     -1.6447     80.2995
  1688.5000      7.8378      2.6862      0.1417     -2.1949     79.4556
  1688.6000      7.8378      2.6816      0.1635     -1.9141     77.0350
  1688.7000      7.8378      2.6496      0.1093      0.0235     81.7825
  1688.8000      7.8214      2.6046      0.1080      2.7521     90.4369
  1688.9000      7.8214      2.5724      0.0535      4.7046     92.0418
  1689.0000      7.8637      2.5693      0.0205      4.8937     88.1633
  1689.1000      7.8637      2.5855      0.1591      3.9063     89.3714
  1689.2000      7.8637      2.5946      0.1121      3.3551     97.6454
  1689.3000      7.9187      2.5976      0.0493      3.1742    105.1861
  1689.4000      7.9187      2.6075      0.0943      2.5733    106.7890
  1689.5000      7.8804      2.6206      0.1148      1.7830    102.3332
  1689.6000      7.8804      2.6268      0.1365      1.4077     94.4656
  1689.7000      7.8804      2.6169      0.1348      2.0031     88.0351
  1689.8000      7.8734      2.5866      0.1102      3.8404     87.1208
  1689.9000      7.8734      2.5458      0.0559      6.3157     91.7501
  1690.0000      7.8655      2.5221     -0.0043      7.7490     99.7192
  1690.1000      7.8655      2.5379      0.0277      6.7964    107.9669
  1690.2000      7.8655      2.5797      0.0924      4.2613    114.7501
  1690.3000      7.8981      2.6157      0.1275      2.0787    116.2092
  1690.4000      7.8981      2.6372      0.1032      0.7762    110.1978
  1690.5000      7.9188      2.6499      0.1662      0.0087    106.2472
  1690.6000      7.9188      2.6422      0.1112      0.4748    110.8120
  1690.7000      7.9188      2.6099      0.1062      2.4311    117.6550
  1690.8000      7.9082      2.5804      0.0297      4.2197    122.5844
  1690.9000      7.9082      2.5758      0.0443      4.4980    125.0578
  1691.0000      7.9084      2.5795      0.0888      4.2734    126.4489
  1691.1000      7.9084      2.5712      0.0752      4.7728    128.7543
  1691.2000      7.9084      2.5605      0.0614      5.4220    130.8271
  1691.3000      7.9128      2.5542      0.1038      5.8062    133.6647
  1691.4000      7.9128      2.5422      0.0739      6.5330    137.4174
  1691.5000      7.9506      2.5284      0.0692      7.3702    139.6648
