~Version Information
VERS.                      2.0: CWLS Log ASCII Standard - VERSION 2.0
WRAP.                       NO: One line per depth step
~Well Information Block
STRT.FT                15.0000: 
STOP.FT              1532.0000: 
STEP.FT                 0.2500: 
NULL.                -999.2500: 
COMP.          Pioneer Natural Resources: COMPANY
WELL.           Bobsy 34-11 Tr: WELL
FLD.           Purgatoire River: FIELD
LOC.           514' FSL & 1784' FEL: LOCATION
PROV.                 Colorado: PROVINCE
CNTY.               Las Animas: COUNTRY
SRVC.                Patterson: SERVICE COMPANY
DATE.          Fri Jul 22 12:22:14 2005: LOG DATE
UWI.           05 071 08438 00: UNIQUE WELL ID
~Curve Information Block
DEPT.FT            0 000 00 00: Depth
GR.GAPI                       : Gamma Ray
CCL.                          : Casing Collar Locator
TT3.usec                      : CBL 3' Travel Time
AMP3.mV                       : CBL 3' Amplitude
~Parameter Information Block
~A  Depth        GR         CCL         TT3         AMP3    
    15.0000   -999.2500      0.0000    254.4201     66.1532
    15.2500   -999.2500      0.0000    254.4208     66.3205
    15.5000   -999.2500      0.0000    254.4132     66.4852
    15.7500   -999.2500      0.0000    254.4003     66.6166
    16.0000     58.2167      0.0000    254.3889     66.7225
    16.2500     54.7420      0.0000    254.3853     66.8238
    16.5000     51.4709      0.0000    254.3907     66.9344
    16.7500     49.0633      0.0000    254.4018     67.0659
    17.0000     47.5858      0.0000    254.4141     67.2312
    17.2500     46.8562      0.0000    254.4235     67.4287
    17.5000     46.6783      0.0000    254.4292     67.6301
    17.7500     46.8675      0.0000    254.4342     67.7932
    18.0000     47.3040      0.0000    254.4408     67.8933
    18.2500     48.0560      0.0000    254.4478     67.9484
    18.5000     49.2685      0.0000    254.4539     68.0142
    18.7500     50.8214      0.0000    254.4599     68.1481
    19.0000     52.2867      0.0000    254.4668     68.3743
    19.2500     53.3340      0.0000    254.4746     68.6749
    19.5000     53.9874      0.0000    254.4843     69.0018
    19.7500     54.3762      0.0000    254.4978     69.2952
    20.0000     54.4097      0.0000    254.5160     69.5120
    20.2500     53.8454      0.0000    254.5374     69.6452
    20.5000     52.6319      0.0000    254.5577     69.7066
    20.7500     51.1631      0.0000    254.5706     69.6998
    21.0000     50.2542      0.0000    254.5729     69.6240
    21.2500     50.8219      0.0000    254.5677     69.4933
    21.5000     53.2890      0.0000    254.5620     69.3225
    21.7500     57.1566      0.0000    254.5691     69.0690
    22.0000     61.3989      0.0000    254.6178     68.5655
    22.2500     65.4693      0.0000    254.7895     67.5021
    22.5000     69.7564      0.0000    255.2992     65.5260
    22.7500     74.9794      0.0000    256.6178     62.4353
    23.0000     81.3936      0.0000    259.4861     58.3211
    23.2500     88.6719      0.0000    264.5916     53.5374
    23.5000     96.1967      0.0000    271.9709     48.5300
    23.7500    103.2248      0.0000    281.0245     43.6568
    24.0000    108.9972      0.0000    292.1536     39.1006
    24.2500    112.9941      0.0000    309.6875     34.8919
    24.5000    115.2385      0.0000    343.4442     31.0025
    24.7500    116.3726      0.0000    405.0458     27.4257
    25.0000    117.2996      0.0000    498.3995     24.1871
    25.2500    118.5961      0.0000    611.7499     21.3125
    25.5000    120.1692      0.0000    721.5292     18.8214
    25.7500    121.3682      0.0000    806.9399     16.7465
    26.0000    121.2806      0.0000    861.2535     15.1274
    26.2500    118.9588      0.0000    890.3207     13.9689
    26.5000    113.8388      0.0000    903.7643     13.2171
    26.7500    106.4765      0.0000    908.8654     12.7764
    27.0000     98.9099      0.0000    909.8392     12.5419
    27.2500     93.8285      0.0000    909.2790     12.4218
    27.5000     92.8470      0.0000    908.8715     12.3499
    27.7500     95.2818      0.0000    909.0649     12.2916
    28.0000     98.5992      0.0000    908.8929     12.2358
    28.2500    100.2651      0.0000    906.9473     12.1789
    28.5000     99.4658      0.0000    902.9777     12.1189
    28.7500     97.3280      0.0000    899.0969     12.0620
    29.0000     95.6640      0.0000    900.0808     12.0245
    29.2500     95.4319      0.0000    912.7675     12.0208
    29.5000     96.1710      0.0000    943.1266     12.0529
    29.7500     96.6943      0.0000    989.7767     12.1127
    30.0000     96.1723      0.0000   1038.7604     12.1897
    30.2500     94.5084      0.0000   1068.9868     12.2723
    30.5000     91.9507      0.0000   1067.6239     12.3466
    30.7500     88.7796      0.0000   1039.6252     12.4038
    31.0000     85.5144      0.0000   1001.2441     12.4482
    31.2500     83.0702      0.0000    967.2797     12.4924
    31.5000     82.3091      0.0000    945.3082     12.5440
    31.7500     83.3928      0.0000    937.2236     12.6001
    32.0000     85.6786      0.0000    941.8049     12.6567
    32.2500     88.1250      0.0000    955.5611     12.7160
    32.5000     89.6229      0.0000    973.1354     12.7800
    32.7500     89.1270      0.0000    989.0050     12.8419
    33.0000     85.9160      0.0000    999.8617     12.8898
    33.2500     80.0521      0.0000   1005.5141     12.9183
    33.5000     72.7174      0.0000   1007.4534     12.9332
    33.7500     65.9360      0.0000   1006.6979     12.9462
    34.0000     61.5262      0.0000   1002.3911     12.9675
    34.2500     59.9659      0.0000    991.5290     13.0016
    34.5000     60.2806      0.0000    970.3716     13.0486
    34.7500     61.0530      0.0000    937.7212     13.1078
    35.0000     61.4495      0.0000    897.7389     13.1803
    35.2500     61.4020      0.0000    858.6822     13.2701
    35.5000     61.2549      0.0000    828.0832     13.3789
    35.7500     61.4352      0.0000    809.4557     13.4979
    36.0000     62.1405      0.0000    803.5340     13.6072
    36.2500     63.1065      0.0000    811.0404     13.6907
    36.5000     63.8303      0.0000    832.5118     13.7458
    36.7500     64.1026      0.0000    864.9835     13.7765
    37.0000     64.1388      0.0000    899.9885     13.7811
    37.2500     64.1537      0.0000    926.4280     13.7558
    37.5000     64.0007      0.0000    936.3013     13.7074
    37.7500     63.3807      0.0000    928.4591     13.6505
    38.0000     62.4135      0.0000    908.4006     13.5860
    38.2500     61.8484      0.0000    884.6372     13.4743
    38.5000     62.5111      0.0000    863.4003     13.2254
    38.7500     64.4907      0.0000    845.7640     12.7235
    39.0000     66.9927      0.0000    830.5891     11.9016
    39.2500     68.9935      0.0000    821.1022     10.8339
    39.5000     69.9391      0.0000    828.9589      9.7508
    39.7500     69.8774      0.0000    870.7792      8.9061
    40.0000     69.0760      0.0000    957.0573      8.4074
    40.2500     67.5614      0.0000   1080.1664      8.2024
    40.5000     65.1330      0.0000   1213.2445      8.1919
    40.7500     61.9200      0.0000   1324.9893      8.2870
    41.0000     58.7139      0.0000   1398.3087      8.3908
    41.2500     56.5162     -2.9155   1435.3320      8.4130
    41.5000     55.7873      0.0000   1447.2610      8.3226
    41.7500     56.2167      0.0000   1441.6538      8.1952
    42.0000     57.1512      0.0000   1417.3120      8.2215
    42.2500     58.1555      0.0000   1367.6820      8.6244
    42.5000     59.1674      0.0000   1288.6494      9.4791
    42.7500     60.2415      0.0000   1184.7760     10.6050
    43.0000     61.3189      0.0000   1069.8191     11.6878
    43.2500     62.2685      0.0000    962.1620     12.5069
    43.5000     63.0161      0.0000    877.8795     13.0214
    43.7500     63.5165      0.0000    824.1109     13.2928
    44.0000     63.6892      0.0000    797.1229     13.3943
    44.2500     63.5414      0.0000    786.9425     13.3819
    44.5000     63.3235      0.0000    783.8870     13.2983
    44.7500     63.3597      0.0000    781.6672     13.1791
    45.0000     63.7263      0.0000    777.2457     13.0524
    45.2500     64.3543      0.0000    770.0527     12.9339
    45.5000     65.4762      0.0000    761.3073     12.8246
    45.7500     67.6844      0.0000    752.9737     12.7188
    46.0000     71.3538      0.0000    746.8970     12.6120
    46.2500     76.0957      0.0000    744.5428     12.5020
    46.5000     80.9840      0.0000    747.3033     12.3866
    46.7500     85.4297      0.0000    756.3817     12.2657
    47.0000     89.6390      0.0000    771.5542     12.1461
    47.2500     93.9903      0.0000    789.9531     12.0415
    47.5000     98.1930      0.0000    807.3545     11.9636
    47.7500    101.4599      0.0000    821.6813     11.9167
    48.0000    103.3390      0.0000    834.7850     11.9018
    48.2500    103.9096      0.0000    850.0422     11.9224
