~Version Information
VERS.                      2.0: CWLS Log ASCII Standard - VERSION 2.0
WRAP.                       NO: One line per depth step
~Well Information Block
STRT.FT                10.0000: 
STOP.FT              1063.0000: 
STEP.FT                 0.1000: 
NULL.                -999.2500: 
COMP.          Pioneer Natural Resources: COMPANY
WELL.                Mac 22-36: WELL
FLD.           Purgatorie River: FIELD
LOC.           2545' FNL & 1398' FWL: LOCATION
PROV.                 Colorado: PROVINCE
CNTY.               Las Animas: COUNTRY
SRVC.                Patterson: SERVICE COMPANY
DATE.          Mon Dec 05 10:55:42 2005: LOG DATE
UWI.                          : UNIQUE WELL ID
~Curve Information Block
DEPT.FT            0 000 00 00: Depth
DCAL.in                       : CDL Caliper
RHOB.g/cc                     : CDL Bulk Density
RHOC.g/cc                     : CDL Density Correction
DPOR.pu                       : CDL Density Porosity
GR.GAPI                       : Gamma Ray
NPOR.pu                       : Neutron Porosity
~Parameter Information Block
~A  Depth       DCAL        RHOB        RHOC        DPOR         GR         NPOR    
    10.0000      2.7444      0.1052      1.3248     -0.0509    128.6180     19.1296
    10.1000      2.7444      0.1282      1.3520     -0.0505    126.5543     18.7106
    10.2000      2.7444      0.1489      1.3667     -0.0500    127.0849     18.6164
    10.3000      2.7444      0.1685      1.4491     -0.0497    129.2532     18.8883
    10.4000      2.7444      0.1825      1.4338     -0.0494    130.3763     19.1579
    10.5000      2.7444      0.1887      1.4652     -0.0493    129.2362     19.1970
    10.6000      2.7444      0.1906      1.4254     -0.0492    127.9323     19.4408
    10.7000      2.7444      0.1923      1.4581     -0.0492    128.3776     20.0834
    10.8000      2.7444      0.1909      1.4721     -0.0492    129.4012     20.4801
    10.9000      2.7444      0.1843      1.4386     -0.0493    129.8431     20.2826
    11.0000      2.7444      0.1786      1.4322     -0.0495    129.8053     19.8995
    11.1000      2.7444      0.1739      1.4566     -0.0495    128.9120     19.7563
    11.2000      2.7444      0.1621      1.4418     -0.0498    127.2983     19.7945
    11.3000      2.7444      0.1452      1.3685     -0.0501    127.1314     19.8030
    11.4000      2.7444      0.1319      1.4135     -0.0504    129.2971     19.7964
    11.5000      2.7444      0.1260      1.3592     -0.0505    132.4454     19.9005
    11.6000      2.7444      0.1305      1.3892     -0.0504    136.5638     20.1229
    11.7000      2.7444      0.1396      1.4086     -0.0502    138.6775     20.3766
    11.8000      2.7444      0.1416      1.4172     -0.0502    134.3441     20.4920
    11.9000      2.7444      0.1342      1.3968     -0.0503    127.3826     20.3160
    12.0000      2.7444      0.1265      1.4042     -0.0505    125.2403     20.0955
    12.1000      2.7444      0.1278      1.3615     -0.0505    127.6411     20.1000
    12.2000      2.7444      0.1365      1.4055     -0.0503    128.0351     20.4652
    12.3000      2.7444      0.1391      1.4078     -0.0502    125.8291     21.1239
    12.4000      2.7444      0.1259      1.4053     -0.0505    126.5562     21.4926
    12.5000      2.7444      0.1015      1.3683     -0.0510    130.5946     21.2681
    12.6000      2.7444      0.0804      1.3149     -0.0514    133.9509     20.7696
    12.7000      2.7444      0.0710      1.3563     -0.0516    135.2520     20.3736
    12.8000      2.7444      0.0717      1.3071     -0.0516    135.9660     20.3515
    12.9000      2.7444      0.0811      1.3430     -0.0514    137.4901     20.8116
    13.0000      2.7444      0.0947      1.3807     -0.0511    136.7015     21.4716
    13.1000      2.7444      0.1091      1.3526     -0.0508    131.5955     21.8690
    13.2000      2.7444      0.1251      1.3733     -0.0505    124.9429     21.8533
    13.3000      2.7444      0.1341      1.4329     -0.0503    118.5768     21.7154
    13.4000      2.7444      0.1296      1.3581     -0.0504    115.1252     21.6959
    13.5000      2.7444      0.1212      1.3672     -0.0506    116.9713     21.6385
    13.6000      2.7444      0.1135      1.4046     -0.0508    121.2451     21.3464
    13.7000      2.7444      0.1055      1.3240     -0.0509    124.2505     21.1158
    13.8000      2.7444      0.1025      1.3871     -0.0510    126.8359     21.4222
    13.9000      2.7444      0.1093      1.3220     -0.0508    130.2237     21.9979
    14.0000      2.7444      0.1265      1.3898     -0.0505    134.1963     22.3663
    14.1000      2.7444      0.1428      1.4226     -0.0502    138.4126     22.6193
    14.2000      2.7444      0.1458      1.4008     -0.0501    139.4642     22.7331
    14.3000      2.7444      0.1349      1.4036     -0.0503    134.8744     22.4794
    14.4000      2.7444      0.1170      1.3654     -0.0507    129.3853     21.9289
    14.5000      2.7444      0.1051      1.3279     -0.0509    129.9294     21.6134
    14.6000      2.7444      0.1084      1.3595     -0.0509    136.5867     21.8501
    14.7000      2.7444      0.1192      1.3799     -0.0506    141.8449     22.3167
    14.8000      2.7444      0.1244      1.3716     -0.0505    142.3628     22.8871
    14.9000      2.7444      0.1208      1.3783     -0.0506    141.4240     23.5757
    15.0000      2.7444      0.1118      1.3767     -0.0508    139.8136     24.1671
    15.1000      2.7444      0.1040      1.3572     -0.0509    137.7831     24.5642
    15.2000      2.7444      0.1014      1.3537     -0.0510    137.4007     24.6784
    15.3000      2.7444      0.1023      1.3415     -0.0510    138.6817     24.3496
    15.4000      2.7444      0.1064      1.3694     -0.0509    141.3728     23.8992
    15.5000      2.7444      0.1123      1.3697     -0.0508    143.7728     23.8849
    15.6000      2.7444      0.1145      1.3941     -0.0507    142.8813     24.2044
    15.7000      2.7444      0.1125      1.3368     -0.0508    141.0281     24.1701
    15.8000      2.7444      0.1125      1.3715     -0.0508    140.9409     23.5714
    15.9000      2.7444      0.1180      1.3571     -0.0507    140.0405     22.6884
    16.0000      2.7444      0.1276      1.3992     -0.0505    135.9358     21.8107
    16.1000      2.7444      0.1410      1.3746     -0.0502    131.4653     21.1355
    16.2000      2.7444      0.1590      1.4196     -0.0498    129.0466     20.7773
    16.3000      2.7444      0.1727      1.4493     -0.0496    125.8815     20.6611
    16.4000      2.7444      0.1696      1.4363     -0.0496    121.8578     20.4732
    16.5000      2.7444      0.1518      1.3980     -0.0500    120.7735     20.3095
    16.6000      2.7444      0.1323      1.3698     -0.0504    123.2227     20.4523
    16.7000      2.7444      0.1233      1.3548     -0.0506    128.3052     20.6890
    16.8000      2.7444      0.1278      1.3892     -0.0505    133.7076     21.0236
    16.9000      2.7444      0.1371      1.4055     -0.0503    135.8012     21.5541
    17.0000      2.7444      0.1409      1.4077     -0.0502    136.3035     21.9601
    17.1000      2.7444      0.1373      1.3861     -0.0503    137.8991     21.9228
    17.2000      2.7444      0.1282      1.4214     -0.0505    138.6674     21.7148
    17.3000      2.7444      0.1148      1.3774     -0.0507    139.1578     21.8992
    17.4000      2.7444      0.1073      1.3507     -0.0509    141.7595     22.4355
    17.5000      2.7444      0.1120      1.3761     -0.0508    145.5473     22.7822
    17.6000      2.7444      0.1156      1.4239     -0.0507    148.9373     22.6443
    17.7000      2.7444      0.1077      1.3627     -0.0509    151.3958     22.5813
    17.8000      2.7444      0.0990      1.3503     -0.0510    152.4769     23.1341
    17.9000      2.7444      0.0945      1.3840     -0.0511    152.1684     24.2001
    18.0000      2.7444      0.0897      1.3475     -0.0512    151.5958     25.3068
    18.1000      2.7444      0.0895      1.3687     -0.0512    152.0850     25.9992
    18.2000      2.7444      0.0979      1.3785     -0.0511    152.5227     26.2725
    18.3000      2.7444      0.1091      1.4165     -0.0508    152.2628     26.4718
    18.4000      2.7444      0.1176      1.3832     -0.0507    152.8658     26.6819
    18.5000      2.7444      0.1206      1.4220     -0.0506    155.9582     26.8409
    18.6000      2.7444      0.1138      1.4100     -0.0508    160.5584     26.9345
    18.7000      2.7444      0.0982      1.3763     -0.0511    164.3085     26.8244
    18.8000      2.7444      0.0845      1.3646     -0.0513    166.2203     26.6920
    18.9000      2.7444      0.0836      1.3555     -0.0514    165.8721     26.8882
    19.0000      2.7444      0.0958      1.3753     -0.0511    165.2881     27.2365
    19.1000      2.7444      0.1074      1.4275     -0.0509    166.0037     27.2558
    19.2000      2.7444      0.1085      1.3788     -0.0509    168.1682     27.0798
    19.3000      2.7444      0.1053      1.3761     -0.0509    170.8918     27.1279
    19.4000      2.7444      0.1021      1.4058     -0.0510    169.2946     27.3904
    19.5000      2.7444      0.0954      1.3934     -0.0511    162.1153     27.6943
