~Version Information
VERS.                      2.0: CWLS Log ASCII Standard - VERSION 2.0
WRAP.                       NO: One line per depth step
~Well Information Block
STRT.FT                 0.0000: 
STOP.FT               787.2500: 
STEP.FT                 0.2500: 
NULL.                -999.2500: 
COMP.          Pioneer Natural Resources: COMPANY
WELL.             Veedol 34-28: WELL
FLD.           Purgatorie River: FIELD
LOC.           357' FSL & 2520' FEL: LOCATION
PROV.                 Colorado: PROVINCE
CNTY.               Las Animas: COUNTRY
SRVC.                Patterson: SERVICE COMPANY
DATE.          Wed Dec 28 10:10:37 2005: LOG DATE
UWI.                          : UNIQUE WELL ID
~Curve Information Block
DEPT.FT            0 000 00 00: Depth
CCL.                          : Casing Collar Locator
TT3.usec                      : CBL 3' Travel Time
AMP3.mV                       : CBL 3' Amplitude
GR.GAPI                       : Gamma Ray
~Parameter Information Block
~A  Depth       CCL         TT3         AMP3         GR     
# ...
   134.0000      0.0000    615.4212     12.0867     85.6858
   134.2500      0.0000    652.0186     11.9166     86.0387
   134.5000      0.0000    759.2971     11.4822     86.4345
   134.7500      0.0000    867.5625     10.9831     86.1673
   135.0000      0.0000    884.1753     10.7869     84.5278
   135.2500      0.0000    801.8634     10.8109     81.5552
   135.5000      0.0000    697.1599     10.8588     78.3909
   135.7500     -2.0000    644.4495     10.8717     76.8034
   136.0000      0.0000    653.8302     10.8442     78.1229
   136.2500      0.0000    677.7172     10.9061     82.4620
   136.5000      0.0000    669.3500     11.4696     88.6979
   136.7500      0.0000    627.0692     12.7664     94.9583
   137.0000      0.0000    588.4398     14.1274     99.3817
   137.2500      0.0000    581.6930     14.7141    101.0443
   137.5000      0.0000    588.9894     14.6955    100.3671
   137.7500      0.0000    587.0140     14.5538     98.4482
   138.0000      0.0000    592.8576     14.2731     95.8442
   138.2500      0.0000    627.7650     13.8037     92.0555
   138.5000      0.0000    675.1920     13.3113     86.3972
   138.7500      0.0000    707.5901     12.9114     79.4859
   139.0000      0.0000    718.7508     12.5990     73.5630
   139.2500      0.0000    715.0105     12.3458     70.8692
   139.5000      0.0000    701.8833     12.1417     71.5758
   139.7500      0.0000    686.2892     11.9925     73.4324
   140.0000      0.0000    676.4553     11.9067     73.5024
   140.2500      0.0000    674.1288     11.8746     70.4696
   140.5000      0.0000    674.7728     11.8706     65.6244
   140.7500      0.0000    675.8311     11.8770     61.7956
   141.0000      0.0000    677.9270     11.8868     61.2690
   141.2500      0.0000    680.5515     11.8943     64.5175
   141.5000      0.0000    682.2188     11.8908     70.3736
   141.7500      0.0000    682.6259     11.8683     76.9241
   142.0000      0.0000    682.3741     11.8311     82.4521
   142.2500      0.0000    682.0279     11.7909     86.2375
   142.5000      0.0000    681.8639     11.7502     88.7208
   142.7500      0.0000    681.8495     11.7086     90.7465
   143.0000      0.0000    681.8158     11.6791     92.7697
   143.2500      0.0000    681.7629     11.6778     94.9317
   143.5000      0.0000    681.8363     11.6959     97.4839
   143.7500      0.0000    682.0426     11.7090    100.7235
   144.0000      0.0000    682.2435     11.7181    104.6446
   144.2500      0.0000    682.3833     11.7328    108.8166
   144.5000      0.0000    682.4964     11.7296    112.4694
   144.7500      0.0000    682.5381     11.6886    114.6694
   145.0000      0.0000    682.4191     11.6421    114.6864
   145.2500      0.0000    682.2017     11.6250    112.4359
   145.5000      0.0000    682.0955     11.6349    108.4805
   145.7500      0.0000    682.2092     11.6707    103.4836
   146.0000      0.0000    682.4063     11.7383     97.8240
   146.2500      0.0000    682.4604     11.8126     91.7658
   146.5000      0.0000    682.2490     11.8397     85.6737
   146.7500      0.0000    681.7838     11.7868     80.0551
   147.0000      0.0000    681.2168     11.6802     75.7009
   147.2500      0.0000    680.8007     11.5955     73.7202
   147.5000      0.0000    680.6985     11.6010     75.0337
   147.7500      0.0000    680.8822     11.7028     79.5602
   148.0000      0.0000    681.2405     11.8445     85.9131
   148.2500      0.0000    681.6580     11.9652     92.0794
   148.5000      0.0000    682.0228     12.0434     96.6238
   148.7500      0.0000    682.3457     12.0680     99.2220
   149.0000      0.0000    682.9417     12.0248    100.1064
   149.2500      0.0000    684.7598     11.9299     99.3344
   149.5000      0.0000    689.6665     11.8223     96.7555
   149.7500      0.0000    698.9323     11.7346     92.6245
   150.0000      0.0000    710.2155     11.6903     88.1874
   150.2500      0.0000    718.0684     11.6956     85.3751
   150.5000      0.0000    718.4915     11.7326     85.4613
   150.7500      0.0000    712.0997     11.7718     87.7932
   151.0000      0.0000    704.0534     11.8066     90.0338
   151.2500      0.0000    699.4918     11.8690     90.0519
   151.5000      0.0000    698.1017     11.9879     87.9126
   151.7500      0.0000    697.2625     12.1449     86.1202
   152.0000      0.0000    696.8409     12.3047     87.7486
   152.2500      0.0000    696.1556     12.4599     93.8586
   152.5000      0.0000    694.1807     12.6137    102.4097
   152.7500      0.0000    694.2148     12.7392    109.6204
   153.0000      0.0000    700.2638     12.7875    112.4322
   153.2500      0.0000    710.2672     12.7576    109.9836
   153.5000      0.0000    717.9130     12.7139    103.4927
   153.7500      0.0000    719.3959     12.7020     95.2449
   154.0000      0.0000    716.4371     12.7124     87.4771
   154.2500      0.0000    714.1576     12.7361     81.6314
   154.5000      0.0000    715.1705     12.7927     78.0804
   154.7500      0.0000    716.4069     12.8913     76.1719
   155.0000      0.0000    715.0573     13.0060     74.6657
   155.2500      0.0000    713.7545     13.1237     72.5077
   155.5000      0.0000    715.1726     13.2550     69.3480
   155.7500      0.0000    716.6293     13.3740     65.3736
   156.0000      0.0000    715.4441     13.4388     60.9904
   156.2500      0.0000    714.4337     13.4528     56.8009
   156.5000      0.0000    716.7063     13.4203     53.4727
   156.7500      0.0000    719.3910     13.3133     51.2879
   157.0000      0.0000    716.4333     13.1350     49.9962
   157.2500      0.0000    704.7148     12.9651     49.2811
   157.5000      0.0000    687.8818     12.9019     49.2350
   157.7500      0.0000    674.4529     12.9760     50.2949
   158.0000      0.0000    668.5370     13.1463     52.8162
   158.2500      0.0000    666.9178     13.3418     56.5524
   158.5000      0.0000    667.6490     13.4785     60.3132
   158.7500      0.0000    671.8027     13.5051     62.4164
   159.0000      0.0000    677.7463     13.4399     61.9327
   159.2500      0.0000    683.1011     13.3072     59.4315
   159.5000      0.0000    689.0151     13.0981     56.3176
   159.7500      0.0000    697.0088     12.8328     53.7007
   160.0000      0.0000    703.7994     12.5890     52.0921
   160.2500      0.0000    703.8007     12.4335     51.6066
   160.5000      0.0000    697.0131     12.3655     51.8671
   160.7500      0.0000    689.1561     12.3584     51.9790
   161.0000      0.0000    684.0388     12.4223     51.1240
   161.2500      0.0000    680.3518     12.5708     49.1713
   161.5000      0.0000    674.4094     12.7512     46.6943
   161.7500      0.0000    664.3274     12.8687     44.6744
   162.0000      0.0000    653.8282     12.8820     44.0564
   162.2500      0.0000    650.1757     12.8358     45.1240
   162.5000      0.0000    654.4937     12.8108     47.2810
   162.7500      0.0000    657.8960     12.8620     49.6427
   163.0000      0.0000    653.5712     12.9721     51.7496
   163.2500      0.0000    647.1025     13.0625     53.6691
   163.5000      0.0000    647.7878     13.0877     55.6175
   163.7500      0.0000    657.5760     13.1049     57.5879
   164.0000      0.0000    671.7997     13.1758     59.2844
   164.2500      0.0000    684.6354     13.2487     60.3673
   164.5000      0.0000    693.1295     13.2358     60.6928
   164.7500      0.0000    695.7186     13.1424     60.1773
   165.0000      0.0000    690.5368     13.0474     58.5111
   165.2500      0.0000    681.3849     13.0250     55.3737
   165.5000      0.0000    676.6492     13.1066     51.1999
   165.7500      0.0000    679.9634     13.2612     47.4963
   166.0000      0.0000    690.2298     13.3882     45.9583
   166.2500      0.0000    704.2197     13.3868     47.2038
   166.5000      0.0000    716.2910     13.2610     50.4994
   166.7500      0.0000    722.8582     13.1122     54.5656
   167.0000      0.0000    725.1083     13.0278     58.2805
   167.2500      0.0000    725.6069     13.0174     60.7536
