~Version Information
 VERS.                                  2.0 : CWLS LAS VERSION
 WRAP.                                   NO : WRAPING MODE
 SWARE .                 MController 2.5.0J : SOFTWARE VERSION
~Well Information
 WELL.                    McClaren 13 34 TR : WELL
 COMP.    Pioneer Natural Resources USA Inc : COMPANY
 FLD.                      Purgatoire River : FIELD
 LOC.                NW/SW Sec 34 T32S R67W : LOCATION
 DATE.                             07/12/05 : DATE(S) LOGGED
 SRVC.       BLANCO Geological Services LLC : SERVICE COMPANY
 STAT.                                   CO : STATE
 CNTY.                           Las Animas : COUNTY
 CTRY.                                  USA : COUNTRY
 API.                       05-071-08437-00 : API NUMBER
 STRT.FT                             595.00 : START DEPTH
 STOP.FT                            1555.00 : STOP DEPTH
 STEP.FT                               1.00 : DEPTH INCREMENT
 NULL.                                -9999 : NULL VALUE
~Curve information
 DEPTH.FT                                   :
 ROP.MIN/FT                                 :
 GAS.UNITS                                  :
~ASCII Log data
# ...
       995.0         0.30         89.4 
       996.0         0.37         89.2 
       997.0         0.33         94.4 
       998.0         0.23         97.9 
       999.0         0.37         98.6 
      1000.0         0.17         98.0 
      1001.0         0.07         97.3 
      1002.0         0.10         96.9 
      1003.0         0.23         96.1 
      1004.0         0.23         93.9 
      1005.0         0.23         92.8 
      1006.0         0.10         91.6 
      1007.0         0.17         90.8 
      1008.0         0.18         89.8 
      1009.0         0.27         88.2 
      1010.0         0.27         81.2 
      1011.0         0.23         82.0 
      1012.0         0.27         85.0 
      1013.0         0.17         84.9 
      1014.0         0.30         81.8 
      1015.0         0.30         74.4 
      1016.0         2.25        246.0 
      1017.0         0.23        155.2 
      1018.0         0.27        134.4 
      1019.0         0.17        122.4 
      1020.0         0.13        118.0 
      1021.0         0.13        114.6 
      1022.0         0.13        110.6 
      1023.0         0.10        106.8 
      1024.0         0.27        104.8 
      1025.0         0.23        102.4 
      1026.0         0.27        100.5 
      1027.0         0.10         97.1 
      1028.0         0.13         95.8 
      1029.0         0.22         94.5 
      1030.0         0.20         93.4 
      1031.0         0.17         92.4 
      1032.0         0.13         91.8 
      1033.0         0.17         91.6 
      1034.0         0.23         91.4 
      1035.0         0.20         90.8 
      1036.0         0.17         90.1 
      1037.0         0.27         89.9 
      1038.0         0.20         88.6 
      1039.0         0.10         82.2 
      1040.0         0.20         77.4 
      1041.0         0.10         69.6 
      1042.0         0.13         67.4 
      1043.0         0.17         69.7 
      1044.0         0.10         73.4 
      1045.0         0.23         89.0 
      1046.0         2.38        256.1 
      1047.0         0.13        116.4 
      1048.0         0.10        114.1 
      1049.0         0.07        113.4 
      1050.0         0.10        112.8 
      1051.0         0.20        111.8 
      1052.0         0.17        109.2 
      1053.0         0.23        106.9 
      1054.0         0.23        103.5 
      1055.0         0.22         99.7 
      1056.0         0.33         96.0 
      1057.0         0.27         91.8 
      1058.0         0.23         89.4 
      1059.0         0.27         87.0 
      1060.0         0.23         87.0 
      1061.0         0.20         87.2 
      1062.0         0.20         87.2 
      1063.0         0.23         86.4 
      1064.0         0.17         84.8 
      1065.0         0.20         82.8 
      1066.0         0.37         85.3 
      1067.0         0.23         87.5 
      1068.0         0.22         89.0 
      1069.0         0.20         89.0 
      1070.0         0.23         85.8 
      1071.0         0.27         74.3 
      1072.0         0.20         66.3 
      1073.0         0.30         72.5 
      1074.0         0.17         81.2 
      1075.0         0.23         97.1 
      1076.0         1.68        291.5 
      1077.0         0.23        196.7 
      1078.0         0.33        174.0 
      1079.0         0.30        141.3 
      1080.0         0.27        124.7 
      1081.0         0.30        116.4 
      1082.0         0.27        110.2 
      1083.0         0.27        105.4 
      1084.0         0.27        101.2 
      1085.0         0.23         97.2 
      1086.0         0.20         94.3 
      1087.0         0.23         91.8 
      1088.0         0.28         90.0 
      1089.0         0.20         88.8 
      1090.0         0.20         88.5 
      1091.0         0.20         88.0 
      1092.0         0.13         87.9 
      1093.0         0.20         87.7 
      1094.0         0.20         86.8 
      1095.0         0.20         82.9 
      1096.0         0.17         83.3 
      1097.0         0.17         85.3 
      1098.0         0.17         87.4 
      1099.0         0.13         88.0 
      1100.0         0.27         88.0 
      1101.0         0.10         82.9 
      1102.0         0.20         77.8 
      1103.0         0.17         69.0 
      1104.0         0.20         64.9 
      1105.0         0.20         69.1 
      1106.0         1.15        238.6 
      1107.0         0.37        253.9 
      1108.0         0.23        248.9 
      1109.0         0.40        218.1 
      1110.0         0.33        152.2 
      1111.0         0.30        122.0 
      1112.0         0.35        112.0 
      1113.0         0.27        108.3 
      1114.0         0.27        103.9 
      1115.0         0.20         99.4 
      1116.0         0.17         96.3 
      1117.0         0.23         95.1 
      1118.0         0.17         92.5 
      1119.0         0.20         89.9 
      1120.0         0.20         87.4 
      1121.0         0.23         85.3 
      1122.0         0.20         85.1 
      1123.0         0.20         85.4 
      1124.0         0.17         85.0 
      1125.0         0.18         84.0 
      1126.0         0.20         82.2 
      1127.0         0.20         83.9 
      1128.0         0.20         85.8 
      1129.0         0.13         86.7 
      1130.0         0.13         87.5 
      1131.0         0.17         87.8 
      1132.0         0.27         87.6 
      1133.0         0.20         86.6 
      1134.0         0.30         85.3 
      1135.0         0.33         74.5 
      1136.0         4.50       1857.2 
      1137.0         0.33        876.8 
      1138.0         0.30        821.9 
      1139.0         0.27        791.4 
      1140.0         0.23        780.6 
      1141.0         0.23        771.1 
      1142.0         0.20        760.6 
      1143.0         0.20        753.9 
      1144.0         0.22        748.5 
      1145.0         0.23        740.9 
      1146.0         0.20        739.3 
      1147.0         0.23        735.8 
      1148.0         0.23        735.2 
      1149.0         0.27        732.7 
      1150.0         0.30        730.8 
      1151.0         0.30        727.6 
      1152.0         0.27        727.9 
      1153.0         0.20        729.5 
      1154.0         0.23        728.5 
      1155.0         0.20        728.5 
      1156.0         0.23        728.9 
      1157.0         0.22        731.1 
      1158.0         0.23        737.8 
      1159.0         0.27        738.7 
      1160.0         0.20        735.2 
      1161.0         0.23        731.4 
      1162.0         0.30        722.8 
      1163.0         0.30        705.1 
      1164.0         0.23        700.9 
      1165.0         0.37        730.1 
      1166.0         3.72       1427.4 
      1167.0         0.52        759.6 
      1168.0         0.37        753.3 
      1169.0         0.27        742.2 
      1170.0         0.27        731.7 
      1171.0         0.27        729.8 
      1172.0         0.27        726.6 
      1173.0         0.20        719.7 
      1174.0         0.27        715.2 
      1175.0         0.30        710.8 
      1176.0         0.27        713.6 
      1177.0         0.23        715.5 
      1178.0         0.27        713.3 
      1179.0         0.35        713.0 
      1180.0         0.27        708.9 
      1181.0         0.33        706.0 
      1182.0         0.27        705.1 
      1183.0         0.37        705.7 
      1184.0         0.23        708.2 
      1185.0         0.23        708.6 
      1186.0         0.27        707.3 
      1187.0         0.30        706.6 
      1188.0         0.30        707.6 
      1189.0         0.27        708.9 
      1190.0         0.23        705.1 
      1191.0         0.18        692.4 
      1192.0         0.20        684.7 
      1193.0         0.20        676.8 
      1194.0         0.17        676.8 
