~Version Information
VERS.                      2.0: CWLS Log ASCII Standard - VERSION 2.0
WRAP.                       NO: One line per depth step
~Well Information Block
STRT.FT                10.0000: 
STOP.FT              1350.5000: 
STEP.FT                 0.1000: 
NULL.                -999.2500: 
COMP.          Pioneer Natural Resources: COMPANY
WELL.              Dicks 32-5R: WELL
FLD.           Purgatorie River: FIELD
LOC.           1485' FNL & 1684' FEL: LOCATION
PROV.                 Colorado: PROVINCE
CNTY.               Las Animas: COUNTRY
SRVC.                Patterson: SERVICE COMPANY
DATE.          Fri Dec 09 10:06:15 2005: LOG DATE
UWI.                          : UNIQUE WELL ID
~Curve Information Block
DEPT.FT            0 000 00 00: Depth
DCAL.in                       : CDL Caliper
RHOB.g/cc                     : CDL Bulk Density
RHOC.g/cc                     : CDL Density Correction
DPOR.pu                       : CDL Density Porosity
GR.GAPI                       : Gamma Ray
NPOR.pu                       : Neutron Porosity
~Parameter Information Block
~A  Depth       DCAL        RHOB        RHOC        DPOR         GR         NPOR    
# ...
   182.8000     -3.1029      2.3040      2.4920     -0.0069    106.7919     22.5159
   182.9000     -3.1029      2.2869      2.4359     -0.0073    110.9418     23.1258
   183.0000     -3.1029      2.2838      2.4487     -0.0073    115.8689     23.7556
   183.1000     -3.1029      2.2980      2.4562     -0.0070    120.1548     23.6694
   183.2000     -3.1029      2.3126      2.5003     -0.0068    122.7400     23.2396
   183.3000     -3.1029      2.3125      2.4573     -0.0068    123.1764     22.9954
   183.4000     -3.1029      2.3080      2.4524     -0.0068    122.0552     22.8436
   183.5000     -3.1029      2.3107      2.4905     -0.0068    121.4256     22.8336
   183.6000     -3.1029      2.3172      2.4965     -0.0067    120.8041     23.1655
   183.7000     -3.1029      2.3265      2.4778     -0.0065    118.1051     23.9220
   183.8000     -3.1029      2.3389      2.5187     -0.0062    114.2788     24.6532
   183.9000     -3.1029      2.3451      2.5144     -0.0061    113.0519     24.9037
   184.0000     -3.1029      2.3372      2.4949     -0.0063    114.4281     25.0032
   184.1000     -3.1029      2.3174      2.5002     -0.0067    114.9267     25.5591
   184.2000     -3.1029      2.2982      2.4307     -0.0070    114.8474     26.5087
   184.3000     -3.1029      2.2915      2.4664     -0.0072    114.7817     27.2922
   184.4000     -3.1029      2.2963      2.4670     -0.0071    114.0867     27.6696
   184.5000     -3.1029      2.3090      2.4407     -0.0068    114.3936     27.6552
   184.6000     -3.1029      2.3265      2.4726     -0.0065    116.2620     27.3329
   184.7000     -3.1029      2.3392      2.4888     -0.0062    117.6497     26.9818
   184.8000     -3.1029      2.3393      2.4728     -0.0062    117.4827     26.9321
   184.9000     -3.1029      2.3236      2.5157     -0.0065    117.0355     26.9553
   185.0000     -3.1029      2.2970      2.4467     -0.0071    117.1229     26.6467
   185.1000     -3.1029      2.2706      2.4589     -0.0076    116.9734     26.1575
   185.2000     -3.1029      2.2452      2.4533     -0.0081    116.0295     25.8591
   185.3000     -3.1029      2.2227      2.3940     -0.0086    113.3974     25.9588
   185.4000     -3.1029      2.2146      2.4031     -0.0087    108.7603     26.5462
   185.5000     -3.1029      2.2229      2.4301     -0.0085    105.2550     27.2103
   185.6000     -3.1029      2.2384      2.4323     -0.0082    106.6045     27.2301
   185.7000     -3.1029      2.2548      2.4650     -0.0079    111.6891     27.0278
   185.8000     -3.1029      2.2679      2.4845     -0.0076    117.4384     27.4119
   185.9000     -3.1029      2.2736      2.4638     -0.0075    123.1845     27.9240
   186.0000     -3.1029      2.2695      2.4895     -0.0076    127.2673     27.9669
   186.1000     -3.1029      2.2612      2.4563     -0.0078    125.1891     27.9072
   186.2000     -3.1029      2.2604      2.4371     -0.0078    117.4153     28.1060
   186.3000     -3.1029      2.2701      2.4554     -0.0076    110.1120     28.3321
   186.4000     -3.1029      2.2838      2.4744     -0.0073    107.7368     28.2566
   186.5000     -3.1029      2.2949      2.4837     -0.0071    109.4885     27.8437
   186.6000     -3.1029      2.2984      2.4662     -0.0070    112.1255     27.3232
   186.7000     -3.1029      2.2941      2.4692     -0.0071    113.1339     26.9036
   186.8000     -3.1029      2.2887      2.4522     -0.0072    112.7377     26.4732
   186.9000     -3.1029      2.2891      2.4535     -0.0072    113.7864     26.2264
   187.0000     -3.1029      2.2937      2.4446     -0.0071    115.4792     26.3433
   187.1000     -3.1029      2.2967      2.4581     -0.0071    113.4233     26.4181
   187.2000     -3.1029      2.2937      2.4733     -0.0071    107.8032     26.4147
   187.3000     -3.1029      2.2785      2.4868     -0.0074    104.8680     26.7029
   187.4000     -3.1029      2.2509      2.4337     -0.0080    107.3421     27.1118
   187.5000     -3.1029      2.2228      2.4115     -0.0085    110.0672     27.2627
   187.6000     -3.1029      2.2056      2.4237     -0.0089    110.2026     27.3087
   187.7000     -3.1029      2.2052      2.4123     -0.0089    110.8266     27.4836
   187.8000     -3.1029      2.2223      2.4379     -0.0086    113.4817     28.0032
   187.9000     -3.1029      2.2488      2.4364     -0.0080    117.2412     28.7544
   188.0000     -3.1029      2.2694      2.4785     -0.0076    120.1622     28.9591
   188.1000     -3.1029      2.2721      2.4648     -0.0076    119.3963     28.4100
   188.2000     -3.1029      2.2645      2.4265     -0.0077    117.7270     27.8469
   188.3000     -3.1029      2.2637      2.4343     -0.0077    119.9824     27.5685
   188.4000     -3.1029      2.2733      2.4363     -0.0075    121.9462     27.2714
   188.5000     -3.1029      2.2898      2.4384     -0.0072    118.9957     26.7674
   188.6000     -3.1029      2.3098      2.4674     -0.0068    115.6444     26.3629
   188.7000     -3.1029      2.3274      2.4701     -0.0065    114.9531     26.4896
   188.8000     -3.1029      2.3429      2.4794     -0.0061    113.5523     26.9372
   188.9000     -3.1029      2.3575      2.5101     -0.0059    109.5698     27.1607
   189.0000     -3.1029      2.3584      2.5332     -0.0058    107.5399     26.8468
   189.1000     -3.1029      2.3389      2.4602     -0.0062    111.4928     26.0633
   189.2000     -3.1029      2.3129      2.4788     -0.0067    117.1260     25.4216
   189.3000     -3.1029      2.2938      2.4445     -0.0071    118.9104     25.4899
   189.4000     -3.1029      2.2872      2.4306     -0.0073    119.0206     26.0319
   189.5000     -3.1029      2.2915      2.4729     -0.0072    119.9443     26.4150
   189.6000     -3.1029      2.2978      2.4992     -0.0070    120.4470     26.3499
   189.7000     -3.1029      2.3048      2.4676     -0.0069    120.7270     26.0011
   189.8000     -3.1029      2.3159      2.4737     -0.0067    119.6145     25.8339
   189.9000     -3.1029      2.3250      2.4946     -0.0065    115.6826     26.0041
   190.0000     -3.1029      2.3279      2.4838     -0.0064    111.5531     26.2884
   190.1000     -3.1029      2.3333      2.4667     -0.0063    109.1182     26.5147
   190.2000     -3.1029      2.3437      2.5166     -0.0061    108.9529     26.5762
   190.3000     -3.1029      2.3478      2.5069     -0.0060    110.4050     26.5926
   190.4000     -3.1029      2.3418      2.5201     -0.0062    110.9511     26.7758
   190.5000     -3.1029      2.3301      2.5009     -0.0064    110.7260     26.9154
   190.6000     -3.1029      2.3129      2.5227     -0.0067    111.4995     26.6751
   190.7000     -3.1029      2.2946      2.4347     -0.0071    112.4719     26.4024
   190.8000     -3.1029      2.2897      2.4525     -0.0072    111.6627     26.6471
   190.9000     -3.1029      2.2978      2.4655     -0.0070    109.0870     26.9133
   191.0000     -3.1029      2.3067      2.4603     -0.0069    107.7853     26.5475
   191.1000     -3.1029      2.3132      2.4497     -0.0067    109.9824     26.1247
   191.2000     -3.1029      2.3171      2.4511     -0.0067    112.5251     26.4824
   191.3000     -3.1029      2.3191      2.4515     -0.0066    110.6725     27.4136
   191.4000     -3.1029      2.3233      2.4688     -0.0065    105.8355     27.8577
   191.5000     -3.1029      2.3295      2.4764     -0.0064    104.3058     27.2105
   191.6000     -3.1029      2.3352      2.4710     -0.0063    109.7728     26.1813
   191.7000     -3.1029      2.3408      2.4422     -0.0062    117.5805     25.7315
   191.8000     -3.1029      2.3466      2.4712     -0.0061    119.9259     26.0524
   191.9000     -3.1029      2.3508      2.4796     -0.0060    116.9623     26.7301
   192.0000     -3.1029      2.3619      2.4601     -0.0058    115.7008     27.3255
   192.1000     -3.1029      2.3925      2.4639     -0.0052    120.2183     27.7783
   192.2000     -3.1029      2.4370      2.4702     -0.0043    125.8057     28.3156
   192.3000     -3.1029      2.4731      2.4980     -0.0035    123.7126     29.0850
