~Version Information
VERS.                      2.0: CWLS Log ASCII Standard - VERSION 2.0
WRAP.                       NO: One line per depth step
~Well Information Block
STRT.FT                -7.0000: 
STOP.FT              2517.5000: 
STEP.FT                 0.2500: 
NULL.                -999.2500: 
COMP.          Pioneer Natural Resources: COMPANY
WELL.          Horsefeathers 24-34: WELL
FLD.           Purgatoire River: FIELD
LOC.           183' FSL & 1570' FWL: LOCATION
CNTY.               Las Animas: COUNTY
SRVC.                         : SERVICE COMPANY
DATE.          Fri Mar 17 10:06:37 2006: LOG DATE
UWI.           05 071 08675 00: UNIQUE WELL ID
STAT.                       CO: STATE
~Curve Information Block
DEPT.FT            0 000 00 00: Depth
GR.GAPI                       : Gamma Ray
CCL.                          : Casing Collar Locator
TT3.usec                      : CBL 3' Travel Time
AMP3.mV                       : CBL 3' Amplitude
~Parameter Information Block
~A  Depth        GR         CCL         TT3         AMP3    
# ...
   495.5000     95.2127      0.0000    728.0650      6.3508
   495.7500     93.6269      0.0000    728.0318      6.3509
   496.0000     92.6410      0.0000    728.0861      6.3519
   496.2500     93.2632      0.0000    728.2253      6.3754
   496.5000     95.1194      0.0000    728.4430      6.4407
   496.7500     96.3624      0.0000    728.7564      6.5512
   497.0000     95.1420      0.0000    729.2009      6.6883
   497.2500     91.4650      0.0000    729.8172      6.8190
   497.5000     87.3198      0.0000    730.7415      6.9171
   497.7500     84.7496      0.0000    732.3925      6.9782
   498.0000     83.9498      0.0000    735.4798      7.0097
   498.2500     83.4112      0.0000    740.3013      7.0092
   498.5000     81.5631      0.0000    745.5397      6.9624
   498.7500     77.8386      0.0000    748.1573      6.8636
   499.0000     72.5384      0.0000    745.6785      6.7329
   499.2500     66.4505      0.0000    739.0710      6.6058
   499.5000     60.5761      0.0000    732.6039      6.5079
   499.7500     55.6768      0.0000    730.2778      6.4378
   500.0000     52.0295      0.0000    732.7256      6.3707
   500.2500     49.7640      0.0000    737.7437      6.2766
   500.5000     49.1255      0.0000    743.0602      6.1409
   500.7500     50.1369      0.0000    747.7172      5.9736
   501.0000     52.1323      0.0000    751.1522      5.7997
   501.2500     53.8691      0.0000    752.5034      5.6434
   501.5000     54.3250      0.0000    751.6464      5.5221
   501.7500     53.5821      0.0000    750.0504      5.4524
   502.0000     52.8001      0.0000    749.6412      5.4517
   502.2500     53.1004      0.0000    751.0714      5.5251
   502.5000     54.4541      0.0000    753.7347      5.6501
   502.7500     55.7083      0.0000    756.9932      5.7839
   503.0000     55.6808      0.0000    760.5466      5.8894
   503.2500     54.2921      0.0000    763.8867      5.9510
   503.5000     52.6229      0.0000    766.2465      5.9699
   503.7500     51.7546      0.0000    767.1544      5.9582
   504.0000     51.6273      0.0000    766.6234      5.9360
   504.2500     51.2145      0.0000    764.8953      5.9234
   504.5000     49.6699      0.0000    762.3851      5.9275
   504.7500     47.1449      0.0000    759.7871      5.9384
   505.0000     44.6859      0.0000    757.6031      5.9409
   505.2500     43.5132      0.0000    755.1481      5.9284
   505.5000     44.1926      0.0000    750.4704      5.9037
   505.7500     46.2134      0.0000    742.1075      5.8697
   506.0000     48.2580      0.0000    731.1379      5.8260
   506.2500     48.9910      0.0000    720.8533      5.7725
   506.5000     47.9377      0.0000    713.8408      5.7120
   506.7500     45.9222      0.0000    709.6522      5.6504
   507.0000     44.6268      0.0000    705.8680      5.5971
   507.2500     45.3799      0.0000    701.1449      5.5625
   507.5000     47.9990      0.0000    696.5396      5.5515
   507.7500     50.7923      0.0000    694.0398      5.5592
   508.0000     52.0036      0.0000    694.5082      5.5759
   508.2500     51.3163      0.0000    697.1437      5.5941
   508.5000     49.7840      0.0000    700.5426      5.6137
   508.7500     48.5906      0.0000    703.9865      5.6364
   509.0000     48.2239      0.0000    707.5497      5.6581
   509.2500     48.4683      0.0000    711.2586      5.6665
   509.5000     48.7097      0.0000    714.8413      5.6495
   509.7500     48.5522      0.0000    718.2570      5.6050
   510.0000     48.5388      0.0000    721.7001      5.5438
   510.2500     49.8588      0.0000    725.0262      5.4828
   510.5000     52.8528      0.0000    727.7485      5.4333
   510.7500     56.0821      0.0000    729.5947      5.3946
   511.0000     57.4778      0.0000    730.7064      5.3596
   511.2500     56.4996      0.0000    731.3738      5.3233
   511.5000     54.7513      0.0000    731.8312      5.2855
   511.7500     54.2414      0.0000    732.2521      5.2477
   512.0000     55.3140      0.0000    732.7780      5.2131
   512.2500     56.6086      0.0000    733.5641      5.1839
   512.5000     56.8307      0.0000    734.9256      5.1594
   512.7500     56.0403      0.0000    737.4359      5.1364
   513.0000     55.1067      0.0000    741.6516      5.1154
   513.2500     54.4662      0.0000    747.4412      5.1009
   513.5000     53.8110      0.0000    753.5626      5.0966
   513.7500     52.7952      0.0000    758.2158      5.1005
   514.0000     51.6870      0.0000    760.3240      5.1062
   514.2500     51.1723      0.0000    760.2986      5.1076
   514.5000     51.5466      0.0000    759.4901      5.1068
   514.7500     52.3020      0.0000    758.9912      5.1210
   515.0000     52.6302      0.0000    759.0466      5.1826
   515.2500     52.2384      0.0000    759.1666      5.3282
   515.5000     51.5725      0.0000    758.1396      5.5723
   515.7500     51.2939      0.0000    754.3107      5.8714
   516.0000     51.6166      0.0000    747.1149      6.1203
   516.2500     52.1359      0.0000    738.7925      6.2174
   516.5000     52.1828      0.0000    733.6777      6.1516
   516.7500     51.2343      0.0000    734.6854      6.0081
   517.0000     49.1176      0.0000    740.4536      5.8818
   517.2500     46.2530      0.0000    746.7631      5.8055
   517.5000     43.8353     -2.0000    751.1525      5.7618
   517.7500     43.2679      1.3144    755.2842      5.7294
   518.0000     44.9483      0.0000    761.9971      5.7046
   518.2500     47.7423      0.0000    770.8654      5.7025
   518.5000     49.9143      0.0000    777.8676      5.7563
   518.7500     50.6118      0.0000    779.2543      5.8983
   519.0000     50.4825      0.0000    774.9840      6.1196
   519.2500     50.8935      0.0000    768.3157      6.3516
   519.5000     52.4575      0.0000    762.6993      6.5059
   519.7500     54.3805      0.0000    759.5909      6.5380
   520.0000     55.3938      0.0000    758.7382      6.4688
   520.2500     55.1631      0.0000    759.2869      6.3527
   520.5000     54.5999      0.0000    760.1166      6.2340
   520.7500     54.9785      0.0000    759.7448      6.1313
   521.0000     56.9802      0.0000    756.7569      6.0479
   521.2500     60.4274      0.0000    750.6978      5.9824
   521.5000     64.7727      0.0000    742.4124      5.9263
   521.7500     69.8635      0.0000    733.4240      5.8634
   522.0000     75.8835      0.0000    725.3422      5.7807
   522.2500     82.1423      0.0000    719.7022      5.6811
   522.5000     86.5739      0.0000    717.3975      5.5818
   522.7500     87.4204      0.0000    717.9849      5.5017
   523.0000     85.3408      0.0000    720.2298      5.4508
   523.2500     83.2288      0.0000    723.4476      5.4263
   523.5000     83.6651      0.0000    727.7930      5.4156
   523.7500     86.4986      0.0000    733.4415      5.4052
   524.0000     89.0557      0.0000    739.8563      5.3898
   524.2500     88.9928      0.0000    745.3349      5.3761
   524.5000     86.6474      0.0000    747.2308      5.3766
   524.7500     84.1970      0.0000    743.8962      5.3993
   525.0000     83.2212      0.0000    737.0046      5.4414
   525.2500     83.9527      0.0000    730.7966      5.4916
   525.5000     86.2529      0.0000    728.3095      5.5391
   525.7500     89.9554      0.0000    729.0285      5.5792
   526.0000     94.0990      0.0000    730.1954      5.6113
   526.2500     96.8256      0.0000    729.2662      5.6325
   526.5000     96.7378      0.0000    725.0671      5.6354
   526.7500     94.1348      0.0000    717.9368      5.6143
   527.0000     90.5439      0.0000    709.5396      5.5715
   527.2500     87.4544      0.0000    702.0516      5.5147
   527.5000     85.9893      0.0000    696.9001      5.4498
   527.7500     87.0990      0.0000    694.1725      5.3795
   528.0000     90.8992      0.0000    693.1341      5.3108
   528.2500     95.9969      0.0000    693.1397      5.2582
   528.5000    100.3175      0.0000    694.1912      5.2362
   528.7500    102.5771      0.0000    696.9179      5.2450
