~Version Information
VERS.                      2.0: CWLS Log ASCII Standard - VERSION 2.0
WRAP.                       NO: One line per depth step
~Well Information Block
STRT.FT               795.0000: 
STOP.FT              2279.7500: 
STEP.FT                 0.2500: 
NULL.                -999.2500: 
COMP.          Pioneer Natural Resources: COMPANY
WELL.            Wildcard 31-5: WELL
FLD.           Purgatoire River: FIELD
LOC.           624' FNL & 1852' FEL--: LOCATION
CNTY.               Las Animas: COUNTY
SRVC.                Patterson: SERVICE COMPANY
DATE.          Tue Mar 07 07:02:36 2006: LOG DATE
UWI.           05 071 08707 00: UNIQUE WELL ID
STAT.                 Colorado: STATE
~Curve Information Block
DEPT.FT            0 000 00 00: Depth
DIR.Ohm-m                     : IEL Induction Resistivity
SN.Ohm-m                      : IEL Short Normal
SP.mV                         : IEL Spontaneous Potential
GR.GAPI                       : Gamma Ray
~Parameter Information Block
~A  Depth       DIR          SN          SP          GR     
# ...
  2034.5000     12.9639     18.1567    -99.4573     76.4642
  2034.7500     13.2939     18.2923    -99.5671     73.6404
  2035.0000     13.5512     18.3118    -99.5010     71.5732
  2035.2500     13.6547     18.1624    -99.2843     71.7399
  2035.5000     13.5447     17.8212    -98.9564     74.1930
  2035.7500     13.2100     17.3001    -98.5640     77.0233
  2036.0000     12.6909     16.6337    -98.1541     82.6838
  2036.2500     12.0570     15.8672    -97.7677     87.4338
  2036.5000     11.3807     15.0534    -97.4366     95.9815
  2036.7500     10.7228     14.2541    -97.1809    102.0231
  2037.0000     10.1297     13.5358    -97.0097    109.6529
  2037.2500      9.6334     12.9534    -96.9221    112.9278
  2037.5000      9.2523     12.5338    -96.9105    115.5907
  2037.7500      8.9921     12.2692    -96.9628    117.0671
  2038.0000      8.8484     12.1272    -97.0654    120.4423
  2038.2500      8.8089     12.0668    -97.2055    123.4204
  2038.5000      8.8562     12.0518    -97.3728    127.7973
  2038.7500      8.9697     12.0589    -97.5607    129.9234
  2039.0000      9.1292     12.0815    -97.7672    130.9482
  2039.2500      9.3193     12.1260    -97.9946    130.0054
  2039.5000      9.5335     12.2065    -98.2494    127.1069
  2039.7500      9.7758     12.3424    -98.5408    125.2447
  2040.0000     10.0580     12.5549    -98.8792    123.7471
  2040.2500     10.3935     12.8583    -99.2743    123.4890
  2040.5000     10.7917     13.2481    -99.7328    123.3301
  2040.7500     11.2533     13.7015   -100.2572    123.0438
  2041.0000     11.7710     14.1912   -100.8449    121.8831
  2041.2500     12.3353     14.7029   -101.4877    120.0938
  2041.5000     12.9407     15.2448   -102.1733    115.0170
  2041.7500     13.5903     15.8450   -102.8858    110.1068
  2042.0000     14.2963     16.5403   -103.6081    101.5539
  2042.2500     15.0785     17.3626   -104.3229     95.8478
  2042.5000     15.9615     18.3283   -105.0138     88.5482
  2042.7500     16.9684     19.4311   -105.6668     85.1503
  2043.0000     18.1110     20.6368   -106.2698     82.6176
  2043.2500     19.3766     21.8829   -106.8127     82.0483
  2043.5000     20.7155     23.0907   -107.2876     80.6608
  2043.7500     22.0403     24.1848   -107.6881     78.2323
  2044.0000     23.2430     25.1107   -108.0099     72.2535
  2044.2500     24.2328     25.8413   -108.2506     67.7655
  2044.5000     24.9710     26.3746   -108.4106     62.4317
  2044.7500     25.4802     26.7280   -108.4934     60.5113
  2045.0000     25.8228     26.9330   -108.5059     60.0549
  2045.2500     26.0727     27.0304   -108.4590     60.8168
  2045.5000     26.2943     27.0662   -108.3664     62.4191
  2045.7500     26.5339     27.0864   -108.2441     63.3782
  2046.0000     26.8158     27.1325   -108.1080     64.3244
  2046.2500     27.1452     27.2374   -107.9723     64.4519
  2046.5000     27.5165     27.4201   -107.8471     63.8244
  2046.7500     27.9216     27.6801   -107.7365     63.2264
  2047.0000     28.3502     27.9927   -107.6385     63.0503
  2047.2500     28.7850     28.3147   -107.5449     63.7177
  2047.5000     29.1981     28.5977   -107.4441     65.6043
  2047.7500     29.5570     28.8058   -107.3232     67.0525
  2048.0000     29.8341     28.9269   -107.1717     68.9478
  2048.2500     30.0138     28.9723   -106.9835     69.7658
  2048.5000     30.0935     28.9668   -106.7587     69.8171
  2048.7500     30.0850     28.9363   -106.5037     68.9368
  2049.0000     30.0150     28.8998   -106.2301     66.9808
  2049.2500     29.9212     28.8658   -105.9525     66.1433
  2049.5000     29.8389     28.8316   -105.6863     66.5557
  2049.7500     29.7865     28.7847   -105.4450     67.5883
  2050.0000     29.7591     28.7080   -105.2389     68.6506
  2050.2500     29.7373     28.5896   -105.0732     68.4064
  2050.5000     29.7056     28.4328   -104.9479     66.9499
  2050.7500     29.6650     28.2553   -104.8575     65.8461
  2051.0000     29.6317     28.0811   -104.7911     64.5073
  2051.2500     29.6241     27.9304   -104.7333     63.8056
  2051.5000     29.6461     27.8117   -104.6652     63.1047
  2051.7500     29.6765     27.7142   -104.5663     63.0131
  2052.0000     29.6662     27.6001   -104.4167     63.4115
  2052.2500     29.5410     27.4073   -104.1987     63.8728
  2052.5000     29.2178     27.0700   -103.8998     64.6757
  2052.7500     28.6366     26.5510   -103.5131     65.1942
  2053.0000     27.7943     25.8626   -103.0386     65.7145
  2053.2500     26.7524     25.0574   -102.4824     65.9407
  2053.5000     25.6056     24.1982   -101.8561     66.8621
  2053.7500     24.4377     23.3292   -101.1754     68.4510
  2054.0000     23.2954     22.4664   -100.4589     72.5643
  2054.2500     22.1900     21.6068    -99.7262     76.0041
  2054.5000     21.1165     20.7475    -98.9971     81.1038
  2054.7500     20.0727     19.9008    -98.2895     84.1383
  2055.0000     19.0695     19.0948    -97.6186     88.2094
  2055.2500     18.1287     18.3636    -96.9956     90.6842
  2055.5000     17.2733     17.7334    -96.4274     93.7019
  2055.7500     16.5191     17.2127    -95.9165     94.7355
  2056.0000     15.8717     16.7915    -95.4621     94.2697
  2056.2500     15.3305     16.4501    -95.0616     93.2086
  2056.5000     14.8924     16.1689    -94.7118     92.8158
  2056.7500     14.5555     15.9337    -94.4103     94.2819
  2057.0000     14.3185     15.7384    -94.1556     98.3565
  2057.2500     14.1798     15.5873    -93.9472    101.1699
  2057.5000     14.1353     15.4916    -93.7848    104.7581
  2057.7500     14.1764     15.4590    -93.6677    107.4522
  2058.0000     14.2879     15.4857    -93.5947    113.2731
  2058.2500     14.4497     15.5587    -93.5634    117.7036
  2058.5000     14.6433     15.6652    -93.5711    121.6073
  2058.7500     14.8585     15.8010    -93.6150    120.4652
  2059.0000     15.0984     15.9728    -93.6922    113.0530
  2059.2500     15.3764     16.1946    -93.8000    106.2610
  2059.5000     15.7084     16.4783    -93.9357     97.9575
  2059.7500     16.1042     16.8234    -94.0957     95.7433
  2060.0000     16.5602     17.2113    -94.2758     98.0642
  2060.2500     17.0577     17.6103    -94.4706    101.9218
  2060.5000     17.5688     17.9913    -94.6739    107.3079
  2060.7500     18.0675     18.3410    -94.8789    109.0966
  2061.0000     18.5398     18.6649    -95.0783    109.0537
  2061.2500     18.9886     18.9804    -95.2648    107.9855
  2061.5000     19.4346     19.3096    -95.4311    105.5328
  2061.7500     19.9130     19.6752    -95.5705    103.1470
  2062.0000     20.4627     20.0961    -95.6767     97.9374
  2062.2500     21.1099     20.5828    -95.7444     93.2959
  2062.5000     21.8534     21.1346    -95.7700     85.1528
  2062.7500     22.6623     21.7404    -95.7516     79.9442
  2063.0000     23.4881     22.3789    -95.6901     75.0922
  2063.2500     24.2851     23.0188    -95.5888     74.9999
  2063.5000     25.0253     23.6238    -95.4541     79.2326
  2063.7500     25.7027     24.1654    -95.2946     83.4380
  2064.0000     26.3279     24.6343    -95.1211     88.7793
  2064.2500     26.9158     25.0440    -94.9458     90.7123
  2064.5000     27.4721     25.4237    -94.7818     91.1892
  2064.7500     27.9839     25.8073    -94.6418     90.3402
  2065.0000     28.4252     26.2210    -94.5378     87.9302
  2065.2500     28.7788     26.6754    -94.4797     85.9831
  2065.5000     29.0623     27.1639    -94.4747     83.8514
  2065.7500     29.3358     27.6695    -94.5260     83.6790
  2066.0000     29.6797     28.1718    -94.6319     84.8804
  2066.2500     30.1567     28.6511    -94.7857     85.2098
  2066.5000     30.7820     29.0882    -94.9749     82.3022
  2066.7500     31.5167     29.4632    -95.1822     77.7625
  2067.0000     32.2792     29.7544    -95.3863     69.1655
  2067.2500     32.9611     29.9346    -95.5645     64.0499
  2067.5000     33.4381     29.9683    -95.6946     59.1796
  2067.7500     33.5864     29.8141    -95.7584     57.7704
