~Version Information
VERS.                      2.0: CWLS Log ASCII Standard - VERSION 2.0
WRAP.                       NO: One line per depth step
~Well Information Block
STRT.FT               520.0000: 
STOP.FT              1373.0000: 
STEP.FT                 0.1000: 
NULL.                -999.2500: 
COMP.          Pioneer Natural Resources: COMPANY
WELL.            Gamma 13-3 Tr: WELL
FLD.           Purgatoire River: FIELD
LOC.           2127' FSL & 738' FWL: LOCATION
STAT.                 Colorado: State
CNTY.               Las Animas: COUNTY
CTRY.                      USA: Country
SECT.                        3: Section
TOWN.                       33S: Township
RANG.                       67W: Range
SRVC.                Patterson: SERVICE COMPANY
DATE.          Mon Sep 19 09:58:04 2005: LOG DATE
API.           05 071 08524 00: API
~Curve Information Block
DEPT.FT            0 000 00 00: Depth
DPOR.pu                       : CDL Density Porosity
GR.GAPI                       : Gamma Ray
NPOR.pu                       : Neutron Porosity
RHOB.g/cc                     : CDL Bulk Density
RHOC.g/cc                     : CDL Density Correction
DCAL.in                       : CDL Caliper
~Parameter Information Block
~A  Depth       DPOR         GR         NPOR        RHOB        RHOC        DCAL    
# ...
   798.4000      6.0126    119.1350     26.7326      2.5508     -0.0643      7.9721
   798.5000      6.1762    120.7547     26.1615      2.5481      0.0319      7.9699
   798.6000      6.8309    123.8886     25.5574      2.5373     -0.0672      7.9699
   798.7000      8.2413    128.0857     25.0399      2.5140     -0.0317      7.9699
   798.8000     10.0768    127.5016     24.5877      2.4837     -0.0161      7.9653
   798.9000     12.2404    122.2293     24.1595      2.4480     -0.0319      7.9653
   799.0000     13.7206    120.7607     23.7237      2.4236     -0.1141      7.9714
   799.1000     13.3530    125.9874     23.5190      2.4297     -0.0171      7.9714
   799.2000     11.5028    132.5845     23.9022      2.4602      0.0172      7.9714
   799.3000      9.2298    136.0518     24.4424      2.4977      0.0347      7.9845
   799.4000      7.8422    136.2181     24.4833      2.5206      0.1453      7.9845
   799.5000      8.2794    134.7237     24.2199      2.5134      0.0481      7.9852
   799.6000      9.6152    135.3857     24.0250      2.4913      0.0876      7.9852
   799.7000     10.2591    140.5963     23.7974      2.4807      0.0205      7.9852
   799.8000      9.7336    147.5167     23.3656      2.4894      0.0611      7.9802
   799.9000      9.0891    153.3129     22.9791      2.5000      0.0925      7.9802
   800.0000      9.3022    155.2899     23.0457      2.4965      0.0398      7.9681
   800.1000      9.9452    152.0004     23.4032      2.4859      0.0499      7.9681
   800.2000      9.9411    146.6047     23.7193      2.4860     -0.0229      7.9681
   800.3000      8.4257    141.8705     24.0721      2.5110      0.0329      7.9543
   800.4000      5.7746    138.6905     24.3732      2.5547      0.0649      7.9543
   800.5000      3.6025    138.6686     24.1806      2.5906      0.1084      7.9584
   800.6000      3.2350    140.5824     23.6708      2.5966      0.1377      7.9584
   800.7000      4.0890    140.9367     23.5115      2.5825      0.1128      7.9584
   800.8000      4.0935    138.4847     23.8257      2.5825      0.0741      7.9631
   800.9000      2.8471    135.6418     24.2899      2.6030      0.1440      7.9631
   801.0000      2.3716    135.4961     24.6727      2.6109      0.1548      7.9648
   801.1000      3.3721    139.6385     24.8194      2.5944      0.0916      7.9648
   801.2000      4.8608    146.0469     24.7943      2.5698      0.1125      7.9648
   801.3000      6.5930    146.5067     24.6825      2.5412      0.0869      7.9859
   801.4000      8.0930    138.1463     24.4645      2.5165      0.0008      7.9859
   801.5000      8.2691    129.2438     23.9866      2.5136      0.0470      8.0102
   801.6000      7.2381    128.0255     23.2288      2.5306      0.0472      8.0102
   801.7000      6.2315    131.1345     22.7141      2.5472      0.0912      8.0102
   801.8000      6.0863    132.5582     22.8913      2.5496      0.0421      8.0114
   801.9000      6.2130    133.4061     23.3497      2.5475      0.0471      8.0114
   802.0000      5.8317    132.4377     23.5883      2.5538      0.1055      7.9999
   802.1000      5.2410    126.9305     23.6869      2.5635      0.0815      7.9999
   802.2000      4.8772    120.6926     23.5659      2.5695      0.0998      7.9999
   802.3000      4.7524    117.7843     23.1081      2.5716      0.1067      7.9712
   802.4000      5.0689    117.5936     22.8372      2.5664      0.1189      7.9712
   802.5000      5.7586    117.7955     23.0533      2.5550      0.0555      7.9555
   802.6000      5.6426    118.3630     23.3442      2.5569      0.0461      7.9555
   802.7000      4.7109    118.9203     23.4765      2.5723      0.1619      7.9555
   802.8000      4.4944    119.2710     23.6488      2.5758      0.0519      7.9547
   802.9000      4.8827    119.3122     23.8389      2.5694      0.0358      7.9547
   803.0000      4.9412    117.9477     23.7760      2.5685      0.0831      7.9508
   803.1000      4.8071    118.7210     23.6308      2.5707      0.0639      7.9508
   803.2000      5.0105    122.6940     23.7944      2.5673      0.0564      7.9508
   803.3000      5.8329    125.8697     24.0639      2.5538      0.0318      7.9408
   803.4000      7.1393    129.7218     24.0607      2.5322      0.0254      7.9408
   803.5000      8.3535    134.2564     23.8025      2.5122     -0.0309      7.9309
   803.6000      8.3383    131.2441     23.5969      2.5124     -0.0204      7.9309
   803.7000      6.8650    120.2783     23.7671      2.5367      0.0391      7.9309
   803.8000      5.1362    114.1241     24.1060      2.5653     -0.0003      7.9337
   803.9000      3.6103    115.4702     24.1488      2.5904      0.0454      7.9337
   804.0000      2.3354    114.6818     23.7182      2.6115      0.1048      7.9510
   804.1000      1.9989    110.5994     23.1458      2.6170      0.1059      7.9510
   804.2000      2.8090    111.5331     22.7688      2.6037      0.0411      7.9510
   804.3000      4.1051    117.6841     22.4109      2.5823      0.0638      7.9664
   804.4000      4.8521    120.9272     21.9903      2.5699      0.0154      7.9664
   804.5000      4.4046    120.5330     21.7012      2.5773      0.0695      7.9752
   804.6000      3.5492    122.5015     21.6359      2.5914      0.0577      7.9752
   804.7000      3.3735    126.7458     21.6329      2.5943      0.0707      7.9752
   804.8000      4.2798    127.1942     21.3665      2.5794      0.0853      7.9757
   804.9000      6.0901    123.1030     21.1464      2.5495      0.0407      7.9757
   805.0000      7.9929    119.9081     21.6685      2.5181      0.0063      7.9721
   805.1000      9.0628    120.8337     22.4939      2.5005      0.0595      7.9721
   805.2000      8.8929    124.7580     22.7936      2.5033      0.0093      7.9721
   805.3000      8.0662    130.4663     22.9055      2.5169      0.0828      7.9708
   805.4000      7.7412    134.7030     23.4021      2.5223      0.0430      7.9708
   805.5000      7.9745    134.4677     23.8583      2.5184      0.0405      7.9670
   805.6000      8.1882    131.1560     23.7943      2.5149      0.0753      7.9670
   805.7000      7.8977    129.4644     23.6045      2.5197      0.0323      7.9670
   805.8000      6.8647    134.3512     23.5912      2.5367      0.0384      7.9624
   805.9000      5.9327    145.0459     23.4582      2.5521      0.0541      7.9624
   806.0000      5.7770    150.6469     23.3004      2.5547      0.0480      7.9626
   806.1000      6.3229    145.1962     23.5712      2.5457      0.0936      7.9626
   806.2000      7.5271    136.4816     24.0425      2.5258      0.0557      7.9626
   806.3000      8.3745    129.7640     24.1211      2.5118      0.0009      7.9709
   806.4000      7.8068    125.8660     23.9438      2.5212      0.0056      7.9709
   806.5000      6.9986    124.9377     23.9673      2.5345      0.0528      7.9852
   806.6000      7.6193    125.8716     24.1606      2.5243      0.0476      7.9852
   806.7000      8.9454    129.3981     24.4072      2.5024     -0.0562      7.9852
   806.8000      9.4253    132.9823     24.6174      2.4945      0.0128      7.9928
   806.9000      9.5828    131.1728     24.7231      2.4919      0.0868      7.9928
   807.0000     10.6279    127.1159     24.6349      2.4746      0.0444      7.9917
   807.1000     11.9189    127.9438     24.3133      2.4533     -0.0015      7.9917
   807.2000     12.2432    133.6951     24.0010      2.4480     -0.0166      7.9917
   807.3000     11.8444    138.9547     23.7192      2.4546     -0.0250      7.9867
   807.4000     11.7543    138.7365     23.4284      2.4561      0.0213      7.9867
   807.5000     12.1176    133.4591     23.4657      2.4501      0.0116      7.9802
   807.6000     12.1266    129.1698     23.8406      2.4499      0.0322      7.9802
   807.7000     11.4798    130.3753     24.1040      2.4606      0.0513      7.9802
   807.8000     10.5763    135.4415     24.0518      2.4755      0.0538      7.9678
   807.9000      9.8528    139.5977     23.7404      2.4874      0.0917      7.9678
