~Version Information
VERS.                      2.0: CWLS Log ASCII Standard - VERSION 2.0
WRAP.                       NO: One line per depth step
~Well Information Block
STRT.FT                -9.2500: 
STOP.FT              1854.7500: 
STEP.FT                 0.2500: 
NULL.                -999.2500: 
COMP.          Pioneer Natural Resources: COMPANY
WELL.          State Wildlife 32-16 Tr: WELL
FLD.           Purgatoire River: FIELD
LOC.           1838' FNL & 1850' FEL--: LOCATION
STAT.                       CO: State
CNTY.               Las Animas: COUNTY
CTRY. USA : Country
SECT. 16 : Section
TOWN. 32S : Township
RANG. 66W : Range
SRVC.          Patterson Wireline: SERVICE COMPANY
DATE.          Tue Nov 22 10:17:13 2005: LOG DATE
API.           05 071 08568 00: UNIQUE WELL ID
~Curve Information Block
DEPT.FT            0 000 00 00: Depth
CCL.                          : Casing Collar Locator
TT3.usec                      : CBL 3' Travel Time
AMP3.mV                       : CBL 3' Amplitude
GR.GAPI                       : Gamma Ray
~Parameter Information Block
~A  Depth       CCL         TT3         AMP3         GR     
# ...
   727.7500      0.0000   1087.5854      9.6116     72.9647
   728.0000      0.0000   1096.0817      9.5728     73.3337
   728.2500      0.0000   1093.0056      9.5112     74.8022
   728.5000      0.0000   1082.9761      9.4499     76.0125
   728.7500      0.0000   1068.9744      9.4138     76.1800
   729.0000      0.0000   1053.8419      9.4092     76.0321
   729.2500      0.0000   1042.1998      9.4258     76.9951
   729.5000      0.0000   1039.1794      9.4541     79.4430
   729.7500      0.0000   1046.0770      9.4958     82.2541
   730.0000      0.0000   1057.3323      9.5612     84.2597
   730.2500      0.0000   1063.1556      9.6528     85.5966
   730.5000      0.0000   1056.5504      9.7477     87.3169
   730.7500      0.0000   1038.9385      9.8049     89.9885
   731.0000      0.0000   1019.5988      9.7993     92.9799
   731.2500      0.0000   1008.5823      9.7435     94.9275
   731.5000      0.0000   1007.8885      9.6691     94.8147
   731.7500      0.0000   1009.0156      9.5934     92.8841
   732.0000      0.0000   1001.2897      9.5132     90.4975
   732.2500      0.0000    984.0095      9.4228     88.7451
   732.5000      0.0000    969.4293      9.3251     87.3123
   732.7500      0.0000    973.1082      9.2212     85.1832
   733.0000      0.0000   1001.0581      9.0984     82.2061
   733.2500      0.0000   1044.9559      8.9400     79.1540
   733.5000      0.0000   1088.5789      8.7481     76.2932
   733.7500      0.0000   1119.0332      8.5508     72.8028
   734.0000      0.0000   1133.0706      8.3859     67.9381
   734.2500      0.0000   1134.9766      8.2836     62.3848
   734.5000      0.0000   1130.5907      8.2606     58.3235
   734.7500      0.0000   1123.4808      8.3221     58.1978
   735.0000      0.0000   1115.2963      8.4575     63.1580
   735.2500      0.0000   1107.9731      8.6362     72.2275
   735.5000      0.0000   1104.0515      8.8167     82.6617
   735.7500      0.0000   1104.2256      8.9652     91.2447
   736.0000      0.0000   1105.8546      9.0700     95.7367
   736.2500      0.0000   1105.2393      9.1394     95.5802
   736.5000      0.0000   1100.7574      9.1883     91.7595
   736.7500      0.0000   1092.1698      9.2275     86.2282
   737.0000      0.0000   1077.7426      9.2664     80.9743
   737.2500      0.0000   1055.8516      9.3260     77.0247
   737.5000      0.0000   1031.5078      9.4406     74.4822
   737.7500      0.0000   1017.3992      9.6337     73.6087
   738.0000      0.0000   1022.9496      9.8825     75.1844
   738.2500      0.0000   1042.2648     10.1128     79.2839
   738.5000      0.0000   1056.3499     10.2449     84.2403
   738.7500      0.0000   1049.0248     10.2531     87.7146
   739.0000      0.0000   1021.0425     10.1825     88.8319
   739.2500      0.0000    988.1590     10.1031     88.7288
   739.5000      0.0000    963.9387     10.0484     88.8572
   739.7500      0.0000    945.7482     10.0027     89.1827
   740.0000      0.0000    920.9664      9.9406     88.4354
   740.2500      0.0000    884.6528      9.8698     85.9924
   740.5000      0.0000    845.4072      9.8252     82.9635
   740.7500      0.0000    814.8607      9.8296     81.0632
   741.0000      0.0000    797.2698      9.8684     80.8160
   741.2500      0.0000    789.5906      9.9016     81.3020
   741.5000      0.0000    786.9792      9.8955     81.2729
   741.7500      0.0000    786.2278      9.8380     79.9646
   742.0000      0.0000    785.9617      9.7287     77.2793
   742.2500      0.0000    785.6752      9.5676     73.8948
   742.5000      0.0000    785.0058      9.3658     70.9157
   742.7500      0.0000    783.5983      9.1635     68.7569
   743.0000      0.0000    781.4626      9.0196     66.5985
   743.2500      0.0000    779.3541      8.9754     63.5219
   743.5000      0.0000    778.4680      9.0293     59.8657
   743.7500      0.0000    779.4153      9.1432     56.8564
   744.0000      0.0000    781.6227      9.2649     55.2076
   744.2500      0.0000    783.9321      9.3510     54.8374
   744.5000      0.0000    785.5968      9.3817     55.9015
   744.7500      0.0000    786.5612      9.3623     59.2736
   745.0000      0.0000    787.0820      9.3127     65.4845
   745.2500      0.0000    787.3683      9.2541     73.3362
   745.5000      0.0000    787.5085      9.2007     80.0621
   745.7500      0.0000    787.5345      9.1537     83.1278
   746.0000      0.0000    787.4727      9.1026     81.9201
   746.2500      0.0000    787.3598      9.0364     77.9348
   746.5000      0.0000    787.2307      8.9581     73.6283
   746.7500      0.0000    787.1074      8.8811     70.7883
   747.0000      0.0000    786.9990      8.8097     69.5510
   747.2500      0.0000    786.9166      8.7309     68.9877
   747.5000      0.0000    786.8830      8.6336     68.5811
   747.7500      0.0000    786.9156      8.5295     68.7404
   748.0000      0.0000    786.9954      8.4446     69.9754
   748.2500      0.0000    787.0665      8.3954     72.2353
   748.5000      0.0000    787.0827      8.3795     75.2691
   748.7500      0.0000    787.0475      8.3879     79.1570
   749.0000      0.0000    786.9986      8.4167     84.0539
   749.2500      0.0000    786.9607      8.4676     89.3484
   749.5000      0.0000    786.9279      8.5397     93.4290
   749.7500      0.0000    786.8893      8.6228     94.8726
   750.0000      0.0000    786.8511      8.7017     93.9669
   750.2500      0.0000    786.8309      8.7716     92.7199
   750.5000      0.0000    786.8346      8.8442     93.4111
   750.7500      0.0000    786.8087      8.9342     97.2727
   751.0000      0.0000    786.5464      9.0434    104.1861
   751.2500      0.0000    785.5533      9.1639    113.0220
   751.5000      0.0000    783.0226      9.2896    122.1467
   751.7500      0.0000    778.1984      9.4172    129.9816
   752.0000      0.0000    771.1160      9.5382    135.4294
   752.2500      0.0000    763.0355      9.6371    138.0655
   752.5000      0.0000    755.8460      9.6983    138.3815
   752.7500      0.0000    750.8522      9.7134    137.8480
   753.0000      0.0000    748.1851      9.6855    138.1744
   753.2500      0.0000    747.3063      9.6284    139.8867
   753.5000      0.0000    747.8503      9.5611    141.6230
   753.7500      0.0000    749.9587      9.5003    141.2797
   754.0000      0.0000    753.8657      9.4565    137.9647
   754.2500      0.0000    759.2717      9.4210    132.6909
   754.5000      0.0000    765.6930      9.3473    127.3306
   754.7500      0.0000    773.8884      9.1593    123.2525
   755.0000      0.0000    786.6190      8.8139    121.0061
   755.2500      0.0000    806.9279      8.3633    120.6400
   755.5000      0.0000    834.5598      7.9405    121.5562
   755.7500      0.0000    864.0056      7.6749    122.4082
   756.0000      0.0000    887.5832      7.6159    122.2674
   756.2500      0.0000    901.5364      7.7180    122.0838
   756.5000      2.0000    908.2289      7.8836    124.0134
   756.7500     -2.0000    913.1231      8.0189    128.8071
   757.0000      0.0000    921.2392      8.0686    134.5957
   757.2500      0.0000    932.9828      8.0606    138.6899
   757.5000      0.0000    939.7560      8.1566    140.0252
   757.7500      0.0000    928.4304      8.5892    139.5655
   758.0000      0.0000    894.7967      9.4353    139.1437
   758.2500      0.0000    849.5214     10.4531    140.3404
   758.5000      0.0000    808.8138     11.2422    143.6862
   758.7500      0.0000    782.2256     11.5785    148.2004
   759.0000      0.0000    769.6069     11.5388    151.7465
   759.2500      0.0000    765.4649     11.3357    152.1218
   759.5000      0.0000    764.0347     11.1138    148.2645
   759.7500      0.0000    761.9484     10.9013    141.0334
   760.0000      0.0000    758.5488     10.6774    132.8902
   760.2500      0.0000    754.9165     10.4421    126.2621
   760.5000      0.0000    752.6158     10.2304    121.8952
   760.7500      0.0000    752.8328     10.0832    118.9325
   761.0000      0.0000    755.9091     10.0146    116.4787
