~Version Information
VERS.                      2.0: CWLS Log ASCII Standard - VERSION 2.0
WRAP.                       NO: One line per depth step
~Well Information Block
STRT.FT               350.0000: 
STOP.FT              2803.2000: 
STEP.FT                 0.1000: 
NULL.                -999.2500: 
COMP.          Pioneer Natural Resources: COMPANY
WELL.          Grey Goose 33-30: WELL
FLD.           Purgatoire River: FIELD
LOC.           2136' FSL & 2065' FEL--: LOCATION
STAT.                 Colorado: State
CNTY.               Las Animas: COUNTY
CTRY. USA : Country
SECT. 30 : Section
TOWN. 32S : Township
RANG. 67W : Range
SRVC.                Patterson: SERVICE COMPANY
DATE.          Fri Nov 04 09:27:53 2005: LOG DATE
API.           05 071 08546 00: UNIQUE WELL ID
~Curve Information Block
DEPT.FT            0 000 00 00: Depth
DCAL.in                       : CDL Caliper
DPOR.pu                       : CDL Density Porosity
NPOR.pu                       : Neutron Porosity
RHOB.g/cc                     : CDL Bulk Density
RHOC.g/cc                     : CDL Density Correction
GR.GAPI                       : Gamma Ray
~Parameter Information Block
~A  Depth       DCAL        DPOR        NPOR        RHOB        RHOC         GR     
# ...
  2308.4000      8.0359     12.9967     16.6431      2.4356      0.0744     38.6386
  2308.5000      8.0335     14.5323     18.2887      2.4102      0.0325     38.1244
  2308.6000      8.0335     14.9426     19.5700      2.4034      0.0194     40.8711
  2308.7000      8.0335     13.9911     19.9991      2.4191      0.0649     46.3958
  2308.8000      8.0321     12.5836     20.5105      2.4424      0.0707     53.3612
  2308.9000      8.0321     11.5542     21.6093      2.4594      0.0629     61.8212
  2309.0000      8.0317     10.9574     22.8019      2.4692      0.0701     70.1169
  2309.1000      8.0317     10.5327     23.5631      2.4762      0.0507     77.5358
  2309.2000      8.0317      9.8526     23.9685      2.4874      0.0424     88.0531
  2309.3000      8.0320      8.7881     24.1781      2.5050      0.0621    101.7907
  2309.4000      8.0320      7.9425     24.1620      2.5189      0.0967    111.1742
  2309.5000      8.0345      7.4531     23.7628      2.5270      0.0606    114.8050
  2309.6000      8.0345      6.7342     23.2769      2.5389      0.0913    123.6889
  2309.7000      8.0345      6.0797     23.2057      2.5497      0.1419    141.6184
  2309.8000      8.0427      6.1449     23.2868      2.5486      0.0951    154.7575
  2309.9000      8.0427      6.6940     23.3282      2.5395      0.1051    152.2595
  2310.0000      8.0555      7.3667     23.3922      2.5285      0.0458    141.4887
  2310.1000      8.0555      7.9289     23.0981      2.5192      0.0545    134.1881
  2310.2000      8.0555      7.7951     22.2804      2.5214      0.0046    131.2794
  2310.3000      8.0624      6.7253     21.6156      2.5390      0.0840    127.4202
  2310.4000      8.0624      5.7059     21.6467      2.5559      0.0986    119.8142
  2310.5000      8.0615      5.1825     21.9223      2.5645      0.0608    111.2189
  2310.6000      8.0615      4.4620     22.0408      2.5764      0.0680    105.6326
  2310.7000      8.0615      3.6548     21.9641      2.5897      0.0646    103.6791
  2310.8000      8.0599      3.5275     21.7913      2.5918      0.0527    102.2451
  2310.9000      8.0599      4.4169     21.7352      2.5771      0.0571     96.8940
  2311.0000      8.0596      5.7862     21.7020      2.5545      0.0337     89.1070
  2311.1000      8.0596      6.4192     21.2900      2.5441     -0.0062     87.3495
  2311.2000      8.0596      6.2346     20.4502      2.5471      0.0603     93.3719
  2311.3000      8.0585      6.3876     19.9458      2.5446      0.0227     98.3308
  2311.4000      8.0585      6.7985     20.3815      2.5378     -0.0061     96.4955
  2311.5000      8.0580      6.6754     21.2717      2.5399      0.0553     91.4646
  2311.6000      8.0580      6.5996     21.7559      2.5411      0.0603     88.4911
  2311.7000      8.0580      7.6170     21.3673      2.5243      0.0550     87.4560
  2311.8000      8.0593      9.3575     20.1267      2.4956     -0.0131     85.2235
  2311.9000      8.0593     10.5147     18.5723      2.4765     -0.0067     83.2435
  2312.0000      8.0595     10.7668     17.3888      2.4723      0.0351     83.2060
  2312.1000      8.0595     10.5317     16.8960      2.4762     -0.0050     81.8693
  2312.2000      8.0595     10.1739     17.0507      2.4821      0.0496     75.8445
  2312.3000      8.0586     10.2318     17.4106      2.4812      0.0196     66.7785
  2312.4000      8.0586     10.8149     17.3884      2.4716      0.0344     58.9006
  2312.5000      8.0585     11.5874     16.9009      2.4588      0.0210     55.3834
  2312.6000      8.0585     12.2919     16.0672      2.4472      0.0232     58.4466
  2312.7000      8.0585     12.6760     15.2102      2.4408      0.0030     64.9625
  2312.8000      8.0581     12.7861     14.6098      2.4390      0.0418     65.5806
  2312.9000      8.0581     13.1023     14.1530      2.4338      0.0074     57.9934
  2313.0000      8.0585     13.5101     13.8462      2.4271      0.0341     50.0157
  2313.1000      8.0585     13.2243     13.9579      2.4318      0.0110     45.9400
  2313.2000      8.0585     12.2612     14.5934      2.4477      0.0489     43.5536
  2313.3000      8.0603     11.8044     15.2240      2.4552      0.0546     40.6999
  2313.4000      8.0603     12.2942     15.3016      2.4471      0.0325     37.7255
  2313.5000      8.0620     13.0569     15.0296      2.4346      0.0400     35.9342
  2313.6000      8.0620     13.5281     14.7931      2.4268     -0.0002     36.2456
  2313.7000      8.0620     13.2377     14.5400      2.4316      0.0328     37.4301
  2313.8000      8.0631     12.2718     14.1143      2.4475      0.0533     37.4174
  2313.9000      8.0631     11.5125     13.6747      2.4600      0.0721     36.2894
  2314.0000      8.0644     11.6618     13.4993      2.4576      0.0608     34.6231
  2314.1000      8.0644     12.4229     13.6566      2.4450      0.0246     33.3142
  2314.2000      8.0644     13.0819     13.8543      2.4341      0.0210     33.4200
  2314.3000      8.0661     13.6059     13.7784      2.4255      0.0353     33.8686
  2314.4000      8.0661     14.0868     13.4879      2.4176      0.0266     33.0845
  2314.5000      8.0685     14.1563     13.3982      2.4164      0.0427     32.1559
  2314.6000      8.0685     13.8879     13.4653      2.4208      0.0401     33.2692
  2314.7000      8.0685     14.0279     13.2132      2.4185      0.0824     36.1112
  2314.8000      8.0695     14.8173     12.7894      2.4055      0.0233     38.4018
  2314.9000      8.0695     15.5615     12.7974      2.3932      0.0167     38.0132
  2315.0000      8.0693     15.7845     13.2103      2.3896     -0.0062     34.8018
  2315.1000      8.0693     15.6982     13.5840      2.3910      0.0257     30.4660
  2315.2000      8.0693     15.5950     13.9319      2.3927      0.0228     25.7277
  2315.3000      8.0712     15.3573     14.4836      2.3966      0.0293     21.5151
  2315.4000      8.0712     14.9004     15.2124      2.4041      0.0617     21.0590
  2315.5000      8.0732     14.3784     15.9708      2.4128      0.0410     25.8845
  2315.6000      8.0732     13.7845     16.9115      2.4226      0.0553     32.4083
  2315.7000      8.0732     12.9495     17.7558      2.4363      0.0423     35.5624
  2315.8000      8.0735     11.4527     17.7570      2.4610      0.0400     34.9947
  2315.9000      8.0735      9.4730     17.2956      2.4937      0.0975     34.8894
  2316.0000      8.0743      8.2146     17.5855      2.5145      0.0915     38.2953
  2316.1000      8.0743      8.2598     18.7538      2.5137      0.0632     44.2858
  2316.2000      8.0743      8.6114     19.8924      2.5079      0.0593     50.9270
  2316.3000      8.0762      7.9392     20.9100      2.5190      0.0337     57.0790
  2316.4000      8.0762      6.3056     22.4569      2.5460      0.0787     64.5604
  2316.5000      8.0762      5.0538     24.0506      2.5666      0.0870     75.3509
  2316.6000      8.0762      4.7866     24.5555      2.5710      0.0623     88.7728
  2316.7000      8.0762      5.2063     24.0259      2.5641      0.0631    102.1562
  2316.8000      8.0744      6.4826     23.3378      2.5430      0.0784    108.1485
  2316.9000      8.0744      8.3800     22.4879      2.5117      0.0187    102.6339
  2317.0000      8.0738      9.9974     21.3557      2.4850      0.0290     94.4713
  2317.1000      8.0738     11.2126     20.5634      2.4650     -0.0046     95.2277
  2317.2000      8.0738     12.3930     20.1407      2.4455      0.0119    102.2653
  2317.3000      8.0738     13.9261     19.4623      2.4202      0.0003    102.3899
  2317.4000      8.0738     16.0026     18.2152      2.3860      0.0097     91.0369
  2317.5000      8.0729     17.7299     16.7721      2.3575     -0.0212     76.0587
  2317.6000      8.0729     18.1562     15.7347      2.3504      0.0413     64.6143
  2317.7000      8.0729     18.1177     15.2190      2.3511      0.0513     57.3323
  2317.8000      8.0719     18.4361     14.9776      2.3458      0.0271     51.6293
  2317.9000      8.0719     18.4891     14.8511      2.3449      0.0376     46.6737
