~Version Information
VERS.                      2.0: CWLS Log ASCII Standard - VERSION 2.0
WRAP.                       NO: One line per depth step
~Well Information Block
STRT.FT                -7.7500: 
STOP.FT              2248.5000: 
STEP.FT                 0.2500: 
NULL.                -999.2500: 
COMP.          Pioneer Natural Resources: COMPANY
WELL.          Interceptor 43-13 Tr: WELL
FLD.           Purgatoire River: FIELD
LOC.           2006' FSL & 438' FEL--: LOCATION
PROV.                       CO: PROVINCE
CNTY.               Las Animas: COUNTRY
SRVC.          Patterson Wireline: SERVICE COMPANY
DATE.          Thu Nov 17 10:14:59 2005: LOG DATE
UWI.           05 071 08549 00: UNIQUE WELL ID
~Curve Information Block
DEPT.FT            0 000 00 00: Depth
CCL.                          : Casing Collar Locator
TT3.usec                      : CBL 3' Travel Time
AMP3.mV                       : CBL 3' Amplitude
GR.GAPI                       : Gamma Ray
~Parameter Information Block
~A  Depth       CCL         TT3         AMP3         GR     
# ...
  1332.2500      0.0000    713.4723      5.4356    125.4740
  1332.5000      0.0000    723.9785      5.3391    125.1201
  1332.7500      0.0000    729.2255      5.2610    121.2159
  1333.0000      0.0000    730.3994      5.2623    114.8256
  1333.2500      0.0000    731.6838      5.3927    109.2479
  1333.5000      0.0000    737.2465      5.6734    108.0879
  1333.7500      0.0000    747.9754      6.1056    112.6288
  1334.0000      0.0000    760.9883      6.6734    120.7212
  1334.2500      0.0000    772.2795      7.3271    128.3080
  1334.5000      0.0000    779.6020      7.9745    132.3537
  1334.7500      0.0000    783.0092      8.4921    132.7254
  1335.0000      0.0000    783.4205      8.7529    131.6505
  1335.2500      0.0000    781.2198      8.6734    131.4248
  1335.5000      0.0000    776.1044      8.2611    132.5082
  1335.7500      0.0000    767.9855      7.6201    133.7284
  1336.0000      0.0000    757.8893      6.9022    134.0018
  1336.2500      0.0000    747.9205      6.2483    133.4196
  1336.5000      0.0000    740.3528      5.7532    132.6003
  1336.7500      0.0000    736.5580      5.4501    131.4850
  1337.0000      0.0000    736.3229      5.3099    129.4669
  1337.2500      0.0000    737.9518      5.2642    126.6679
  1337.5000      0.0000    739.1675      5.2414    124.5285
  1337.7500      0.0000    738.0887      5.1921    124.7837
  1338.0000      0.0000    733.7545      5.0980    127.8208
  1338.2500      0.0000    726.4549      4.9707    132.1355
  1338.5000      0.0000    717.8657      4.8403    135.5459
  1338.7500      0.0000    710.4305      4.7341    136.9174
  1339.0000      0.0000    706.1602      4.6601    136.5592
  1339.2500      0.0000    705.8463      4.6120    135.0816
  1339.5000      0.0000    708.9714      4.5854    132.4494
  1339.7500      0.0000    713.8248      4.5840    128.4846
  1340.0000      0.0000    718.0701      4.6119    123.9505
  1340.2500      0.0000    720.2076      4.6643    120.7032
  1340.5000      0.0000    720.7233      4.7260    120.6191
  1340.7500      0.0000    721.2537      4.7792    124.3142
  1341.0000      0.0000    722.8930      4.8201    130.8446
  1341.2500      0.0000    726.2199      4.8690    138.5157
  1341.5000      0.0000    732.3813      4.9581    145.7533
  1341.7500      0.0000    742.2976      5.1048    151.1560
  1342.0000      0.0000    754.3952      5.2921    153.3802
  1342.2500      0.0000    764.4990      5.4671    151.7416
  1342.5000      0.0000    768.7676      5.5577    146.9970
  1342.7500      0.0000    766.4318      5.5071    141.1324
  1343.0000      0.0000    759.7150      5.3112    136.2781
  1343.2500      0.0000    751.5645      5.0279    133.7544
  1343.5000      0.0000    743.5008      4.7471    133.7440
  1343.7500      0.0000    735.3068      4.5460    135.3792
  1344.0000      0.0000    726.4402      4.4592    137.2142
  1344.2500      0.0000    717.4114      4.4707    138.0484
  1344.5000      0.0000    709.6428      4.5297    137.5361
  1344.7500      0.0000    704.2441      4.5812    136.0621
  1345.0000      0.0000    701.2692      4.5882    134.3099
  1345.2500      0.0000    700.0619      4.5336    133.0509
  1345.5000      0.0000    700.0076      4.4223    133.0546
  1345.7500      0.0000    701.0016      4.2922    134.8494
  1346.0000      0.0000    703.4944      4.2052    138.3892
  1346.2500      0.0000    708.0579      4.2084    142.6817
  1346.5000      0.0000    714.5076      4.3045    145.6988
  1346.7500      0.0000    721.2670      4.4617    145.3104
  1347.0000      0.0000    725.9300      4.6435    140.9534
  1347.2500      0.0000    726.9547      4.8243    134.2565
  1347.5000      0.0000    725.1013      4.9863    127.9388
  1347.7500      0.0000    723.1201      5.1059    124.3330
  1348.0000      0.0000    723.5918      5.1471    124.6530
  1348.2500      0.0000    726.7452      5.0801    128.7464
  1348.5000      0.0000    730.3483      4.9113    134.9391
  1348.7500      0.0000    731.5623      4.6891    140.3103
  1349.0000      0.0000    728.8204      4.4768    141.9956
  1349.2500      0.0000    722.5267      4.3208    139.1437
  1349.5000      0.0000    714.6920      4.2340    133.8778
  1349.7500      0.0000    707.8327      4.2008    129.7743
  1350.0000      0.0000    703.6918      4.1945    128.9497
  1350.2500      0.0000    702.6198      4.1955    130.9138
  1350.5000      0.0000    703.7587      4.1999    134.3107
  1350.7500      0.0000    705.5384      4.2175    138.7240
  1351.0000      0.0000    706.4634      4.2622    144.0931
  1351.2500      0.0000    706.2910      4.3382    149.2965
  1351.5000      0.0000    706.6495      4.4322    152.3950
  1351.7500      0.0000    710.0401      4.5218    152.1722
  1352.0000      0.0000    717.7964      4.5854    149.0402
  1352.2500      0.0000    728.6558      4.6018    144.6161
  1352.5000      0.0000    739.0407      4.5422    140.4330
  1352.7500      0.0000    745.1967      4.3826    136.6581
  1353.0000      0.0000    746.2098      4.1406    132.0885
  1353.2500      0.0000    745.6685      3.8851    125.8840
  1353.5000      0.0000    749.6467      3.6849    119.1433
  1353.7500      0.0000    761.3812      3.5623    114.1176
  1354.0000      0.0000    777.2681      3.5156    111.9768
  1354.2500      0.0000    789.4584      3.5571    111.9275
  1354.5000      0.0000    793.4381      3.7004    112.4539
  1354.7500      0.0000    791.4396      3.9289    112.7418
  1355.0000      0.0000    787.6264      4.1967    112.6781
  1355.2500      2.0000    783.0301      4.4478    111.9680
  1355.5000      0.0000    776.8699      4.6461    109.8806
  1355.7500      0.0000    769.5932      4.8043    106.0659
  1356.0000      0.0000    762.2023      4.9632    101.3885
  1356.2500      0.0000    754.4943      5.1100     97.6333
  1356.5000      0.0000    746.2031      5.1497     96.4422
  1356.7500      0.0000    739.1157      5.0079     98.6254
  1357.0000      0.0000    736.0365      4.7286    104.1612
  1357.2500      0.0000    737.4320      4.4232    112.3440
  1357.5000      0.0000    740.5097      4.1629    121.8790
  1357.7500      0.0000    742.1420      3.9625    131.1846
  1358.0000      0.0000    741.7902      3.8297    138.9347
  1358.2500      0.0000    741.5640      3.7817    144.3932
  1358.5000      0.0000    744.7675      3.8263    147.1271
  1358.7500      0.0000    754.9660      3.9464    146.3786
  1359.0000      0.0000    774.9084      4.1041    140.9811
  1359.2500      0.0000    803.9511      4.2534    130.3012
  1359.5000      0.0000    836.0333      4.3555    115.5860
  1359.7500      0.0000    862.0903      4.3889    100.1687
  1360.0000      0.0000    875.7900      4.3522     87.8408
  1360.2500      0.0000    875.9362      4.2661     80.8627
  1360.5000      0.0000    864.0812      4.1810     79.5034
  1360.7500      0.0000    843.2810      4.1721     82.7519
  1361.0000      0.0000    818.9970      4.2988     88.8401
  1361.2500      0.0000    797.1771      4.5501     95.5320
  1361.5000      0.0000    780.4225      4.8389    100.8745
  1361.7500      0.0000    767.7160      5.0672    103.9893
  1362.0000      0.0000    757.4931      5.1934    105.0401
  1362.2500      0.0000    749.5234      5.2344    104.7133
  1362.5000      0.0000    744.1712      5.2231    104.1243
  1362.7500      0.0000    741.2704      5.1844    104.8889
  1363.0000      0.0000    740.0697      5.1382    108.3668
  1363.2500      0.0000    739.7457      5.1020    114.4733
  1363.5000      0.0000    739.7434      5.0911    121.6253
  1363.7500      0.0000    739.7664      5.1212    127.9076
  1364.0000      0.0000    739.7004      5.2001    131.9896
  1364.2500      0.0000    739.5499      5.3018    133.1958
  1364.5000      0.0000    739.3378      5.3619    131.3804
  1364.7500      0.0000    738.9822      5.3212    126.9785
  1365.0000      0.0000    738.2057      5.1764    121.1586
  1365.2500      0.0000    736.6087      4.9776    115.7376
  1365.5000      0.0000    733.9953      4.7832    112.3412
