~Version Information
VERS.                      2.0: CWLS Log ASCII Standard - VERSION 2.0
WRAP.                       NO: One line per depth step
~Well Information Block
STRT.FT                -7.7500: 
STOP.FT              2248.5000: 
STEP.FT                 0.2500: 
NULL.                -999.2500: 
COMP.          Pioneer Natural Resources: COMPANY
WELL.          Interceptor 43-13 Tr: WELL
FLD.           Purgatoire River: FIELD
LOC.           2006' FSL & 438' FEL--: LOCATION
PROV.                       CO: PROVINCE
CNTY.               Las Animas: COUNTRY
SRVC.          Patterson Wireline: SERVICE COMPANY
DATE.          Thu Nov 17 10:14:59 2005: LOG DATE
UWI.           05 071 08549 00: UNIQUE WELL ID
~Curve Information Block
DEPT.FT            0 000 00 00: Depth
CCL.                          : Casing Collar Locator
TT3.usec                      : CBL 3' Travel Time
AMP3.mV                       : CBL 3' Amplitude
GR.GAPI                       : Gamma Ray
~Parameter Information Block
~A  Depth       CCL         TT3         AMP3         GR     
# ...
  2069.2500      0.0000    458.3610      4.9563    106.7022
  2069.5000      0.0000    458.0594      5.0458    109.6319
  2069.7500      0.0000    457.9328      5.1378    113.6392
  2070.0000      0.0000    458.2979      5.1934    117.0659
  2070.2500      0.0000    460.2487      5.1874    119.1348
  2070.5000      0.0000    466.4816      5.1209    120.4604
  2070.7500      0.0000    481.4641      5.0216    121.9453
  2071.0000      0.0000    509.3551      4.9348    123.5274
  2071.2500      0.0000    549.8369      4.9080    124.3952
  2071.5000      0.0000    595.8138      4.9762    124.1977
  2071.7500      0.0000    636.9565      5.1503    123.5720
  2072.0000      0.0000    666.4974      5.4125    123.5118
  2072.2500      0.0000    684.2902      5.7224    124.3803
  2072.5000      0.0000    693.9914      6.0343    125.4293
  2072.7500      0.0000    698.8932      6.3165    125.1550
  2073.0000      0.0000    700.4899      6.5586    122.3504
  2073.2500      0.0000    699.4167      6.7637    117.1733
  2073.5000      0.0000    696.5693      6.9363    111.3874
  2073.7500      0.0000    693.2509      7.0786    107.4196
  2074.0000      0.0000    690.5575      7.1970    106.8353
  2074.2500      0.0000    688.6176      7.3089    109.3739
  2074.5000      0.0000    686.0992      7.4362    113.1712
  2074.7500      0.0000    679.8162      7.5889    115.8127
  2075.0000      0.0000    665.0795      7.7553    115.5396
  2075.2500      0.0000    638.4809      7.9080    112.1512
  2075.5000      0.0000    603.0779      8.0166    107.1263
  2075.7500      0.0000    571.0236      8.0526    102.6407
  2076.0000      0.0000    557.5942      7.9889    100.2050
  2076.2500      0.0000    569.1143      7.8033    100.0652
  2076.5000      0.0000    596.1885      7.4877    101.6981
  2076.7500      0.0000    619.6983      7.0549    104.6557
  2077.0000      0.0000    624.0673      6.5401    108.9074
  2077.2500      0.0000    606.4013      5.9948    114.4978
  2077.5000      0.0000    575.7595      5.4747    120.8673
  2077.7500      0.0000    545.1329      5.0246    126.4092
  2078.0000      0.0000    523.0945      4.6693    128.9587
  2078.2500      0.0000    510.9543      4.4137    127.2692
  2078.5000      0.0000    505.5829      4.2517    122.2066
  2078.7500      0.0000    503.3882      4.1719    116.4398
  2079.0000      0.0000    502.0752      4.1563    112.8261
  2079.2500      0.0000    500.3148      4.1772    112.6790
  2079.5000      0.0000    497.0380      4.2000    115.0244
  2079.7500      0.0000    491.4019      4.1941    117.3854
  2080.0000      0.0000    483.4048      4.1437    117.7202
  2080.2500      0.0000    474.3014      4.0501    115.9993
  2080.5000      0.0000    465.9996      3.9268    113.9083
  2080.7500      0.0000    459.8628      3.7958    113.0442
  2081.0000      0.0000    456.0917      3.6868    113.5849
  2081.2500      0.0000    454.2790      3.6342    114.5838
  2081.5000      0.0000    454.6797      3.6650    115.0254
  2081.7500      0.0000    459.5293      3.7782    114.3620
  2082.0000      0.0000    473.3630      3.9317    112.4542
  2082.2500      0.0000    500.7524      4.0509    109.4513
  2082.5000      0.0000    541.6220      4.0651    105.7464
  2082.7500      0.0000    588.4545      3.9520    102.0666
  2083.0000      0.0000    629.9099      3.7562     99.4570
  2083.2500      0.0000    658.3105      3.5614     98.7699
  2083.5000      0.0000    673.4028      3.4387     99.9782
  2083.7500      0.0000    679.7073      3.4160    102.2926
  2084.0000      0.0000    681.9261      3.4890    105.0180
  2084.2500      0.0000    682.7631      3.6468    107.9434
  2084.5000      0.0000    683.2086      3.8764    110.8717
  2084.7500      0.0000    683.4742      4.1469    113.3395
  2085.0000      0.0000    683.5864      4.4012    115.0948
  2085.2500      0.0000    683.5920      4.5738    116.4932
  2085.5000      0.0000    683.5353      4.6220    118.0584
  2085.7500      0.0000    683.4461      4.5478    119.7278
  2086.0000      0.0000    683.4460      4.3963    120.7047
  2086.2500      0.0000    683.9968      4.2294    120.0187
  2086.5000      0.0000    686.0560      4.0894    117.4376
  2086.7500      0.0000    690.7280      3.9767    114.0161
  2087.0000      0.0000    698.2596      3.8616    111.3789
  2087.2500      0.0000    706.7975      3.7173    110.0522
  2087.5000      0.0000    712.0706      3.5434    108.6716
  2087.7500      0.0000    708.5920      3.3625    105.3252
  2088.0000      0.0000    692.3149      3.2064     99.8415
  2088.2500      0.0000    663.6678      3.1057     94.4873
  2088.5000      0.0000    629.1219      3.0836     92.0558
  2088.7500      0.0000    599.1991      3.1447     93.1751
  2089.0000      0.0000    583.2885      3.2637     95.5335
  2089.2500      0.0000    584.9529      3.3923     95.7887
  2089.5000      0.0000    601.0128      3.4914     92.2784
  2089.7500      0.0000    624.1297      3.5632     85.9688
  2090.0000      0.0000    646.2637      3.6560     79.1766
  2090.2500      0.0000    660.7794      3.8415     73.7662
  2090.5000      0.0000    663.1041      4.1709     70.3942
  2090.7500      0.0000    651.9690      4.6225     68.7868
  2091.0000      0.0000    631.8839      5.0825     68.2561
  2091.2500     -2.0000    613.3312      5.3889     67.9929
  2091.5000      0.0000    606.8063      5.4054     67.3470
  2091.7500      0.0000    614.3333      5.0855     66.3385
  2092.0000      0.0000    628.1006      4.5060     66.0134
  2092.2500      0.0000    637.2477      3.8445     67.8648
  2092.5000      0.0000    633.5912      3.2807     72.4109
  2092.7500      0.0000    612.8649      2.8849     78.3550
  2093.0000      0.0000    577.9196      2.6098     83.5520
  2093.2500      0.0000    542.8802      2.3899     86.9516
  2093.5000      0.0000    527.6512      2.2175     89.4550
  2093.7500      0.0000    542.7729      2.1185     92.9003
  2094.0000      0.0000    580.4784      2.0911     98.4336
  2094.2500      0.0000    622.1947      2.0902    105.7952
  2094.5000      0.0000    653.3126      2.0648    113.8404
  2094.7500      0.0000    670.3068      2.0039    121.4721
  2095.0000      0.0000    677.2542      1.9507    127.9380
  2095.2500      0.0000    679.4383      1.9704    132.4823
  2095.5000      0.0000    680.1016      2.0877    134.3635
  2095.7500      0.0000    680.4128      2.2476    133.3789
  2096.0000      0.0000    680.5092      2.3453    130.0149
  2096.2500      0.0000    680.3432      2.3136    125.0730
  2096.5000      0.0000    680.0184      2.1787    119.4815
  2096.7500      0.0000    679.6812      2.0280    114.1857
  2097.0000      0.0000    679.3602      1.9291    109.5257
  2097.2500      0.0000    678.9989      1.8900    104.7542
  2097.5000      0.0000    678.6133      1.8855     98.7639
  2097.7500      0.0000    678.3230      1.9015     91.4450
  2098.0000      0.0000    678.2297      1.9432     84.0862
  2098.2500      0.0000    678.3608      2.0061     78.4405
  2098.5000      0.0000    678.8615      2.0606     75.5911
  2098.7500      0.0000    680.2202      2.0758     75.5692
  2099.0000      0.0000    683.0996      2.0540     77.5612
  2099.2500      0.0000    687.7755      2.0306     80.2957
  2099.5000      0.0000    693.8105      2.0413     82.5919
  2099.7500      0.0000    700.3306      2.1024     83.9566
  2100.0000      0.0000    706.4397      2.2208     84.9372
  2100.2500      0.0000    711.3805      2.4055     87.0219
  2100.5000      0.0000    714.7447      2.6516     91.9970
  2100.7500      0.0000    716.8144      2.9191    100.7759
  2101.0000      0.0000    718.5783      3.1497    112.2581
  2101.2500      0.0000    720.9928      3.3212    123.4457
  2101.5000      0.0000    723.5486      3.4716    131.2736
  2101.7500      0.0000    723.3257      3.6544    134.5001
  2102.0000      0.0000    716.5950      3.8755    133.6896
  2102.2500      0.0000    702.7657      4.0891    130.0522
  2102.5000      0.0000    686.4475      4.2500    124.9437
