~Version Information
VERS.                      2.0: CWLS Log ASCII Standard - VERSION 2.0
WRAP.                       NO: One line per depth step
~Well Information Block
STRT.FT               360.0000: 
STOP.FT              1349.5000: 
STEP.FT                 0.1000: 
NULL.                -999.2500: 
COMP.          Pioneer Natural Resources: COMPANY
WELL.          Challenger 31-29: WELL
FLD.           Purgatoire River: FIELD
LOC.           51' FNL & 1923' FEL: LOCATION
STAT.                 Colorado: State
CNTY.               Las Animas: COUNTY
CTRY. USA : Country
SECT. 29 : Section
TOWN. 33S : Township
RANG. 65W : Range
SRVC.                Patterson: SERVICE COMPANY
DATE.          Thu Sep 15 13:35:50 2005: LOG DATE
API.           05 071 08514 00: UNIQUE WELL ID
~Curve Information Block
DEPT.FT            0 000 00 00: Depth
DCAL.in                       : CDL Caliper
RHOB.g/cc                     : CDL Bulk Density
RHOC.g/cc                     : CDL Density Correction
DPOR.pu                       : CDL Density Porosity
GR.GAPI                       : Gamma Ray
NPOR.pu                       : Neutron Porosity
~Parameter Information Block
~A  Depth       DCAL        RHOB        RHOC        DPOR         GR         NPOR    
# ...
   619.2000      8.1678      2.4657      0.0043     11.1704    151.2597     24.2875
   619.3000      8.2016      2.4523      0.0103     11.9836    150.6723     23.5704
   619.4000      8.2016      2.4556      0.0310     11.7791    143.3782     22.6364
   619.5000      8.2074      2.4584      0.0594     11.6098    136.8281     22.0484
   619.6000      8.2074      2.4534      0.0475     11.9177    133.3968     21.5887
   619.7000      8.2074      2.4579      0.0344     11.6397    131.3233     20.9588
   619.8000      8.1803      2.4799      0.1011     10.3090    127.2740     20.7515
   619.9000      8.1803      2.5040      0.1021      8.8477    121.4357     20.9452
   620.0000      8.1410      2.5169      0.1645      8.0676    116.2963     20.4385
   620.1000      8.1410      2.5122      0.1873      8.3533    111.3718     19.3949
   620.2000      8.1410      2.4916      0.1767      9.5998    103.7314     18.8120
   620.3000      8.0606      2.4751      0.1055     10.5988     93.2109     18.4400
   620.4000      8.0606      2.4833      0.1092     10.1014     84.0421     17.6265
   620.5000      8.0374      2.5089      0.1428      8.5505     79.5966     16.6572
   620.6000      8.0374      2.5256      0.1431      7.5422     77.2010     16.3449
   620.7000      8.0374      2.5162      0.1204      8.1090     73.5935     16.8984
   620.8000      8.0399      2.4847      0.0660     10.0184     69.4002     17.6771
   620.9000      8.0399      2.4440      0.0721     12.4844     65.5793     18.2391
   621.0000      8.0422      2.4005      0.0972     15.1191     65.3282     18.3764
   621.1000      8.0422      2.3675     -0.0051     17.1210     71.8124     18.0478
   621.2000      8.0422      2.3652      0.0131     17.2601     79.6331     17.9491
   621.3000      8.0743      2.3852      0.0354     16.0477     81.7098     18.8683
   621.4000      8.0743      2.3992      0.0441     15.2006     82.5455     20.6141
   621.5000      8.0762      2.4015      0.0274     15.0608     90.9194     21.9073
   621.6000      8.0762      2.4043      0.1283     14.8930    104.4141     22.1228
   621.7000      8.0762      2.4159      0.1255     14.1893    119.2891     21.7891
   621.8000      8.0787      2.4390      0.2059     12.7857    135.1289     21.2643
   621.9000      8.0787      2.4586      0.2305     11.5999    143.8632     20.4596
   622.0000      8.1195      2.4579      0.1371     11.6429    142.3507     19.2728
   622.1000      8.1195      2.4401      0.1035     12.7190    141.9370     17.7460
   622.2000      8.1195      2.4085      0.0806     14.6380    147.5004     16.1902
   622.3000      8.1996      2.3551      0.0440     17.8722    153.6189     15.0822
   622.4000      8.1996      2.2739      0.0260     22.7948    155.3431     14.3597
   622.5000      8.2221      2.1689      0.0013     29.1549    152.8797     13.6336
   622.6000      8.2221      2.0481     -0.0071     36.4767    153.9279     12.8447
   622.7000      8.2221      1.9154     -0.0667     44.5202    161.3361     12.0980
   622.8000      8.2184      1.7857     -0.1334     52.3792    165.1926     11.5197
   622.9000      8.2184      1.6831     -0.1060     58.6004    159.8495     11.1675
   623.0000      8.2309      1.6101     -0.0825     63.0258    151.8236     10.8702
   623.1000      8.2309      1.5538     -0.0244     66.4359    149.4334     10.7007
   623.2000      8.2309      1.5144      0.0172     68.8228    152.9611     11.0748
   623.3000      8.3474      1.4968      0.0617     69.8881    158.1816     12.0250
   623.4000      8.3474      1.4884      0.1328     70.3989    155.7423     13.0288
   623.5000      8.5515      1.4757      0.1270     71.1711    137.7896     13.8300
   623.6000      8.5515      1.4719      0.1135     71.3999    118.5253     14.7515
   623.7000      8.5515      1.5023      0.1104     69.5576    113.4046     16.1780
   623.8000      8.5709      1.5770      0.0660     65.0332    115.1396     18.1566
   623.9000      8.5709      1.6920      0.1040     58.0588    112.3815     20.3212
   624.0000      8.4648      1.8342      0.2315     49.4406    106.4254     22.6398
   624.1000      8.4648      1.9832      0.2506     40.4125    103.7902     25.0512
   624.2000      8.4648      2.1299      0.3131     31.5238    104.3435     26.6057
   624.3000      8.3955      2.2681      0.4382     23.1465    103.1409     27.1608
   624.4000      8.3955      2.3818      0.4124     16.2569     98.0756     28.0836
   624.5000      8.3777      2.4606      0.4136     11.4768     93.5393     29.7376
   624.6000      8.3777      2.5082      0.2704      8.5929     93.6336     31.0566
   624.7000      8.3777      2.5334      0.2112      7.0645     95.6016     31.5833
   624.8000      8.3964      2.5389      0.2141      6.7353     97.1240     31.4510
   624.9000      8.3964      2.5363      0.1468      6.8933    100.9609     30.7886
   625.0000      8.0121      2.5503      0.1211      6.0421    106.4425     29.7463
   625.1000      8.0121      2.5813      0.1523      4.1662    109.3468     28.2770
   625.2000      8.0121      2.5984      0.1614      3.1253    111.1675     26.8910
   625.3000      7.9967      2.5844      0.1025      3.9761    116.3410     26.3547
   625.4000      7.9967      2.5505      0.0168      6.0292    122.5541     26.3454
   625.5000      8.0001      2.5132     -0.0003      8.2909    124.1227     26.1766
   625.6000      8.0001      2.4928     -0.0239      9.5293    119.3992     25.4823
   625.7000      8.0001      2.5117     -0.0060      8.3834    110.8518     24.2041
   625.8000      8.0033      2.5524      0.1046      5.9174    102.4703     23.3670
   625.9000      8.0033      2.5702      0.0928      4.8385     96.8572     23.4907
   626.0000      8.0204      2.5582      0.0449      5.5615     96.3291     23.4899
   626.1000      8.0204      2.5332      0.0614      7.0810    102.5411     23.1708
   626.2000      8.0204      2.5025      0.0369      8.9403    109.7310     23.2538
   626.3000      8.0141      2.4803      0.0365     10.2852    112.3861     23.7056
   626.4000      8.0141      2.4776      0.0431     10.4485    112.4996     24.2123
   626.5000      8.0161      2.4891      0.0794      9.7485    113.4423     24.6371
   626.6000      8.0161      2.5110      0.0667      8.4218    117.9486     24.8246
   626.7000      8.0161      2.5332      0.1349      7.0815    127.1548     24.7905
   626.8000      8.0103      2.5371      0.1239      6.8442    136.1477     24.8413
   626.9000      8.0103      2.5295      0.0788      7.3012    141.9951     25.0998
   627.0000      8.0154      2.5329      0.0852      7.0957    147.7555     25.5292
   627.1000      8.0154      2.5490      0.1499      6.1205    154.6102     26.0910
   627.2000      8.0154      2.5610      0.1498      5.3962    159.6868     26.6210
   627.3000      8.0231      2.5523      0.1454      5.9231    160.8908     27.0428
   627.4000      8.0231      2.5206      0.1238      7.8423    161.0736     27.4167
   627.5000      8.0297      2.4876      0.0594      9.8455    168.5444     27.5793
   627.6000      8.0297      2.4707      0.0923     10.8654    187.2293     27.4553
   627.7000      8.0297      2.4644      0.0406     11.2457    204.3092     27.2684
   627.8000      8.0540      2.4694      0.0336     10.9432    209.0827     27.3544
   627.9000      8.0540      2.4902      0.0705      9.6866    206.5647     27.9655
   628.0000      8.0738      2.5222      0.1003      7.7428    201.7083     28.9716
   628.1000      8.0738      2.5548      0.1443      5.7722    196.8110     29.6140
   628.2000      8.0738      2.5735      0.1729      4.6343    195.0289     29.2759
   628.3000      8.0735      2.5817      0.1222      4.1377    195.8819     28.7757
   628.4000      8.0735      2.5986      0.1059      3.1126    195.2873     29.1164
   628.5000      8.0525      2.6247      0.1465      1.5353    194.0293     29.9114
   628.6000      8.0525      2.6327      0.1300      1.0467    193.0127     30.4947
   628.7000      8.0525      2.6050      0.1058      2.7262    188.9408     30.8572
