~Version Information
VERS.                      2.0: CWLS Log ASCII Standard - VERSION 2.0
WRAP.                       NO: One line per depth step
~Well Information Block
STRT.FT                 0.0000: 
STOP.FT              1147.5000: 
STEP.FT                 0.2500: 
NULL.                -999.2500: 
COMP.          Pioneer Natural Resources: COMPANY
WELL.          Tin Barn 14-20 TR: WELL
FLD.           Purgatorie River: FIELD
LOC.           925 FSL & 1151 FWL: LOCATION
PROV.                 Colorado: PROVINCE
CNTY.               Las Animas: COUNTRY
SRVC.                Patterson: SERVICE COMPANY
DATE.          Wed Jan 18 12:02:25 2006: LOG DATE
UWI.                          : UNIQUE WELL ID
~Curve Information Block
DEPT.FT            0 000 00 00: Depth
CCL.                          : Casing Collar Locator
TT3.usec                      : CBL 3' Travel Time
AMP3.mV                       : CBL 3' Amplitude
GR.GAPI                       : Gamma Ray
~Parameter Information Block
~A  Depth       CCL         TT3         AMP3         GR     
     0.0000   -999.2500   1197.0000      1.7900     70.8270
     0.2500   -999.2500   1197.0000      1.7681     70.9389
     0.5000   -999.2500   1197.0000      1.6849     68.7715
     0.7500   -999.2500   1197.0000      1.6287     63.5802
     1.0000   -999.2500   1197.0000      1.6620     55.8393
     1.2500   -999.2500   1197.0000      1.7452     46.9683
     1.5000   -999.2500   1197.0000      1.7889     38.4405
     1.7500   -999.2500   1197.0000      1.7588     31.1618
     2.0000   -999.2500   1197.0000      1.7130     25.5187
     2.2500   -999.2500   1197.0000      1.7284     21.7754
     2.5000   -999.2500   1197.0000      1.7997     20.1598
     2.7500   -999.2500   1197.0000      1.8431     20.5344
     3.0000   -999.2500   1197.0000      1.8045     22.2037
     3.2500   -999.2500   1197.0000      1.7314     24.3002
     3.5000   -999.2500   1197.0000      1.7110     26.4865
     3.7500   -999.2500   1197.0000      1.7584     29.1758
     4.0000   -999.2500   1197.0000      1.8036     32.8284
     4.2500   -999.2500   1197.0000      1.7815     37.1192
     4.5000   -999.2500   1197.0000      1.7062     41.1232
     4.7500      0.0000   1197.0000      1.6520     44.1605
     5.0000      0.0000   1197.0000      1.6732     46.0012
     5.2500      0.0000   1197.0000      1.7528     46.4610
     5.5000      0.0000   1197.0000      1.8214     45.4461
     5.7500      0.0000   1197.0000      1.8212     43.3714
     6.0000      0.0000   1197.0000      1.7627     41.0104
     6.2500      0.0000   1197.0000      1.7181     38.8930
     6.5000      0.0000   1197.0000      1.7447     37.1641
     6.7500      0.0000   1197.0000      1.8197     35.9424
     7.0000      0.0000   1197.0000      1.8672     35.3840
     7.2500      0.0000   1197.0000      1.8352     35.3292
     7.5000      0.0000   1197.0000      1.7381     35.3164
     7.7500      0.0000   1197.0000      1.6432     35.2437
     8.0000      0.0000   1197.0000      1.6164     35.6981
     8.2500      0.0000   1197.0000      1.6664     37.2597
     8.5000      0.0000   1196.9653      1.7439     39.7282
     8.7500      0.0000   1196.5168      1.7955     42.3604
     9.0000      0.0000   1192.9988      1.8703     44.5543
     9.2500      0.0000   1174.8236      2.4452     45.8996
     9.5000      0.0000   1112.4739      5.2244     45.8592
     9.7500      0.0000    969.3594     13.5594     43.9774
    10.0000      0.0000    748.4492     29.7243     40.4690
    10.2500      0.0000    518.9431     50.1710     36.3770
    10.5000      0.0000    359.0655     67.1585     33.0623
    10.7500      0.0000    284.9395     76.6216     31.4975
    11.0000      0.0000    262.3085     80.4020     31.8937
    11.2500      0.0000    257.8549     81.7488     33.8199
    11.5000      0.0000    257.3472     82.4102     36.4763
    11.7500      0.0000    257.3570     82.9415     38.8901
    12.0000      0.0000    257.3798     83.4650     40.1837
    12.2500      0.0000    257.3538     83.9077     39.9347
    12.5000      0.0000    257.2881     84.1040     38.3267
    12.7500      0.0000    257.2288     83.9900     36.0143
    13.0000      0.0000    257.2150     83.6403     33.7853
    13.2500      0.0000    257.2422     82.9576     32.0715
    13.5000      0.0000    257.2944     81.4533     30.6926
    13.7500      0.0000    257.3898     78.6040     29.2801
    14.0000      0.0000    257.5714     74.3588     28.0303
    14.2500      0.0000    257.9059     69.1035     27.8082
    14.5000      0.0000    258.6399     63.2980     29.2989
    14.7500      0.0000    260.6138     57.3454     32.1847
    15.0000      0.0000    265.4824     51.5813     35.3909
    15.2500      0.0000    274.2943     46.1481     38.0646
    15.5000      0.0000    285.0396     41.0504     40.1550
    15.7500      0.0000    293.6736     36.3844     42.2039
    16.0000      0.0000    298.3445     32.2861     44.7618
    16.2500      0.0000    300.3324     28.6938     47.9395
    16.5000      0.0000    301.4516     25.4273     51.3940
    16.7500      0.0000    302.5498     22.5301     54.6660
    17.0000      0.0000    303.9877     20.3040     57.3514
    17.2500      0.0000    307.6328     18.9273     59.0481
    17.5000      0.0000    320.3083     18.2366     59.6414
    17.7500      0.0000    351.8987     17.9352     59.7729
    18.0000      0.0000    396.2389     17.8353     60.5245
    18.2500      0.0000    418.9177     17.8686     62.3734
    18.5000      0.0000    396.3215     17.9951     64.6708
    18.7500      0.0000    352.0057     18.1607     66.2459
    19.0000      0.0000    320.7987     18.3069     66.3688
    19.2500      0.0000    311.5161     18.3857     65.1285
    19.5000      0.0000    323.9178     18.3742     63.0815
    19.7500      0.0000    370.4695     18.2831     60.6519
    20.0000      0.0000    461.8474     18.1503     57.9296
    20.2500      0.0000    575.4820     18.0181     55.0925
    20.5000      0.0000    665.2192     17.9179     52.8671
    20.7500      0.0000    708.4616     17.8914     52.2658
    21.0000      0.0000    716.7835     17.9846     53.6896
    21.2500      0.0000    704.2864     18.1803     56.3797
    21.5000      0.0000    667.1113     18.3868     58.9458
    21.7500      0.0000    602.3650     18.5277     60.4317
    22.0000      0.0000    544.2033     18.5889     60.8674
    22.2500      0.0000    544.1960     18.5793     61.0303
    22.5000      0.0000    602.3055     18.5133     61.8445
    22.7500      0.0000    666.2807     18.4263     63.7209
    23.0000      0.0000    700.4181     18.3558     66.0635
    23.2500      0.0000    708.6104     18.3163     67.5478
    23.5000      0.0000    705.7811     18.3155     67.4051
    23.7500      0.0000    700.9760     18.3656     66.3633
    24.0000      0.0000    697.7953     18.4625     65.8550
    24.2500      0.0000    696.4985     18.5800     66.5446
    24.5000      0.0000    696.1289     18.6871     68.2686
    24.7500      0.0000    696.0547     18.7524     71.0719
    25.0000      0.0000    696.1071     18.7560     75.2874
    25.2500      0.0000    696.2783     18.7122     80.5110
    25.5000      0.0000    696.6072     18.6498     85.3381
    25.7500      0.0000    697.2176     18.5810     88.4428
    26.0000      0.0000    698.6640     18.5258     89.4726
    26.2500      0.0000    702.2631     18.5306     88.7406
    26.5000      0.0000    708.9849     18.6223     86.6716
    26.7500      0.0000    717.3322     18.7721     84.0029
    27.0000      0.0000    724.0718     18.9221     81.9559
    27.2500      0.0000    727.6429     19.0280     81.3970
    27.5000      0.0000    728.8932     19.0768     81.9154
    27.7500      0.0000    729.1133     19.0883     82.3148
    28.0000      0.0000    729.0315     19.0987     82.0105
    28.2500      0.0000    728.9786     19.1371     81.4357
    28.5000      0.0000    729.0812     19.2171     81.0663
    28.7500      0.0000    729.2826     19.3233     80.5670
    29.0000      0.0000    729.3636     19.4083     79.0872
    29.2500      0.0000    728.8284     19.4362     76.1764
    29.5000      0.0000    725.3583     19.4029     72.2543
    29.7500      0.0000    710.2457     19.3104     68.1739
    30.0000      0.0000    666.9890     19.1771     64.4839
    30.2500      0.0000    591.6721     19.0366     61.4011
    30.5000      0.0000    522.2791     18.8751     59.4960
    30.7500      0.0000    507.5031     18.6558     59.8967
    31.0000      0.0000    530.6743     18.4317     63.1937
    31.2500      0.0000    530.5314     18.3249     68.0272
    31.5000      0.0000    507.0840     18.3737     71.3408
    31.7500      0.0000    521.6316     18.4839     70.7542
    32.0000      0.0000    590.8431     18.5529     66.7705
    32.2500      0.0000    665.6146     18.5838     62.3200
    32.5000      0.0000    705.4868     18.6517     60.1182
    32.7500      0.0000    705.3857     18.7981     60.6817
    33.0000      0.0000    664.8730     18.9822     62.6751
    33.2500      0.0000    586.8838     19.1045     64.5862
