~Version Information
VERS.                      2.0: CWLS Log ASCII Standard - VERSION 2.0
WRAP.                       NO: One line per depth step
~Well Information Block
STRT.FT                -6.0000: 
STOP.FT               783.7500: 
STEP.FT                 0.2500: 
NULL.                -999.2500: 
COMP.          Pioneer Natural Resources: COMPANY
WELL.           Weissach 32-32: WELL
FLD.           Purgatorie River: FIELD
LOC.           --2193' FNL & 2256' FEL--: LOCATION
STAT.                       CO: State
CNTY.               Las Animas: COUNTY
CTRY. USA : Country
SECT. 32 : Section
TOWN. 33S : Township
RANG. 65W : Range
SRVC.          Patterson Wireline: SERVICE COMPANY
DATE.          Thu Sep 29 12:52:09 2005: LOG DATE
API.           05 071 08523 00: UNIQUE WELL ID
~Curve Information Block
DEPT.FT            0 000 00 00: Depth
CCL.                          : Casing Collar Locator
TT3.usec                      : CBL 3' Travel Time
AMP3.mV                       : CBL 3' Amplitude
GR.GAPI                       : Gamma Ray
~Parameter Information Block
~A  Depth       CCL         TT3         AMP3         GR     
# ...
   396.0000      0.0000    777.6932     10.5491    145.3660
   396.2500      0.0000    776.9431     10.6625    140.1160
   396.5000      0.0000    770.7824     10.6550    132.9596
   396.7500      0.0000    756.3740     10.4734    126.2795
   397.0000      0.0000    736.8720     10.1122    121.1761
   397.2500      0.0000    718.5099      9.6251    117.5546
   397.5000      0.0000    705.7536      9.1043    115.2345
   397.7500      0.0000    699.4940      8.6453    114.6335
   398.0000      0.0000    698.9015      8.3150    116.1796
   398.2500      0.0000    703.7398      8.1294    119.1543
   398.5000      0.0000    714.4913      8.0489    121.3998
   398.7500      0.0000    730.4990      8.0053    120.6018
   399.0000      0.0000    748.5368      7.9420    116.1158
   399.2500      0.0000    763.6027      7.8396    109.4618
   399.5000      0.0000    771.1761      7.7176    103.0454
   399.7500      0.0000    769.1337      7.6314     98.5023
   400.0000      0.0000    759.0218      7.6552     96.1732
   400.2500      0.0000    746.3978      7.8421     95.9106
   400.5000      0.0000    738.3255      8.1856     98.1113
   400.7500      0.0000    738.5692      8.6189    103.6005
   401.0000      0.0000    745.4627      9.0493    112.3411
   401.2500      0.0000    755.2441      9.3960    122.4382
   401.5000      0.0000    766.4068      9.6154    130.7402
   401.7500      0.0000    779.6016      9.7093    134.6930
   402.0000      0.0000    794.4937      9.7125    133.7860
   402.2500      0.0000    808.5424      9.6677    129.4605
   402.5000      0.0000    818.6382      9.6072    123.8457
   402.7500      0.0000    822.5992      9.5513    118.3469
   403.0000      0.0000    819.0673      9.5099    113.0379
   403.2500      0.0000    807.3375      9.4782    107.4248
   403.5000      0.0000    788.5170      9.4413    101.8764
   403.7500      0.0000    766.5666      9.3903     97.8226
   404.0000      0.0000    746.9078      9.3354     96.1800
   404.2500      0.0000    733.3433      9.2988     96.1481
   404.5000      0.0000    726.4629      9.2952     96.1401
   404.7500      0.0000    724.7819      9.3216     95.3314
   405.0000      0.0000    726.5528      9.3638     93.8782
   405.2500      0.0000    730.1087      9.4094     92.4540
   405.5000      0.0000    733.1198      9.4538     92.0910
   405.7500      0.0000    732.7977      9.4856     93.7174
   406.0000      0.0000    728.0441      9.4566     97.2143
   406.2500      0.0000    721.7864      9.2777    101.2033
   406.5000      0.0000    720.8731      8.8847    103.8766
   406.7500      0.0000    732.4581      8.3278    103.6910
   407.0000      0.0000    758.8746      7.7791     99.5222
   407.2500      0.0000    795.1351      7.4210     91.2814
   407.5000      0.0000    831.8713      7.3184     80.9698
   407.7500      0.0000    861.1249      7.3877     72.4666
   408.0000      0.0000    879.7715      7.4720     69.4856
   408.2500     -2.0000    888.4106      7.4420     73.4165
   408.5000      2.0000    887.9939      7.2536     82.8180
   408.7500      0.0000    877.7382      6.9636     94.5565
   409.0000      0.0000    856.2571      6.7261    105.5119
   409.2500      0.0000    824.7082      6.7380    113.9471
   409.5000      0.0000    788.4669      7.1090    120.0925
   409.7500      0.0000    755.2434      7.7484    125.5437
   410.0000      0.0000    731.3905      8.4153    131.3926
   410.2500      0.0000    719.2753      8.9003    136.5441
   410.5000      0.0000    716.8732      9.1465    138.3987
   410.7500      0.0000    719.1245      9.2159    135.5830
   411.0000      0.0000    720.6140      9.1911    129.6437
   411.2500      0.0000    718.5240      9.1234    123.9325
   411.5000      0.0000    713.7430      9.0423    121.2700
   411.7500      0.0000    709.0258      8.9737    122.5398
   412.0000      0.0000    706.4402      8.9350    126.6584
   412.2500      0.0000    706.4886      8.9217    131.5384
   412.5000      0.0000    708.6600      8.9120    135.5487
   412.7500      0.0000    711.9904      8.8874    138.3262
   413.0000      0.0000    715.5142      8.8483    140.2959
   413.2500      0.0000    718.7521      8.8094    141.8809
   413.5000      0.0000    721.5880      8.7775    143.2753
   413.7500      0.0000    723.6367      8.7395    144.4419
   414.0000      0.0000    724.4454      8.6754    144.9715
   414.2500      0.0000    724.3174      8.5822    143.9856
   414.5000      0.0000    723.9295      8.4747    140.3545
   414.7500      0.0000    722.9875      8.3648    133.6093
   415.0000      0.0000    720.3467      8.2525    125.0674
   415.2500      0.0000    715.7678      8.1456    117.5619
   415.5000      0.0000    710.6994      8.0717    113.4429
   415.7500      0.0000    707.0346      8.0595    112.9019
   416.0000      0.0000    705.7266      8.1170    114.4002
   416.2500      0.0000    706.6583      8.2312    116.4706
   416.5000      0.0000    709.1218      8.3810    118.9004
   416.7500      0.0000    712.1044      8.5417    122.1917
   417.0000      0.0000    714.7784      8.6806    126.1263
   417.2500      0.0000    717.1865      8.7546    129.3370
   417.5000      0.0000    719.8730      8.7259    130.4170
   417.7500      0.0000    722.3325      8.5869    129.1320
   418.0000      0.0000    722.6407      8.3721    126.4797
   418.2500      0.0000    719.4845      8.1443    123.8494
   418.5000      0.0000    713.9499      7.9643    122.1677
   418.7500      0.0000    708.5311      7.8719    121.8010
   419.0000      0.0000    704.8853      7.8825    123.0142
   419.2500      0.0000    703.0780      7.9906    125.9849
   419.5000      0.0000    702.4072      8.1699    130.0713
   419.7500      0.0000    702.2584      8.3758    133.4970
   420.0000      0.0000    702.3536      8.5582    134.3616
   420.2500      0.0000    702.7499      8.6794    132.0673
   420.5000      0.0000    703.9273      8.7302    127.5450
   420.7500      0.0000    706.8098      8.7346    122.1040
   421.0000      0.0000    712.3464      8.7382    116.2467
   421.2500      0.0000    720.6992      8.7788    109.7420
   421.5000      0.0000    730.7505      8.8608    102.8031
   421.7500      0.0000    740.6691      8.9534     96.9452
   422.0000      0.0000    749.2938      9.0145     94.3148
   422.2500      0.0000    757.1477      9.0175     95.8854
   422.5000      0.0000    765.8420      8.9625    100.1529
   422.7500      0.0000    775.9269      8.8656    103.6833
   423.0000      0.0000    785.2755      8.7412    103.2275
   423.2500      0.0000    789.9991      8.5963     97.7083
   423.5000      0.0000    787.0196      8.4446     88.5924
   423.7500      0.0000    775.8526      8.3157     78.8453
   424.0000      0.0000    758.8984      8.2414     71.5476
   424.2500      0.0000    740.7870      8.2353     68.7203
   424.5000      0.0000    726.8125      8.2889     70.4926
   424.7500      0.0000    720.5527      8.3855     75.1106
   425.0000      0.0000    721.8316      8.5055     80.2038
   425.2500      0.0000    726.5769      8.6197     84.5049
   425.5000      0.0000    729.4296      8.6939     88.4261
   425.7500      0.0000    727.9243      8.7087     93.0346
   426.0000      0.0000    724.2143      8.6744     98.5983
   426.2500      0.0000    722.0186      8.6224    104.1094
   426.5000      0.0000    722.2899      8.5818    107.9245
   426.7500      0.0000    722.8202      8.5632    108.8501
   427.0000      0.0000    721.5972      8.5627    107.0341
   427.2500      0.0000    719.0079      8.5749    104.1406
   427.5000      0.0000    716.4595      8.6026    102.5497
   427.7500      0.0000    714.3143      8.6547    104.0185
   428.0000      0.0000    712.1530      8.7389    108.5577
   428.2500      0.0000    710.1943      8.8510    114.2084
   428.5000      0.0000    709.3931      8.9702    118.0957
   428.7500      0.0000    710.2273      9.0663    118.2219
   429.0000      0.0000    711.9467      9.1153    114.5285
   429.2500      0.0000    713.2461      9.1113    108.4644
