~Version Information
VERS.                      2.0: CWLS Log ASCII Standard - VERSION 2.0
WRAP.                       NO: One line per depth step
~Well Information Block
STRT.FT                 0.0000: 
STOP.FT              1193.0000: 
STEP.FT                 0.1000: 
NULL.                -999.2500: 
COMP.          Pioneer Natural Resources: COMPANY
WELL.          Big Pine 32-15 Tr: WELL
FLD.           Purgatorie River: FIELD
LOC.           2546' FNL & 1451' FEL: LOCATION
STAT.                 Colorado: State
CNTY.               Las Animas: COUNTY
CTRY. USA : Country
SECT. 15 : Section
TOWN. 33S : Township
RANG. 67W : Range
SRVC.                Patterson: SERVICE COMPANY
DATE.          Tue Nov 08 07:11:35 2005: LOG DATE
API. 05-071-08604                         : UNIQUE WELL ID
~Curve Information Block
DEPT.FT            0 000 00 00: Depth
DCAL.in                       : CDL Caliper
RHOB.g/cc                     : CDL Bulk Density
RHOC.g/cc                     : CDL Density Correction
DPOR.pu                       : CDL Density Porosity
GR.GAPI                       : Gamma Ray
NPOR.pu                       : Neutron Porosity
~Parameter Information Block
~A  Depth       DCAL        RHOB        RHOC        DPOR         GR         NPOR    
# ...
   547.2000     -2.8029      1.8102      2.0000     -0.0168    166.1721     25.6174
   547.3000     -2.8029      1.7699      2.0000     -0.0176    158.5128     25.0636
   547.4000     -2.8029      1.7649      2.0000     -0.0177    153.8367     24.9879
   547.5000     -2.8029      1.7949      2.0000     -0.0171    153.4558     25.2641
   547.6000     -2.8029      1.8399      2.0000     -0.0162    155.5215     25.3366
   547.7000     -2.8029      1.8824      2.0000     -0.0154    156.3118     25.2659
   547.8000     -2.8029      1.9011      2.0000     -0.0150    155.4179     25.4251
   547.9000     -2.8029      1.8870      2.0000     -0.0153    157.4124     25.7971
   548.0000     -2.8029      1.8614      2.0000     -0.0158    163.2029     26.1557
   548.1000     -2.8029      1.8437      2.0000     -0.0161    167.2614     26.2213
   548.2000     -2.8029      1.8358      2.0000     -0.0163    167.7516     26.0831
   548.3000     -2.8029      1.8447      2.0000     -0.0161    165.9041     26.1712
   548.4000     -2.8029      1.8726      2.0000     -0.0156    162.7972     26.5059
   548.5000     -2.8029      1.9119      2.0000     -0.0148    160.2813     26.7251
   548.6000     -2.8029      1.9700      2.0000     -0.0136    156.2520     26.5979
   548.7000     -2.8029      2.0544      2.0000     -0.0119    147.8044     26.0651
   548.8000     -2.8029      2.1370      2.0000     -0.0103    139.6937     25.5239
   548.9000     -2.8029      2.1892      2.0000     -0.0092    138.4936     25.6092
   549.0000     -2.8029      2.2186      2.0000     -0.0086    143.5114     26.2965
   549.1000     -2.8029      2.2495      2.0000     -0.0080    149.9515     26.8661
   549.2000     -2.8029      2.3051      2.0000     -0.0069    156.4629     26.7402
   549.3000     -2.8029      2.3775      2.0000     -0.0055    160.2471     26.1983
   549.4000     -2.8029      2.4299      2.0000     -0.0044    158.7532     25.9048
   549.5000     -2.8029      2.4463      2.0000     -0.0041    158.4912     26.1851
   549.6000     -2.8029      2.4286      2.0000     -0.0044    162.4738     26.7275
   549.7000     -2.8029      2.3522      2.0000     -0.0060    164.8041     26.9080
   549.8000     -2.8029      2.2184      2.0000     -0.0086    164.5953     26.7780
   549.9000     -2.8029      2.0960      2.0000     -0.0111    164.6628     27.0987
   550.0000     -2.8029      2.0279      2.0000     -0.0124    163.5302     27.7840
   550.1000     -2.8029      1.9896      2.0000     -0.0132    158.7542     28.0530
   550.2000     -2.8029      1.9583      2.0000     -0.0138    153.9249     27.7959
   550.3000     -2.8029      1.9420      2.0000     -0.0142    153.9399     27.2011
   550.4000     -2.8029      1.9578      2.0000     -0.0139    156.5086     26.4776
   550.5000     -2.8029      2.0110      2.0000     -0.0128    156.4071     26.2694
   550.6000     -2.8029      2.0900      2.0000     -0.0112    154.9644     26.6867
   550.7000     -2.8029      2.1655      2.0000     -0.0097    158.6016     27.0307
   550.8000     -2.8029      2.1927      2.0000     -0.0092    166.2625     27.0478
   550.9000     -2.8029      2.1541      2.0000     -0.0099    168.6938     27.0024
   551.0000     -2.8029      2.0721      2.0000     -0.0116    162.8995     26.8492
   551.1000     -2.8029      1.9746      2.0000     -0.0135    154.3383     26.3664
   551.2000     -2.8029      1.8812      2.0000     -0.0154    146.9009     25.9267
   551.3000     -2.8029      1.7964      2.0000     -0.0171    141.3961     26.2034
   551.4000     -2.8029      1.7225      2.0000     -0.0186    138.6740     27.0476
   551.5000     -2.8029      1.6740      2.0000     -0.0195    140.6866     27.5136
   551.6000     -2.8029      1.6615      2.0000     -0.0198    146.4764     27.4161
   551.7000     -2.8029      1.6871      2.0000     -0.0193    151.6349     27.3410
   551.8000     -2.8029      1.7540      2.0000     -0.0179    151.0671     27.4312
   551.9000     -2.8029      1.8450      2.0000     -0.0161    144.2837     27.6745
   552.0000     -2.8029      1.9206      2.0000     -0.0146    137.2271     28.1969
   552.1000     -2.8029      1.9527      2.0000     -0.0140    134.9703     28.6126
   552.2000     -2.8029      1.9428      2.0000     -0.0142    138.4527     28.2277
   552.3000     -2.8029      1.9131      2.0000     -0.0147    144.6473     27.1701
   552.4000     -2.8029      1.8832      2.0000     -0.0153    150.8368     26.4852
   552.5000     -2.8029      1.8595      2.0000     -0.0158    155.8201     26.7247
   552.6000     -2.8029      1.8473      2.0000     -0.0161    158.5027     27.4717
   552.7000     -2.8029      1.8600      2.0000     -0.0158    160.5455     28.0407
   552.8000     -2.8029      1.9088      2.0000     -0.0148    161.7013     28.1745
   552.9000     -2.8029      1.9800      2.0000     -0.0134    162.0840     28.0029
   553.0000     -2.8029      2.0369      2.0000     -0.0123    163.0736     27.5904
   553.1000     -2.8029      2.0565      2.0000     -0.0119    163.3405     27.2595
   553.2000     -2.8029      2.0617      2.0000     -0.0118    163.8722     27.3922
   553.3000     -2.8029      2.0784      2.0000     -0.0114    165.0256     27.7019
   553.4000     -2.8029      2.0918      2.0000     -0.0112    165.6554     27.7466
   553.5000     -2.8029      2.0664      2.0000     -0.0117    166.8098     27.6373
   553.6000     -2.8029      1.9968      2.0000     -0.0131    169.0861     27.5072
   553.7000     -2.8029      1.9108      2.0000     -0.0148    173.6257     27.1768
   553.8000     -2.8029      1.8196      2.0000     -0.0166    177.8040     26.6321
   553.9000     -2.8029      1.7224      2.0000     -0.0186    177.4837     26.1659
   554.0000     -2.8029      1.6294      2.0000     -0.0204    172.4038     26.1024
   554.1000     -2.8029      1.5491      2.0000     -0.0220    163.8549     26.3563
   554.2000     -2.8029      1.4942      2.0000     -0.0231    154.9362     26.5496
   554.3000     -2.8029      1.4880      2.0000     -0.0233    149.3005     26.6245
   554.4000     -2.8029      1.5385      2.0000     -0.0222    149.0706     26.6200
   554.5000     -2.8029      1.6277      2.0000     -0.0205    155.1313     26.5382
   554.6000     -2.8029      1.7321      2.0000     -0.0184    164.5890     26.8084
   554.7000     -2.8029      1.8448      2.0000     -0.0161    171.5210     27.3062
   554.8000     -2.8029      1.9759      2.0000     -0.0135    173.1169     27.4741
   554.9000     -2.8029      2.1341      2.0000     -0.0103    167.9968     27.2580
   555.0000     -2.8029      2.3108      2.0000     -0.0068    158.1904     26.7382
   555.1000     -2.8029      2.4796      2.0000     -0.0034    152.6580     26.1890
   555.2000     -2.8029      2.6175      2.0000     -0.0007    153.9744     26.0557
   555.3000     -2.8029      2.7155      2.0000      0.0013    153.8973     26.5293
   555.4000     -2.8029      2.7672      2.0000      0.0023    151.3308     27.2177
   555.5000     -2.8029      2.7765      2.0000      0.0025    151.5426     27.4909
   555.6000     -2.8029      2.7696      2.0000      0.0024    155.1619     27.1735
   555.7000     -2.8029      2.7684      2.0000      0.0024    159.5364     26.6334
   555.8000     -2.8029      2.7496      2.0000      0.0020    162.0674     26.4416
   555.9000     -2.8029      2.6710      2.0000      0.0004    163.6374     26.7215
   556.0000     -2.8029      2.5504      2.0000     -0.0020    165.0675     27.0363
   556.1000     -2.8029      2.4553      2.0000     -0.0039    164.0669     27.1222
   556.2000     -2.8029      2.3999      2.0000     -0.0050    160.4921     27.1883
   556.3000     -2.8029      2.3292      2.0000     -0.0064    156.9662     27.4172
   556.4000     -2.8029      2.2255      2.0000     -0.0085    156.2045     27.7097
   556.5000     -2.8029      2.1235      2.0000     -0.0105    157.3506     27.9188
   556.6000     -2.8029      2.0368      2.0000     -0.0123    157.2103     27.8968
   556.7000     -2.8029      1.9548      2.0000     -0.0139    157.8849     27.7186
