~Version Information
VERS.                      2.0: CWLS Log ASCII Standard - VERSION 2.0
WRAP.                       NO: One line per depth step
~Well Information Block
STRT.FT               -16.2500: 
STOP.FT               938.7500: 
STEP.FT                 0.2500: 
NULL.                -999.2500: 
COMP.          XTO Energy Inc.: COMPANY
WELL.          Golden Eagle 20-04: WELL
FLD.           Purgatrorie River: FIELD
LOC.           702' FNL & 487' FWL--: LOCATION
STAT.                       CO: PROVINCE
CNTY.               Las Animas: COUNTY
CTRY. USA : Country
SECT. 20 : Section 
TOWN. 33S : Township
RANG. 67W : Range
SRVC.          Patterson Wireline: SERVICE COMPANY
DATE.          Mon Dec 05 10:32:54 2005: LOG DATE
API.           05 071 08599 00: UNIQUE WELL ID
~Curve Information Block
DEPT.FT            0 000 00 00: Depth
CCL.                          : Casing Collar Locator
TT3.usec                      : CBL 3' Travel Time
AMP3.mV                       : CBL 3' Amplitude
GR.GAPI                       : Gamma Ray
~Parameter Information Block
~A  Depth       CCL         TT3         AMP3         GR     
# ...
    50.7500      0.0000    308.8600     59.1315    207.9779
    51.0000      0.0000    308.9276     59.2537    208.0995
    51.2500      0.0000    309.0289     59.6679    208.6932
    51.5000      0.0000    309.1543     60.3603    208.0857
    51.7500      0.0000    309.2751     61.1028    205.8695
    52.0000      0.0000    309.3534     61.6110    202.7691
    52.2500      0.0000    309.3596     61.7223    199.8956
    52.5000      0.0000    309.2869     61.4535    198.5116
    52.7500      0.0000    309.1570     60.9500    199.4630
    53.0000      0.0000    309.0170     60.4046    202.4355
    53.2500      0.0000    308.9265     60.0052    206.3258
    53.5000      0.0000    308.9366     59.9133    210.1308
    53.7500      0.0000    309.0714     60.2477    212.8862
    54.0000      0.0000    309.3199     61.0589    213.2386
    54.2500      0.0000    309.6400     62.2982    210.0878
    54.5000      0.0000    309.9736     63.8039    203.7937
    54.7500      0.0000    310.2680     65.3331    196.4648
    55.0000      0.0000    310.4938     66.6369    190.9502
    55.2500      0.0000    310.6461     67.5258    188.9936
    55.5000      0.0000    310.7297     67.8861    189.5533
    55.7500      0.0000    310.7461     67.6754    189.2749
    56.0000      0.0000    310.6922     66.9352    185.6447
    56.2500      0.0000    310.5676     65.7937    179.5743
    56.5000      0.0000    310.3810     64.4185    174.3531
    56.7500      0.0000    310.1523     62.9394    172.4491
    57.0000      0.0000    309.9031     61.4011    173.8403
    57.2500      0.0000    309.6441     59.7784    176.8070
    57.5000      0.0000    309.3724     58.0290    179.3681
    57.7500      0.0000    309.0849     56.1542    179.9900
    58.0000      0.0000    308.7958     54.2548    177.6535
    58.2500      0.0000    308.5449     52.5553    171.9515
    58.5000      0.0000    308.3908     51.3554    163.6646
    58.7500      0.0000    308.3823     50.9004    155.2223
    59.0000      0.0000    308.5193     51.2400    149.7139
    59.2500      0.0000    308.7414     52.1711    148.7104
    59.5000      0.0000    308.9596     53.3102    151.1790
    59.7500      0.0000    309.1030     54.2549    154.6555
    60.0000      0.0000    309.1425     54.7364    157.1494
    60.2500      0.0000    309.0913     54.6860    158.0996
    60.5000      0.0000    308.9947     54.2134    158.3961
    60.7500      0.0000    308.9075     53.5409    159.6883
    61.0000      0.0000    308.8706     52.9321    162.9323
    61.2500      0.0000    308.8985     52.6187    167.0869
    61.5000      0.0000    308.9832     52.7330    169.4267
    61.7500      0.0000    309.1029     53.2739    167.4523
    62.0000      0.0000    309.2277     54.1306    160.7887
    62.2500      0.0000    309.3286     55.1420    151.6103
    62.5000      0.0000    309.3936     56.1567    143.4950
    62.7500      0.0000    309.4372     57.0685    139.6524
    63.0000      0.0000    309.4921     57.8207    141.6521
    63.2500      0.0000    309.5876     58.3873    149.1350
    63.5000      0.0000    309.7298     58.7525    160.1768
    63.7500      0.0000    309.8962     58.8981    172.0319
    64.0000      0.0000    310.0425     58.7945    182.2389
    64.2500      0.0000    310.1166     58.4065    189.4445
    64.5000      0.0000    310.0797     57.7244    193.2979
    64.7500      0.0000    309.9253     56.7976    194.0664
    65.0000      0.0000    309.6867     55.7419    192.8383
    65.2500      0.0000    309.4243     54.7201    191.5903
    65.5000      0.0000    309.1996     53.9008    192.1167
    65.7500      0.0000    309.0464     53.3838    194.7936
    66.0000      0.0000    308.9581     53.1242    198.6303
    66.2500      0.0000    308.8996     52.9474    202.1648
    66.5000      0.0000    308.8383     52.6842    203.9531
    66.7500      0.0000    308.7662     52.3003    202.8336
    67.0000      0.0000    308.6959     51.8949    198.5031
    67.2500      0.0000    308.6436     51.5848    191.7542
    67.5000      0.0000    308.6168     51.4020    183.6957
    67.7500      0.0000    308.6158     51.2895    174.5423
    68.0000      0.0000    308.6339     51.1825    163.4039
    68.2500      0.0000    308.6568     51.0768    149.6492
    68.5000      0.0000    308.6668     51.0097    134.4511
    68.7500      0.0000    308.6558     50.9948    120.6354
    69.0000      0.0000    308.6302     51.0007    110.8667
    69.2500      0.0000    308.6014     50.9885    105.9140
    69.5000      0.0000    308.5721     50.9431    104.4066
    69.7500      0.0000    308.5342     50.8634    104.0139
    70.0000      0.0000    308.4799     50.7461    102.8254
    70.2500      0.0000    308.4096     50.5939    100.0061
    70.5000      0.0000    308.3333     50.4357     95.7191
    70.7500      0.0000    308.2655     50.3221     90.8138
    71.0000      0.0000    308.2181     50.2891     86.4974
    71.2500      0.0000    308.1933     50.3244     83.9249
    71.5000      0.0000    308.1826     50.3813     83.7584
    71.7500      0.0000    308.1755     50.4248     85.8785
    72.0000      0.0000    308.1701     50.4552     89.3438
    72.2500      0.0000    308.1734     50.4849     92.6862
    72.5000      0.0000    308.1950     50.5115     94.6103
    72.7500      0.0000    308.2398     50.5214     94.7284
    73.0000      0.0000    308.3027     50.5168     93.7755
    73.2500      0.0000    308.3640     50.5278     93.0518
    73.5000      0.0000    308.3959     50.5875     93.3488
    73.7500      0.0000    308.3827     50.6980     94.2968
    74.0000      0.0000    308.3364     50.8322     95.1097
    74.2500      0.0000    308.2853     50.9674     96.1282
    74.5000      0.0000    308.2482     51.0942     99.2178
    74.7500      0.0000    308.2232     51.1842    106.3818
    75.0000      0.0000    308.2013     51.1629    118.0796
    75.2500      0.0000    308.1801     50.9458    132.8769
    75.5000      0.0000    308.1617     50.5170    148.4928
    75.7500      0.0000    308.1444     49.9734    162.9819
    76.0000      0.0000    308.1235     49.4845    175.0414
    76.2500      0.0000    308.1032     49.2022    183.7256
    76.5000      0.0000    308.1015     49.1891    188.5024
    76.7500      0.0000    308.1359     49.4142    189.7672
    77.0000      0.0000    308.2068     49.8111    188.8731
    77.2500      0.0000    308.2984     50.3345    187.2962
    77.5000      0.0000    308.3959     50.9648    185.9066
    77.7500      0.0000    308.4974     51.6872    185.0083
    78.0000      0.0000    308.6092     52.4949    184.6680
    78.2500      0.0000    308.7329     53.3974    184.8399
    78.5000      0.0000    308.8612     54.3950    185.3409
    78.7500      0.0000    308.9847     55.4400    185.8015
    79.0000      0.0000    309.0988     56.4384    185.6036
    79.2500      0.0000    309.2019     57.2957    183.9417
    79.5000      0.0000    309.2905     57.9672    180.0418
    79.7500      0.0000    309.3592     58.4781    173.4713
    80.0000      0.0000    309.4083     58.9013    164.6163
    80.2500      0.0000    309.4493     59.3137    155.0339
    80.5000      0.0000    309.5004     59.7702    147.0522
    80.7500      0.0000    309.5748     60.3090    142.7106
    81.0000      0.0000    309.6722     60.9582    142.7220
    81.2500      0.0000    309.7804     61.7204    146.1034
    81.5000      0.0000    309.8818     62.5560    150.7139
    81.7500      0.0000    309.9613     63.3918    154.1718
    82.0000      0.0000    310.0127     64.1350    154.4478
    82.2500      0.0000    310.0407     64.6843    150.2832
    82.5000      0.0000    310.0554     64.9653    142.0020
    82.7500      0.0000    310.0600     64.9816    132.0459
    83.0000      0.0000    310.0479     64.8176    123.8148
    83.2500      0.0000    310.0108     64.5752    119.3150
    83.5000      0.0000    309.9494     64.3146    118.0903
    83.7500      0.0000    309.8746     64.0543    118.4256
    84.0000      0.0000    309.8009     63.8064    119.0194
