~Version Information
VERS.                      2.0: CWLS Log ASCII Standard - VERSION 2.0
WRAP.                       NO: One line per depth step
~Well Information Block
STRT.FT               350.0000: 
STOP.FT              2803.2000: 
STEP.FT                 0.1000: 
NULL.                -999.2500: 
COMP.          Pioneer Natural Resources: COMPANY
WELL.          Grey Goose 33-30: WELL
FLD.           Purgatoire River: FIELD
LOC.           2136' FSL & 2065' FEL--: LOCATION
STAT.                 Colorado: State
CNTY.               Las Animas: COUNTY
CTRY. USA : Country
SECT. 30 : Section
TOWN. 32S : Township
RANG. 67W : Range
SRVC.                Patterson: SERVICE COMPANY
DATE.          Fri Nov 04 09:27:53 2005: LOG DATE
API.           05 071 08546 00: UNIQUE WELL ID
~Curve Information Block
DEPT.FT            0 000 00 00: Depth
DCAL.in                       : CDL Caliper
DPOR.pu                       : CDL Density Porosity
NPOR.pu                       : Neutron Porosity
RHOB.g/cc                     : CDL Bulk Density
RHOC.g/cc                     : CDL Density Correction
GR.GAPI                       : Gamma Ray
~Parameter Information Block
~A  Depth       DCAL        DPOR        NPOR        RHOB        RHOC         GR     
   350.0000      8.0029     17.6146     37.1236      2.3594     -0.2417     51.2072
   350.1000      8.0029     17.2080     36.9042      2.3661     -0.2231     55.6511
   350.2000      8.0029     16.6720     36.5284      2.3749     -0.2551     55.3609
   350.3000      8.0015     16.2656     36.1553      2.3816     -0.2625     50.6802
   350.4000      8.0015     15.7654     35.8063      2.3899     -0.2459     47.0195
   350.5000      8.0014     15.0178     35.7047      2.4022     -0.2198     46.1146
   350.6000      8.0014     14.7811     35.9253      2.4061     -0.1694     45.7874
   350.7000      8.0014     16.0229     36.2450      2.3856     -0.1676     45.4166
   350.8000      8.0012     17.5896     36.3123      2.3598     -0.2930     46.0255
   350.9000      8.0012     17.4684     36.0122      2.3618     -0.2734     47.5833
   351.0000      8.0014     16.1382     35.6590      2.3837     -0.2383     48.4488
   351.1000      8.0014     15.2073     35.7771      2.3991     -0.1712     48.7104
   351.2000      8.0014     15.0664     36.4138      2.4014     -0.2144     51.0909
   351.3000      8.0021     14.9704     37.0124      2.4030     -0.2813     54.3878
   351.4000      8.0021     14.3130     37.2230      2.4138     -0.2632     55.1493
   351.5000      8.0037     13.4402     37.1811      2.4282     -0.2452     54.7052
   351.6000      8.0037     12.8824     36.9382      2.4374     -0.2329     55.8494
   351.7000      8.0037     12.7510     36.5289      2.4396     -0.2262     55.9516
   351.8000      8.0038     12.6464     36.2722      2.4413     -0.2726     51.2681
   351.9000      8.0038     12.2346     36.2472      2.4481     -0.2212     46.1173
   352.0000      8.0034     12.0291     36.2146      2.4515     -0.1952     45.2850
   352.1000      8.0034     12.3046     36.1511      2.4470     -0.2172     47.4706
   352.2000      8.0034     12.6424     36.2845      2.4414     -0.1868     51.6484
   352.3000      8.0048     12.6086     36.6976      2.4420     -0.2285     56.8382
   352.4000      8.0048     12.3924     37.0857      2.4455     -0.2014     59.1656
   352.5000      8.0057     13.2405     37.2581      2.4315     -0.2241     58.1848
   352.6000      8.0057     15.2631     37.4272      2.3982     -0.2316     57.3576
   352.7000      8.0057     16.2646     37.4444      2.3816     -0.3117     56.6262
   352.8000      8.0055     15.3727     37.1588      2.3964     -0.2430     53.6197
   352.9000      8.0055     14.9101     36.9781      2.4040     -0.1895     49.7982
   353.0000      8.0049     15.9987     36.9832      2.3860     -0.2798     48.3638
   353.1000      8.0049     16.8857     36.7964      2.3714     -0.2575     49.1607
   353.2000      8.0049     16.5695     36.4187      2.3766     -0.2451     49.5355
   353.3000      8.0061     15.8461     36.2243      2.3885     -0.2148     47.7044
   353.4000      8.0061     15.7350     36.2669      2.3904     -0.2282     44.4167
   353.5000      8.0064     16.6581     36.4584      2.3751     -0.2507     42.9138
   353.6000      8.0064     18.3744     36.8070      2.3468     -0.2612     44.8714
   353.7000      8.0064     19.9373     37.1099      2.3210     -0.2594     48.3175
   353.8000      8.0048     20.4148     37.0989      2.3132     -0.2913     51.3917
   353.9000      8.0048     19.6171     36.9460      2.3263     -0.3036     53.0400
   354.0000      8.0063     18.3655     37.0883      2.3470     -0.2493     52.9132
   354.1000      8.0063     18.0509     37.4087      2.3522     -0.2403     52.0661
   354.2000      8.0063     18.8390     37.3318      2.3392     -0.2795     51.3006
   354.3000      8.0091     19.7368     36.9323      2.3243     -0.2815     50.1528
   354.4000      8.0091     20.0687     36.8093      2.3189     -0.3085     48.6363
   354.5000      8.0108     19.5296     36.9063      2.3278     -0.2940     46.8349
   354.6000      8.0108     18.0069     36.8105      2.3529     -0.2576     45.2267
   354.7000      8.0108     15.7553     36.5801      2.3900     -0.2411     45.9687
   354.8000      8.0122     13.6834     36.5143      2.4242     -0.1723     47.8077
   354.9000      8.0122     12.9625     36.5849      2.4361     -0.1806     47.6710
   355.0000      8.0131     13.4873     36.7287      2.4275     -0.2468     47.9175
   355.1000      8.0131     13.7818     37.1175      2.4226     -0.2380     51.1493
   355.2000      8.0131     12.9009     37.7219      2.4371     -0.2431     53.6042
   355.3000      8.0168     11.2620     38.1427      2.4642     -0.1958     52.3044
   355.4000      8.0168      9.8047     38.1122      2.4882     -0.1978     50.2118
   355.5000      8.0221      9.0134     37.8027      2.5013     -0.2481     51.1913
   355.6000      8.0221      9.1955     37.3658      2.4983     -0.1789     56.0623
   355.7000      8.0221     10.0861     36.8860      2.4836     -0.2597     61.5504
   355.8000      8.0228     10.1279     36.6224      2.4829     -0.2834     63.9181
   355.9000      8.0228      8.9600     36.6703      2.5022     -0.1640     63.2325
   356.0000      8.0205      8.0563     36.8397      2.5171     -0.1821     61.7879
   356.1000      8.0205      8.2423     37.0912      2.5140     -0.1487     61.3586
   356.2000      8.0205      8.8880     37.4721      2.5033     -0.2400     62.4726
   356.3000      8.0176      9.1380     37.8331      2.4992     -0.2096     63.2186
   356.4000      8.0176      9.1793     38.0459      2.4985     -0.2016     62.0673
   356.5000      8.0182      9.5206     38.0709      2.4929     -0.2192     60.4103
   356.6000      8.0182     10.4069     37.9912      2.4783     -0.1911     59.1258
   356.7000      8.0182     11.9272     37.9556      2.4532     -0.2336     56.7003
   356.8000      8.0228     13.4557     37.9896      2.4280     -0.2639     52.4938
   356.9000      8.0228     13.9007     37.9516      2.4206     -0.2769     48.1812
   357.0000      8.0251     13.3956     37.7808      2.4290     -0.2237     45.7711
   357.1000      8.0251     13.2139     37.6460      2.4320     -0.2321     46.3574
   357.2000      8.0251     13.4380     37.6018      2.4283     -0.2605     50.0460
   357.3000      8.0259     13.3619     37.5756      2.4295     -0.1791     55.2545
   357.4000      8.0259     13.2645     37.4512      2.4311     -0.2081     58.7383
   357.5000      8.0299     13.7329     37.1846      2.4234     -0.2035     59.8731
   357.6000      8.0299     14.5834     36.9929      2.4094     -0.2486     59.6473
   357.7000      8.0299     15.2646     37.0915      2.3981     -0.2323     58.1218
   357.8000      8.0344     15.5695     37.2674      2.3931     -0.2910     56.3374
   357.9000      8.0344     15.3172     37.1467      2.3973     -0.2882     55.3044
   358.0000      8.0358     14.8977     36.8141      2.4042     -0.2087     54.5170
   358.1000      8.0358     15.2006     36.6739      2.3992     -0.2638     52.6968
   358.2000      8.0358     16.1014     36.7897      2.3843     -0.2445     48.9945
   358.3000      8.0343     16.5532     36.8860      2.3769     -0.3256     44.8072
   358.4000      8.0343     16.2303     36.9685      2.3822     -0.2465     43.0998
   358.5000      8.0318     16.2445     37.1330      2.3820     -0.2282     44.3382
   358.6000      8.0318     16.8117     37.1292      2.3726     -0.2744     47.8021
   358.7000      8.0318     16.5237     36.9680      2.3774     -0.2820     51.8690
   358.8000      8.0311     15.2177     36.9019      2.3989     -0.2264     54.2526
   358.9000      8.0311     14.6257     36.8952      2.4087     -0.1888     54.4667
   359.0000      8.0320     15.2619     36.9071      2.3982     -0.2829     52.1796
   359.1000      8.0320     15.6463     37.0274      2.3918     -0.2350     48.5785
   359.2000      8.0320     15.1177     37.2380      2.4006     -0.2394     46.5170
   359.3000      8.0340     14.3827     37.3874      2.4127     -0.2146     46.2338
   359.4000      8.0340     14.1311     37.2995      2.4168     -0.2091     46.3015
   359.5000      8.0358     14.0640     36.9398      2.4179     -0.2756     46.1012
