~Version Information
 VERS.                                  2.0 : CWLS LAS VERSION
 WRAP.                                   NO : WRAPING MODE
 SWARE .                 MController 2.5.0J : SOFTWARE VERSION
~Well Information
 WELL.YWAM 7-32R : WELL
 COMP.                Petrogulf Corporation : COMPANY
 FLD.                      Purgatoire River : FIELD
 LOC.                 SW/NE Sec 7 T33S R67W : LOCATION
 DATE.9/28/05 : DATE(S) LOGGED
 SRVC.       BLANCO Geological Services LLC : SERVICE COMPANY
 STAT.                                   CO : STATE
 CNTY.                           Las Animas : COUNTY
 CTRY.                                  USA : COUNTRY
 API.                       05-071-08518-00 : API NUMBER
 STRT.FT                               1.00 : START DEPTH
 STOP.FT                            2100.00 : STOP DEPTH
 STEP.FT                               1.00 : DEPTH INCREMENT
 NULL.                                -9999 : NULL VALUE
~Curve information
 DEPTH.FT                                   :
 ROP.MIN/FT                                 :
 GAS.UNITS                                  :
~ASCII Log data
# ...
       601.0         0.40         18.2 
       602.0         0.38         16.1 
       603.0         0.37         15.7 
       604.0         0.40         16.0 
       605.0         0.37         15.9 
       606.0         0.37         14.8 
       607.0         0.33         11.4 
       608.0         0.27          9.8 
       609.0         0.27          9.5 
       610.0         0.27          8.2 
       611.0         0.27          7.5 
       612.0         0.25          9.0 
       613.0         0.30         10.0 
       614.0         0.27          9.7 
       615.0         0.30         11.8 
       616.0         0.27         11.8 
       617.0         0.27         10.5 
       618.0         0.27          9.5 
       619.0         0.27          9.1 
       620.0         0.27          8.4 
       621.0         0.27          7.7 
       622.0         0.27          7.2 
       623.0         0.27          5.7 
       624.0         0.28          6.1 
       625.0         0.27          9.5 
       626.0         1.33         92.4 
       627.0         0.30         36.4 
       628.0         0.27         21.1 
       629.0         0.23         13.5 
       630.0         0.23         12.1 
       631.0         0.27         10.2 
       632.0         0.20          9.4 
       633.0         0.22          8.1 
       634.0         0.20          7.6 
       635.0         0.20          7.5 
       636.0         0.20          7.4 
       637.0         0.27          7.9 
       638.0         0.23          9.7 
       639.0         0.20         10.2 
       640.0         0.20          9.4 
       641.0         0.23          8.3 
       642.0         0.23          8.2 
       643.0         0.30          7.5 
       644.0         0.23          7.0 
       645.0         0.20          7.2 
       646.0         0.20          7.9 
       647.0         0.25          8.8 
       648.0         0.33          9.0 
       649.0         0.30          8.9 
       650.0         0.30          9.1 
       651.0         0.27          8.1 
       652.0         0.27          7.5 
       653.0         0.27          7.7 
       654.0         0.27          6.7 
       655.0         0.30          6.4 
       656.0         1.55         56.1 
       657.0         0.43         59.6 
       658.0         0.37         53.4 
       659.0         0.37         41.2 
       660.0         0.33         31.3 
       661.0         0.37         24.5 
       662.0         0.37         18.7 
       663.0         0.42         17.1 
       664.0         0.37         14.9 
       665.0         0.40         14.4 
       666.0         0.40         13.8 
       667.0         0.33         13.8 
       668.0         0.43         13.6 
       669.0         0.27         12.2 
       670.0         0.30         12.1 
       671.0         0.27         10.7 
       672.0         0.30          9.9 
       673.0         0.28          8.5 
       674.0         0.23          8.1 
       675.0         0.30          7.1 
       676.0         0.27          6.9 
       677.0         0.30          6.4 
       678.0         0.30          6.1 
       679.0         0.27          5.9 
       680.0         0.27          6.0 
       681.0         0.30          6.0 
       682.0         0.30          5.6 
       683.0         0.27          5.6 
       684.0         0.32          5.3 
       685.0         0.27          5.2 
       686.0         1.63          5.2 
       687.0         0.37          4.9 
       688.0         0.30          4.7 
       689.0         0.30          5.0 
       690.0         0.27          4.7 
       691.0         0.25          4.8 
       692.0         0.20          4.5 
       693.0         0.20          4.7 
       694.0         0.23          4.6 
       695.0         0.17          4.5 
       696.0         0.13          4.6 
       697.0         0.27          4.5 
       698.0         0.23          5.3 
       699.0         0.40          5.8 
       700.0         0.20          5.8 
       701.0         0.20          6.5 
       702.0         0.27          6.5 
       703.0         0.33          7.2 
       704.0         0.42          7.3 
       705.0         0.27          8.8 
       706.0         0.30         12.9 
       707.0         0.30         12.6 
       708.0         0.33          9.3 
       709.0         0.23          6.4 
       710.0         0.27          4.5 
       711.0         0.27          3.3 
       712.0         0.27          3.5 
       713.0         0.27          3.9 
       714.0         0.27          5.5 
       715.0         0.20          9.8 
       716.0         1.68        103.5 
       717.0         0.27         32.9 
       718.0         0.30         23.4 
       719.0         0.23         18.1 
       720.0         0.20         16.2 
       721.0         0.13         14.7 
       722.0         0.23         14.0 
       723.0         0.30         13.9 
       724.0         0.32         14.0 
       725.0         0.30         14.5 
       726.0         0.23         14.4 
       727.0         0.23         13.9 
       728.0         0.23         13.5 
       729.0         0.27         12.6 
       730.0         0.30         11.5 
       731.0         0.27         11.4 
       732.0         0.27         10.3 
       733.0         0.20         10.0 
       734.0         0.20          9.8 
       735.0         0.27          9.4 
       736.0         0.38          9.2 
       737.0         0.23          8.8 
       738.0         0.17          8.4 
       739.0         0.20          8.6 
       740.0         0.30          8.5 
       741.0         0.30          7.9 
       742.0         0.17          8.1 
       743.0         0.13          7.6 
       744.0         0.20          7.3 
       745.0         0.30          7.2 
       746.0         1.38          7.0 
       747.0         0.27          6.9 
       748.0         0.17          6.4 
       749.0         0.17          6.9 
       750.0         0.17          6.8 
       751.0         0.23          8.7 
       752.0         0.20          9.8 
       753.0         0.13         11.6 
       754.0         0.17         12.3 
       755.0         0.13         13.1 
       756.0         0.13         13.1 
       757.0         0.13         13.5 
       758.0         0.13         13.6 
       759.0         0.13         13.6 
       760.0         0.17         13.5 
       761.0         0.13         13.5 
       762.0         0.33         13.0 
       763.0         0.42         12.0 
       764.0         0.37         11.7 
       765.0         0.23         11.7 
       766.0         0.20         11.3 
       767.0         0.17         10.9 
       768.0         0.13         10.6 
       769.0         0.23         10.9 
       770.0         0.30         11.0 
       771.0         0.43         10.8 
       772.0         0.13         10.0 
       773.0         0.23         11.3 
       774.0         0.30         13.4 
       775.0         0.23         12.5 
       776.0         1.45         10.1 
       777.0         0.27          4.6 
       778.0         0.43          4.7 
       779.0         0.37          6.3 
       780.0         0.33          8.0 
       781.0         0.23          8.1 
       782.0         0.23          9.3 
       783.0         0.22          9.2 
       784.0         0.17          9.4 
       785.0         0.17          9.6 
       786.0         0.17         10.0 
       787.0         0.23          9.7 
       788.0         0.23          9.5 
       789.0         0.33         10.0 
       790.0         0.33          9.9 
       791.0         0.37         13.7 
       792.0         0.33         14.6 
       793.0         0.33         12.2 
       794.0         0.33          8.1 
       795.0         0.32         12.0 
       796.0         0.30         17.3 
       797.0         0.30         20.0 
       798.0         0.33         22.0 
       799.0         0.30         22.9 
       800.0         0.33         23.4 
