~Version Information
VERS.                      2.0: CWLS Log ASCII Standard - VERSION 2.0
WRAP.                       NO: One line per depth step
~Well Information Block
STRT.FT               245.0000: 
STOP.FT              1208.2500: 
STEP.FT                 0.2500: 
NULL.                -999.2500: 
COMP.          Pioneer Natural Resources: COMPANY
WELL.              Davida 34-8: WELL
FLD.           Purgatoire River: FIELD
LOC.           418' FSL & 1923' FEL--: LOCATION
CNTY.               Las Animas: COUNTY
SRVC.                Patterson: SERVICE COMPANY
DATE.          Sat Mar 18 07:00:13 2006: LOG DATE
UWI.           05 071 08722 00: UNIQUE WELL ID
STAT.                 Colorado: STATE
~Curve Information Block
DEPT.FT            0 000 00 00: Depth
GR.GAPI                       : Gamma Ray
DIR.Ohm-m                     : IEL Induction Resistivity
~Parameter Information Block
~A  Depth        GR         DIR     
# ...
   300.7500     99.5977     18.0541
   301.0000    104.7591     17.8447
   301.2500    107.1096     17.6491
   301.5000    108.0984     17.4515
   301.7500    107.2183     17.2389
   302.0000    104.8084     17.0008
   302.2500    103.3931     16.7322
   302.5000    102.7584     16.4368
   302.7500    103.6149     16.1268
   303.0000    106.6882     15.8153
   303.2500    109.5820     15.5090
   303.5000    114.3424     15.2042
   303.7500    117.3941     14.8919
   304.0000    121.5960     14.5648
   304.2500    124.1437     14.2225
   304.5000    127.2696     13.8695
   304.7500    128.6552     13.5106
   305.0000    129.8242     13.1494
   305.2500    130.3518     12.7884
   305.5000    131.1532     12.4307
   305.7500    131.6279     12.0781
   306.0000    131.9264     11.7298
   306.2500    131.6822     11.3841
   306.5000    130.4511     11.0441
   306.7500    129.0421     10.7214
   307.0000    126.4676     10.4341
   307.2500    125.0097     10.2014
   307.5000    124.2961     10.0386
   307.7500    125.0112      9.9547
   308.0000    126.9279      9.9545
   308.2500    127.7084     10.0418
   308.5000    126.4209     10.2227
   308.7500    123.2484     10.5059
   309.0000    114.4530     10.9015
   309.2500    106.0792     11.4173
   309.5000     91.3548     12.0589
   309.7500     81.5853     12.8307
   310.0000     69.3008     13.7363
   310.2500     63.2890     14.7741
   310.5000     57.2010     15.9255
   310.7500     54.5847     17.1439
   311.0000     52.2747     18.3505
   311.2500     51.6632     19.4478
   311.5000     51.6798     20.3489
   311.7500     51.9366     21.0085
   312.0000     52.4028     21.4382
   312.2500     52.9011     21.6953
   312.5000     54.2522     21.8574
   312.7500     55.6558     21.9957
   313.0000     58.6241     22.1571
   313.2500     61.1442     22.3589
   313.5000     65.1842     22.5914
   313.7500     67.5209     22.8251
   314.0000     69.9103     23.0182
   314.2500     70.8232     23.1237
   314.5000     71.6692     23.0976
   314.7500     72.1892     22.9085
   315.0000     73.4695     22.5448
   315.2500     75.0757     22.0156
   315.5000     79.1547     21.3480
   315.7500     82.9118     20.5823
   316.0000     89.2791     19.7664
   316.2500     93.4519     18.9494
   316.5000     99.0043     18.1776
   316.7500    102.0630     17.4894
   317.0000    105.4374     16.9108
   317.2500    106.7527     16.4495
   317.5000    107.2197     16.0931
   317.7500    106.5147     15.8146
   318.0000    104.1226     15.5827
   318.2500    102.0774     15.3728
   318.5000     99.6441     15.1741
   318.7500     99.1182     14.9896
   319.0000    100.1969     14.8289
   319.2500    101.7859     14.6975
   319.5000    104.6457     14.5893
   319.7500    106.5440     14.4847
   320.0000    109.1063     14.3594
   320.2500    110.5621     14.1941
   320.5000    112.4161     13.9811
   320.7500    113.5842     13.7198
   321.0000    115.5895     13.4113
   321.2500    117.2233     13.0570
   321.5000    120.1254     12.6633
   321.7500    122.3079     12.2447
   322.0000    125.8575     11.8228
   322.2500    128.3365     11.4210
   322.5000    132.0684     11.0608
   322.7500    134.4310     10.7604
   323.0000    137.4270     10.5349
   323.2500    138.8417     10.3957
   323.5000    139.7666     10.3509
   323.7500    139.2038     10.4038
   324.0000    135.2432     10.5521
   324.2500    129.7117     10.7884
   324.5000    117.1441     11.1008
   324.7500    107.1763     11.4741
   325.0000     93.0660     11.8870
   325.2500     85.7764     12.3067
   325.5000     79.1328     12.6809
   325.7500     77.3471     12.9367
   326.0000     77.4592     12.9955
   326.2500     78.8010     12.8057
   326.5000     82.7131     12.3739
   326.7500     87.0443     11.7647
   327.0000     96.3511     11.0681
   327.2500    103.6917     10.3610
   327.5000    114.0832      9.6901
   327.7500    119.3235      9.0752
   328.0000    123.4951      8.5224
   328.2500    123.8164      8.0345
   328.5000    121.5659      7.6149
   328.7500    119.2231      7.2661
   329.0000    116.3581      6.9882
   329.2500    115.6720      6.7778
   329.5000    116.5642      6.6293
   329.7500    117.8688      6.5357
   330.0000    119.9230      6.4882
   330.2500    121.1510      6.4749
   330.5000    122.6208      6.4814
   330.7500    123.0808      6.4931
   331.0000    122.5706      6.4992
   331.2500    121.5957      6.4970
   331.5000    120.1831      6.4925
   331.7500    119.8208      6.4982
   332.0000    120.2697      6.5282
   332.2500    120.8905      6.5946
   332.5000    121.5454      6.7040
   332.7500    121.2689      6.8583
   333.0000    118.6826      7.0547
   333.2500    115.1922      7.2873
   333.5000    108.2210      7.5481
   333.7500    103.5511      7.8277
   334.0000     98.0627      8.1180
   334.2500     95.7515      8.4136
   334.5000     94.4588      8.7118
   334.7500     95.1727      9.0094
   335.0000     98.5991      9.2993
   335.2500    102.0651      9.5698
   335.5000    107.8613      9.8073
   335.7500    111.4306     10.0019
   336.0000    115.4390     10.1484
   336.2500    116.8617     10.2450
   336.5000    116.9608     10.2903
   336.7500    115.9636     10.2825
   337.0000    113.9158     10.2222
   337.2500    112.7569     10.1135
   337.5000    111.7361      9.9632
   337.7500    111.5368      9.7784
   338.0000    112.1261      9.5651
   338.2500    113.3419      9.3297
   338.5000    116.4299      9.0808
   338.7500    118.8982      8.8299
   339.0000    122.1308      8.5900
   339.2500    123.5818      8.3726
   339.5000    124.5751      8.1852
   339.7500    124.3349      8.0297
   340.0000    122.0102      7.9035
   340.2500    118.9563      7.8034
   340.5000    113.0606      7.7289
   340.7500    109.5262      7.6846
   341.0000    107.0639      7.6788
   341.2500    107.9719      7.7195
   341.5000    112.5102      7.8104
   341.7500    116.4425      7.9483
   342.0000    121.6417      8.1222
   342.2500    124.1951      8.3150
   342.5000    126.9747      8.5086
   342.7500    128.2186      8.6886
   343.0000    128.6307      8.8478
   343.2500    127.6389      8.9864
   343.5000    124.4915      9.1113
   343.7500    121.7230      9.2342
   344.0000    117.1623      9.3679
   344.2500    113.9703      9.5202
   344.5000    108.9866      9.6867
   344.7500    105.5929      9.8480
   345.0000    100.6783      9.9732
   345.2500     97.8397     10.0320
   345.5000     95.2113     10.0082
   345.7500     95.3276      9.9080
   346.0000     99.2322      9.7550
   346.2500    103.9813      9.5769
   346.5000    112.0373      9.3933
   346.7500    116.5276      9.2116
   347.0000    120.9005      9.0318
   347.2500    122.6512      8.8538
   347.5000    124.5795      8.6817
   347.7500    125.4516      8.5226
   348.0000    125.2747      8.3837
   348.2500    123.7699      8.2694
   348.5000    119.9027      8.1799
   348.7500    117.0360      8.1117
   349.0000    113.6415      8.0594
   349.2500    112.5476      8.0175
   349.5000    113.2330      7.9811
   349.7500    115.1958      7.9456
   350.0000    119.5195      7.9053
   350.2500    122.5568      7.8549
   350.5000    126.0435      7.7919
   350.7500    127.0446      7.7180
   351.0000    126.2529      7.6395
   351.2500    124.6801      7.5656
   351.5000    122.3149      7.5063
   351.7500    121.4803      7.4701
   352.0000    121.5960      7.4632
   352.2500    122.1799      7.4893
   352.5000    122.7982      7.5507
   352.7500    122.5854      7.6489
   353.0000    121.0428      7.7850
   353.2500    119.2954      7.9577
   353.5000    116.0275      8.1603
   353.7500    113.6816      8.3781
   354.0000    110.1059      8.5891
   354.2500    107.6317      8.7692
   354.5000    103.8207      8.9021
   354.7500    101.5984      8.9859
   355.0000     99.9372      9.0313
   355.2500    100.4608      9.0525
   355.5000    103.4047      9.0592
   355.7500    106.0802      9.0531
   356.0000    110.0301      9.0309
   356.2500    112.4000      8.9890
