~Version Information
VERS.                      2.0: CWLS Log ASCII Standard - VERSION 2.0
WRAP.                       NO: One line per depth step
~Well Information Block
STRT.FT                 0.0000: 
STOP.FT              2062.2500: 
STEP.FT                 0.2500: 
NULL.                -999.2500: 
COMP.          Petrogulf Corporation: COMPANY
WELL.           Montoya 12-44R: WELL
FLD.           Purgatorie River: FIELD
LOC.           713' FSL & 798' FEL: LOCATION
PROV.                 Colorado: PROVINCE
CNTY.               Las Animas: COUNTRY
SRVC.                Patterson: SERVICE COMPANY
DATE.          Wed Nov 09 13:30:24 2005: LOG DATE
UWI.           05-071-08538               : UNIQUE WELL ID
~Curve Information Block
DEPT.FT            0 000 00 00: Depth
CCL.                          : Casing Collar Locator
TT3.usec                      : CBL 3' Travel Time
AMP3.mV                       : CBL 3' Amplitude
GR.GAPI                       : Gamma Ray
~Parameter Information Block
~A  Depth       CCL         TT3         AMP3         GR     
# ...
   134.0000      0.0000    300.0754     29.0370     88.8427
   134.2500      0.0000    296.5545     31.5563     90.7391
   134.5000      0.0000    296.1850     33.4218     90.8291
   134.7500      0.0000    296.8249     34.9982     89.3602
   135.0000      0.0000    297.0771     36.1595     86.8549
   135.2500      0.0000    297.0154     36.8950     83.9315
   135.5000      0.0000    296.8726     37.4483     81.3755
   135.7500      0.0000    296.5277     37.9914     79.7790
   136.0000      0.0000    295.1980     38.6061     79.0159
   136.2500      0.0000    291.2493     39.3252     78.6452
   136.5000      0.0000    283.5747     40.0784     78.7992
   136.7500      0.0000    273.9860     40.7279     80.0324
   137.0000      0.0000    266.2851     41.2211     82.3247
   137.2500      0.0000    262.2766     41.6676     84.7853
   137.5000      0.0000    260.8533     42.2539     86.3488
   137.7500      0.0000    260.3892     43.1028     86.4483
   138.0000      0.0000    260.1144     44.1747     85.3010
   138.2500      0.0000    259.8724     45.2643     84.1351
   138.5000      0.0000    259.6874     46.1312     84.8437
   138.7500      0.0000    259.5836     46.6680     88.4544
   139.0000      0.0000    259.5456     46.9295     93.7386
   139.2500      0.0000    259.5359     47.0373     97.9062
   139.5000      0.0000    259.5268     47.1096     98.9225
   139.7500      0.0000    259.5042     47.2566     96.9467
   140.0000      0.0000    259.4507     47.5698     93.6308
   140.2500      0.0000    259.3541     48.0557     90.5332
   140.5000      0.0000    259.2398     48.5799     88.4583
   140.7500      0.0000    259.1545     48.9781     87.7664
   141.0000      0.0000    259.1085     49.2397     88.6463
   141.2500      0.0000    259.0736     49.4671     91.0869
   141.5000      0.0000    259.0344     49.6887     94.8739
   141.7500      0.0000    259.0042     49.8401     99.6007
   142.0000      0.0000    258.9868     49.9091    104.5779
   142.2500      0.0000    258.9582     49.9556    108.8513
   142.5000      0.0000    258.9082     49.9671    111.4433
   142.7500      0.0000    258.8665     49.8426    111.6790
   143.0000      0.0000    258.8660     49.5567    109.5444
   143.2500      0.0000    258.9032     49.2201    105.9845
   143.5000      0.0000    258.9475     48.9625    102.7155
   143.7500      0.0000    258.9738     48.8333    101.1797
   144.0000      0.0000    258.9805     48.8153    101.3119
   144.2500      0.0000    258.9780     48.8874    101.5560
   144.5000      0.0000    258.9705     49.0471    100.3163
   144.7500      0.0000    258.9566     49.2867     97.2078
   145.0000      0.0000    258.9362     49.5674     92.9993
   145.2500      0.0000    258.9093     49.8335     88.7856
   145.5000      0.0000    258.8741     50.0715     85.1989
   145.7500      0.0000    258.8274     50.3263     82.1762
   146.0000      0.0000    258.7712     50.6180     79.5312
   146.2500      0.0000    258.7196     50.8739     77.5148
   146.5000      0.0000    258.6874     50.9943     76.2963
   146.7500      0.0000    258.6779     50.9508     75.1395
   147.0000      0.0000    258.6940     50.7729     72.8286
   147.2500      0.0000    258.7422     50.5107     68.9933
   147.5000      0.0000    258.8124     50.2497     64.5658
   147.7500      0.0000    258.8733     50.0899     60.9206
   148.0000      0.0000    258.8903     50.1071     58.9012
   148.2500      0.0000    258.8485     50.3339     58.5054
   148.5000      0.0000    258.7623     50.7376     59.0700
   148.7500      0.0000    258.6573     51.2356     59.7537
   149.0000      0.0000    258.5557     51.7332     60.1404
   149.2500      0.0000    258.4751     52.1576     60.5588
   149.5000      0.0000    258.4211     52.4936     61.7935
   149.7500      0.0000    258.3857     52.7770     64.3364
   150.0000      0.0000    258.3574     53.0815     67.8640
   150.2500      0.0000    258.3256     53.4957     71.4545
   150.5000      0.0000    258.2855     54.0423     74.2204
   150.7500      0.0000    258.2447     54.6472     75.7340
   151.0000      0.0000    258.2221     55.1932     76.1486
   151.2500      0.0000    258.2296     55.5799     76.2116
   151.5000      0.0000    258.2593     55.7546     77.0321
   151.7500      0.0000    258.2955     55.7149     79.4270
   152.0000      0.0000    258.3229     55.4936     83.2440
   152.2500      0.0000    258.3355     55.1586     87.5132
   152.5000      0.0000    258.3382     54.8106     91.5145
   152.7500      0.0000    258.3370     54.5339     95.2843
   153.0000      0.0000    258.3397     54.3479     98.6941
   153.2500      0.0000    258.3603     54.2008    100.7376
   153.5000      0.0000    258.4058     54.0199    100.5221
   153.7500      0.0000    258.4603     53.7937     98.5887
   154.0000      0.0000    258.4948     53.5730     96.5515
   154.2500      0.0000    258.4873     53.4035     95.4406
   154.5000      0.0000    258.4366     53.2965     94.8526
   154.7500      0.0000    258.3705     53.2331     93.9405
   155.0000      0.0000    258.3292     53.1925     92.8566
   155.2500      0.0000    258.3320     53.1923     92.6616
   155.5000      0.0000    258.3663     53.2708     93.7790
   155.7500      0.0000    258.4019     53.4318     95.1346
   156.0000      0.0000    258.4160     53.6392     95.0884
   156.2500      0.0000    258.4106     53.8407     92.8730
   156.5000      0.0000    258.4098     53.9654     89.0703
   156.7500      0.0000    258.4363     53.9023     85.1836
   157.0000      0.0000    258.4883     53.5394     82.7978
   157.2500      0.0000    258.5512     52.8684     82.6194
   157.5000      0.0000    258.6226     52.0120     84.0505
   157.7500      0.0000    258.7038     51.1440     85.8240
   158.0000      0.0000    258.7873     50.4038     87.0588
   158.2500      0.0000    258.8666     49.8417     87.6766
   158.5000      0.0000    258.9378     49.4278     88.0803
   158.7500      0.0000    258.9912     49.1189     88.6342
   159.0000      0.0000    259.0219     48.8682     89.3868
   159.2500      0.0000    259.0488     48.5662     90.1666
   159.5000      0.0000    259.1219     48.0243     90.9003
   159.7500      0.0000    259.3210     47.0887     91.9342
   160.0000      0.0000    259.8597     45.7801     94.0456
   160.2500      0.0000    261.4586     44.3011     97.7361
   160.5000      0.0000    265.6000     42.8881    102.1922
   160.7500      0.0000    273.2701     41.6149    105.3948
   161.0000      0.0000    282.7073     40.3529    105.7797
   161.2500      0.0000    290.2926     38.9209    103.6243
   161.5000      0.0000    294.3328     37.2692    100.5269
   161.7500      0.0000    295.8605     35.5721     97.9469
   162.0000      0.0000    296.3583     34.0875     96.4961
   162.2500      0.0000    296.5658     32.9147     96.0982
   162.5000      0.0000    296.7305     31.9870     96.3948
   162.7500      0.0000    296.9017     31.2317     97.1280
   163.0000      0.0000    297.0431     30.5877     98.1590
   163.2500      0.0000    297.1379     29.9396     99.0800
   163.5000      0.0000    297.2290     29.1957     99.1079
   163.7500      0.0000    297.3553     28.4156     97.5475
   164.0000      0.0000    297.5140     27.7501     94.3627
   164.2500      0.0000    297.6993     27.2726     90.4409
   164.5000      0.0000    297.9064     26.9661     87.2837
   164.7500      0.0000    298.0955     26.8434     86.0286
   165.0000      0.0000    298.2129     26.9580     86.5299
   165.2500      0.0000    298.2459     27.2879     87.5504
   165.5000      0.0000    298.2259     27.7309     87.9474
   165.7500      0.0000    298.1769     28.2425     87.7059
   166.0000      0.0000    298.0868     28.8635     87.9748
   166.2500      0.0000    297.9369     29.6096     90.1185
   166.5000      0.0000    297.7306     30.4604     94.4680
   166.7500      0.0000    297.4919     31.4034     99.7851
   167.0000      0.0000    297.2736     32.3547    103.9405
   167.2500      0.0000    297.1954     33.0494    105.2073
