~Version Information
VERS.                      2.0: CWLS Log ASCII Standard - VERSION 2.0
WRAP.                       NO: One line per depth step
~Well Information Block
STRT.FT               695.5000: 
STOP.FT              1499.5000: 
STEP.FT                 0.2500: 
NULL.                -999.2500: 
COMP.          Pioneer Natural Resources: COMPANY
WELL.          Pallet Ranch 34-25 Tr: WELL
FLD.           Purgatoire River: FIELD
LOC.           465' FSL & 2138' FEL: LOCATION
PROV.                 Colorado: PROVINCE
CNTY.               Las Animas: COUNTRY
SRVC.                Patterson: SERVICE COMPANY
DATE.          Wed Jan 18 18:58:46 2006: LOG DATE
UWI.           05 071 08657 00: UNIQUE WELL ID
~Curve Information Block
DEPT.FT            0 000 00 00: Depth
SN.Ohm-m                      : IEL Short Normal
SP.mV                         : IEL Spontaneous Potential
DIR.Ohm-m                     : IEL Induction Resistivity
GR.GAPI                       : Gamma Ray
~Parameter Information Block
~A  Depth        SN          SP         DIR          GR     
# ...
  1466.0000     15.3902     66.0437     11.5777    106.5761
  1466.2500     15.9775     66.0696     12.0102    109.4152
  1466.5000     16.1698     66.0895     12.4115    114.1935
  1466.7500     16.2321     66.1037     12.7368    116.9984
  1467.0000     16.3199     66.1057     12.9495    120.1963
  1467.2500     16.3609     66.0847     13.0309    122.1748
  1467.5000     16.2466     66.0316     12.9820    126.5232
  1467.7500     15.9670     65.9458     12.8210    130.9630
  1468.0000     15.6384     65.8403     12.5788    139.5686
  1468.2500     15.3609     65.7407     12.2907    145.7300
  1468.5000     15.0260     65.6760     11.9865    153.9523
  1468.7500     14.4956     65.6661     11.6838    158.0367
  1469.0000     13.9012     65.7118     11.3904    161.2251
  1469.2500     13.4842     65.7956     11.1125    161.0409
  1469.5000     13.2696     65.8918     10.8613    157.4824
  1469.7500     13.1332     65.9811     10.6517    154.0471
  1470.0000     13.0056     66.0588     10.4969    150.9535
  1470.2500     12.8250     66.1328     10.4045    152.2872
  1470.5000     12.5304     66.2160     10.3769    159.9213
  1470.7500     12.2245     66.3182     10.4137    166.9145
  1471.0000     12.1259     66.4417     10.5130    175.4980
  1471.2500     12.2473     66.5825     10.6707    177.9335
  1471.5000     12.3429     66.7333     10.8788    175.7563
  1471.7500     12.2823     66.8853     11.1262    170.8223
  1472.0000     12.2247     67.0253     11.4004    159.2800
  1472.2500     12.4149     67.1358     11.6917    149.6096
  1472.5000     13.0157     67.2024     11.9971    133.9239
  1472.7500     14.0025     67.2236     12.3202    123.8946
  1473.0000     15.1375     67.2125     12.6685    111.6022
  1473.2500     16.1650     67.1893     13.0461    106.1979
  1473.5000     17.0105     67.1728     13.4484    102.3164
  1473.7500     17.7245     67.1765     13.8605    101.3303
  1474.0000     18.2876     67.2079     14.2592     99.6125
  1474.2500     18.6188     67.2663     14.6168     97.8612
  1474.5000     18.6923     67.3422     14.9048     96.2589
  1474.7500     18.5040     67.4216     15.0995     97.6026
  1475.0000     18.0781     67.4936     15.1908    104.7769
  1475.2500     17.5460     67.5580     15.1864    112.4988
  1475.5000     17.0383     67.6215     15.1069    125.8488
  1475.7500     16.5647     67.6849     14.9746    134.0428
  1476.0000     16.1024     67.7343     14.8044    142.5422
  1476.2500     15.6579     67.7498     14.6031    144.7648
  1476.5000     15.2422     67.7241     14.3750    143.0429
  1476.7500     14.9485     67.6685     14.1272    139.5657
  1477.0000     14.9253     67.6064     13.8730    133.5930
  1477.2500     15.1319     67.5664     13.6320    130.6907
  1477.5000     15.3120     67.5790     13.4269    129.7392
  1477.7500     15.3229     67.6631     13.2803    131.4459
  1478.0000     15.2854     67.8055     13.2112    135.8292
  1478.2500     15.3470     67.9597     13.2326    138.5095
  1478.5000     15.5015     68.0804     13.3482    140.4501
  1478.7500     15.6995     68.1575     13.5503    140.1420
  1479.0000     15.9196     68.2130     13.8194    137.3683
  1479.2500     16.1021     68.2729     14.1295    133.4806
  1479.5000     16.2240     68.3492     14.4569    122.0672
  1479.7500     16.3924     68.4408     14.7883    109.0219
  1480.0000     16.7317     68.5412     15.1221     81.1524
  1480.2500     17.2235     68.6411     15.4659     59.7657
  1480.5000     17.7251     68.7273     15.8316     30.9424
  1480.7500     18.1689     68.7844     16.2331     17.1885
  1481.0000     18.6449     68.8007     16.6850      5.5755
  1481.2500     19.2323     68.7782     17.2021      2.2171
  1481.5000     19.8590     68.7357     17.7967      0.4238
  1481.7500     20.3550     68.6985     18.4695      0.1154
  1482.0000     20.6408     68.6803     19.1975      0.0106
  1482.2500     20.8332     68.6756     19.9298      0.0000
  1482.5000     21.1061     68.6665     20.5974   -999.2500
  1482.7500     21.4838     68.6368     21.1354   -999.2500
  1483.0000     21.8344     68.5801     21.5078   -999.2500
  1483.2500     22.0952     68.5001     21.7217   -999.2500
  1483.5000     22.3578     68.4019     21.8228   -999.2500
  1483.7500     22.6617     68.2813     21.8710   -999.2500
  1484.0000     22.9156     68.1207     21.9123   -999.2500
  1484.2500     23.0806     67.8968     21.9643   -999.2500
  1484.5000     23.2730     67.5934     22.0223   -999.2500
  1484.7500     23.6108     67.2124     22.0749   -999.2500
  1485.0000     24.0698     66.7754     22.1177   -999.2500
  1485.2500     24.5547     66.3200     22.1584   -999.2500
  1485.5000     24.9750     65.8908     22.2143   -999.2500
  1485.7500     25.2354     65.5265     22.3073   -999.2500
  1486.0000     25.3012     65.2440     22.4565   -999.2500
  1486.2500     25.2936     65.0328     22.6715   -999.2500
  1486.5000     25.3956     64.8638     22.8580   -999.2500
  1486.7500     25.6446     64.7066     23.1689   -999.2500
  1487.0000     25.9195     64.5421     23.4844   -999.2500
  1487.2500     26.1232     64.3638     23.7693   -999.2500
  1487.5000     26.1732     64.1754     23.9951   -999.2500
  1487.7500     25.9508     63.9893     24.1420   -999.2500
  1488.0000     25.5048     63.8218     24.1945   -999.2500
  1488.2500     25.0277     63.6836     24.1397   -999.2500
  1488.5000     24.6133     63.5728     23.9900   -999.2500
  1488.7500     24.2956     63.4755     23.8211   -999.2500
  1489.0000     24.1294     63.3736     23.7967   -999.2500
  1489.2500     24.1006     63.2497     24.1672   -999.2500
  1489.5000     24.1279     63.0875     25.2703   -999.2500
  1489.7500     24.1627     62.8754     27.5795   -999.2500
  1490.0000     24.2115     62.6164     32.0350   -999.2500
  1490.2500     24.2561     62.3334     39.5737   -999.2500
  1490.5000     24.2369     62.0620     52.5389   -999.2500
  1490.7500     24.1213     61.8311     74.4790   -999.2500
  1491.0000     23.9020     61.6492    109.8482   -999.2500
  1491.2500     23.5996     61.5051    160.0010   -999.2500
  1491.5000     23.2744     61.3767    215.3766   -999.2500
  1491.7500     22.9359     61.2397    258.1427   -999.2500
  1492.0000     22.5390     61.0736    281.3784   -999.2500
  1492.2500     22.1078     60.8673    293.1466   -999.2500
  1492.5000     21.7589     60.6215    304.0448   -999.2500
  1492.7500     21.5761     60.3498    321.4433   -999.2500
  1493.0000     21.5329     60.0767 100000.0000   -999.2500
  1493.2500     21.5484     59.8310 100000.0000   -999.2500
  1493.5000     21.5514     59.6321 100000.0000   -999.2500
  1493.7500     21.5132     59.4820 100000.0000   -999.2500
  1494.0000     21.5181     59.3709 100000.0000   -999.2500
  1494.2500     21.7321     59.2841 100000.0000   -999.2500
  1494.5000     22.1354     59.1971 100000.0000   -999.2500
  1494.7500     22.4319     59.0220 100000.0000   -999.2500
  1495.0000     22.3920     58.4717 100000.0000   -999.2500
  1495.2500     22.1339     56.8506 100000.0000   -999.2500
  1495.5000     21.9437     53.0016 100000.0000   -999.2500
  1495.7500     21.8645     45.8350 100000.0000   -999.2500
  1496.0000     21.3629     35.4239 100000.0000   -999.2500
  1496.2500     19.2588     23.6363 100000.0000   -999.2500
  1496.5000     14.6523     13.2389 100000.0000   -999.2500
  1496.7500      8.6033      6.0948 100000.0000   -999.2500
  1497.0000      3.6413      2.2715 100000.0000   -999.2500
  1497.2500      1.0623      0.6779 100000.0000   -999.2500
  1497.5000      0.2077      0.1605 100000.0000   -999.2500
  1497.7500      0.0267      0.0297 100000.0000   -999.2500
  1498.0000      0.0021      0.0039 100000.0000   -999.2500
  1498.2500   -999.2500   -999.2500 100000.0000   -999.2500
  1498.5000   -999.2500   -999.2500 100000.0000   -999.2500
  1498.7500   -999.2500   -999.2500 100000.0000   -999.2500
  1499.0000   -999.2500   -999.2500 100000.0000   -999.2500
  1499.2500   -999.2500   -999.2500 100000.0000   -999.2500
