~Version Information
VERS.                      2.0: CWLS Log ASCII Standard - VERSION 2.0
WRAP.                       NO: One line per depth step
~Well Information Block
STRT.FT               400.0000: 
STOP.FT              1804.7000: 
STEP.FT                 0.1000: 
NULL.                -999.2500: 
COMP.          Pioneer Natural Resources: COMPANY
WELL.           Lynch 43-30 Tr: WELL
FLD.           Purgatoire River: FIELD
LOC.           1431' FSL & 296' FEL--: LOCATION
PROV.                 Colorado: PROVINCE
CNTY.               Las Animas: COUNTRY
SRVC.                Patterson: SERVICE COMPANY
DATE.          Thu Jul 28 10:43:37 2005: LOG DATE
UWI.           05 071 08447 00: UNIQUE WELL ID
~Curve Information Block
DEPT.FT            0 000 00 00: Depth
DCAL.in                       : CDL Caliper
RHOB.g/cc                     : CDL Bulk Density
RHOC.g/cc                     : CDL Density Correction
DPOR.pu                       : CDL Density Porosity
NPOR.pu                       : Neutron Porosity
GR.GAPI                       : Gamma Ray
~Parameter Information Block
~A  Depth       DCAL        RHOB        RHOC        DPOR        NPOR         GR     
# ...
  1590.4000      7.9822      2.5325      0.0568      7.1195     28.7500    134.6071
  1590.5000      7.9807      2.5153      0.0595      8.1615     28.9355    136.0403
  1590.6000      7.9807      2.4974      0.0587      9.2457     29.4000    139.1944
  1590.7000      7.9807      2.4777      0.0423     10.4410     29.8502    141.6647
  1590.8000      7.9791      2.4653      0.0394     11.1968     30.3333    144.9845
  1590.9000      7.9791      2.4612      0.0508     11.4424     31.0774    150.1751
  1591.0000      7.9805      2.4576      0.0451     11.6618     31.6794    155.8334
  1591.1000      7.9805      2.4514      0.0468     12.0360     31.5247    158.7547
  1591.2000      7.9805      2.4436      0.0487     12.5105     30.8266    155.2291
  1591.3000      7.9835      2.4381      0.0422     12.8400     30.3419    149.0248
  1591.4000      7.9835      2.4419      0.0438     12.6127     30.2669    146.0333
  1591.5000      7.9888      2.4513      0.0646     12.0414     30.2719    147.3201
  1591.6000      7.9888      2.4566      0.0589     11.7236     30.2535    152.8279
  1591.7000      7.9888      2.4601      0.0592     11.5066     30.4028    158.4310
  1591.8000      7.9970      2.4707      0.0655     10.8646     30.8626    159.3741
  1591.9000      7.9970      2.4897      0.0748      9.7162     31.4229    157.1477
  1592.0000      8.0038      2.5122      0.0819      8.3534     31.6924    155.2050
  1592.1000      8.0038      2.5304      0.0961      7.2472     31.7703    152.2644
  1592.2000      8.0038      2.5408      0.0923      6.6161     31.7491    145.9203
  1592.3000      8.0042      2.5505      0.0840      6.0284     31.3003    138.7101
  1592.4000      8.0042      2.5612      0.1071      5.3798     30.6022    138.1972
  1592.5000      7.9964      2.5661      0.0950      5.0877     30.4619    148.2792
  1592.6000      7.9964      2.5724      0.0821      4.7005     31.3776    159.1283
  1592.7000      7.9964      2.5874      0.1013      3.7950     32.6965    156.4940
  1592.8000      7.9858      2.5944      0.1110      3.3698     33.1747    145.8849
  1592.9000      7.9858      2.5807      0.0895      4.1975     32.5519    142.5507
  1593.0000      7.9809      2.5588      0.0803      5.5243     31.6144    146.2565
  1593.1000      7.9809      2.5476      0.0715      6.2057     30.7985    149.8483
  1593.2000      7.9809      2.5533      0.0737      5.8597     30.0718    151.6057
  1593.3000      7.9797      2.5650      0.0981      5.1545     29.5652    152.8511
  1593.4000      7.9797      2.5720      0.0770      4.7250     29.3814    153.0618
  1593.5000      7.9734      2.5792      0.0921      4.2936     29.5568    151.1299
  1593.6000      7.9734      2.5887      0.0909      3.7138     29.6782    148.8709
  1593.7000      7.9734      2.5975      0.1006      3.1791     29.1658    147.5524
  1593.8000      7.9642      2.6082      0.0867      2.5317     28.3835    145.2424
  1593.9000      7.9642      2.6222      0.1088      1.6834     28.0960    141.7265
  1594.0000      7.9609      2.6311      0.1046      1.1427     28.1946    139.6661
  1594.1000      7.9609      2.6332      0.0960      1.0186     28.0863    139.3806
  1594.2000      7.9609      2.6373      0.0950      0.7725     27.8312    139.7203
  1594.3000      7.9609      2.6491      0.0945      0.0542     27.9119    139.5425
  1594.4000      7.9609      2.6670      0.0952     -1.0317     28.3273    138.2759
  1594.5000      7.9603      2.6786      0.1067     -1.7362     28.6224    136.2943
  1594.6000      7.9603      2.6684      0.1041     -1.1179     28.3557    132.1784
  1594.7000      7.9603      2.6447      0.0607      0.3213     27.7696    127.7339
  1594.8000      7.9609      2.6307      0.0688      1.1709     27.5458    129.9722
  1594.9000      7.9609      2.6266      0.0736      1.4153     27.6768    138.1014
  1595.0000      7.9617      2.6220      0.0553      1.6987     27.8107    143.8649
  1595.1000      7.9617      2.6159      0.0630      2.0666     28.0311    141.9920
  1595.2000      7.9617      2.6102      0.0562      2.4097     28.1947    135.0027
  1595.3000      7.9619      2.6122      0.0414      2.2916     28.1049    132.5692
  1595.4000      7.9619      2.6253      0.0683      1.4986     28.0416    135.5998
  1595.5000      7.9623      2.6420      0.0625      0.4822     28.1620    135.8078
  1595.6000      7.9623      2.6616      0.0610     -0.7011     28.1878    133.9389
  1595.7000      7.9623      2.6793      0.0923     -1.7737     27.8168    132.9159
  1595.8000      7.9637      2.6814      0.0783     -1.9060     27.2413    130.9957
  1595.9000      7.9637      2.6689      0.0701     -1.1482     26.8772    128.4361
  1596.0000      7.9688      2.6509      0.0750     -0.0554     26.6830    129.4920
  1596.1000      7.9688      2.6356      0.0508      0.8724     26.5179    135.4179
  1596.2000      7.9688      2.6326      0.0613      1.0516     26.5155    140.2751
  1596.3000      7.9760      2.6399      0.0652      0.6114     26.7916    140.7424
  1596.4000      7.9760      2.6436      0.0735      0.3856     27.1281    138.7145
  1596.5000      7.9803      2.6344      0.0755      0.9460     27.3413    139.1069
  1596.6000      7.9803      2.6195      0.0486      1.8502     27.5050    148.5437
  1596.7000      7.9803      2.6074      0.0756      2.5842     27.5134    164.2713
  1596.8000      7.9829      2.5903      0.0620      3.6162     27.1160    172.9998
  1596.9000      7.9829      2.5667      0.0573      5.0485     26.6052    168.6521
  1597.0000      7.9852      2.5483      0.0447      6.1618     26.5354    157.3147
  1597.1000      7.9852      2.5424      0.0619      6.5186     26.8648    144.9352
  1597.2000      7.9852      2.5489      0.0454      6.1254     27.2357    134.8103
  1597.3000      7.9842      2.5609      0.0759      5.4026     27.2041    129.5084
  1597.4000      7.9842      2.5606      0.0772      5.4178     26.5568    126.3317
  1597.5000      7.9753      2.5479      0.0532      6.1877     25.4887    122.1635
  1597.6000      7.9753      2.5477      0.0484      6.2011     24.3400    117.8047
  1597.7000      7.9753      2.5718      0.0692      4.7388     23.4555    113.8141
  1597.8000      7.9589      2.6071      0.0758      2.6004     23.0846    109.0093
  1597.9000      7.9589      2.6362      0.0908      0.8374     23.2202    103.8075
  1598.0000      7.9434      2.6508      0.0910     -0.0505     23.3767    100.8172
  1598.1000      7.9434      2.6566      0.0730     -0.3988     22.9758     98.5540
  1598.2000      7.9434      2.6584      0.0944     -0.5113     22.0224     94.0558
  1598.3000      7.9354      2.6557      0.0739     -0.3484     20.9350     91.3172
  1598.4000      7.9354      2.6637      0.0574     -0.8320     20.1109     90.3370
  1598.5000      7.9369      2.6941      0.0852     -2.6727     19.4823     84.5068
  1598.6000      7.9369      2.7306      0.0998     -4.8845     18.8164     78.6521
  1598.7000      7.9369      2.7579      0.0899     -6.5373     17.8095     79.4195
  1598.8000      7.9457      2.7708      0.1078     -7.3239     16.5862     80.4999
  1598.9000      7.9457      2.7559      0.1089     -6.4157     16.1881     75.1399
  1599.0000      7.9544      2.7122      0.0711     -3.7670     16.8306     67.1320
  1599.1000      7.9544      2.6679      0.0470     -1.0824     17.4933     64.1352
  1599.2000      7.9544      2.6454      0.0514      0.2780     17.5637     66.2948
  1599.3000      7.9621      2.6427      0.0445      0.4415     17.5130     67.3498
  1599.4000      7.9621      2.6482      0.0566      0.1092     17.9434     66.5824
  1599.5000      7.9707      2.6499      0.0545      0.0039     18.7701     70.9732
  1599.6000      7.9707      2.6421      0.0564      0.4788     19.5378     79.2954
  1599.7000      7.9707      2.6317      0.0394      1.1082     20.2262     81.6503
  1599.8000      7.9783      2.6314      0.0432      1.1299     20.9685     78.2698
  1599.9000      7.9783      2.6396      0.0544      0.6288     21.5705     76.7373
