~Version Information
VERS.                      2.0: CWLS Log ASCII Standard - VERSION 2.0
WRAP.                       NO: One line per depth step
~Well Information Block
STRT.FT               335.0000: 
STOP.FT              1154.7000: 
STEP.FT                 0.1000: 
NULL.                -999.2500: 
COMP.          Pioneer Natural Resources: COMPANY
WELL.             Croc 42-9 Tr: WELL
FLD.           Purgatoire River: FIELD
LOC.           2429' FNL & 315' FEL--: LOCATION
STAT.                 Colorado: State
CNTY.               Las Animas: COUNTY
CTRY. USA : Country
SECT. 9 : Section
TOWN. 32S : Township
RANG. 66W : Range
SRVC.                Patterson: SERVICE COMPANY
DATE.          Fri Oct 14 07:56:23 2005: LOG DATE
API.           05 071 08550 00: UNIQUE WELL ID
~Curve Information Block
DEPT.FT            0 000 00 00: Depth
DCAL.in                       : CDL Caliper
RHOB.g/cc                     : CDL Bulk Density
RHOC.g/cc                     : CDL Density Correction
DPOR.pu                       : CDL Density Porosity
NPOR.pu                       : Neutron Porosity
GR.GAPI                       : Gamma Ray
~Parameter Information Block
~A  Depth       DCAL        RHOB        RHOC        DPOR        NPOR         GR     
# ...
   383.0000      8.1353      2.3360      0.0723     19.0287     14.9514     96.7785
   383.1000      8.1353      2.3373      0.0593     18.9502     15.0811     99.3749
   383.2000      8.1353      2.3293      0.0440     19.4356     15.3432    102.6006
   383.3000      8.1363      2.3206      0.0508     19.9661     15.4773    103.9991
   383.4000      8.1363      2.3138      0.0580     20.3729     15.5530    102.3302
   383.5000      8.1375      2.3155      0.0001     20.2720     15.9284     97.6774
   383.6000      8.1375      2.3268      0.0545     19.5886     16.2127     91.4223
   383.7000      8.1375      2.3309      0.0469     19.3415     16.0568     84.0833
   383.8000      8.1376      2.3199      0.0294     20.0032     15.7611     77.7640
   383.9000      8.1376      2.3061      0.0173     20.8402     15.4612     77.0850
   384.0000      8.1390      2.2984      0.0246     21.3098     15.2051     77.8344
   384.1000      8.1390      2.2964      0.0336     21.4287     15.1654     73.1819
   384.2000      8.1390      2.3034      0.0368     21.0073     15.4860     67.6976
   384.3000      8.1406      2.3215      0.0578     19.9069     15.9835     67.7554
   384.4000      8.1406      2.3391      0.0824     18.8449     16.1758     73.7094
   384.5000      8.1412      2.3416      0.0698     18.6931     15.9866     81.7221
   384.6000      8.1412      2.3281      0.0731     19.5088     15.7822     87.4917
   384.7000      8.1412      2.3073      0.0618     20.7702     15.7820     91.5193
   384.8000      8.1398      2.2917      0.0319     21.7165     15.9464     95.8609
   384.9000      8.1398      2.2902      0.0541     21.8035     15.9844     99.5667
   385.0000      8.1368      2.2985      0.0691     21.3009     15.6481    101.8620
   385.1000      8.1368      2.3072      0.0772     20.7782     15.2928    103.5399
   385.2000      8.1368      2.3166      0.0667     20.2089     15.3519    104.0902
   385.3000      8.1332      2.3349      0.0634     19.0949     15.5949    100.3343
   385.4000      8.1332      2.3597      0.0925     17.5919     15.4309     92.9737
   385.5000      8.1309      2.3772      0.1026     16.5318     14.4799     91.6657
   385.6000      8.1309      2.3880      0.0525     15.8789     13.3960     97.6660
   385.7000      8.1309      2.4038      0.0905     14.9236     13.4884     98.8556
   385.8000      8.1300      2.4226      0.1104     13.7799     15.0106     94.0346
   385.9000      8.1300      2.4330      0.1136     13.1527     16.8815     92.4366
   386.0000      8.1281      2.4302      0.0998     13.3199     18.1650     97.6100
   386.1000      8.1281      2.4265      0.0730     13.5447     18.9456    110.3211
   386.2000      8.1281      2.4388      0.0807     12.7982     19.6856    124.4126
   386.3000      8.1219      2.4601      0.1395     11.5064     20.3352    130.7308
   386.4000      8.1219      2.4744      0.1134     10.6454     20.6298    131.2896
   386.5000      8.1141      2.4881      0.0682      9.8119     20.7715    129.6031
   386.6000      8.1141      2.5063      0.1185      8.7072     21.0851    121.7268
   386.7000      8.1141      2.5131      0.0938      8.2965     21.4699    110.0598
   386.8000      8.1096      2.4997      0.0557      9.1108     21.7546    105.8587
   386.9000      8.1096      2.4771      0.0304     10.4774     21.7909    110.8515
   387.0000      8.1096      2.4612      0.0076     11.4425     21.5539    112.8153
   387.1000      8.1096      2.4567      0.0405     11.7133     21.3563    105.8121
   387.2000      8.1096      2.4572      0.0709     11.6846     21.3431     97.8052
   387.3000      8.1112      2.4579      0.0308     11.6425     21.4612     96.2171
   387.4000      8.1112      2.4589      0.0568     11.5807     21.5557     98.9482
   387.5000      8.1122      2.4620      0.0271     11.3954     21.3818    102.4750
   387.6000      8.1122      2.4703      0.0618     10.8919     20.9358    103.6592
   387.7000      8.1122      2.4797      0.0556     10.3211     20.4467    101.8350
   387.8000      8.1125      2.4828      0.0589     10.1363     20.0687    102.7754
   387.9000      8.1125      2.4818      0.0306     10.1927     19.9103    108.4816
   388.0000      8.1127      2.4877      0.0543      9.8374     20.1432    113.4742
   388.1000      8.1127      2.5014      0.0783      9.0032     20.6444    113.2399
   388.2000      8.1127      2.5093      0.0802      8.5272     20.8476    109.7785
   388.3000      8.1124      2.5026      0.0560      8.9353     20.5939    105.9979
   388.4000      8.1124      2.4855      0.0792      9.9708     20.3595    104.2156
   388.5000      8.1101      2.4656      0.0571     11.1754     20.2389    107.9116
   388.6000      8.1101      2.4595      0.0181     11.5482     20.1723    112.8122
   388.7000      8.1101      2.4765      0.0768     10.5151     20.3966    112.4597
   388.8000      8.1078      2.5035      0.0628      8.8818     20.5869    108.7932
   388.9000      8.1078      2.5276      0.0753      7.4170     20.1024    103.6367
   389.0000      8.1095      2.5451      0.0722      6.3594     18.6015     98.5202
   389.1000      8.1095      2.5555      0.0883      5.7295     16.4725     98.3098
   389.2000      8.1095      2.5620      0.0628      5.3343     15.2750    103.0892
   389.3000      8.1184      2.5666      0.0736      5.0569     16.2606    107.4671
   389.4000      8.1184      2.5702      0.0381      4.8361     18.5178    108.2014
   389.5000      8.1314      2.5749      0.0525      4.5490     19.4711    109.0479
   389.6000      8.1314      2.5806      0.0415      4.2044     18.7463    113.2534
   389.7000      8.1314      2.5845      0.0325      3.9725     18.4269    117.3463
   389.8000      8.1402      2.5744      0.0808      4.5804     19.2296    117.6414
   389.9000      8.1402      2.5426      0.0463      6.5108     19.6932    115.6198
   390.0000      8.1431      2.5116      0.0130      8.3854     19.1287    112.2904
   390.1000      8.1431      2.5060      0.0147      8.7251     18.6115    104.6441
   390.2000      8.1431      2.5173      0.0417      8.0403     18.8189     95.9509
   390.3000      8.1429      2.5225      0.0490      7.7295     19.2985     92.6834
   390.4000      8.1429      2.5103      0.0631      8.4639     19.2374     92.4479
   390.5000      8.1413      2.4891      0.0287      9.7510     18.5202     90.9478
   390.6000      8.1413      2.4764      0.0323     10.5236     17.3929     88.6152
   390.7000      8.1413      2.4791      0.0459     10.3556     15.9270     86.6803
   390.8000      8.1398      2.4871      0.0432      9.8743     14.1499     84.3459
   390.9000      8.1398      2.4877      0.0508      9.8373     12.3770     80.3530
   391.0000      8.1387      2.4816      0.0152     10.2071     11.5513     77.0315
   391.1000      8.1387      2.4785      0.0190     10.3930     11.9206     76.0432
   391.2000      8.1387      2.4789      0.0355     10.3694     12.1646     75.8216
   391.3000      8.1385      2.4699      0.0444     10.9167     11.6134     77.4316
   391.4000      8.1385      2.4440      0.0193     12.4828     11.4958     83.0412
   391.5000      8.1380      2.4112      0.0021     14.4744     12.4461     89.3472
   391.6000      8.1380      2.3870     -0.0003     15.9384     13.5384     90.9615
   391.7000      8.1380      2.3804     -0.0099     16.3380     13.6021     87.8595
   391.8000      8.1355      2.3892      0.0119     15.8036     12.4107     81.9356
   391.9000      8.1355      2.4000      0.0406     15.1505     10.8288     73.9795
   392.0000      8.1335      2.4031      0.0160     14.9645      9.8494     67.9053
   392.1000      8.1335      2.4028      0.0250     14.9843      9.7839     67.3901
   392.2000      8.1335      2.4072      0.0451     14.7145     10.5230     71.7700
   392.3000      8.1340      2.4180      0.0437     14.0589     11.4179     76.4481
   392.4000      8.1340      2.4296      0.0768     13.3570     11.2820     76.4262
   392.5000      8.1362      2.4416      0.0191     12.6298     10.1280     72.1334
