~Version Information
VERS.                      2.0: CWLS Log ASCII Standard - VERSION 2.0
WRAP.                       NO: One line per depth step
~Well Information Block
STRT.FT               595.7000: 
STOP.FT              1567.2000: 
STEP.FT                 0.1000: 
NULL.                -999.2500: 
COMP.          Pioneer Natural Resources: COMPANY
WELL.           Butch 33-10 Tr: WELL
FLD.           Purgatoire River: FIELD
LOC.           2309' FSL & 1337' FEL--: LOCATION
PROV.                 Colorado: PROVINCE
CNTY.               Las Animas: COUNTRY
SRVC.                Patterson: SERVICE COMPANY
DATE.          Mon Jan 16 07:34:05 2006: LOG DATE
UWI.           05 071 08649 00: UNIQUE WELL ID
~Curve Information Block
DEPT.FT            0 000 00 00: Depth
DCAL.in                       : CDL Caliper
RHOB.g/cc                     : CDL Bulk Density
RHOC.g/cc                     : CDL Density Correction
DPOR.pu                       : CDL Density Porosity
GR.GAPI                       : Gamma Ray
~Parameter Information Block
~A  Depth       DCAL        RHOB        RHOC        DPOR         GR     
# ...
   674.1000      8.1513      2.5303     -0.0585      7.2560     90.0487
   674.2000      8.1513      2.5299      0.0602      7.2770     96.1426
   674.3000      8.1631      2.5312      0.0788      7.2005    101.4932
   674.4000      8.1631      2.5234      0.0346      7.6736    105.1538
   674.5000      8.1617      2.5124      0.0188      8.3380    108.0759
   674.6000      8.1617      2.5028      0.0149      8.9198    110.0350
   674.7000      8.1617      2.5012      0.0165      9.0195    111.4199
   674.8000      8.1575      2.5104      0.0474      8.4583    112.9849
   674.9000      8.1575      2.5221      0.0677      7.7505    112.8390
   675.0000      8.1612      2.5319      0.0583      7.1559    113.5610
   675.1000      8.1612      2.5400      0.0676      6.6679    119.4375
   675.2000      8.1612      2.5388      0.0821      6.7372    125.2289
   675.3000      8.1684      2.5166      0.1000      8.0844    123.3957
   675.4000      8.1684      2.4780      0.0073     10.4249    116.8624
   675.5000      8.1736      2.4514      0.0021     12.0350    114.5803
   675.6000      8.1736      2.4537      0.0065     11.8970    117.5997
   675.7000      8.1736      2.4739      0.0613     10.6698    119.2995
   675.8000      8.1778      2.4936      0.0892      9.4800    116.7984
   675.9000      8.1778      2.5013      0.0698      9.0116    115.9701
   676.0000      8.1874      2.4925      0.0879      9.5477    121.9023
   676.1000      8.1874      2.4741      0.0260     10.6608    130.0789
   676.2000      8.1874      2.4650      0.0665     11.2142    133.2705
   676.3000      8.2008      2.4665      0.0745     11.1237    130.6846
   676.4000      8.2008      2.4605      0.0737     11.4825    126.7649
   676.5000      8.2132      2.4414      0.0425     12.6412    125.8523
   676.6000      8.2132      2.4245      0.0332     13.6695    129.1979
   676.7000      8.2132      2.4198      0.0918     13.9488    132.0546
   676.8000      8.2191      2.4164      0.0964     14.1589    129.0878
   676.9000      8.2191      2.4076      0.0621     14.6894    123.7708
   677.0000      8.2193      2.4050      0.0761     14.8505    122.5445
   677.1000      8.2193      2.4144      0.1024     14.2814    124.6685
   677.2000      8.2193      2.4288      0.1061     13.4050    124.5853
   677.3000      8.2174      2.4411      0.0766     12.6633    119.9741
   677.4000      8.2174      2.4520      0.0861     12.0002    113.0472
   677.5000      8.2187      2.4651      0.1134     11.2078    108.2576
   677.6000      8.2187      2.4753      0.1396     10.5883    107.0989
   677.7000      8.2187      2.4761      0.0913     10.5391    107.8001
   677.8000      8.2189      2.4682      0.0772     11.0160    110.3729
   677.9000      8.2189      2.4545      0.0249     11.8491    115.4907
   678.0000      8.2173      2.4420      0.0191     12.6039    119.7112
   678.1000      8.2173      2.4326      0.0453     13.1776    119.1691
   678.2000      8.2173      2.4235      0.0011     13.7243    117.5337
   678.3000      8.2190      2.4175      0.0248     14.0891    120.3877
   678.4000      8.2190      2.4131      0.0312     14.3547    125.9480
   678.5000      8.2282      2.4111     -0.0201     14.4765    129.5518
   678.6000      8.2282      2.4137      0.0324     14.3185    129.9955
   678.7000      8.2282      2.4115      0.0689     14.4564    126.6142
   678.8000      8.2453      2.3944      0.0384     15.4899    119.4579
   678.9000      8.2453      2.3667      0.0280     17.1667    111.2294
   679.0000      8.2610      2.3439     -0.0102     18.5542    106.2038
   679.1000      8.2610      2.3399      0.0058     18.7936    104.9738
   679.2000      8.2610      2.3550      0.0123     17.8766    104.9438
   679.3000      8.2694      2.3772      0.0469     16.5349    106.1285
   679.4000      8.2694      2.3930      0.0487     15.5768    107.2050
   679.5000      8.2781      2.3894      0.0710     15.7914    106.8185
   679.6000      8.2781      2.3563      0.0613     17.8018    107.2811
   679.7000      8.2781      2.2951     -0.0039     21.5070    110.5060
   679.8000      8.2884      2.2074      0.0011     26.8217    115.3754
   679.9000      8.2884      2.0956     -0.0786     33.6024    120.0113
   680.0000      8.2941      1.9780     -0.0915     40.7280    122.3258
   680.1000      8.2941      1.8713     -0.1276     47.1942    119.0797
   680.2000      8.2941      1.7814     -0.1573     52.6411    110.0406
   680.3000      8.3002      1.7022     -0.1218     57.4454    152.6906
   680.4000      8.3002      1.6174     -0.1048     62.5847    146.2504
   680.5000      8.3156      1.5252     -0.0958     68.1707    139.3188
   680.6000      8.3156      1.4490     -0.1158     72.7876    129.0439
   680.7000      8.3156      1.4135     -0.0243     74.9393    117.6611
   680.8000      8.3450      1.4105      0.0804     75.1183    105.3714
   680.9000      8.3450      1.4075      0.0902     75.3046     94.6597
   681.0000      8.3689      1.3846      0.0492     76.6939     87.3601
   681.1000      8.3689      1.3476      0.0183     78.9329     82.6032
   681.2000      8.3689      1.3171     -0.0335     80.7825     76.9614
   681.3000      8.3581      1.3100     -0.0038     81.2109     65.8493
   681.4000      8.3581      1.3258      0.0137     80.2541     54.5647
   681.5000      8.3453      1.3567      0.0329     78.3793     51.9462
   681.6000      8.3453      1.4024      0.0371     75.6151     55.1803
   681.7000      8.3453      1.4587      0.0980     72.1998     56.6904
   681.8000      8.3503      1.5085      0.1175     69.1830     55.1829
   681.9000      8.3503      1.5439      0.1175     67.0383     54.1392
   682.0000      8.3627      1.5764      0.1326     65.0678     57.4208
   682.1000      8.3627      1.6106      0.1688     62.9950     65.8158
   682.2000      8.3627      1.6383      0.1381     61.3132     74.1778
   682.3000      8.3589      1.6571      0.1255     60.1750     78.7365
   682.4000      8.3589      1.6743      0.0778     59.1310     83.7151
   682.5000      8.3348      1.6984      0.0871     57.6738     91.2844
   682.6000      8.3348      1.7277      0.1093     55.8979     95.6527
   682.7000      8.3348      1.7630      0.0828     53.7603     95.4464
   682.8000      8.3165      1.8133      0.0915     50.7063     97.2140
   682.9000      8.3165      1.8755      0.1465     46.9394    103.4003
   683.0000      8.3084      1.9381      0.1474     43.1468    108.3614
   683.1000      8.3084      2.0019      0.1538     39.2806    106.1125
   683.2000      8.3084      2.0726      0.1840     34.9968    101.0540
   683.3000      8.3072      2.1482      0.1974     30.4112    103.4568
   683.4000      8.3072      2.2216      0.1771     25.9609    114.1572
   683.5000      8.3153      2.2874      0.1469     21.9733    130.0250
   683.6000      8.3153      2.3446      0.1386     18.5096    146.3055
   683.7000      8.3153      2.3893      0.1706     15.8024    153.3339
   683.8000      8.3229      2.4148      0.1540     14.2550    149.3681
   683.9000      8.3229      2.4257      0.1277     13.5932    143.1762
   684.0000      8.3256      2.4301      0.1104     13.3287    142.2794
   684.1000      8.3256      2.4242      0.1067     13.6845    144.3895
   684.2000      8.3256      2.4088      0.0481     14.6193    143.5427
   684.3000      8.3252      2.3910      0.0815     15.6973    140.5376
   684.4000      8.3252      2.3682      0.0577     17.0809    140.9643
   684.5000      8.3241      2.3379      0.0326     18.9174    146.6468
   684.6000      8.3241      2.3054      0.0461     20.8864    152.9841
   684.7000      8.3241      2.2770      0.0208     22.6042    157.9389
   684.8000      8.3264      2.2534      0.0428     24.0352    164.2442
   684.9000      8.3264      2.2278      0.0356     25.5883    171.2088
   685.0000      8.3271      2.1984      0.0002     27.3702    174.7856
   685.1000      8.3271      2.1746     -0.0038     28.8133    173.5117
   685.2000      8.3271      2.1583      0.0261     29.7976    171.2559
