~Version Information
VERS.                      2.0: CWLS Log ASCII Standard - VERSION 2.0
WRAP.                       NO: One line per depth step
~Well Information Block
STRT.FT               800.0000: 
STOP.FT              3500.0000: 
STEP.FT                 0.2500: 
NULL.                -999.2500: 
COMP.          Pioneer Natural Resources: COMPANY
WELL.          Cordillera 34-7: WELL
FLD.           Purgatoire River: FIELD
LOC.           598' FSL & 1770' FEL--: LOCATION
PROV.                 Colorado: PROVINCE
CNTY.               Las Animas: COUNTRY
SRVC.                Patterson: SERVICE COMPANY
DATE.          Thu Oct 27 20:08:30 2005: LOG DATE
UWI.           05 071 08552 00: UNIQUE WELL ID
~Curve Information Block
DEPT.FT            0 000 00 00: Depth
SN.Ohm-m                      : IEL Short Normal
SP.mV                         : IEL Spontaneous Potential
DIR.Ohm-m                     : IEL Induction Resistivity
GR.GAPI                       : Gamma Ray
~Parameter Information Block
~A  Depth        SN          SP         DIR          GR     
# ...
  3312.5000     24.4260    142.8633     21.2208     81.6102
  3312.7500     25.0135    142.1046     21.7703     78.8492
  3313.0000     25.2289    141.3863     22.3079     76.3318
  3313.2500     25.2374    140.7311     22.7705     75.2873
  3313.5000     25.1793    140.1576     23.1085     74.3594
  3313.7500     25.0973    139.6611     23.2948     73.9737
  3314.0000     24.9569    139.2151     23.3230     73.4207
  3314.2500     24.7142    138.7939     23.2019     73.0367
  3314.5000     24.3623    138.3972     22.9527     72.6964
  3314.7500     23.9269    138.0532     22.6077     72.8894
  3315.0000     23.4429    137.7992     22.2039     74.2413
  3315.2500     22.9412    137.6578     21.7757     75.9535
  3315.5000     22.4395    137.6267     21.3501     79.6006
  3315.7500     21.9411    137.6812     20.9475     82.5364
  3316.0000     21.4436    137.7848     20.5834     87.0818
  3316.2500     20.9440    137.9027     20.2678     89.7518
  3316.5000     20.4521    138.0147     20.0026     92.8741
  3316.7500     20.0027    138.1243     19.7812     94.6874
  3317.0000     19.6383    138.2641     19.5905     97.9142
  3317.2500     19.3707    138.4901     19.4182    100.5325
  3317.5000     19.1714    138.8541     19.2577    104.3028
  3317.7500     19.0029    139.3663     19.1096    106.0040
  3318.0000     18.8544    139.9705     18.9770    106.8787
  3318.2500     18.7395    140.5586     18.8595    106.6652
  3318.5000     18.6685    141.0242     18.7507    105.9673
  3318.7500     18.6370    141.3239     18.6446    105.4743
  3319.0000     18.6329    141.4983     18.5436    104.7404
  3319.2500     18.6406    141.6377     18.4605    104.2630
  3319.5000     18.6462    141.8330     18.4090    103.4011
  3319.7500     18.6418    142.1507     18.3923    102.4630
  3320.0000     18.6180    142.6262     18.4001    100.2354
  3320.2500     18.5606    143.2426     18.4180     98.4307
  3320.5000     18.4680    143.9000     18.4379     96.1791
  3320.7500     18.3594    144.4194     18.4591     95.5811
  3321.0000     18.2603    144.6002     18.4795     96.5863
  3321.2500     18.1885    144.2987     18.4881     98.2006
  3321.5000     18.1494    143.4872     18.4690    100.2824
  3321.7500     18.1375    142.2838     18.4133    100.3558
  3322.0000     18.1398    140.9365     18.3294     98.0732
  3322.2500     18.1310    139.7432     18.2399     95.6472
  3322.5000     18.0804    138.9276     18.1669     92.1307
  3322.7500     17.9763    138.5556     18.1184     90.3104
  3323.0000     17.8406    138.5473     18.0857     88.5870
  3323.2500     17.7092    138.7532     18.0535     88.3153
  3323.5000     17.5913    139.0278     18.0129     89.5464
  3323.7500     17.4620    139.2842     17.9644     91.1534
  3324.0000     17.3073    139.5296     17.9128     93.2815
  3324.2500     17.1504    139.8525     17.8586     93.7871
  3324.5000     17.0320    140.3462     17.7965     93.2085
  3324.7500     16.9862    141.0268     17.7206     92.4612
  3325.0000     17.0189    141.8215     17.6309     91.4454
  3325.2500     17.0968    142.6266     17.5345     90.8430
  3325.5000     17.1658    143.3647     17.4408     89.7405
  3325.7500     17.1862    143.9976     17.3558     88.7257
  3326.0000     17.1548    144.5136     17.2814     86.8727
  3326.2500     17.0981    144.9210     17.2178     85.7189
  3326.5000     17.0429    145.2441     17.1641     84.7303
  3326.7500     16.9950    145.5072     17.1160     84.7590
  3327.0000     16.9462    145.7102     17.0624     85.7891
  3327.2500     16.8909    145.8241     16.9902     86.9566
  3327.5000     16.8273    145.8187     16.8924     88.8992
  3327.7500     16.7590    145.7036     16.7758     89.8951
  3328.0000     16.6943    145.5419     16.6585     90.2260
  3328.2500     16.6356    145.4198     16.5597     89.4990
  3328.5000     16.5788    145.3931     16.4892     87.5092
  3328.7500     16.5182    145.4473     16.4445     86.2768
  3329.0000     16.4484    145.4971     16.4132     85.6532
  3329.2500     16.3781    145.4354     16.3806     86.3005
  3329.5000     16.3336    145.2014     16.3360     88.8208
  3329.7500     16.3309    144.8147     16.2757     91.4759
  3330.0000     16.3581    144.3465     16.2036     96.5350
  3330.2500     16.3848    143.8643     16.1280     99.8898
  3330.5000     16.3873    143.4088     16.0574    103.0688
  3330.7500     16.3696    143.0021     15.9993    103.3256
  3331.0000     16.3529    142.6539     15.9602    101.5373
  3331.2500     16.3505    142.3547     15.9448     99.8505
  3331.5000     16.3665    142.0775     15.9555     97.8001
  3331.7500     16.4045    141.7974     15.9901     96.9067
  3332.0000     16.4615    141.5096     16.0436     96.0545
  3332.2500     16.5291    141.2310     16.1124     95.7558
  3332.5000     16.6028    140.9885     16.1970     96.0009
  3332.7500     16.6756    140.8059     16.3024     96.8623
  3333.0000     16.7401    140.7012     16.4346     99.1579
  3333.2500     16.8045    140.6955     16.5979    100.9711
  3333.5000     16.8809    140.8210     16.7926    103.5081
  3333.7500     16.9654    141.1114     17.0127    105.2329
  3334.0000     17.0577    141.5706     17.2451    108.7492
  3334.2500     17.1844    142.1451     17.4716    111.7825
  3334.5000     17.3875    142.7301     17.6755    115.6739
  3334.7500     17.7063    143.2168     17.8467    116.2524
  3335.0000     18.1633    143.5467     17.9831    112.5548
  3335.2500     18.7334    143.7301     18.0881    107.5658
  3335.5000     19.3275    143.8186     18.1702     98.9204
  3335.7500     19.8286    143.8648     18.2423     93.8361
  3336.0000     20.1562    143.9023     18.3179     88.2175
  3336.2500     20.2994    143.9483     18.4019     85.7042
  3336.5000     20.2990    144.0129     18.4834     83.6492
  3336.7500     20.2108    144.0999     18.5376     83.6302
  3337.0000     20.0665    144.2008     18.5373     85.8834
  3337.2500     19.8476    144.2903     18.4661     88.6507
  3337.5000     19.5121    144.3254     18.3226     93.5895
  3337.7500     19.0585    144.2502     18.1177     96.5684
  3338.0000     18.5598    144.0141     17.8694     99.2671
  3338.2500     18.1260    143.6041     17.5994     99.5956
  3338.5000     17.8274    143.0642     17.3315     98.7656
  3338.7500     17.6490    142.4811     17.0875     98.3391
  3339.0000     17.5167    141.9458     16.8830     98.8781
  3339.2500     17.3678    141.5227     16.7234     99.7767
  3339.5000     17.1966    141.2418     16.6047    101.2538
  3339.7500     17.0321    141.1044     16.5182    102.4807
  3340.0000     16.8957    141.0854     16.4577    105.3186
  3340.2500     16.7991    141.1372     16.4231    107.6228
  3340.5000     16.7587    141.2113     16.4196    110.0304
  3340.7500     16.7917    141.2823     16.4529    110.0522
  3341.0000     16.9026    141.3487     16.5247    107.6799
  3341.2500     17.0834    141.4110     16.6314    105.2769
  3341.5000     17.3194    141.4574     16.7639    102.0157
  3341.7500     17.5811    141.4704     16.9097    100.6212
  3342.0000     17.8269    141.4505     17.0540     99.9920
  3342.2500     18.0322    141.4325     17.1840    100.6464
  3342.5000     18.2097    141.4723     17.2928    103.5768
  3342.7500     18.3947    141.6085     17.3815    106.9309
  3343.0000     18.6072    141.8414     17.4585    113.6133
  3343.2500     18.8303    142.1490     17.5371    118.5560
  3343.5000     19.0218    142.5159     17.6304    125.5223
  3343.7500     19.1493    142.9443     17.7485    129.3911
  3344.0000     19.2129    143.4424     17.8957    134.0181
  3344.2500     19.2311    144.0075     18.0692    136.7393
  3344.5000     19.2250    144.6146     18.2577    140.9577
  3344.7500     19.2125    145.2171     18.4410    143.8784
  3345.0000     19.2064    145.7592     18.5934    147.9179
  3345.2500     19.2159    146.1920     18.6911    149.9543
  3345.5000     19.2491    146.4832     18.7210    151.1455
  3345.7500     19.3126    146.6167     18.6834    150.2564
