~Version Information
VERS.                      2.0: CWLS Log ASCII Standard - VERSION 2.0
WRAP.                       NO: One line per depth step
~Well Information Block
STRT.FT                -3.2500: 
STOP.FT               989.2500: 
STEP.FT                 0.2500: 
NULL.                -999.2500: 
COMP.          Pioneer Natural Resources: COMPANY
WELL.                Doc 34-30: WELL
FLD.           Purgatoire River: FIELD
LOC.           454' FSL & 1386' FEL: LOCATION
CNTY.               Las Animas: COUNTY
SRVC.                         : SERVICE COMPANY
DATE.          Wed Mar 08 14:28:55 2006: LOG DATE
UWI.           05 071 08694 00: UNIQUE WELL ID
STAT.                       CO: STATE
~Curve Information Block
DEPT.FT            0 000 00 00: Depth
GR.GAPI                       : Gamma Ray
CCL.                          : Casing Collar Locator
TT3.usec                      : CBL 3' Travel Time
AMP3.mV                       : CBL 3' Amplitude
~Parameter Information Block
~A  Depth        GR         CCL         TT3         AMP3    
# ...
   331.7500     91.6302      0.0000    712.8784      3.3251
   332.0000     84.1035      0.0000    704.7940      3.3780
   332.2500     75.9834      0.0000    696.8436      3.4044
   332.5000     68.7541      0.0000    688.6446      3.4116
   332.7500     63.8033      0.0000    680.3017      3.4021
   333.0000     61.5088      0.0000    672.5560      3.3731
   333.2500     61.1385      0.0000    666.7640      3.3195
   333.5000     61.3898      0.0000    664.7272      3.2402
   333.7500     61.2116      0.0000    666.8353      3.1435
   334.0000     60.4598      0.0000    668.9133      3.0476
   334.2500     59.7816      0.0000    661.7839      2.9757
   334.5000     59.8879      0.0000    636.2517      2.9465
   334.7500     61.0557      0.0000    590.4965      2.9691
   335.0000     63.1314      0.0000    533.1802      3.0418
   335.2500     65.7047      0.0000    478.4959      3.1564
   335.5000     68.3635      0.0000    437.2512      3.3010
   335.7500     70.9106      0.0000    412.0273      3.4591
   336.0000     73.1531      0.0000    399.1721      3.6095
   336.2500     74.5576      0.0000    393.4860      3.7308
   336.5000     74.5598      0.0000    391.1490      3.8091
   336.7500     73.2629      0.0000    390.1817      3.8419
   337.0000     71.5894      0.0000    389.8181      3.8360
   337.2500     70.9075      0.0000    389.8870      3.8007
   337.5000     72.5141      0.0000    390.6327      3.7431
   337.7500     76.8257      0.0000    393.0245      3.6717
   338.0000     82.7154      0.0000    399.2908      3.6005
   338.2500     88.1885      0.0000    412.7603      3.5452
   338.5000     92.0839      0.0000    435.7283      3.5122
   338.7500     94.6940      0.0000    466.1060      3.4995
   339.0000     96.5049      0.0000    497.0382      3.5050
   339.2500     97.0089      0.0000    522.0893      3.5293
   339.5000     95.2824      0.0000    540.7546      3.5717
   339.7500     91.5351      0.0000    556.8500      3.6306
   340.0000     87.5792      0.0000    572.1494      3.7051
   340.2500     85.3751      0.0000    584.9684      3.7918
   340.5000     85.0706      0.0000    595.2808      3.8807
   340.7500     84.9200      0.0000    607.2607      3.9602
   341.0000     83.3934      0.0000    624.2589      4.0229
   341.2500     80.9555      0.0000    643.2578      4.0654
   341.5000     79.4162      0.0000    656.8105      4.0832
   341.7500     79.9584      0.0000    659.9771      4.0730
   342.0000     82.2361      0.0000    653.9716      4.0455
   342.2500     85.0468      0.0000    643.7461      4.0304
   342.5000     87.2529      0.0000    634.0156      4.0515
   342.7500     88.0901      0.0000    627.9556      4.0959
   343.0000     87.1418      0.0000    627.9087      4.1258
   343.2500     84.4274      0.0000    635.3932      4.1227
   343.5000     80.5956      0.0000    649.7918      4.1023
   343.7500     77.1072      0.0000    667.6912      4.0876
   344.0000     75.9089      1.0706    684.2112      4.0864
   344.2500     78.2330      1.1560    694.9033      4.0951
   344.5000     83.3555      0.0000    696.7166      4.1136
   344.7500     88.8116      0.0000    689.2219      4.1507
   345.0000     92.2025      0.0000    676.2162      4.2120
   345.2500     92.9451      0.0000    664.4659      4.2755
   345.5000     92.4627      0.0000    659.0328      4.2956
   345.7500     93.0313      0.0000    660.3306      4.2502
   346.0000     96.3519      0.0000    665.9537      4.1718
   346.2500    102.6016      0.0000    673.8274      4.1122
   346.5000    110.3481      0.0000    682.8405      4.0934
   346.7500    117.4826      0.0000    691.7188      4.1033
   347.0000    122.6253      0.0000    698.6650      4.1195
   347.2500    125.9234      0.0000    702.2829      4.1244
   347.5000    128.6296      0.0000    702.4789      4.1093
   347.7500    131.8391      0.0000    700.3583      4.0770
   348.0000    135.2143      0.0000    697.1709      4.0381
   348.2500    136.8583      0.0000    693.3384      4.0034
   348.5000    134.9810      0.0000    688.7018      3.9811
   348.7500    129.9511      0.0000    683.7255      3.9780
   349.0000    124.4701      0.0000    679.8735      3.9994
   349.2500    121.6543      0.0000    678.3788      4.0432
   349.5000    122.9163      0.0000    678.9028      4.0968
   349.7500    127.3228      0.0000    679.7930      4.1433
   350.0000    132.6022      0.0000    679.6340      4.1728
   350.2500    136.8347      0.0000    678.3104      4.1886
   350.5000    139.4383      0.0000    676.5655      4.2027
   350.7500    140.7591      0.0000    674.8543      4.2273
   351.0000    140.9749      0.0000    672.6479      4.2692
   351.2500    139.4837      0.0000    668.4608      4.3310
   351.5000    135.2205      0.0000    660.3959      4.4135
   351.7500    127.6298      0.0000    647.1563      4.5131
   352.0000    117.4208      0.0000    629.2997      4.6170
   352.2500    106.3794      0.0000    610.3193      4.7054
   352.5000     96.5980      0.0000    596.5792      4.7652
   352.7500     89.8326      0.0000    594.4694      4.8044
   353.0000     86.9551      0.0000    604.7434      4.8524
   353.2500     87.3498      0.0000    619.0153      4.9413
   353.5000     89.0637      0.0000    624.4823      5.0784
   353.7500     90.3399      0.0000    614.6995      5.2335
   354.0000     91.2577      0.0000    595.6791      5.3596
   354.2500     93.4824      0.0000    580.3690      5.4275
   354.5000     98.3818      0.0000    577.0823      5.4381
   354.7500    105.8617      0.0000    583.2753      5.4018
   355.0000    114.8916      0.0000    589.3643      5.3209
   355.2500    124.2440      0.0000    587.7537      5.1993
   355.5000    132.3657      0.0000    579.3071      5.0609
   355.7500    137.1998      0.0000    572.6210      4.9427
   356.0000    137.0065      0.0000    576.7900      4.8703
   356.2500    131.7613      0.0000    593.8674      4.8412
   356.5000    123.7924      0.0000    617.8153      4.8319
   356.7500    116.9086      0.0000    639.8795      4.8177
   357.0000    114.3903      0.0000    654.2448      4.7879
   357.2500    116.8999      0.0000    659.8699      4.7452
   357.5000    121.8545      0.0000    659.2997      4.6967
   357.7500    125.0778      0.0000    656.5892      4.6486
   358.0000    123.5798      0.0000    655.3561      4.6062
   358.2500    117.3667      0.0000    657.4680      4.5739
   358.5000    109.3018      0.0000    662.6472      4.5538
   358.7500    103.4535      0.0000    668.9205      4.5478
   359.0000    102.9400      0.0000    673.6694      4.5592
   359.2500    108.3556      0.0000    675.0567      4.5887
   359.5000    117.6587      0.0000    673.3638      4.6285
   359.7500    127.5810      0.0000    671.2728      4.6644
   360.0000    135.5620      0.0000    672.1194      4.6881
   360.2500    140.7761      0.0000    676.9108      4.7039
   360.5000    143.7768      0.0000    682.7641      4.7240
   360.7500    145.4297      0.0000    684.4602      4.7587
   361.0000    146.0487      0.0000    677.9767      4.8117
   361.2500    145.2056      0.0000    663.2056      4.8782
   361.5000    142.2751      0.0000    643.7604      4.9471
   361.7500    137.1152      0.0000    624.2685      5.0074
   362.0000    130.1711      0.0000    608.2620      5.0535
   362.2500    122.2566      0.0000    598.5157      5.0859
   362.5000    114.5426      0.0000    597.3944      5.1088
   362.7500    108.3968      0.0000    605.2616      5.1243
   363.0000    104.8239      0.0000    619.4515      5.1271
   363.2500    104.1607      0.0000    635.8762      5.1061
   363.5000    106.3352      0.0000    651.2941      5.0557
   363.7500    111.0859      0.0000    664.1445      4.9859
   364.0000    118.0027      0.0000    674.1378      4.9153
   364.2500    126.7228      0.0000    681.3660      4.8540
   364.5000    137.1854      0.0000    685.6416      4.7968
   364.7500    149.3314      0.0000    686.8604      4.7327
   365.0000    162.1169      0.0000    685.9082      4.6598
