~Version Information
VERS.                      2.0: CWLS Log ASCII Standard - VERSION 2.0
WRAP.                       NO: One line per depth step
~Well Information Block
STRT.FT                -7.5000: 
STOP.FT              1350.7500: 
STEP.FT                 0.2500: 
NULL.                -999.2500: 
COMP.          Pioneer Natural Resources: COMPANY
WELL.            Gamma 13-3 Tr: WELL
FLD.           Purgatorie River: FIELD
LOC.           2127' FSL & 738' FWL: LOCATION
STAT.                       CO: State
CNTY.               Las Animas: COUNTY
CTRY.                      USA: Country
SECT.                        3: Section
TOWN.                      33S: Township
RANG.                      67W: Range
SRVC.          Patterson Wireline: SERVICE COMPANY
DATE.          Fri Sep 23 13:24:40 2005: LOG DATE
API.           05 071 08524 00: API
~Curve Information Block
DEPT.FT            0 000 00 00: Depth
CCL.                          : Casing Collar Locator
TT3.usec                      : CBL 3' Travel Time
AMP3.mV                       : CBL 3' Amplitude
GR.GAPI                       : Gamma Ray
~Parameter Information Block
~A  Depth       CCL         TT3         AMP3         GR     
# ...
  1064.5000      0.0000    585.5910     10.6322    126.3472
  1064.7500      0.0000    588.2205     10.5619    124.2456
  1065.0000      0.0000    595.2799     10.4714    121.5811
  1065.2500      0.0000    605.9129     10.3601    119.9814
  1065.5000      0.0000    618.1483     10.2173    120.4138
  1065.7500      0.0000    629.5978     10.0131    122.2003
  1066.0000      0.0000    638.5484      9.6952    124.0483
  1066.2500      0.0000    644.9933      9.2055    125.0989
  1066.5000      0.0000    650.9308      8.5422    125.0383
  1066.7500      0.0000    660.6075      7.8254    124.0318
  1067.0000      0.0000    680.6141      7.2621    122.6866
  1067.2500      0.0000    717.0223      6.9879    121.6207
  1067.5000      0.0000    769.1935      6.9579    120.8772
  1067.7500      0.0000    827.2343      7.0363    119.7649
  1068.0000      0.0000    878.5252      7.1535    117.4246
  1068.2500      0.0000    915.9579      7.3262    113.8892
  1068.5000     -2.0000    937.8564      7.5690    110.6397
  1068.7500      0.0000    942.8058      7.8566    109.6981
  1069.0000      0.0000    928.3702      8.1632    111.9671
  1069.2500      0.0000    893.1021      8.5232    116.6079
  1069.5000      0.0000    838.2248      9.0539    122.1458
  1069.7500      0.0000    770.9102      9.8706    127.9437
  1070.0000      0.0000    707.2927     10.9134    134.2897
  1070.2500      0.0000    666.5590     11.8990    141.0795
  1070.5000      0.0000    657.1344     12.5449    146.8530
  1070.7500      0.0000    670.3674     12.8274    149.4731
  1071.0000      0.0000    689.7308     12.9448    147.9097
  1071.2500      0.0000    703.9932     13.0619    143.4625
  1071.5000      0.0000    711.0273     13.1716    139.1768
  1071.7500      0.0000    713.3961     13.1826    137.7026
  1072.0000      0.0000    713.7786     13.0559    139.3406
  1072.2500      0.0000    713.5897     12.8321    142.0063
  1072.5000      0.0000    713.3640     12.5708    143.0924
  1072.7500      0.0000    713.2407     12.3098    141.5430
  1073.0000      0.0000    713.2007     12.0697    138.5270
  1073.2500      0.0000    713.0298     11.8673    136.3865
  1073.5000      0.0000    712.2242     11.7100    136.6904
  1073.7500      0.0000    710.0314     11.5875    138.9432
  1074.0000      0.0000    705.9600     11.4748    141.1980
  1074.2500      0.0000    700.5490     11.3425    142.0609
  1074.5000      0.0000    695.2726     11.1721    141.8784
  1074.7500      0.0000    691.0173     10.9673    141.9012
  1075.0000      0.0000    686.7408     10.7519    142.6320
  1075.2500      0.0000    680.3298     10.5510    143.1897
  1075.5000      0.0000    670.6752     10.3727    142.1387
  1075.7500      0.0000    658.3156     10.2091    138.9647
  1076.0000      0.0000    644.5803     10.0492    134.9433
  1076.2500      0.0000    631.2813      9.8922    132.3333
  1076.5000      0.0000    621.0794      9.7474    132.2635
  1076.7500      0.0000    616.7348      9.6249    133.3001
  1077.0000      0.0000    619.1059      9.5255    132.5471
  1077.2500      0.0000    626.1603      9.4401    128.4800
  1077.5000      0.0000    634.4575      9.3620    122.5654
  1077.7500      0.0000    641.6170      9.2980    118.1086
  1078.0000      0.0000    647.2243      9.2637    117.7964
  1078.2500      0.0000    651.7169      9.2669    122.0471
  1078.5000      0.0000    655.0623      9.2967    128.7480
  1078.7500      0.0000    656.6705      9.3264    134.3430
  1079.0000      0.0000    656.1513      9.3275    135.9902
  1079.2500      0.0000    653.9508      9.2856    133.3142
  1079.5000      0.0000    651.4984      9.2095    128.0001
  1079.7500      0.0000    650.5411      9.1247    121.8112
  1080.0000      0.0000    651.7545      9.0551    115.3999
  1080.2500      0.0000    654.2661      9.0092    108.8083
  1080.5000      0.0000    656.9144      8.9820    102.2942
  1080.7500      0.0000    659.1503      8.9644     96.2986
  1081.0000      0.0000    660.0916      8.9498     91.0169
  1081.2500      0.0000    658.0754      8.9335     86.3789
  1081.5000      0.0000    652.6489      8.9120     82.2887
  1081.7500      0.0000    646.3831      8.8870     78.7058
  1082.0000      0.0000    643.2467      8.8678     75.7226
  1082.2500      0.0000    645.0174      8.8667     73.7539
  1082.5000      0.0000    650.0701      8.8884     73.4444
  1082.7500      0.0000    655.7299      8.9257     75.0892
  1083.0000      0.0000    661.0950      8.9639     78.2310
  1083.2500      0.0000    667.0899      8.9902     82.0727
  1083.5000      0.0000    673.9687      8.9958     86.2180
  1083.7500      0.0000    679.1000      8.9732     90.8388
  1084.0000      0.0000    677.8826      8.9172     96.2586
  1084.2500      0.0000    667.7039      8.8329    102.5271
  1084.5000      0.0000    650.7143      8.7421    109.1632
  1084.7500      0.0000    631.9562      8.6758    115.1309
  1085.0000      0.0000    615.3257      8.6546    119.1572
  1085.2500      0.0000    602.0765      8.6772    120.2955
  1085.5000      0.0000    592.2091      8.7256    118.4789
  1085.7500      0.0000    585.9434      8.7820    114.8176
  1086.0000      0.0000    583.8477      8.8401    111.2400
  1086.2500      0.0000    586.3339      8.9042    109.4704
  1086.5000      0.0000    593.5128      8.9838    110.0497
  1086.7500      0.0000    605.2410      9.0888    112.0826
  1087.0000      0.0000    620.5720      9.2252    113.8439
  1087.2500      0.0000    637.0469      9.3917    113.8953
  1087.5000      0.0000    651.4920      9.5797    111.7649
  1087.7500      0.0000    662.2544      9.7773    107.7178
  1088.0000      0.0000    670.6906      9.9705    102.5702
  1088.2500      0.0000    680.3250     10.1427     97.9764
  1088.5000      0.0000    694.0425     10.2786     95.8745
  1088.7500      0.0000    710.9517     10.3702     96.8593
  1089.0000      0.0000    725.9093     10.4183     99.5099
  1089.2500      0.0000    733.3733     10.4266    101.7337
  1089.5000      0.0000    732.2196     10.3961    102.2772
  1089.7500      0.0000    725.9915     10.3254    100.8695
  1090.0000      0.0000    718.6832     10.2137     97.8691
  1090.2500      0.0000    711.4105     10.0617     94.3259
  1090.5000      0.0000    702.9058      9.8717     91.9390
  1090.7500      0.0000    691.9775      9.6514     92.4067
  1091.0000      0.0000    679.0531      9.4150     96.6197
  1091.2500      0.0000    665.7595      9.1828    104.3775
  1091.5000      0.0000    653.5308      8.9766    114.7164
  1091.7500      0.0000    642.4593      8.8131    126.2714
  1092.0000      0.0000    630.9877      8.6980    137.3182
  1092.2500      0.0000    617.1290      8.6239    146.0278
  1092.5000      0.0000    600.7886      8.5739    151.3037
  1092.7500      0.0000    584.6846      8.5303    153.4860
  1093.0000      0.0000    572.7520      8.4831    154.1469
  1093.2500      0.0000    568.1111      8.4357    155.1077
  1093.5000      0.0000    572.4738      8.4020    157.1826
  1093.7500      0.0000    585.9686      8.3960    159.3811
  1094.0000      0.0000    606.2543      8.4195    159.4422
  1094.2500      0.0000    628.1808      8.4603    155.3902
  1094.5000      0.0000    645.2366      8.5000    146.7372
  1094.7500      0.0000    651.6317      8.5228    134.6824
  1095.0000      0.0000    643.9312      8.5195    121.6861
  1095.2500      0.0000    623.1663      8.4902    110.6750
  1095.5000      0.0000    596.5908      8.4451    103.8707
  1095.7500      0.0000    575.1483      8.3973    101.6533
  1096.0000      0.0000    566.6424      8.3544    102.5178
  1096.2500      0.0000    571.4477      8.3176    104.4701
  1096.5000      0.0000    585.3262      8.2874    106.4797
  1096.7500      0.0000    604.9703      8.2669    108.4506
  1097.0000      0.0000    629.0603      8.2555    110.2863
  1097.2500      0.0000    654.0601      8.2438    111.8029
  1097.5000      0.0000    670.8887      8.2181    113.4605
  1097.7500      0.0000    668.5723      8.1726    116.3229
