~Version Information
VERS.                      2.0: CWLS Log ASCII Standard - VERSION 2.0
WRAP.                       NO: One line per depth step
~Well Information Block
STRT.FT               550.0000: 
STOP.FT              1981.5000: 
STEP.FT                 0.2500: 
NULL.                -999.2500: 
COMP.          Pioneer Natural Resources: COMPANY
WELL.          Flying Horse 12-11 Tr: WELL
FLD.           Purgatoire River: FIELD
LOC.           2459' FNL & 410' FWL: LOCATION
STAT.                 Colorado: State
CNTY.               Las Animas: COUNTY
CTRY. USA : Country
SECT. 11 : Section
TOWN. 32S : Township
RANG. 66W : Range
SRVC.                Patterson: SERVICE COMPANY
DATE.          Sat Sep 03 20:17:31 2005: LOG DATE
API.           05 071 08485 00: UNIQUE WELL ID
~Curve Information Block
DEPT.FT            0 000 00 00: Depth
SN.Ohm-m                      : IEL Short Normal
SP.mV                         : IEL Spontaneous Potential
DIR.Ohm-m                     : IEL Induction Resistivity
GR.GAPI                       : Gamma Ray
~Parameter Information Block
~A  Depth        SN          SP         DIR          GR     
# ...
  1689.0000     10.3755    145.8945     11.0198    154.4128
  1689.2500     10.7349    145.8850     11.3217    157.9940
  1689.5000     11.2830    145.9688     11.6765    159.5855
  1689.7500     11.9882    146.0886     12.0829    157.1032
  1690.0000     12.7781    146.1696     12.5457    148.3446
  1690.2500     13.5618    146.1071     13.0628    140.5048
  1690.5000     14.3499    145.8017     13.6192    128.5651
  1690.7500     15.2091    145.2519     14.1935    121.5070
  1691.0000     16.2115    144.6139     14.7750    112.6299
  1691.2500     17.4563    144.1443     15.3744    107.7285
  1691.5000     18.9692    144.0603     16.0171    101.8724
  1691.7500     20.6014    144.4424     16.7225     98.9569
  1692.0000     22.0713    145.2480     17.4861     95.5572
  1692.2500     23.1156    146.3812     18.2785     93.4674
  1692.5000     23.7099    147.7316     19.0616     90.4594
  1692.7500     24.1229    149.1611     19.8082     89.0577
  1693.0000     24.6038    150.4723     20.5096     88.8308
  1693.2500     25.0576    151.4108     21.1670     89.9370
  1693.5000     25.2403    151.7403     21.7794     92.6607
  1693.7500     25.1883    151.3702     22.3398     94.6756
  1694.0000     25.1866    150.4506     22.8394     97.3215
  1694.2500     25.4112    149.3458     23.2716     98.4182
  1694.5000     25.7920    148.4874     23.6345     98.4276
  1694.7500     26.1649    148.1908     23.9324     97.3077
  1695.0000     26.4962    148.5403     24.1785     94.4856
  1695.2500     26.9003    149.4003     24.3965     92.2032
  1695.5000     27.4170    150.5199     24.6175     88.4722
  1695.7500     27.9754    151.6522     24.8666     85.8981
  1696.0000     28.5949    152.6317     25.1462     82.3946
  1696.2500     29.3331    153.4078     25.4262     80.7663
  1696.5000     30.0920    154.0336     25.6500     80.0853
  1696.7500     30.7285    154.6151     25.7559     80.7331
  1697.0000     31.2450    155.2506     25.7025     81.7930
  1697.2500     31.7364    156.0044     25.4874     81.1358
  1697.5000     32.2489    156.9191     25.1489     76.7203
  1697.7500     32.6982    158.0272     24.7469     72.1305
  1698.0000     32.9409    159.3302     24.3276     65.7594
  1698.2500     32.9451    160.7568     23.8990     63.5464
  1698.5000     32.7309    162.1501     23.4334     64.6249
  1698.7500     32.2283    163.3054     22.8881     68.1778
  1699.0000     31.3538    164.0192     22.2284     76.6653
  1699.2500     30.1258    164.1202     21.4409     83.3490
  1699.5000     28.6443    163.5107     20.5384     92.5358
  1699.7500     26.9991    162.2469     19.5569     96.9112
  1700.0000     25.2241    160.5986     18.5421    100.2067
  1700.2500     23.3142    159.0039     17.5327    100.7166
  1700.5000     21.2661    157.9134     16.5511    100.4839
  1700.7500     19.1502    157.6117     15.6074    100.5802
  1701.0000     17.1290    158.1339     14.7077    102.4666
  1701.2500     15.3591    159.3236     13.8594    105.3898
  1701.5000     13.9214    160.9576     13.0718    112.0579
  1701.7500     12.8408    162.8220     12.3552    117.1884
  1702.0000     12.0662    164.7071     11.7171    124.1547
  1702.2500     11.4742    166.3785     11.1592    127.7880
  1702.5000     10.9952    167.5947     10.6752    131.8415
  1702.7500     10.6395    168.1762     10.2528    133.7478
  1703.0000     10.3911    168.0750      9.8781    135.3753
  1703.2500     10.2133    167.3915      9.5402    135.9266
  1703.5000     10.0776    166.3483      9.2328    137.3884
  1703.7500      9.9274    165.2517      8.9545    139.5637
  1704.0000      9.7210    164.4279      8.7075    144.4260
  1704.2500      9.5158    164.1121      8.4972    147.6792
  1704.5000      9.4078    164.3414      8.3308    150.6432
  1704.7500      9.3882    164.9570      8.2134    151.1406
  1705.0000      9.3749    165.7417      8.1437    151.2310
  1705.2500      9.3664    166.5691      8.1125    151.9423
  1705.5000      9.3480    167.4261      8.1051    154.2846
  1705.7500      9.1753    168.3305      8.1067    155.9576
  1706.0000      8.8360    169.2650      8.1065    157.1637
  1706.2500      8.5405    170.1626      8.0997    156.6375
  1706.5000      8.4451    170.9013      8.0854    153.9524
  1706.7500      8.5566    171.3151      8.0644    151.5064
  1707.0000      8.7843    171.2508      8.0373    148.5082
  1707.2500      8.9823    170.6337      8.0040    147.6248
  1707.5000      9.0862    169.4990      7.9637    147.5109
  1707.7500      9.1440    168.0034      7.9162    147.3225
  1708.0000      9.1681    166.4137      7.8635    145.9214
  1708.2500      9.1189    165.0324      7.8123    144.5226
  1708.5000      9.0163    164.0801      7.7725    142.9178
  1708.7500      8.9289    163.6356      7.7536    142.7721
  1709.0000      8.9160    163.6676      7.7605    144.5699
  1709.2500      9.0034    164.1049      7.7907    147.1821
  1709.5000      9.1208    164.9086      7.8354    152.2566
  1709.7500      9.1397    166.1410      7.8829    155.1638
  1710.0000      9.0107    167.9555      7.9233    156.7112
  1710.2500      8.7633    170.4427      7.9517    155.4713
  1710.5000      8.4237    173.4345      7.9716    151.1249
  1710.7500      8.0309    176.4740      7.9940    147.5560
  1711.0000      7.6568    179.0160      8.0338    142.9161
  1711.2500      7.3760    180.6945      8.1028    141.0637
  1711.5000      7.2781    181.4505      8.2059    140.5335
  1711.7500      7.4936    181.4803      8.3407    141.2746
  1712.0000      8.1225    181.1010      8.5008    142.7722
  1712.2500      9.0907    180.6139      8.6794    143.3876
  1712.5000     10.1522    180.1855      8.8696    143.2890
  1712.7500     11.0569    179.7773      9.0639    142.6460
  1713.0000     11.6890    179.1874      9.2543    141.2916
  1713.2500     12.0681    178.1973      9.4365    140.4529
  1713.5000     12.2620    176.7133      9.6134    139.8563
  1713.7500     12.3498    174.7868      9.7942    140.1212
  1714.0000     12.4124    172.5060      9.9880    141.3855
  1714.2500     12.4729    169.8764     10.1962    142.3736
  1714.5000     12.5082    166.8551     10.4067    142.9184
  1714.7500     12.5363    163.5318     10.5964    142.0218
  1715.0000     12.6487    160.2285     10.7409    138.5152
  1715.2500     12.9426    157.3543     10.8286    135.2445
  1715.5000     13.3572    155.1600     10.8657    130.1066
  1715.7500     13.6392    153.6415     10.8682    126.7255
  1716.0000     13.6132    152.6067     10.8465    121.2925
  1716.2500     13.3649    151.7574     10.7937    117.4924
  1716.5000     13.0337    150.7586     10.6875    113.0528
  1716.7500     12.6317    149.3625     10.5038    112.1937
  1717.0000     12.1437    147.5395     10.2317    115.0868
  1717.2500     11.6220    145.4718      9.8772    119.2100
  1717.5000     11.1222    143.4076      9.4557    126.2074
  1717.7500     10.6519    141.5184      8.9850    130.0194
  1718.0000     10.2407    139.8707      8.4875    133.6471
  1718.2500      9.9179    138.4834      7.9944    135.2215
  1718.5000      9.5828    137.3784      7.5436    137.7822
  1718.7500      9.1120    136.5726      7.1692    140.0298
  1719.0000      8.5645    136.0270      6.8896    143.9066
  1719.2500      8.0632    135.6097      6.6994    146.4389
  1719.5000      7.6430    135.1237      6.5670    149.6151
  1719.7500      7.3284    134.3993      6.4380    150.9847
  1720.0000      7.1557    133.3743      6.2481    151.3630
  1720.2500      7.0933    132.0750      5.9470    150.5232
  1720.5000      7.0754    130.5087      5.5228    148.5151
  1720.7500      7.1093    128.5844      5.0068    147.2340
  1721.0000      7.2878    126.1466      4.4537    145.4928
  1721.2500      7.7122    123.0885      3.9143    144.1198
  1721.5000      8.3532    119.4659      3.4208    141.4270
  1721.7500      8.9289    115.5456      2.9862    139.3218
  1722.0000      9.0602    111.7528      2.6120    135.8451
  1722.2500      8.5933    108.5377      2.2951    133.1183
