~Version Information
VERS.                      2.0: CWLS Log ASCII Standard - VERSION 2.0
WRAP.                       NO: One line per depth step
~Well Information Block
STRT.FT                -6.7500: 
STOP.FT              2034.2500: 
STEP.FT                 0.2500: 
NULL.                -999.2500: 
COMP.          Evergreen Operating Corp.: COMPANY
WELL.           Big Pine 32-15: WELL
FLD.           Purgatorie River: FIELD
LOC.           2590 FNL & 1442 FEL--: LOCATION
STAT.                       CO: State
CNTY.               Las Animas: COUNTY
CTRY. USA : Country
SECT. 15 : Section
TOWN. 33S : township
RANG. 67W : Range
SRVC.          Patterson Wireline, Inc.: SERVICE COMPANY
DATE.          Mon Mar 24 12:45:01 2003: LOG DATE
API.           05 071 07772 00: UNIQUE WELL ID
~Curve Information Block
DEPT.FT            0 000 00 00: Depth
HVOLTA.V                      : Head Voltage Apparent
CCL.                          : Casing Collar Locator
TT3.usec                      : CBL 3' Travel Time
AMP3.mV                       : CBL 3' Amplitude
GR.GAPI                       : Gamma Ray
~Parameter Information Block
~A  Depth      HVOLTA       CCL         TT3         AMP3         GR     
# ...
   665.2500    121.4449      0.0000    685.2404      4.1320     73.4041
   665.5000    121.2801      0.0000    684.7516      4.0748     70.6217
   665.7500    121.3131      0.0000    684.3506      4.1487     66.4105
   666.0000    121.3900      0.0000    684.0709      4.2658     61.9586
   666.2500    121.4992      0.0000    683.8784      4.3020     59.0200
   666.5000    121.4470      0.0000    683.6847      4.2194     58.3566
   666.7500    121.2231      0.0000    683.5667      4.0450     59.0532
   667.0000    121.2252      0.0000    683.8565      3.8274     59.5682
   667.2500    121.4710      0.0000    685.2740      3.7025     59.2579
   667.5000    121.3900      0.0000    688.7545      3.8122     58.7211
   667.7500    121.3097      0.0000    693.8108      4.1049     58.7726
   668.0000    121.3632      0.0000    697.6512      4.3762     59.4736
   668.2500    121.3632      0.0000    699.0602      4.4951     60.5153
   668.5000    121.4470      0.0000    700.7172      4.4907     62.2921
   668.7500    121.3392      0.0000    704.6970      4.4434     65.8719
   669.0000    121.3090      0.0000    710.7504      4.3989     71.8221
   669.2500    121.3337      0.0000    718.1054      4.3228     79.6737
   669.5000    121.3900      0.0000    724.8093      4.1658     88.6818
   669.7500    121.2273      0.0000    728.9670      3.9787     98.4942
   670.0000    121.3371      0.0000    730.7498      3.8316    108.7340
   670.2500    121.2547      0.0000    731.2488      3.7689    118.2432
   670.5000    121.4751      0.0000    731.1981      3.8571    125.1195
   670.7500    121.3097      0.0000    731.0177      4.0722    127.6173
   671.0000    121.4731      0.0000    730.9166      4.2122    125.2348
   671.2500    123.6944      0.0000    730.8364      4.1498    119.3727
   671.5000    121.4442      0.0000    730.6514      4.0739    113.0371
   671.7500    121.2843      0.0000    730.4758      4.2052    109.3977
   672.0000    121.3653      0.0000    730.5359      4.4537    110.0006
   672.2500    121.2025      0.0000    730.8528      4.5691    114.2393
   672.5000    121.3316      0.0000    731.2363      4.5233    120.6194
   672.7500    121.2341      0.0000    731.4827      4.5911    128.2571
   673.0000    121.3625      0.0000    731.5215      4.9555    136.9790
   673.2500    121.2849      0.0000    731.3372      5.4843    146.3383
   673.5000    121.4848      0.0000    730.9019      5.9834    155.0336
   673.7500    121.2575      0.0000    730.2244      6.4332    161.4180
   674.0000    121.3131      0.0000    728.7269      6.9604    164.5446
   674.2500    121.3399      0.0000    724.4084      7.5980    164.6651
   674.5000    121.3667      0.0000    715.5379      8.2333    162.6318
   674.7500    121.3667      0.0000    704.0340      8.8041    158.9281
   675.0000    121.3612      0.0000    694.2848      9.3501    153.4638
   675.2500    121.3921      0.0000    686.9221      9.9228    146.2113
   675.5000    121.3612      0.0000    674.0424     10.4823    137.8055
   675.7500    121.3962      0.0000    639.9621     11.0040    129.6212
   676.0000    121.3618      0.0000    574.5571     11.5809    123.3305
   676.2500    121.3412      0.0000    493.1677     12.0904    120.1540
   676.5000    121.2520      0.0000    428.1470     12.2144    120.2767
   676.7500    121.2046      0.0000    394.8581     11.9895    122.8104
   677.0000    121.3103      0.0000    383.9186     11.7316    126.1309
   677.2500    121.4195      0.0000    381.5590     11.5836    128.3311
   677.5000    121.3605      0.0000    381.4761     11.5561    127.9985
   677.7500    121.3673      0.0000    384.1234     11.6354    125.1004
   678.0000    121.2499      0.0000    397.1204     11.7275    121.1250
   678.2500    121.2575      0.0000    435.7528     11.7752    118.0551
   678.5000    121.3378      0.0000    508.2246     11.7972    116.9704
   678.7500    121.2595      0.0000    593.8344     11.7948    117.6706
   679.0000    121.3625      0.0000    657.7452     11.7590    119.7246
   679.2500    121.3673      0.0000    690.6147     11.5937    123.5257
   679.5000    121.2904      0.0000    707.4803     11.1253    129.7134
   679.7500    121.2286      0.0000    717.8306     10.3755    137.6569
   680.0000    121.1991      0.0000    721.1070      9.5616    145.2526
   680.2500    121.1435      0.0000    719.7519      8.8018    150.4572
   680.5000    121.2039      0.0000    718.4354      8.0607    152.5671
   680.7500    121.2582      0.0000    717.8956      7.2860    151.9782
   681.0000    121.3893      0.0000    718.6240      6.5573    149.4560
   681.2500    121.3351      0.0000    722.0934      6.0646    145.9637
   681.5000    121.3364      0.0000    726.6725      5.7931    142.7404
   681.7500    121.1751      0.0000    729.5875      5.5482    140.9508
   682.0000    121.4484      0.0000    730.4820      5.3177    141.1231
   682.2500    121.2568      0.0000    730.3910      5.1472    143.0110
   682.5000    121.3927      0.0000    730.0983      4.9727    146.0881
   682.7500    121.2280      0.0000    729.9337      4.7963    149.8996
   683.0000    121.3701      0.0000    729.8995      4.6183    153.8324
   683.2500    121.2293      0.0000    729.8605      4.3601    157.0571
   683.5000    121.2259      0.0000    729.7391      4.0512    159.2631
   683.7500    121.3364      0.0000    729.3866      3.8034    161.2328
   684.0000    121.3680      0.0000    727.9358      3.6485    164.1522
   684.2500    121.2856      0.0000    723.3588      3.5991    168.3134
   684.5000    121.4690      0.0000    714.2074      3.6860    172.8372
   684.7500    121.3131      0.0000    702.8397      3.8274    176.5826
   685.0000    121.4140      0.0000    694.7585      3.9213    178.9554
   685.2500    121.2808      0.0000    693.8718      4.0568    179.9830
   685.5000    121.8404      0.0000    700.0222      4.3392    180.0831
   685.7500    121.2849      0.0000    709.8676      4.7125    179.6023
   686.0000    121.2019      0.0000    718.0483      5.0865    178.4333
   686.2500    121.2877      0.0000    719.7469      5.3346    176.2479
   686.5000    121.1483      0.0000    717.2900      5.3201    172.8668
   686.7500    121.2589      0.0000    719.1231      5.0919    167.9610
   687.0000    121.1119      0.0000    726.7806      4.7872    160.7697
   687.2500    121.2829      0.0000    733.1569      4.4703    150.8752
   687.5000    121.3083      2.0865    734.3480      4.2161    139.5206
   687.7500    121.1421     -5.0000    733.9466      4.0825    129.8055
   688.0000    121.2561     -5.0000    735.4704      4.0518    125.1264
   688.2500    121.3406      0.0000    736.3479      4.1029    127.0330
   688.5000    121.7786      0.0000    733.3168      4.1221    134.1629
   688.7500    121.2245      0.0000    730.5942      3.9206    142.9091
   689.0000    121.2286      0.0000    735.5767      3.5868    149.3976
   689.2500    121.2300      0.0000    747.2007      3.4409    151.7047
   689.5000    121.4738      0.0000    756.2960      3.5493    150.6288
   689.7500    121.2829      0.0000    756.4391      3.7231    148.2685
   690.0000    121.3103      0.0000    748.9360      3.8530    146.1656
   690.2500    121.0103      0.0000    740.0428      3.8782    144.9099
   690.5000    121.4436      0.0000    734.5618      3.7375    144.5478
   690.7500    121.2259      0.0000    732.5287      3.5316    144.4250
   691.0000    121.3152      0.0000    732.0475      3.4120    143.1105
   691.2500    121.1909      0.0000    731.9335      3.3667    139.5047
   691.5000    121.2815      0.0000    731.7446      3.3581    134.2489
   691.7500    121.2506      0.0000    731.4650      3.4295    129.7029
   692.0000    121.3653      0.0000    731.3871      3.5150    128.2489
   692.2500    121.2245      0.0000    732.1581      3.5067    130.5890
   692.5000    121.3873      0.0000    734.8635      3.5024    135.5540
   692.7500    121.4051      0.0000    739.8788      3.6332    141.1039
   693.0000    121.4449      0.0000    745.0202      3.8910    145.3724
