~Version Information
VERS.                      2.0: CWLS Log ASCII Standard - VERSION 2.0
WRAP.                       NO: One line per depth step
~Well Information Block
STRT.FT                14.0000: 
STOP.FT              1631.0000: 
STEP.FT                 0.1000: 
NULL.                -999.2500: 
COMP.          Pioneer Natural Resources: COMPANY
WELL.            Bluesky 44-17: WELL
FLD.           Purgatorie River: FIELD
LOC.           39' FSL & 288' FEL: LOCATION
STAT.                 Colorado: State
CNTY.               Las Animas: COUNTY
CTRY. USA : Country
SECT. 17 : Section
TOWN. 33S : Township
RANG. 66W : Range
SRVC.                Patterson: SERVICE COMPANY
DATE.          Thu Sep 08 07:30:20 2005: LOG DATE
API. 05-071-08511                         : UNIQUE WELL ID
~Curve Information Block
DEPT.FT            0 000 00 00: Depth
DCAL.in                       : CDL Caliper
RHOB.g/cc                     : CDL Bulk Density
RHOC.g/cc                     : CDL Density Correction
DPOR.pu                       : CDL Density Porosity
GR.GAPI                       : Gamma Ray
NPOR.pu                       : Neutron Porosity
~Parameter Information Block
~A  Depth       DCAL        RHOB        RHOC        DPOR         GR         NPOR    
# ...
  1175.6000      7.7410      2.5429      0.0745      6.4909    108.6188     22.6851
  1175.7000      7.7410      2.5164      0.0628      8.0997    107.8488     22.6537
  1175.8000      7.7535      2.4896      0.0109      9.7236    104.8336     23.0187
  1175.9000      7.7535      2.4756      0.0417     10.5710     99.2228     23.4778
  1176.0000      7.7598      2.4710      0.0242     10.8487     92.5787     23.6582
  1176.1000      7.7598      2.4687      0.0334     10.9883     86.7079     23.4347
  1176.2000      7.7598      2.4693      0.0294     10.9521     80.3222     22.9289
  1176.3000      7.7778      2.4696      0.0566     10.9346     73.9643     22.2462
  1176.4000      7.7778      2.4624      0.0423     11.3726     69.8412     21.5608
  1176.5000      7.7810      2.4488      0.0072     12.1925     67.1635     20.9934
  1176.6000      7.7810      2.4337      0.0581     13.1110     64.3981     20.4615
  1176.7000      7.7810      2.4187      0.0011     14.0189     61.2143     19.8866
  1176.8000      7.7800      2.4091      0.0029     14.6005     57.6984     19.5359
  1176.9000      7.7800      2.4074      0.0213     14.7014     55.4117     19.4900
  1177.0000      7.7795      2.4132      0.0258     14.3503     56.7144     19.3390
  1177.1000      7.7795      2.4248      0.0129     13.6488     60.4034     18.9639
  1177.2000      7.7795      2.4356      0.0487     12.9956     62.1884     18.5330
  1177.3000      7.7836      2.4393      0.0817     12.7682     61.6031     18.1428
  1177.4000      7.7836      2.4395      0.0369     12.7604     60.8795     17.9642
  1177.5000      7.7778      2.4449      0.0570     12.4284     60.4654     17.9740
  1177.6000      7.7778      2.4533      0.0449     11.9206     59.6734     17.8261
  1177.7000      7.7778      2.4513      0.0608     12.0423     58.0608     17.4221
  1177.8000      7.7821      2.4344      0.0580     13.0657     57.2511     17.1329
  1177.9000      7.7821      2.4182      0.0518     14.0475     59.5088     17.0638
  1178.0000      7.7830      2.4205      0.0505     13.9062     63.7370     17.0245
  1178.1000      7.7830      2.4355      0.0800     12.9970     67.4633     17.0364
  1178.2000      7.7830      2.4429      0.0885     12.5519     69.9846     17.1797
  1178.3000      7.7764      2.4316      0.1041     13.2341     70.8513     17.5348
  1178.4000      7.7764      2.4046      0.0660     14.8698     69.8730     18.1129
  1178.5000      7.7726      2.3737      0.0639     16.7482     68.6830     18.6552
  1178.6000      7.7726      2.3515      0.0215     18.0909     68.1207     18.8259
  1178.7000      7.7726      2.3464      0.0774     18.4021     67.4346     18.5763
  1178.8000      7.7803      2.3615      0.0762     17.4872     66.4632     18.1967
  1178.9000      7.7803      2.3985      0.0725     15.2453     66.9249     17.9546
  1179.0000      7.7717      2.4463      0.1632     12.3430     69.5640     17.9483
  1179.1000      7.7717      2.4839      0.1632     10.0685     71.0606     18.2257
  1179.2000      7.7717      2.5004      0.2151      9.0663     69.9644     18.7080
  1179.3000      7.7591      2.4969      0.2053      9.2761     68.7387     19.1587
  1179.4000      7.7591      2.4860      0.1334      9.9396     67.5904     19.5863
  1179.5000      7.7571      2.4825      0.1207     10.1499     65.8675     20.1790
  1179.6000      7.7571      2.4868      0.1243      9.8912     64.3594     20.7523
  1179.7000      7.7571      2.4888      0.1296      9.7718     63.5163     21.0458
  1179.8000      7.7644      2.4892      0.0689      9.7477     63.3713     21.2491
  1179.9000      7.7644      2.5020      0.0562      8.9725     63.1868     21.7436
  1180.0000      7.7871      2.5280      0.0745      7.3951     63.4527     22.6796
  1180.1000      7.7871      2.5514      0.0971      5.9740     65.3438     23.8532
  1180.2000      7.7871      2.5641      0.0978      5.2044     67.6912     24.8177
  1180.3000      7.7693      2.5771      0.0430      4.4160     69.0563     25.0294
  1180.4000      7.7693      2.5953      0.0855      3.3153     70.9543     24.4917
  1180.5000      7.7578      2.6064      0.0846      2.6411     74.7374     23.8290
  1180.6000      7.7578      2.6101      0.1093      2.4184     79.4174     23.2907
  1180.7000      7.7578      2.6099      0.1595      2.4279     83.1588     22.7839
  1180.8000      7.7704      2.6035      0.1218      2.8161     84.4941     22.4249
  1180.9000      7.7704      2.5964      0.1602      3.2501     83.4183     22.2863
  1181.0000      7.7402      2.5892      0.1932      3.6843     80.6432     22.2182
  1181.1000      7.7402      2.5792      0.1563      4.2935     77.2088     22.1198
  1181.2000      7.7402      2.5742      0.1377      4.5920     74.2393     22.1345
  1181.3000      7.7439      2.5769      0.1730      4.4287     71.4052     22.4108
  1181.4000      7.7439      2.5825      0.1453      4.0909     68.7053     22.7979
  1181.5000      7.7790      2.5962      0.1400      3.2609     67.3936     23.0352
  1181.6000      7.7790      2.6207      0.1761      1.7743     67.2986     23.2308
  1181.7000      7.7790      2.6459      0.1852      0.2465     66.6293     23.5786
  1181.8000      7.7650      2.6698      0.2042     -1.2026     65.5066     24.0546
  1181.9000      7.7650      2.7058      0.1671     -3.3811     65.3512     24.5020
  1182.0000      7.7588      2.7561      0.1876     -6.4331     65.9053     24.8091
  1182.1000      7.7588      2.8061      0.1925     -9.4606     67.0778     25.0064
  1182.2000      7.7588      2.8442      0.2021    -11.7697     68.0508     25.2508
  1182.3000      7.7550      2.8509      0.2293    -12.1768     67.0954     25.5940
  1182.4000      7.7550      2.8088      0.1910     -9.6265     64.0722     25.9996
  1182.5000      7.7590      2.7505      0.0880     -6.0903     60.3563     26.4866
  1182.6000      7.7590      2.7336      0.0472     -5.0655     56.6843     26.9265
  1182.7000      7.7590      2.7767      0.0448     -7.6764     52.9721     27.1556
  1182.8000      7.7587      2.8528      0.1020    -12.2896     51.5715     27.3962
  1182.9000      7.7587      2.9241      0.1791    -16.6103     53.3759     27.8455
  1183.0000      7.7719      2.9662      0.2555    -19.1644     55.3882     28.3478
  1183.1000      7.7719      2.9745      0.2430    -19.6693     56.7944     28.6752
  1183.2000      7.7719      2.9639      0.1973    -19.0222     59.0121     28.8161
  1183.3000      7.7072      2.9493      0.1638    -18.1380     62.4201     28.8145
  1183.4000      7.7072      2.9233      0.1715    -16.5608     67.0911     28.4681
  1183.5000      7.6921      2.8680      0.1075    -13.2144     72.5717     27.6509
  1183.6000      7.6921      2.7835      0.0215     -8.0926     76.5650     26.6302
  1183.7000      7.6921      2.6935     -0.0653     -2.6372     78.8662     25.6774
  1183.8000      7.7296      2.6246     -0.0733      1.5394     83.3675     24.7423
  1183.9000      7.7296      2.5876     -0.0688      3.7816     91.7940     23.7752
  1184.0000      7.7433      2.5844      0.0030      3.9764    102.1205     22.9933
  1184.1000      7.7433      2.5990      0.1123      3.0886    112.1537     22.4572
  1184.2000      7.7433      2.6023      0.1637      2.8896    119.8764     21.9861
  1184.3000      7.7601      2.5917      0.1859      3.5317    123.8170     21.6433
  1184.4000      7.7601      2.5809      0.2255      4.1886    124.2868     21.5353
  1184.5000      7.7598      2.5615      0.2129      5.3607    125.0087     21.4068
  1184.6000      7.7598      2.5261      0.1696      7.5069    129.6134     21.0623
  1184.7000      7.7598      2.4923      0.1132      9.5582    135.3425     20.7440
  1184.8000      7.7736      2.4709      0.1454     10.8568    137.7791     20.7159
  1184.9000      7.7736      2.4541      0.1305     11.8712    138.7421     20.9331
  1185.0000      7.8269      2.4495      0.0714     12.1503    141.6138     21.2064
  1185.1000      7.8269      2.4661      0.1419     11.1432    146.3781     21.2432
