~Version Information
VERS.                      2.0: CWLS Log ASCII Standard - VERSION 2.0
WRAP.                       NO: One line per depth step
~Well Information Block
STRT.FT                -9.0000: 
STOP.FT              1754.0000: 
STEP.FT                 0.2500: 
NULL.                -999.2500: 
COMP.          Pioneer Natural Resources: COMPANY
WELL.          Touchstone 11-32 Tr: WELL
FLD.           Purgatorie River: FIELD
LOC.           782' FNL & 840' FWL--: LOCATION
CNTY.               Las Animas: COUNTY
SRVC.          Patterson Wireline: SERVICE COMPANY
DATE.          Mon Mar 06 09:18:09 2006: LOG DATE
UWI.           05 071 08626 00: UNIQUE WELL ID
STAT.                       CO: STATE
~Curve Information Block
DEPT.FT            0 000 00 00: Depth
CCL.                          : Casing Collar Locator
TT3.usec                      : CBL 3' Travel Time
AMP3.mV                       : CBL 3' Amplitude
GR.GAPI                       : Gamma Ray
~Parameter Information Block
~A  Depth       CCL         TT3         AMP3         GR     
# ...
   694.5000      0.0000    713.3488      9.5235     59.4783
   694.7500      0.0000    707.5951      9.6577     63.4877
   695.0000      0.0000    700.4124      9.7682     65.6088
   695.2500      0.0000    694.8166      9.8471     65.2286
   695.5000      0.0000    691.8328      9.9019     63.0026
   695.7500      0.0000    691.0355      9.9410     60.3561
   696.0000      0.0000    691.8989      9.9644     58.5979
   696.2500      0.0000    694.1762      9.9682     58.1806
   696.5000      0.0000    696.7140      9.9529     58.5672
   696.7500      0.0000    695.2358      9.9278     58.8795
   697.0000      0.0000    681.4536      9.9079     58.7343
   697.2500      0.0000    646.7851      9.9114     58.4214
   697.5000      0.0000    590.0684      9.9567     58.4279
   697.7500      0.0000    521.8447     10.0577     59.0582
   698.0000      0.0000    458.5544     10.2170     60.5532
   698.2500      0.0000    411.4107     10.4216     63.4121
   698.5000      0.0000    381.4381     10.6457     68.4570
   698.7500      0.0000    363.6781     10.8615     76.4241
   699.0000      0.0000    353.2161     11.0501     87.2268
   699.2500      0.0000    347.2208     11.2083     99.5036
   699.5000      0.0000    344.1014     11.3450    111.0915
   699.7500      0.0000    342.6978     11.4737    120.1262
   700.0000      0.0000    342.1839     11.6045    125.7567
   700.2500      0.0000    342.0797     11.7375    128.0067
   700.5000      0.0000    342.1603     11.8612    127.3759
   700.7500      0.0000    342.3314     11.9549    124.6507
   701.0000      0.0000    342.6130     11.9925    120.7446
   701.2500      0.0000    343.3281     11.9461    116.5945
   701.5000      0.0000    345.4818     11.8018    113.1803
   701.7500      0.0000    350.9730     11.5869    111.2278
   702.0000      0.0000    361.6843     11.3675    110.6866
   702.2500      0.0000    377.0335     11.1875    110.7739
   702.5000      0.0000    392.0897     11.0130    110.6599
   702.7500      0.0000    400.2281     10.7788    109.9286
   703.0000      0.0000    399.9709     10.4901    108.5013
   703.2500      0.0000    399.1204     10.2352    106.4492
   703.5000      0.0000    409.8669     10.0915    103.8115
   703.7500      0.0000    437.3617     10.0595    100.3349
   704.0000      2.0000    472.4946     10.0867     95.5261
   704.2500      2.0000    497.9798     10.1229     89.0775
   704.5000      0.0000    502.8554     10.1737     81.2021
   704.7500      0.0000    488.8350     10.3417     72.7679
   705.0000      0.0000    463.3897     10.7776     65.2369
   705.2500      0.0000    433.3013     11.5016     60.1557
   705.5000      0.0000    406.4021     12.2769     58.4945
   705.7500      0.0000    393.2691     12.7557     60.5591
   706.0000      0.0000    403.4356     12.7660     66.1690
   706.2500      0.0000    440.3115     12.4057     74.4250
   706.5000      0.0000    498.3951     11.8910     83.6505
   706.7500      0.0000    564.2698     11.3862     92.3007
   707.0000      0.0000    623.0202     10.9567    100.0977
   707.2500      0.0000    666.6711     10.6079    107.8616
   707.5000      0.0000    696.5618     10.3305    115.9766
   707.7500      0.0000    717.9742     10.1169    123.2324
   708.0000      0.0000    734.0475      9.9577    127.4901
   708.2500      0.0000    744.6000      9.8388    127.5814
   708.5000      0.0000    748.8541      9.7472    124.5056
   708.7500      0.0000    748.4445      9.6764    120.7275
   709.0000      0.0000    747.6863      9.6261    118.3753
   709.2500      0.0000    750.0743      9.5985    118.0979
   709.5000      0.0000    754.4329      9.5905    119.2181
   709.7500      0.0000    755.9017      9.5890    120.5579
   710.0000      0.0000    750.7419      9.5765    121.1920
   710.2500      0.0000    739.2288      9.5425    120.9708
   710.5000      0.0000    724.7920      9.4875    120.6116
   710.7500      0.0000    711.8281      9.4200    121.1821
   711.0000      0.0000    703.9145      9.3531    123.4111
   711.2500      0.0000    702.5529      9.3012    127.3407
   711.5000      0.0000    706.4995      9.2725    132.2821
   711.7500      0.0000    711.9086      9.2614    136.9942
   712.0000      0.0000    714.1524      9.2504    140.2259
   712.2500      0.0000    711.1286      9.2253    141.4710
   712.5000      0.0000    705.0153      9.1907    141.3313
   712.7500      0.0000    700.3251      9.1704    141.2190
   713.0000      0.0000    700.3282      9.1907    142.6893
   713.2500      0.0000    704.9497      9.2643    146.7401
   713.5000      0.0000    710.8269      9.3858    153.2585
   713.7500      0.0000    713.4518      9.5357    160.8667
   714.0000      0.0000    710.5762      9.6853    167.4464
   714.2500      0.0000    703.8815      9.8049    171.1195
   714.5000      0.0000    696.9930      9.8756    171.0776
   714.7500      0.0000    692.3474      9.8996    167.9155
   715.0000      0.0000    690.3640      9.8967    163.2101
   715.2500      0.0000    690.7273      9.8907    158.2911
   715.5000      0.0000    693.5698      9.8939    153.3437
   715.7500      0.0000    699.2640      9.8994    148.0285
   716.0000      0.0000    707.2322      9.8842    142.7122
   716.2500      0.0000    715.2201      9.8215    138.5354
   716.5000      0.0000    720.1866      9.6967    136.4922
   716.7500      0.0000    720.1774      9.5209    136.9973
   717.0000      0.0000    715.3859      9.3285    140.1774
   717.2500      0.0000    707.8111      9.1601    146.0184
   717.5000      0.0000    700.1103      9.0409    153.9697
   717.7500      0.0000    694.2822      8.9704    162.4723
   718.0000      0.0000    690.9080      8.9278    169.2937
   718.2500      0.0000    689.5452      8.8872    172.9487
   718.5000      0.0000    689.8732      8.8342    173.9171
   718.7500      0.0000    692.6092      8.7744    174.0825
   719.0000      0.0000    699.3897      8.7258    175.0461
   719.2500      0.0000    711.0524      8.6995    177.1787
   719.5000      0.0000    725.1920      8.6892    179.8753
   719.7500      0.0000    736.1555      8.6824    182.1159
   720.0000      0.0000    739.6592      8.6842    182.7558
   720.2500      0.0000    738.0122      8.7242    180.7841
   720.5000      0.0000    738.9575      8.8384    175.7721
   720.7500      0.0000    748.0471      9.0386    168.2107
   721.0000      0.0000    762.6547      9.2957    159.4481
   721.2500      0.0000    773.8578      9.5534    151.2272
   721.5000      0.0000    773.7713      9.7648    144.9570
   721.7500      0.0000    761.5873      9.9197    141.1968
   722.0000      0.0000    743.8765     10.0373    139.6013
   722.2500      0.0000    729.4048     10.1324    139.0262
   722.5000      0.0000    722.9387     10.1994    137.8187
   722.7500      0.0000    723.0759     10.2332    134.6258
   723.0000      0.0000    724.3534     10.2548    129.1472
   723.2500      0.0000    719.4774     10.3024    122.1160
   723.5000      0.0000    700.6113     10.3948    114.8068
   723.7500      0.0000    662.9330     10.5095    108.6015
   724.0000      0.0000    609.9230     10.5965    104.3905
   724.2500      0.0000    553.4014     10.6160    101.8662
   724.5000      0.0000    505.3506     10.5668     99.6794
   724.7500      0.0000    469.6901     10.4821     96.7820
   725.0000      0.0000    443.0118     10.3960     93.6516
   725.2500      0.0000    421.5026     10.3164     92.0008
   725.5000      0.0000    404.6924     10.2325     93.3061
   725.7500      0.0000    393.5202     10.1426     97.6791
   726.0000      0.0000    387.5588     10.0639    103.7530
   726.2500      0.0000    385.0547     10.0162    109.3127
   726.5000      0.0000    384.8846     10.0042    112.5517
   726.7500      0.0000    388.3183     10.0125    113.4609
   727.0000      0.0000    398.7064     10.0131    113.9360
   727.2500      0.0000    417.6671      9.9784    116.0897
   727.5000      0.0000    440.1624      9.8956    120.2951
   727.7500      0.0000    455.1767      9.7742    124.8386
