~Version Information
VERS.                      2.0: CWLS Log ASCII Standard - VERSION 2.0
WRAP.                       NO: One line per depth step
~Well Information Block
STRT.FT                -7.0000: 
STOP.FT              2328.5000: 
STEP.FT                 0.2500: 
NULL.                -999.2500: 
COMP.          Pioneer Natural Resources: COMPANY
WELL.              Rolls 14-14: WELL
FLD.           Purgatorie River: FIELD
LOC.           572' FSL & 856' FWL--: LOCATION
PROV.                       CO: PROVINCE
CNTY.               Las Animas: COUNTRY
SRVC.          Patterson Wireline: SERVICE COMPANY
DATE.          Mon Aug 08 10:10:54 2005: LOG DATE
UWI.           05 071 08455 00: UNIQUE WELL ID
~Curve Information Block
DEPT.FT            0 000 00 00: Depth
CCL.                          : Casing Collar Locator
TT3.usec                      : CBL 3' Travel Time
AMP3.mV                       : CBL 3' Amplitude
GR.GAPI                       : Gamma Ray
~Parameter Information Block
~A  Depth       CCL         TT3         AMP3         GR     
# ...
  2304.5000      0.0000    661.5647      2.8483     77.3028
  2304.7500      0.0000    660.2211      2.7416     72.7669
  2305.0000      0.0000    659.6494      2.7310     71.2803
  2305.2500      0.0000    659.5150      2.8027     72.6565
  2305.5000      0.0000    659.8495      2.8890     75.8271
  2305.7500      0.0000    660.9340      2.9197     79.3983
  2306.0000      0.0000    663.1590      2.8700     82.2006
  2306.2500      0.0000    666.7766      2.7703     83.5713
  2306.5000      0.0000    671.6383      2.6742     83.0908
  2306.7500      0.0000    677.2125      2.6178     80.3619
  2307.0000      0.0000    682.8438      2.6064     75.5451
  2307.2500      0.0000    687.8116      2.6352     70.0590
  2307.5000      0.0000    691.1497      2.7102     66.1135
  2307.7500      0.0000    691.7413      2.8383     65.0750
  2308.0000      0.0000    688.8919      3.0007     66.2903
  2308.2500      0.0000    682.9806      3.1463     67.7680
  2308.5000      0.0000    675.5874      3.2221     68.0670
  2308.7500      0.0000    668.7596      3.2095     67.3737
  2309.0000      0.0000    663.8806      3.1325     66.8500
  2309.2500      0.0000    661.1380      3.0313     67.4517
  2309.5000      0.0000    659.9172      2.9360     69.5764
  2309.7500      0.0000    659.4974      2.8621     73.2930
  2310.0000      0.0000    659.4111      2.8199     78.2746
  2310.2500      0.0000    659.4449      2.8189     83.4601
  2310.5000      0.0000    659.5229      2.8615     87.2554
  2310.7500      0.0000    659.6056      2.9365     88.6085
  2311.0000      0.0000    659.6149      3.0196     88.0709
  2311.2500      0.0000    659.2144      3.0796     87.5287
  2311.5000      0.0000    657.2444      3.0871     88.5462
  2311.7500      0.0000    650.8254      3.0312     90.9570
  2312.0000      0.0000    635.1227      2.9344     93.2747
  2312.2500      0.0000    605.5512      2.8493     94.4266
  2312.5000      0.0000    562.5139      2.8270     94.7007
  2312.7500      0.0000    514.4381      2.8814     94.7963
  2313.0000      0.0000    474.4883      2.9819     94.4724
  2313.2500      0.0000    452.5160      3.0785     92.8440
  2313.5000      0.0000    448.8428      3.1321     89.8486
  2313.7500      0.0000    454.3353      3.1296     86.6416
  2314.0000      0.0000    456.8024      3.0810     84.4370
  2314.2500      0.0000    449.8936      3.0119     83.4893
  2314.5000      0.0000    437.3679      2.9560     83.3037
  2314.7500      0.0000    429.1222      2.9423     83.3912
  2315.0000      0.0000    433.7863      2.9769     83.4598
  2315.2500      0.0000    453.3599      3.0340     83.0265
  2315.5000      0.0000    480.8319      3.0716     81.3752
  2315.7500      0.0000    502.5690      3.0651     78.1928
  2316.0000      0.0000    507.8736      3.0279     74.0299
  2316.2500      0.0000    498.4099      2.9991     69.9670
  2316.5000      0.0000    485.3218      3.0074     67.0193
  2316.7500      0.0000    476.1873      3.0422     65.6804
  2317.0000      0.0000    468.4851      3.0635     65.3191
  2317.2500      0.0000    456.6057      3.0447     63.7446
  2317.5000      0.0000    440.6342      3.0115     58.0723
  2317.7500      0.0000    425.6358      3.0435     47.0090
  2318.0000      0.0000    415.4673      3.2236     32.5142
  2318.2500      0.0000    410.1079      3.5549     18.6869
  2318.5000      0.0000    407.4934      3.9095      8.7557
  2318.7500      0.0000    405.7488      4.0897      3.3016
  2319.0000      0.0000    403.8098      3.9825      0.9930
  2319.2500      0.0000    401.1968      3.6521      0.2363
  2319.5000      0.0000    397.9989      3.2729      0.0441
  2319.7500      0.0000    395.0122      2.9944      0.0059
  2320.0000      0.0000    393.4070      2.8815      0.0000
  2320.2500      0.0000    393.7397      2.9369   -999.2500
  2320.5000      0.0000    395.3897      3.1244   -999.2500
  2320.7500      0.0000    397.1744      3.3684   -999.2500
  2321.0000      0.0000    398.3629      3.5716   -999.2500
  2321.2500      0.0000    398.9622      3.6623   -999.2500
  2321.5000      0.0000    399.2777      3.6221   -999.2500
  2321.7500      0.0000    399.4397      3.4615   -999.2500
  2322.0000      0.0000    398.9698      3.1899   -999.2500
  2322.2500      0.0000    395.9624      2.8320   -999.2500
  2322.5000      0.0000    385.7042      2.4624   -999.2500
  2322.7500      0.0000    360.2760      2.1814   -999.2500
  2323.0000      0.0000    312.1227      2.0356   -999.2500
  2323.2500      0.0000    241.5968      1.9823   -999.2500
  2323.5000      0.0000    161.3970      1.9480   -999.2500
  2323.7500      0.0000     90.4783      1.9000   -999.2500
  2324.0000      0.0000     41.6789      1.8499   -999.2500
  2324.2500      0.0000     15.5398      1.8152   -999.2500
  2324.5000      0.0000      4.6386      1.7982   -999.2500
  2324.7500      0.0000      1.0986      1.7921   -999.2500
  2325.0000      0.0000      0.2034      1.7905   -999.2500
  2325.2500      0.0000      0.0270      1.7902   -999.2500
  2325.5000      0.0000   -999.2500   -999.2500   -999.2500
  2325.7500      0.0000   -999.2500   -999.2500   -999.2500
  2326.0000      0.0000   -999.2500   -999.2500   -999.2500
  2326.2500      0.0000   -999.2500   -999.2500   -999.2500
  2326.5000      0.0000   -999.2500   -999.2500   -999.2500
  2326.7500      0.0000   -999.2500   -999.2500   -999.2500
  2327.0000      0.0000   -999.2500   -999.2500   -999.2500
  2327.2500      0.0000   -999.2500   -999.2500   -999.2500
  2327.5000      0.0000   -999.2500   -999.2500   -999.2500
  2327.7500      0.0000   -999.2500   -999.2500   -999.2500
  2328.0000      0.0000   -999.2500   -999.2500   -999.2500
  2328.2500   -999.2500   -999.2500   -999.2500   -999.2500
  2328.5000   -999.2500   -999.2500   -999.2500   -999.2500
