~Version Information
VERS.                      2.0: CWLS Log ASCII Standard - VERSION 2.0
WRAP.                       NO: One line per depth step
~Well Information Block
STRT.FT                10.0000: 
STOP.FT              1485.0000: 
STEP.FT                 0.1000: 
NULL.                -999.2500: 
COMP.          Pioneer Natural Resources: COMPANY
WELL.          Old Faithful 21-2: WELL
FLD.           Purgatorie River: FIELD
LOC.           806' FNL & 2509' FWL: LOCATION
PROV.                 Colorado: PROVINCE
CNTY.               Las Animas: COUNTRY
SRVC.                Patterson: SERVICE COMPANY
DATE.          Wed Dec 07 13:17:12 2005: LOG DATE
UWI.                          : UNIQUE WELL ID
~Curve Information Block
DEPT.FT            0 000 00 00: Depth
DCAL.in                       : CDL Caliper
RHOB.g/cc                     : CDL Bulk Density
RHOC.g/cc                     : CDL Density Correction
DPOR.pu                       : CDL Density Porosity
GR.GAPI                       : Gamma Ray
NPOR.pu                       : Neutron Porosity
~Parameter Information Block
~A  Depth       DCAL        RHOB        RHOC        DPOR         GR         NPOR    
# ...
   202.0000     -3.1029      2.1987      2.1851     -0.0090     90.5480     26.4146
   202.1000     -3.1029      2.2094      2.2462     -0.0088     94.4402     26.8976
   202.2000     -3.1029      2.2190      2.2203     -0.0086     98.6505     27.1612
   202.3000     -3.1029      2.2213      2.2313     -0.0086    100.9985     27.3320
   202.4000     -3.1029      2.2144      2.2742     -0.0087     99.8197     27.6951
   202.5000     -3.1029      2.1981      2.2062     -0.0090     94.7428     28.3423
   202.6000     -3.1029      2.1899      2.1943     -0.0092     89.3492     28.9828
   202.7000     -3.1029      2.1989      2.2497     -0.0090     87.2479     29.4611
   202.8000     -3.1029      2.2112      2.2319     -0.0088     88.7646     29.9146
   202.9000     -3.1029      2.2232      2.2002     -0.0085     92.4686     30.2332
   203.0000     -3.1029      2.2416      2.2373     -0.0082     94.9566     30.0809
   203.1000     -3.1029      2.2617      2.2737     -0.0078     93.4187     29.5062
   203.2000     -3.1029      2.2777      2.2476     -0.0074     89.7015     28.9711
   203.3000     -3.1029      2.2877      2.2694     -0.0072     87.0555     28.8759
   203.4000     -3.1029      2.2865      2.2287     -0.0073     86.5639     29.0348
   203.5000     -3.1029      2.2796      2.1925     -0.0074     88.4497     29.1119
   203.6000     -3.1029      2.2738      2.2194     -0.0075     90.1628     29.1411
   203.7000     -3.1029      2.2629      2.1434     -0.0077     88.3397     29.0821
   203.8000     -3.1029      2.2463      2.1437     -0.0081     83.8580     28.9119
   203.9000     -3.1029      2.2291      2.1480     -0.0084     79.5588     28.7704
   204.0000     -3.1029      2.2118      2.1575     -0.0088     76.7068     28.7283
   204.1000     -3.1029      2.1942      2.1099     -0.0091     75.1909     28.6383
   204.2000     -3.1029      2.1770      2.1223     -0.0095     73.5062     28.3948
   204.3000     -3.1029      2.1521      2.1176     -0.0100     71.2641     28.3673
   204.4000     -3.1029      2.1189      2.0854     -0.0106     69.9909     28.6838
   204.5000     -3.1029      2.0926      2.0812     -0.0112     69.2221     29.0745
   204.6000     -3.1029      2.0749      2.1013     -0.0115     68.0231     29.5909
   204.7000     -3.1029      2.0556      2.0685     -0.0119     66.4458     30.2489
   204.8000     -3.1029      2.0408      2.0578     -0.0122     65.1016     30.6239
   204.9000     -3.1029      2.0436      2.0510     -0.0121     64.3901     30.3833
   205.0000     -3.1029      2.0590      2.1152     -0.0118     65.6758     29.7932
   205.1000     -3.1029      2.0763      2.1242     -0.0115     69.6468     29.4625
   205.2000     -3.1029      2.1017      2.0844     -0.0110     72.4588     29.5548
   205.3000     -3.1029      2.1417      2.2079     -0.0102     73.0548     29.7796
   205.4000     -3.1029      2.1890      2.1904     -0.0092     75.1779     30.0416
   205.5000     -3.1029      2.2393      2.2282     -0.0082     79.1394     30.4521
   205.6000     -3.1029      2.2813      2.2961     -0.0074     83.0957     30.7169
   205.7000     -3.1029      2.2952      2.2999     -0.0071     86.9012     30.5615
   205.8000     -3.1029      2.2816      2.2099     -0.0074     88.9389     30.3279
   205.9000     -3.1029      2.2602      2.2097     -0.0078     87.1731     30.3814
   206.0000     -3.1029      2.2427      2.1815     -0.0081     83.0367     30.4633
   206.1000     -3.1029      2.2320      2.1580     -0.0084     79.5258     30.4253
   206.2000     -3.1029      2.2303      2.1367     -0.0084     78.6205     30.5238
   206.3000     -3.1029      2.2418      2.1054     -0.0082     81.5008     30.5750
   206.4000     -3.1029      2.2632      2.1117     -0.0077     86.5520     30.1855
   206.5000     -3.1029      2.2729      2.1465     -0.0075     88.8322     29.5126
   206.6000     -3.1029      2.2550      2.0907     -0.0079     87.8689     29.1037
   206.7000     -3.1029      2.2275      1.9868     -0.0085     88.1966     29.3980
   206.8000     -3.1029      2.2079      2.0757     -0.0088     89.8207     30.1755
   206.9000     -3.1029      2.1826      2.0369     -0.0094     91.1073     30.5811
   207.0000     -3.1029      2.1479      1.9732     -0.0100     92.9638     30.1951
   207.1000     -3.1029      2.1206      1.9614     -0.0106     94.0529     29.3867
   207.2000     -3.1029      2.1034      1.9949     -0.0109     92.2378     28.7710
   207.3000     -3.1029      2.0934      1.9240     -0.0111     88.5962     28.8494
   207.4000     -3.1029      2.1006      1.9644     -0.0110     86.1756     29.2887
   207.5000     -3.1029      2.1185      1.9898     -0.0106     85.9746     29.5419
   207.6000     -3.1029      2.1220      1.9810     -0.0106     87.9425     29.6287
   207.7000     -3.1029      2.1006      2.0095     -0.0110     90.8709     29.6021
   207.8000     -3.1029      2.0686      1.9740     -0.0116     90.2776     29.5602
   207.9000     -3.1029      2.0464      2.0071     -0.0121     85.7582     29.4979
   208.0000     -3.1029      2.0407      1.9973     -0.0122     81.6368     29.3575
   208.1000     -3.1029      2.0584      1.9636     -0.0118     79.2893     29.2778
   208.2000     -3.1029      2.1191      1.9191     -0.0106     78.5796     29.2298
   208.3000     -3.1029      2.2231      2.0771     -0.0085     79.0579     29.0588
   208.4000     -3.1029      2.3278      2.2091     -0.0064     79.7403     28.8660
   208.5000     -3.1029      2.3814      2.2788     -0.0054     81.6645     28.7111
   208.6000     -3.1029      2.3654      2.2465     -0.0057     84.9818     28.4734
   208.7000     -3.1029      2.3045      2.1175     -0.0069     86.7372     28.2292
   208.8000     -3.1029      2.2445      2.0213     -0.0081     86.4730     28.2376
   208.9000     -3.1029      2.2134      2.0214     -0.0087     86.0256     28.4965
   209.0000     -3.1029      2.2064      2.0370     -0.0089     85.5063     28.6893
   209.1000     -3.1029      2.2134      2.0193     -0.0087     84.1639     28.6053
   209.2000     -3.1029      2.2286      2.0387     -0.0084     83.5840     28.1802
   209.3000     -3.1029      2.2335      2.0462     -0.0083     85.3196     27.6859
   209.4000     -3.1029      2.2165      2.0316     -0.0087     87.9774     27.4966
   209.5000     -3.1029      2.1917      1.9909     -0.0092     88.4530     27.5995
   209.6000     -3.1029      2.1756      2.0093     -0.0095     84.3177     27.8535
   209.7000     -3.1029      2.1688      1.9809     -0.0096     77.9669     28.0442
   209.8000     -3.1029      2.1708      1.9928     -0.0096     75.0347     27.8805
   209.9000     -3.1029      2.1815      1.9831     -0.0094     77.2621     27.5384
   210.0000     -3.1029      2.1906      2.0041     -0.0092     81.3067     27.4863
   210.1000     -3.1029      2.1851      2.0194     -0.0093     82.9658     27.7952
   210.2000     -3.1029      2.1645      1.9794     -0.0097     81.7755     28.1342
   210.3000     -3.1029      2.1387      1.9422     -0.0102     79.7726     28.2425
   210.4000     -3.1029      2.1198      1.9363     -0.0106     77.7001     28.2824
   210.5000     -3.1029      2.1107      1.9493     -0.0108     76.3575     28.4716
   210.6000     -3.1029      2.0992      1.9976     -0.0110     77.5877     28.7344
   210.7000     -3.1029      2.0780      1.9338     -0.0114     81.7328     28.8234
   210.8000     -3.1029      2.0591      1.8935     -0.0118     86.2516     28.7078
   210.9000     -3.1029      2.0512      1.9130     -0.0120     88.2608     28.6610
   211.0000     -3.1029      2.0514      1.8999     -0.0120     87.1221     28.8250
   211.1000     -3.1029      2.0612      1.8905     -0.0118     84.2930     29.1342
   211.2000     -3.1029      2.0844      1.8821     -0.0113     81.7727     29.5137
   211.3000     -3.1029      2.1177      1.9316     -0.0107     79.9087     29.9274
   211.4000     -3.1029      2.1496      1.9692     -0.0100     77.4860     30.3547
   211.5000     -3.1029      2.1624      1.9843     -0.0098     75.4142     30.6427
