~Version Information
VERS.                      2.0: CWLS Log ASCII Standard - VERSION 2.0
WRAP.                       NO: One line per depth step
~Well Information Block
STRT.FT                10.0000: 
STOP.FT               907.0000: 
STEP.FT                 0.1000: 
NULL.                -999.2500: 
COMP.          Pioneer Natural Resources: COMPANY
WELL.           Hartford 31-18: WELL
FLD.           Purgatorie River: FIELD
LOC.           375' FNL & 1660' FEL: LOCATION
PROV.                 Colorado: PROVINCE
CNTY.               Las Animas: COUNTRY
SRVC.                Patterson: SERVICE COMPANY
DATE.          Mon Nov 21 07:39:41 2005: LOG DATE
UWI.            05-071-08555              : UNIQUE WELL ID
~Curve Information Block
DEPT.FT            0 000 00 00: Depth
DCAL.in                       : CDL Caliper
RHOB.g/cc                     : CDL Bulk Density
RHOC.g/cc                     : CDL Density Correction
DPOR.pu                       : CDL Density Porosity
GR.GAPI                       : Gamma Ray
NPOR.pu                       : Neutron Porosity
~Parameter Information Block
~A  Depth       DCAL        RHOB        RHOC        DPOR         GR         NPOR    
# ...
   307.6000     -3.1029      1.9481      2.5621     -0.0140    177.6307     24.0396
   307.7000     -3.1029      1.9444      2.5584     -0.0141    174.8065     24.2666
   307.8000     -3.1029      1.9445      2.5761     -0.0141    171.0815     24.4197
   307.9000     -3.1029      1.9517      2.5843     -0.0140    167.6504     24.4538
   308.0000     -3.1029      1.9641      2.6082     -0.0137    165.0551     24.6654
   308.1000     -3.1029      1.9734      2.5702     -0.0135    161.2066     25.0169
   308.2000     -3.1029      1.9792      2.5887     -0.0134    156.4303     25.2481
   308.3000     -3.1029      1.9837      2.6009     -0.0133    154.5890     25.2608
   308.4000     -3.1029      1.9817      2.6200     -0.0134    156.2452     24.7799
   308.5000     -3.1029      1.9712      2.5804     -0.0136    160.1420     23.9192
   308.6000     -3.1029      1.9611      2.5749     -0.0138    164.7581     23.4429
   308.7000     -3.1029      1.9586      2.5630     -0.0138    165.2131     23.4108
   308.8000     -3.1029      1.9606      2.5639     -0.0138    162.4535     23.0268
   308.9000     -3.1029      1.9612      2.5700     -0.0138    164.4638     22.2943
   309.0000     -3.1029      1.9586      2.5747     -0.0138    171.7445     22.1594
   309.1000     -3.1029      1.9532      2.5881     -0.0139    176.0121     22.7031
   309.2000     -3.1029      1.9470      2.5812     -0.0141    174.8939     23.0135
   309.3000     -3.1029      1.9431      2.5731     -0.0141    175.7663     22.9045
   309.4000     -3.1029      1.9406      2.5796     -0.0142    178.6485     23.0409
   309.5000     -3.1029      1.9441      2.5609     -0.0141    178.9021     23.6468
   309.6000     -3.1029      1.9598      2.5763     -0.0138    177.9400     24.2194
   309.7000     -3.1029      1.9776      2.6425     -0.0135    175.1987     24.2141
   309.8000     -3.1029      1.9842      2.6348     -0.0133    169.9153     24.1151
   309.9000     -3.1029      1.9828      2.6054     -0.0134    168.7792     24.6251
   310.0000     -3.1029      1.9804      2.6108     -0.0134    177.6662     25.3508
   310.1000     -3.1029      1.9777      2.5921     -0.0135    191.1745     25.7571
   310.2000     -3.1029      1.9757      2.5972     -0.0135    196.6266     25.7562
   310.3000     -3.1029      1.9736      2.5920     -0.0135    189.3214     25.1274
   310.4000     -3.1029      1.9684      2.5778     -0.0136    179.3295     24.2644
   310.5000     -3.1029      1.9647      2.5568     -0.0137    174.8602     23.7516
   310.6000     -3.1029      1.9701      2.5464     -0.0136    172.6859     23.6550
   310.7000     -3.1029      1.9826      2.5948     -0.0134    168.6800     23.9068
   310.8000     -3.1029      1.9956      2.5763     -0.0131    163.6395     24.1497
   310.9000     -3.1029      2.0082      2.5832     -0.0128    159.7171     24.0299
   311.0000     -3.1029      2.0193      2.5823     -0.0126    159.0126     23.8732
   311.1000     -3.1029      2.0244      2.6057     -0.0125    161.4778     23.8659
   311.2000     -3.1029      2.0196      2.6110     -0.0126    166.4869     23.7075
   311.3000     -3.1029      2.0104      2.5842     -0.0128    172.9346     23.5762
   311.4000     -3.1029      2.0089      2.5823     -0.0128    175.9519     23.8627
   311.5000     -3.1029      2.0169      2.5958     -0.0127    172.4382     24.2259
   311.6000     -3.1029      2.0253      2.6012     -0.0125    167.4785     23.9358
   311.7000     -3.1029      2.0295      2.5921     -0.0124    167.6050     23.2641
   311.8000     -3.1029      2.0306      2.6041     -0.0124    174.2793     23.0586
   311.9000     -3.1029      2.0262      2.6130     -0.0125    183.7421     23.3289
   312.0000     -3.1029      2.0171      2.5938     -0.0127    187.2881     23.6948
   312.1000     -3.1029      2.0137      2.5926     -0.0127    183.0501     24.1413
   312.2000     -3.1029      2.0219      2.6062     -0.0126    180.4419     24.5582
   312.3000     -3.1029      2.0353      2.6051     -0.0123    185.3708     24.6582
   312.4000     -3.1029      2.0415      2.6379     -0.0122    193.4088     24.5220
   312.5000     -3.1029      2.0374      2.5827     -0.0123    200.5267     24.5328
   312.6000     -3.1029      2.0376      2.5651     -0.0123    206.3401     24.8278
   312.7000     -3.1029      2.0468      2.6395     -0.0121    208.9540     25.1934
   312.8000     -3.1029      2.0477      2.6270     -0.0121    207.0447     25.6862
   312.9000     -3.1029      2.0372      2.5912     -0.0123    201.9254     26.6374
   313.0000     -3.1029      2.0280      2.6095     -0.0124    197.1103     27.8299
   313.1000     -3.1029      2.0210      2.6088     -0.0126    195.5095     28.5050
   313.2000     -3.1029      2.0109      2.5906     -0.0128    196.4719     28.1288
   313.3000     -3.1029      2.0024      2.5545     -0.0130    196.7254     26.8917
   313.4000     -3.1029      2.0013      2.5758     -0.0130    194.4651     25.8210
   313.5000     -3.1029      2.0040      2.5786     -0.0129    192.4637     25.5438
   313.6000     -3.1029      2.0045      2.6029     -0.0129    193.6867     26.0214
   313.7000     -3.1029      2.0030      2.5600     -0.0129    195.9560     26.8738
   313.8000     -3.1029      2.0037      2.5919     -0.0129    193.9454     27.4541
   313.9000     -3.1029      2.0056      2.5766     -0.0129    189.2620     27.3117
   314.0000     -3.1029      2.0096      2.5679     -0.0128    188.9092     26.6032
   314.1000     -3.1029      2.0196      2.5803     -0.0126    192.1885     26.0280
   314.2000     -3.1029      2.0345      2.5865     -0.0123    195.7603     25.8870
   314.3000     -3.1029      2.0458      2.6138     -0.0121    199.1225     26.0138
   314.4000     -3.1029      2.0442      2.6108     -0.0121    200.6215     26.3474
   314.5000     -3.1029      2.0321      2.5875     -0.0124    201.1054     26.7951
   314.6000     -3.1029      2.0210      2.5835     -0.0126    201.7572     27.0685
   314.7000     -3.1029      2.0178      2.5951     -0.0127    199.7596     27.1961
   314.8000     -3.1029      2.0179      2.6086     -0.0126    196.3760     27.3190
   314.9000     -3.1029      2.0149      2.5955     -0.0127    195.7786     27.2539
   315.0000     -3.1029      2.0099      2.5810     -0.0128    200.1351     26.9562
   315.1000     -3.1029      2.0068      2.5878     -0.0129    207.2355     26.8282
   315.2000     -3.1029      2.0083      2.5724     -0.0128    210.7201     27.1281
   315.3000     -3.1029      2.0169      2.5897     -0.0127    209.5857     27.6007
   315.4000     -3.1029      2.0308      2.6111     -0.0124    207.4567     27.8987
   315.5000     -3.1029      2.0413      2.6362     -0.0122    205.2764     28.0567
   315.6000     -3.1029      2.0427      2.5944     -0.0122    202.9193     28.1167
   315.7000     -3.1029      2.0406      2.6003     -0.0122    201.0507     28.0375
   315.8000     -3.1029      2.0419      2.6006     -0.0122    199.0415     27.8102
   315.9000     -3.1029      2.0453      2.6098     -0.0121    198.1591     27.1593
   316.0000     -3.1029      2.0485      2.5969     -0.0120    200.4041     26.1563
   316.1000     -3.1029      2.0497      2.6253     -0.0120    201.4467     25.5293
   316.2000     -3.1029      2.0422      2.6250     -0.0122    196.7381     25.7289
   316.3000     -3.1029      2.0274      2.5860     -0.0125    190.9749     26.4283
   316.4000     -3.1029      2.0153      2.5977     -0.0127    189.5956     26.9740
   316.5000     -3.1029      2.0096      2.5806     -0.0128    190.4736     27.1632
   316.6000     -3.1029      2.0111      2.5739     -0.0128    189.4540     27.1247
   316.7000     -3.1029      2.0222      2.5919     -0.0126    187.9689     26.8666
   316.8000     -3.1029      2.0358      2.6223     -0.0123    188.3656     26.5227
   316.9000     -3.1029      2.0388      2.6199     -0.0122    187.7089     26.3264
   317.0000     -3.1029      2.0295      2.5898     -0.0124    186.1662     26.3231
   317.1000     -3.1029      2.0180      2.5809     -0.0126    186.8671     26.5271
