~Version Information
VERS.                      2.0: CWLS Log ASCII Standard - VERSION 2.0
WRAP.                       NO: One line per depth step
~Well Information Block
STRT.FT               420.0000: 
STOP.FT              2888.7500: 
STEP.FT                 0.2500: 
NULL.                -999.2500: 
COMP.          Pioneer Natural Resources: COMPANY
WELL.          Touchstone 11-32: WELL
FLD.           Purgatoire River: FIELD
LOC.           853' FNL & 407' FWL--: LOCATION
CNTY.               Las Animas: COUNTY
SRVC.                Patterson: SERVICE COMPANY
DATE.          Thu Feb 23 14:02:36 2006: LOG DATE
UWI.           05 071 08564 00: UNIQUE WELL ID
STAT.                 Colorado: STATE
~Curve Information Block
DEPT.FT            0 000 00 00: Depth
SN.Ohm-m                      : IEL Short Normal
SP.mV                         : IEL Spontaneous Potential
DIR.Ohm-m                     : IEL Induction Resistivity
GR.GAPI                       : Gamma Ray
~Parameter Information Block
~A  Depth        SN          SP         DIR          GR     
# ...
  2530.5000     12.0007     57.5005     12.8756     80.5845
  2530.7500     12.3218     57.5536     12.9151     75.1336
  2531.0000     12.7935     57.6291     12.8960     69.5890
  2531.2500     13.2605     57.7607     12.7755     68.1427
  2531.5000     13.5871     57.9775     12.5193     69.7700
  2531.7500     13.7094     58.3001     12.1104     73.2338
  2532.0000     13.6367     58.7383     11.5493     81.1161
  2532.2500     13.4140     59.2904     10.8520     87.6185
  2532.5000     13.0858     59.9445     10.0545     98.6915
  2532.7500     12.6841     60.6790      9.2181    106.6020
  2533.0000     12.2327     61.4657      8.4254    117.8839
  2533.2500     11.7564     62.2718      7.7648    123.8830
  2533.5000     11.2817     63.0637      7.3190    129.3492
  2533.7500     10.8327     63.8102      7.1733    130.8391
  2534.0000     10.4241     64.4868      7.4548    131.3167
  2534.2500     10.0602     65.0788      8.4372    131.1949
  2534.5000      9.7392     65.5829     10.8964    130.6300
  2534.7500      9.4587     66.0066     18.0808    129.8846
  2535.0000      9.2184     66.3651     78.0857    128.4237
  2535.2500      9.0190     66.6769 100000.0000    127.7109
  2535.5000      8.8592     66.9579 100000.0000    128.2153
  2535.7500      8.7312     67.2163 100000.0000    130.1471
  2536.0000      8.6196     67.4493 100000.0000    135.1836
  2536.2500      8.5060     67.6416 100000.0000    138.8748
  2536.5000      8.3770     67.7650 100000.0000    142.3118
  2536.7500      8.2342     67.7798 100000.0000    142.2123
  2537.0000      8.0972     67.6342 100000.0000    138.7458
  2537.2500      7.9967     67.2614 100000.0000    135.2445
  2537.5000      7.9615     66.5742 100000.0000    129.9677
  2537.7500      8.0055     65.4574 100000.0000    126.9799
  2538.0000      8.1225     63.7591 100000.0000    123.7621
  2538.2500      8.2909     61.2844 100000.0000    122.7599
  2538.5000      8.4861     57.7934     23.2916    122.9798
  2538.7500      8.6918     53.0080     11.1896    123.4938
  2539.0000      8.9010     46.6253      8.7512    122.4373
  2539.2500      9.1019     38.3392      8.7111    119.4241
  2539.5000      9.2605     27.8693     10.1144    111.5222
  2539.7500      9.3159     14.9893     11.4879    105.1377
  2540.0000      9.1994     -0.4486      8.8352     96.3137
  2540.2500      8.8652    -18.4974      4.3685     91.9541
  2540.5000      8.3148    -39.1065      1.9430     88.6188
  2540.7500      7.6032    -62.1155      0.9119     88.7740
  2541.0000      6.8271    -87.2445      0.4485     92.3801
  2541.2500      6.0903   -114.0779      0.2146     96.3194
  2541.5000      5.4531   -142.0433      0.0958    102.2387
  2541.7500      4.8993   -170.4089      0.0426    104.5331
  2542.0000      4.3607   -198.3018      0.0207    103.1987
  2542.2500      3.7865   -224.7657      0.0115     98.7732
  2542.5000      3.1952   -248.8485      0.0073     88.3831
  2542.7500      2.6649   -269.6974      0.0052     80.6241
  2543.0000      2.2757   -286.6295      0.0042     70.4416
  2543.2500      2.0590   -299.1518      0.0036     65.6072
  2543.5000      1.9867   -306.9259      0.0035     61.7986
  2543.7500      1.9955   -309.7003      0.0037     61.3577
  2544.0000      2.0209   -307.2483      0.0044     63.4149
  2544.2500      2.0259   -299.3572      0.0057     66.6468
  2544.5000      2.0153   -285.8885      0.0078     74.7203
  2544.7500      2.0373   -266.8992      0.0113     82.2218
  2545.0000      2.1759   -242.7814      0.0166     95.2573
  2545.2500      2.5313   -214.3582      0.0256    103.5212
  2545.5000      3.1801   -182.8846      0.0424    112.4624
  2545.7500      4.1217   -149.9349      0.0782    115.6095
  2546.0000      5.2491   -117.1969      0.1578    117.9895
  2546.2500      6.3857    -86.2321      0.3265    119.7231
  2546.5000      7.3712    -58.2680      0.6815    123.8141
  2546.7500      8.1331    -34.0731      1.5899    126.8775
  2547.0000      8.6922    -13.9402      5.4286    129.8280
  2547.2500      9.1154      2.2449 100000.0000    129.8714
  2547.5000      9.4663     14.8794 100000.0000    127.3380
  2547.7500      9.7815     24.5093 100000.0000    124.8755
  2548.0000     10.0689     31.7161 100000.0000    121.6214
  2548.2500     10.3169     37.0436 100000.0000    119.9660
  2548.5000     10.5071     40.9606 100000.0000    117.3680
  2548.7500     10.6287     43.8520 100000.0000    114.9037
  2549.0000     10.6886     46.0266 100000.0000    109.9541
  2549.2500     10.7155     47.7310 100000.0000    106.4862
  2549.5000     10.7524     49.1606 100000.0000    102.7602
  2549.7500     10.8396     50.4664 100000.0000    102.0502
  2550.0000     10.9971     51.7584 100000.0000    104.0619
  2550.2500     11.2154     53.0982 100000.0000    107.1322
  2550.5000     11.4612     54.4957 100000.0000    113.0275
  2550.7500     11.6947     55.9089 100000.0000    116.8130
  2551.0000     11.8914     57.2525 100000.0000    120.6727
  2551.2500     12.0568     58.4151 100000.0000    121.5237
  2551.5000     12.2243     59.2825 100000.0000    120.6932
  2551.7500     12.4403     59.7601 100000.0000    119.7490
  2552.0000     12.7497     59.7898 100000.0000    119.3320
  2552.2500     13.1877     59.3557 100000.0000    119.5560
  2552.5000     13.7818     58.4805 100000.0000    118.2610
  2552.7500     14.5619     57.2167     29.8569    114.8421
  2553.0000     15.5800     55.6368     15.6616    105.6976
  2553.2500     16.9277     53.8275     11.6951     98.2923
  2553.5000     18.7272     51.8874     10.3189     87.9247
  2553.7500     21.0685     49.9267     10.0982     82.1563
  2554.0000     23.8973     48.0662     10.6090     74.5862
  2554.2500     26.9147     46.4332     11.7161     69.6104
  2554.5000     29.5933     45.1520     13.3619     61.9025
  2554.7500     31.3635     44.3323     15.4267     56.9634
  2555.0000     31.8820     44.0547     17.5962     50.9271
  2555.2500     31.1954     44.3577     19.3432     48.5207
  2555.5000     29.6728     45.2289     20.1726     48.7413
  2555.7500     27.7689     46.6032     19.9695     52.2696
  2556.0000     25.8003     48.3708     19.0282     63.1632
  2556.2500     23.8745     50.3931     17.7625     73.3928
  2556.5000     21.9678     52.5234     16.4701     90.0824
  2556.7500     20.0484     54.6285     15.2920    100.0382
  2557.0000     18.1503     56.6053     14.2657    111.0686
  2557.2500     16.3711     58.3877     13.3834    115.8179
  2557.5000     14.8211     59.9455     12.6271    120.4555
  2557.7500     13.5736     61.2770     11.9835    122.7912
  2558.0000     12.6412     62.3980     11.4457    125.8490
  2558.2500     11.9849     63.3321     11.0091    127.4188
  2558.5000     11.5408     64.1034     10.6672    128.4398
  2558.7500     11.2453     64.7334     10.4078    128.2372
  2559.0000     11.0473     65.2394     10.2132    127.7054
  2559.2500     10.9090     65.6358     10.0621    127.9480
  2559.5000     10.8043     65.9344      9.9340    129.2800
  2559.7500     10.7199     66.1461      9.8138    130.0806
  2560.0000     10.6518     66.2813      9.6947    129.8201
  2560.2500     10.5980     66.3507      9.5769    128.4679
  2560.5000     10.5531     66.3658      9.4640    125.2069
  2560.7500     10.5090     66.3391      9.3592    122.5599
  2561.0000     10.4578     66.2842      9.2629    117.9230
  2561.2500     10.3943     66.2161      9.1733    114.2804
  2561.5000     10.3157     66.1501      9.0866    108.5347
  2561.7500     10.2225     66.1013      8.9990    105.4157
  2562.0000     10.1176     66.0833      8.9074    103.4993
  2562.2500     10.0058     66.1068      8.8096    104.5744
  2562.5000      9.8909     66.1780      8.7030    109.4106
  2562.7500      9.7732     66.2979      8.5839    113.9998
  2563.0000      9.6488     66.4614      8.4491    121.0375
  2563.2500      9.5117     66.6572      8.2986    124.7999
  2563.5000      9.3578     66.8682      8.1379    128.0320
  2563.7500      9.1892     67.0721      7.9766    128.6131
