~Version Information
VERS.                      2.0: CWLS Log ASCII Standard - VERSION 2.0
WRAP.                       NO: One line per depth step
~Well Information Block
STRT.FT               555.0000: 
STOP.FT              2322.2500: 
STEP.FT                 0.2500: 
NULL.                -999.2500: 
COMP.          Pioneer Natural Resources: COMPANY
WELL.          Fittipaldi 21-12: WELL
FLD.           Purgatoire River: FIELD
LOC.           207' FNL & 2110' FWL--: LOCATION
CNTY.               Las Animas: COUNTY
SRVC.                Patterson: SERVICE COMPANY
DATE.          Tue Mar 21 10:27:48 2006: LOG DATE
UWI.           05 071 08492 00: UNIQUE WELL ID
STAT.                 Colorado: STATE
~Curve Information Block
DEPT.FT            0 000 00 00: Depth
SN.Ohm-m                      : IEL Short Normal
SP.mV                         : IEL Spontaneous Potential
DIR.Ohm-m                     : IEL Induction Resistivity
GR.GAPI                       : Gamma Ray
~Parameter Information Block
~A  Depth        SN          SP         DIR          GR     
# ...
  2062.5000     10.2025     27.8574      8.7521    125.5632
  2062.7500     10.1667     27.7030      8.4976    125.6359
  2063.0000     10.0714     27.5669      8.2809    127.1654
  2063.2500      9.9252     27.4481      8.1022    128.2496
  2063.5000      9.7407     27.3463      7.9558    128.2079
  2063.7500      9.5384     27.2622      7.8345    126.9871
  2064.0000      9.3427     27.1970      7.7319    125.0114
  2064.2500      9.1735     27.1527      7.6426    124.5720
  2064.5000      9.0420     27.1305      7.5623    125.5212
  2064.7500      8.9524     27.1312      7.4866    126.9570
  2065.0000      8.9043     27.1539      7.4122    130.1857
  2065.2500      8.8949     27.1965      7.3387    132.8937
  2065.5000      8.9208     27.2553      7.2699    136.3270
  2065.7500      8.9789     27.3256      7.2144    137.0725
  2066.0000      9.0663     27.4023      7.1843    135.4070
  2066.2500      9.1774     27.4805      7.1925    133.2072
  2066.5000      9.2997     27.5560      7.2506    129.7982
  2066.7500      9.4099     27.6255      7.3661    127.7579
  2067.0000      9.4749     27.6872      7.5413    124.6874
  2067.2500      9.4639     27.7403      7.7740    122.3438
  2067.5000      9.3710     27.7851      8.0601    118.5066
  2067.7500      9.2364     27.8231      8.3975    116.3457
  2068.0000      9.1499     27.8562      8.7874    114.9456
  2068.2500      9.2256     27.8872      9.2319    115.3691
  2068.5000      9.5573     27.9189      9.7287    117.0140
  2068.7500     10.1729     27.9547     10.2652    118.0273
  2069.0000     11.0090     27.9974     10.8153    118.5427
  2069.2500     11.9304     28.0492     11.3417    117.9276
  2069.5000     12.7965     28.1115     11.8059    115.7390
  2069.7500     13.5307     28.1840     12.1806    114.1968
  2070.0000     14.1327     28.2653     12.4595    113.5069
  2070.2500     14.6347     28.3526     12.6575    114.5129
  2070.5000     15.0520     28.4426     12.8011    117.0215
  2070.7500     15.3684     28.5315     12.9158    118.2142
  2071.0000     15.5567     28.6155     13.0193    118.4348
  2071.2500     15.6099     28.6912     13.1210    117.9411
  2071.5000     15.5587     28.7556     13.2273    117.2087
  2071.7500     15.4620     28.8059     13.3461    116.8426
  2072.0000     15.3792     28.8397     13.4890    116.1259
  2072.2500     15.3449     28.8554     13.6679    115.3361
  2072.5000     15.3612     28.8519     13.8889    113.3350
  2072.7500     15.4060     28.8297     14.1448    111.2440
  2073.0000     15.4493     28.7911     14.4111    107.1331
  2073.2500     15.4670     28.7398     14.6491    104.2770
  2073.5000     15.4491     28.6809     14.8178    100.8354
  2073.7500     15.3995     28.6201     14.8892     99.3010
  2074.0000     15.3310     28.5625     14.8595     97.8721
  2074.2500     15.2580     28.5121     14.7493     97.3387
  2074.5000     15.1914     28.4715     14.5917     97.2626
  2074.7500     15.1368     28.4418     14.4183     97.8956
  2075.0000     15.0939     28.4235     14.2482    100.0490
  2075.2500     15.0572     28.4170     14.0873    102.0661
  2075.5000     15.0204     28.4231     13.9345    105.1066
  2075.7500     14.9837     28.4430     13.7902    106.7452
  2076.0000     14.9568     28.4788     13.6618    108.5294
  2076.2500     14.9528     28.5329     13.5619    109.2430
  2076.5000     14.9799     28.6077     13.5010    109.0352
  2076.7500     15.0398     28.7056     13.4819    107.7232
  2077.0000     15.1331     28.8283     13.5009    104.3808
  2077.2500     15.2642     28.9769     13.5555    101.8611
  2077.5000     15.4404     29.1513     13.6524     98.2221
  2077.7500     15.6681     29.3502     13.8110     95.6946
  2078.0000     15.9513     29.5707     14.0581     91.2806
  2078.2500     16.2955     29.8083     14.4170     88.0050
  2078.5000     16.7082     30.0565     14.8984     83.1264
  2078.7500     17.1954     30.3068     15.4964     80.0822
  2079.0000     17.7586     30.5487     16.1927     76.0648
  2079.2500     18.3974     30.7703     16.9676     74.2042
  2079.5000     19.1129     30.9596     17.8110     73.8071
  2079.7500     19.9058     31.1064     18.7248     75.5314
  2080.0000     20.7715     31.2038     19.7141     80.8084
  2080.2500     21.6983     31.2505     20.7716     85.6001
  2080.5000     22.6650     31.2503     21.8665     93.4900
  2080.7500     23.6250     31.2116     22.9408     98.2534
  2081.0000     24.4934     31.1448     23.9151    102.7981
  2081.2500     25.1623     31.0591     24.7004    103.4508
  2081.5000     25.5494     30.9606     25.2148    101.3557
  2081.7500     25.6422     30.8508     25.4077     98.9598
  2082.0000     25.5034     30.7287     25.2826     95.9564
  2082.2500     25.2352     30.5926     24.9033     95.3359
  2082.5000     24.9305     30.4432     24.3706     97.5537
  2082.7500     24.6395     30.2855     23.7833    101.2570
  2083.0000     24.3694     30.1283     23.2089    108.9094
  2083.2500     24.1075     29.9828     22.6821    113.7682
  2083.5000     23.8492     29.8595     22.2220    117.5807
  2083.7500     23.6122     29.7665     21.8487    116.9568
  2084.0000     23.4318     29.7075     21.5864    112.4045
  2084.2500     23.3439     29.6819     21.4525    108.4617
  2084.5000     23.3703     29.6856     21.4484    103.1940
  2084.7500     23.5163     29.7127     21.5617    100.4853
  2085.0000     23.7796     29.7568     21.7793     97.4331
  2085.2500     24.1672     29.8117     22.1014     95.8876
  2085.5000     24.7117     29.8725     22.5447     94.0867
  2085.7500     25.4686     29.9351     23.1318     93.2149
  2086.0000     26.4812     29.9968     23.8754     92.6293
  2086.2500     27.7274     30.0554     24.7621     92.7870
  2086.5000     29.0893     30.1092     25.7421     93.3541
  2086.7500     30.3853     30.1569     26.7280     93.4695
  2087.0000     31.4540     30.1964     27.6121     92.9041
  2087.2500     32.2262     30.2254     28.3066     92.2434
  2087.5000     32.7342     30.2409     28.7881     91.3483
  2087.7500     33.0662     30.2395     29.1100     90.9567
  2088.0000     33.3085     30.2184     29.3714     90.7635
  2088.2500     33.5088     30.1759     29.6629     91.0133
  2088.5000     33.6641     30.1128     30.0248     92.0282
  2088.7500     33.7355     30.0329     30.4365     92.7831
  2089.0000     33.6861     29.9429     30.8384     92.8974
  2089.2500     33.5216     29.8528     31.1699     91.9412
  2089.5000     33.3029     29.7739     31.4002     89.9166
  2089.7500     33.1207     29.7182     31.5322     89.4373
  2090.0000     33.0540     29.6966     31.5864     91.6191
  2090.2500     33.1358     29.7179     31.5807     94.7722
  2090.5000     33.3413     29.7882     31.5244     99.9094
  2090.7500     33.6036     29.9103     31.4245    102.3148
  2091.0000     33.8498     30.0838     31.2932    103.4862
  2091.2500     34.0368     30.3050     31.1483    102.8274
  2091.5000     34.1666     30.5675     31.0079    100.5027
  2091.7500     34.2718     30.8616     30.8873     98.6036
  2092.0000     34.3876     31.1747     30.8029     95.9569
  2092.2500     34.5345     31.4920     30.7781     94.3753
  2092.5000     34.7158     31.7967     30.8410     91.7145
  2092.7500     34.9150     32.0716     31.0141     89.4593
  2093.0000     35.0839     32.3008     31.2969     85.4933
  2093.2500     35.1418     32.4713     31.6480     82.7716
  2093.5000     34.9924     32.5748     31.9711     79.0556
  2093.7500     34.5524     32.6088     32.1203     77.0898
  2094.0000     33.7808     32.5760     31.9388     75.5032
  2094.2500     32.7008     32.4843     31.3273     75.6810
  2094.5000     31.4040     32.3444     30.3023     78.1608
  2094.7500     30.0234     32.1684     28.9913     81.4573
  2095.0000     28.6815     31.9678     27.5674     89.1627
  2095.2500     27.4430     31.7531     26.1743     96.0117
  2095.5000     26.3019     31.5331     24.8899    107.2526
  2095.7500     25.2067     31.3152     23.7320    113.6421
