~Version Information
VERS.                      2.0: CWLS Log ASCII Standard - VERSION 2.0
WRAP.                       NO: One line per depth step
~Well Information Block
STRT.FT               -10.0000: 
STOP.FT              1935.0000: 
STEP.FT                 0.2500: 
NULL.                -999.2500: 
COMP.          Pioneer Natural Resources: COMPANY
WELL.           Willys 32-8 Tr: WELL
FLD.           Purgatorie River: FIELD
LOC.           1843' FNL & 2355' FEL--: LOCATION
CNTY.               Las Animas: COUNTY
SRVC.          Patterson Wireline: SERVICE COMPANY
DATE.          Wed Feb 15 13:29:41 2006: LOG DATE
UWI.           05 071 08688 00: UNIQUE WELL ID
STAT.                       CO: STATE
~Curve Information Block
DEPT.FT            0 000 00 00: Depth
CCL.                          : Casing Collar Locator
TT3.usec                      : CBL 3' Travel Time
AMP3.mV                       : CBL 3' Amplitude
GR.GAPI                       : Gamma Ray
~Parameter Information Block
~A  Depth       CCL         TT3         AMP3         GR     
# ...
   894.5000      0.0000    364.2800     16.6390    107.6932
   894.7500      0.0000    364.7823     16.7021    103.8034
   895.0000      0.0000    379.5363     16.7686     98.8933
   895.2500      0.0000    400.9485     16.8635     95.8149
   895.5000      0.0000    420.7619     16.9971     96.2008
   895.7500      0.0000    434.1187     17.1543     99.5332
   896.0000      0.0000    440.1283     17.3102    103.7543
   896.2500      0.0000    439.1847     17.4419    106.6369
   896.5000      0.0000    430.8738     17.5256    107.2881
   896.7500      0.0000    415.1383     17.5355    106.8733
   897.0000      0.0000    394.7704     17.4520    108.1331
   897.2500      0.0000    375.1631     17.2727    113.8991
   897.5000      0.0000    360.8756     17.0160    125.0583
   897.7500      0.0000    352.9663     16.7149    139.1733
   898.0000      0.0000    349.6725     16.4036    151.3485
   898.2500      0.0000    348.7197     16.1040    157.1500
   898.5000      0.0000    348.6581     15.8255    155.2604
   898.7500      0.0000    348.8303     15.5774    147.7962
   899.0000      0.0000    348.9706     15.3774    138.3672
   899.2500      0.0000    349.0761     15.2423    129.7280
   899.5000      0.0000    349.4496     15.1713    122.9830
   899.7500      0.0000    350.5530     15.1450    118.5152
   900.0000      0.0000    352.4812     15.1405    116.8075
   900.2500      0.0000    354.5020     15.1453    117.8950
   900.5000      0.0000    355.3919     15.1580    120.4004
   900.7500      0.0000    354.5165     15.1804    121.9413
   901.0000      0.0000    352.4353     15.2114    120.9433
   901.2500      0.0000    350.2715     15.2471    117.8632
   901.5000      0.0000    348.7233     15.2828    114.3825
   901.7500      0.0000    347.8706     15.3154    111.5712
   902.0000      0.0000    347.6870     15.3429    109.1846
   902.2500      0.0000    348.5138     15.3614    106.7191
   902.5000      0.0000    351.0883     15.3608    104.6336
   902.7500      0.0000    356.0328     15.3288    104.1708
   903.0000      0.0000    362.9932     15.2588    106.2163
   903.2500      0.0000    370.1696     15.1563    110.4610
   903.5000      0.0000    375.0616     15.0387    115.3079
   903.7500      0.0000    376.1474     14.9325    118.5469
   904.0000      0.0000    374.0794     14.8644    118.8695
   904.2500      0.0000    371.1656     14.8469    117.2279
   904.5000      0.0000    369.4126     14.8638    116.0952
   904.7500      0.0000    369.3232     14.8730    116.9229
   905.0000      0.0000    371.1531     14.8276    118.8781
   905.2500      0.0000    377.1530     14.7015    120.2998
   905.5000      0.0000    390.8707     14.4973    120.5495
   905.7500      0.0000    412.7222     14.2344    120.1427
   906.0000      0.0000    436.9525     13.9347    119.8457
   906.2500      0.0000    456.1594     13.6214    120.0411
   906.5000      0.0000    470.4379     13.3215    120.6211
   906.7500      0.0000    488.7262     13.0636    121.1956
   907.0000      0.0000    516.8942     12.8718    121.2821
   907.2500      0.0000    545.9723     12.7641    120.3486
   907.5000      0.0000    556.9583     12.7507    118.0776
   907.7500      0.0000    538.5446     12.8269    114.7865
   908.0000      0.0000    498.2026     12.9690    111.3325
   908.2500      0.0000    455.9631     13.1373    108.5200
   908.5000      0.0000    430.4606     13.2857    106.7169
   908.7500      0.0000    431.6816     13.3767    105.8845
   909.0000      0.0000    461.7303     13.3995    105.8013
   909.2500      0.0000    515.8872     13.3754    106.3660
   909.5000      0.0000    582.2171     13.3426    107.5071
   909.7500      0.0000    644.8798     13.3359    108.4460
   910.0000      0.0000    691.2578     13.3824    107.3497
   910.2500      0.0000    716.8354     13.5109    102.4622
   910.5000      0.0000    724.9066     13.7501     93.6880
   910.7500      0.0000    723.2865     14.1057     82.6439
   911.0000      0.0000    719.7974     14.5398     71.2469
   911.2500      0.0000    718.0693     14.9776     60.8465
   911.5000      0.0000    716.5583     15.3430     52.7700
   911.7500      0.0000    711.7283     15.6033     48.8185
   912.0000      0.0000    701.7310     15.7848     50.4032
   912.2500      0.0000    687.0541     15.9463     57.3037
   912.5000      0.0000    669.2674     16.1333     67.7594
   912.7500      0.0000    649.8691     16.3583     79.8330
   913.0000      0.0000    628.8036     16.6134     92.5020
   913.2500      0.0000    604.5302     16.8764    105.4887
   913.5000      0.0000    579.3441     17.0948    118.3166
   913.7500      0.0000    564.3418     17.1836    129.9013
   914.0000      0.0000    572.3358     17.0699    139.2120
   914.2500      0.0000    602.9430     16.7533    146.0574
   914.5000      0.0000    638.8996     16.3223    150.9218
   914.7500      0.0000    658.7808     15.9042    154.2283
   915.0000      0.0000    651.5392     15.5885    156.0141
   915.2500      0.0000    621.3374     15.3866    156.1164
   915.5000      0.0000    583.6956     15.2511    154.4223
   915.7500      0.0000    557.0112     15.1249    151.1524
   916.0000      0.0000    552.7007     14.9753    147.1254
   916.2500      0.0000    568.6498     14.7980    143.5082
   916.5000      0.0000    590.5203     14.6026    141.0091
   916.7500      0.0000    601.6017     14.3994    139.4353
   917.0000      0.0000    595.5112     14.1990    138.1305
   917.2500      0.0000    581.5024     14.0183    136.6721
   917.5000      0.0000    576.7167     13.8796    135.0992
   917.7500      0.0000    592.0779     13.7982    133.6427
   918.0000      0.0000    624.9376     13.7697    132.3157
   918.2500      0.0000    663.5796     13.7720    130.9142
   918.5000      0.0000    696.0768     13.7824    129.4814
   918.7500      0.0000    714.2704     13.7942    128.3150
   919.0000      0.0000    712.8144     13.8197    127.2024
   919.2500      0.0000    689.3215     13.8766    125.3222
   919.5000      0.0000    647.8790     13.9701    122.5653
   919.7500      0.0000    601.4487     14.0883    120.4278
   920.0000      0.0000    567.7831     14.2113    120.9308
   920.2500      0.0000    559.8221     14.3247    124.7562
   920.5000      0.0000    578.0345     14.4269    130.4798
   920.7500      0.0000    610.7397     14.5296    135.3179
   921.0000      0.0000    641.4456     14.6492    136.6768
   921.2500      0.0000    656.5397     14.7922    133.7149
   921.5000      0.0000    648.1455     14.9462    127.9701
   921.7500      0.0000    614.2656     15.0790    122.3421
   922.0000      0.0000    560.6871     15.1506    119.1451
   922.2500      0.0000    502.1126     15.1296    118.9943
   922.5000      0.0000    456.6360     15.0025    121.2267
   922.7500      0.0000    436.1697     14.7623    124.9383
   923.0000      0.0000    442.3944     14.3870    129.5866
   923.2500      0.0000    470.4158     13.8412    134.9300
   923.5000      0.0000    513.2927     13.1332    140.6817
   923.7500      0.0000    562.4326     12.3871    146.3469
   924.0000      0.0000    607.1245     11.8141    151.4213
   924.2500      0.0000    638.9129     11.5457    155.5559
   924.5000      0.0000    658.2828     11.5094    158.4231
   924.7500      0.0000    673.5297     11.5240    159.4739
   925.0000      0.0000    690.1732     11.4877    157.8044
   925.2500      0.0000    703.9271     11.4188    152.5630
   925.5000      0.0000    705.5478     11.3603    143.9600
   925.7500      2.0000    688.4599     11.3233    133.7772
   926.0000      0.0000    650.4218     11.3146    124.4873
   926.2500      0.0000    594.4624     11.3786    117.6911
   926.5000      0.0000    532.9171     11.5974    113.3645
   926.7500      0.0000    486.3495     12.0166    110.6382
   927.0000      0.0000    471.7132     12.5415    109.3718
   927.2500      0.0000    489.1630     12.9586    110.6941
   927.5000      0.0000    521.8034     13.1360    115.5920
   927.7500      0.0000    550.5591     13.1580    122.9823
