~Version Information
VERS.                      2.0: CWLS Log ASCII Standard - VERSION 2.0
WRAP.                       NO: One line per depth step
~Well Information Block
STRT.FT                -6.7500: 
STOP.FT              2027.0000: 
STEP.FT                 0.2500: 
NULL.                -999.2500: 
COMP.          Pioneer Natural Resources: COMPANY
WELL.             Fleming 11-2: WELL
FLD.           Purgatorie River: FIELD
LOC.           534' FNL & 160' FWL--: LOCATION
CNTY.               Las Animas: COUNTY
SRVC.          Patterson Wireline: SERVICE COMPANY
DATE.          Thu Jul 13 10:28:00 2006: LOG DATE
UWI.           05 071 08491 00: UNIQUE WELL ID
STAT.                       CO: STATE
~Curve Information Block
DEPT.FT            0 000 00 00: Depth
CCL.                          : Casing Collar Locator
TT3.usec                      : CBL 3' Travel Time
AMP3.mV                       : CBL 3' Amplitude
GR.GAPI                       : Gamma Ray
~Parameter Information Block
~A  Depth       CCL         TT3         AMP3         GR     
# ...
  1199.2500      0.0000    687.8925      3.9880    124.7404
  1199.5000      0.0000    689.3396      3.8798    127.1423
  1199.7500      0.0000    694.7285      3.7947    130.0953
  1200.0000      0.0000    702.5401      3.7272    133.5479
  1200.2500      0.0000    711.7730      3.6786    135.6049
  1200.5000      0.0000    721.8463      3.6549    133.8999
  1200.7500      0.0000    731.6390      3.6622    127.7591
  1201.0000      0.0000    739.2509      3.7018    118.8812
  1201.2500      0.0000    742.7310      3.7650    109.9853
  1201.5000      0.0000    740.6913      3.8341    103.0625
  1201.7500      0.0000    732.6335      3.8935     98.8432
  1202.0000      0.0000    719.6671      3.9409     97.2891
  1202.2500      0.0000    705.1365      3.9850     98.0419
  1202.5000      0.0000    693.6967      4.0353    100.5559
  1202.7500      0.0000    688.8688      4.0954    104.2829
  1203.0000      0.0000    690.4914      4.1659    109.0329
  1203.2500      0.0000    693.6548      4.2483    114.8862
  1203.5000      0.0000    690.6431      4.3430    121.3127
  1203.7500      0.0000    676.3284      4.4397    126.6294
  1204.0000      0.0000    653.4267      4.5177    129.0275
  1204.2500      0.0000    632.2540      4.5606    128.4533
  1204.5000      0.0000    624.0323      4.5687    127.1728
  1204.7500      0.0000    632.5180      4.5541    128.0601
  1205.0000      0.0000    650.7772      4.5269    132.1551
  1205.2500      0.0000    666.3292      4.4897    138.0409
  1205.5000      0.0000    669.7833      4.4417    143.5620
  1205.7500      0.0000    658.6586      4.3834    147.6487
  1206.0000      0.0000    635.7018      4.3192    150.4380
  1206.2500      0.0000    607.2584      4.2558    152.3634
  1206.5000      0.0000    582.2035      4.2005    153.5304
  1206.7500      0.0000    568.1112      4.1578    153.5582
  1207.0000      0.0000    566.7717      4.1263    151.7293
  1207.2500      0.0000    574.3186      4.1007    147.3594
  1207.5000      0.0000    585.2493      4.0793    140.2230
  1207.7500      0.0000    595.2848      4.0676    130.7681
  1208.0000      0.0000    601.7814      4.0733    120.1688
  1208.2500      0.0000    604.9603      4.0959    110.1489
  1208.5000      0.0000    609.6637      4.1223    102.1506
  1208.7500      0.0000    622.3439      4.1318     96.3376
  1209.0000      0.0000    643.6351      4.1093     91.8552
  1209.2500      0.0000    665.7118      4.0591     88.1655
  1209.5000      0.0000    678.7731      4.0055     85.5177
  1209.7500      0.0000    678.8463      3.9752     84.1846
  1210.0000      0.0000    668.8338      3.9736     84.1172
  1210.2500      0.0000    654.0026      3.9799     85.4757
  1210.5000      0.0000    638.0490      3.9658     88.7683
  1210.7500      0.0000    623.3495      3.9222     93.9430
  1211.0000      0.0000    613.4461      3.8754     99.4377
  1211.2500      0.0000    612.9830      3.8727    102.6142
  1211.5000      0.0000    624.0610      3.9391    101.6268
  1211.7500      0.0000    643.6229      4.0515     96.8120
  1212.0000      0.0000    665.0231      4.1674     90.1909
  1212.2500      0.0000    681.3248      4.2683     84.0785
  1212.5000      0.0000    688.1698      4.3618     80.2901
  1212.7500      2.0000    686.4656      4.4519     79.8109
  1213.0000      0.0000    682.3561      4.5308     82.5463
  1213.2500      0.0000    682.2162      4.5918     87.6677
  1213.5000      0.0000    687.2495      4.6422     94.4122
  1213.7500      0.0000    693.6111      4.7024    102.1397
  1214.0000      0.0000    696.6792      4.7838    109.4811
  1214.2500      0.0000    694.6617      4.8576    114.1397
  1214.5000      0.0000    689.4239      4.8613    114.3776
  1214.7500      0.0000    684.5280      4.7607    110.7281
  1215.0000      0.0000    682.3299      4.5935    105.7363
  1215.2500      0.0000    682.8124      4.4326    101.8813
  1215.5000      0.0000    683.8642      4.3228     99.8889
  1215.7500      0.0000    681.7374      4.2657     98.8887
  1216.0000      0.0000    673.3178      4.2466     97.8100
  1216.2500      0.0000    660.2955      4.2556     96.3321
  1216.5000      0.0000    650.1387      4.2879     94.6085
  1216.7500      0.0000    650.3927      4.3386     92.6428
  1217.0000      0.0000    661.4690      4.4005     90.3336
  1217.2500      0.0000    675.9705      4.4662     87.9672
  1217.5000      0.0000    684.2750      4.5290     86.3422
  1217.7500      0.0000    679.5851      4.5817     86.3962
  1218.0000      0.0000    659.5505      4.6170     88.7341
  1218.2500      0.0000    627.0173      4.6328     93.2210
  1218.5000      0.0000    590.0813      4.6361     98.6813
  1218.7500      0.0000    558.5771      4.6387    103.1395
  1219.0000      0.0000    538.3632      4.6482    104.8431
  1219.2500      0.0000    529.3734      4.6635    103.4953
  1219.5000      0.0000    529.2978      4.6822    100.6503
  1219.7500      0.0000    537.6896      4.7103     98.6295
  1220.0000      0.0000    555.3547      4.7599     98.5005
  1220.2500      0.0000    580.4208      4.8334     99.0838
  1220.5000      0.0000    606.6699      4.9116     98.5880
  1220.7500      0.0000    626.9197      4.9618     97.2775
  1221.0000      0.0000    637.8228      4.9626     97.6916
  1221.2500      0.0000    641.0238      4.9200    101.9055
  1221.5000      0.0000    640.5553      4.8597    109.2723
  1221.7500      0.0000    640.1407      4.8055    117.3057
  1222.0000      0.0000    641.9658      4.7652    124.2149
  1222.2500      0.0000    646.0693      4.7329    130.0257
  1222.5000      0.0000    650.4655      4.7000    135.5497
  1222.7500      0.0000    652.5403      4.6637    140.9131
  1223.0000      0.0000    649.8950      4.6279    145.2861
  1223.2500      0.0000    639.4647      4.5993    147.8908
  1223.5000      0.0000    618.0007      4.5831    149.0615
  1223.7500      0.0000    586.2919      4.5801    150.0423
  1224.0000      0.0000    552.6197      4.5855    151.6723
  1224.2500      0.0000    529.2739      4.5925    153.3518
  1224.5000      0.0000    524.2077      4.5999    153.3515
  1224.7500      0.0000    536.4568      4.6128    150.2455
  1225.0000      0.0000    558.9811      4.6368    144.3260
  1225.2500      0.0000    584.2630      4.6730    137.7306
  1225.5000      0.0000    606.9955      4.7197    133.2206
  1225.7500      0.0000    623.0570      4.7741    132.7021
  1226.0000      0.0000    627.8854      4.8311    136.3456
  1226.2500      0.0000    617.5726      4.8787    142.6462
  1226.5000      0.0000    592.6531      4.8996    149.5534
  1226.7500      0.0000    560.4755      4.8801    155.9435
  1227.0000      0.0000    532.5945      4.8226    161.9636
  1227.2500      0.0000    519.1530      4.7469    168.0940
  1227.5000      0.0000    524.6115      4.6766    174.1357
  1227.7500      0.0000    546.1437      4.6257    178.6388
  1228.0000      0.0000    574.8810      4.5987    179.2409
  1228.2500      0.0000    601.0295      4.5969    174.6068
  1228.5000      0.0000    619.9962      4.6191    166.4243
  1228.7500      0.0000    633.3029      4.6563    158.6770
  1229.0000      0.0000    643.9888      4.6915    154.7361
  1229.2500      0.0000    653.0038      4.7041    155.4172
  1229.5000      0.0000    659.8991      4.6775    159.3388
  1229.7500      0.0000    664.5775      4.6060    164.2040
  1230.0000      0.0000    667.3651      4.5005    167.6342
  1230.2500      0.0000    668.3534      4.3854    167.5930
  1230.5000      0.0000    667.4369      4.2893    162.9617
  1230.7500      0.0000    664.9485      4.2346    154.0242
  1231.0000      0.0000    662.1420      4.2315    142.1107
  1231.2500      0.0000    660.7567      4.2771    128.5724
  1231.5000      0.0000    661.7257      4.3580    114.3124
  1231.7500      0.0000    664.3954      4.4535    100.3981
  1232.0000      0.0000    667.2493      4.5397     88.7419
  1232.2500      0.0000    669.1594      4.5962     81.6990
  1232.5000      0.0000    669.6809      4.6112     80.7657
