~Version Information
VERS.                      2.0: CWLS Log ASCII Standard - VERSION 2.0
WRAP.                       NO: One line per depth step
~Well Information Block
STRT.FT                 0.0000: 
STOP.FT              2062.2500: 
STEP.FT                 0.2500: 
NULL.                -999.2500: 
COMP.          Petrogulf Corporation: COMPANY
WELL.           Montoya 12-44R: WELL
FLD.           Purgatorie River: FIELD
LOC.           713' FSL & 798' FEL: LOCATION
PROV.                 Colorado: PROVINCE
CNTY.               Las Animas: COUNTRY
SRVC.                Patterson: SERVICE COMPANY
DATE.          Wed Nov 09 13:30:24 2005: LOG DATE
UWI.           05-071-08538               : UNIQUE WELL ID
~Curve Information Block
DEPT.FT            0 000 00 00: Depth
CCL.                          : Casing Collar Locator
TT3.usec                      : CBL 3' Travel Time
AMP3.mV                       : CBL 3' Amplitude
GR.GAPI                       : Gamma Ray
~Parameter Information Block
~A  Depth       CCL         TT3         AMP3         GR     
# ...
   536.0000      0.0000    328.7308     11.2029     81.0748
   536.2500      0.0000    328.8275     12.3252     77.7392
   536.5000      0.0000    328.9726     13.7913     75.6905
   536.7500      0.0000    329.1624     15.4908     74.4184
   537.0000      0.0000    329.3082     17.1539     72.5628
   537.2500      0.0000    329.2999     18.5478     69.0027
   537.5000      0.0000    329.1874     19.6546     63.8019
   537.7500      0.0000    329.1184     20.6394     58.2118
   538.0000      0.0000    329.1117     21.7217     53.9060
   538.2500      0.0000    329.0607     22.9076     51.9689
   538.5000      0.0000    328.9359     23.8882     52.2478
   538.7500      0.0000    328.8393     24.4463     53.8270
   539.0000      0.0000    328.8510     24.7929     56.3768
   539.2500      0.0000    328.9167     25.2696     60.6249
   539.5000      0.0000    328.9208     25.8608     67.0235
   539.7500      0.0000    328.8291     26.1342     74.3057
   540.0000      0.0000    328.7126     25.6955     80.0453
   540.2500      0.0000    328.6634     24.7039     82.7092
   540.5000      0.0000    328.7355     23.7407     82.7458
   540.7500      0.0000    328.9018     23.2575     81.6317
   541.0000      0.0000    329.0218     23.3928     80.3258
   541.2500      0.0000    328.9489     24.0830     78.9345
   541.5000      0.0000    328.7151     25.1023     77.3139
   541.7500      0.0000    328.4868     26.1075     75.3754
   542.0000      0.0000    328.3283     26.8006     73.0974
   542.2500      0.0000    328.1695     27.0980     70.7593
   542.5000      0.0000    327.9737     27.1226     68.9483
   542.7500      0.0000    327.6789     27.1236     68.0070
   543.0000      0.0000    326.7420     27.4589     67.6966
   543.2500      0.0000    323.8531     28.3567     67.6023
   543.5000      0.0000    318.0713     29.5600     67.6238
   543.7500      0.0000    310.7961     30.5225     67.9086
   544.0000      0.0000    305.0161     30.9636     68.4898
   544.2500      0.0000    302.0774     31.0245     69.1604
   544.5000      0.0000    301.0250     31.0049     69.7041
   544.7500      0.0000    300.6674     31.0972     70.2494
   545.0000      0.0000    300.5880     31.2996     71.3321
   545.2500      0.0000    300.8439     31.4773     73.4472
   545.5000      0.0000    302.0117     31.4669     76.4611
   545.7500      0.0000    305.3098     31.1713     79.5262
   546.0000      0.0000    311.4371     30.5955     81.5467
   546.2500      0.0000    318.8848     29.7423     81.6837
   546.5000      0.0000    324.8033     28.5728     79.6676
   546.7500      0.0000    327.9613     27.1580     76.0073
   547.0000      0.0000    329.5921     25.7316     71.8840
   547.2500      0.0000    333.1263     24.5095     68.4282
   547.5000      0.0000    347.6593     23.4609     65.8380
   547.7500      0.0000    390.9335     22.2868     63.3360
   548.0000      0.0000    474.1043     20.7402     60.1219
   548.2500      0.0000    572.6900     18.9662     56.2830
   548.5000      0.0000    632.8490     17.4236     52.7433
   548.7500      0.0000    619.6574     16.4990     50.5672
   549.0000      0.0000    545.3852     16.1944     50.4456
   549.2500      0.0000    455.5131     16.0872     52.6164
   549.5000      0.0000    392.3297     15.7584     56.9938
   549.7500      0.0000    364.2882     15.3727     63.3824
   550.0000      0.0000    355.1923     15.2956     71.5766
   550.2500      0.0000    354.2752     15.1767     81.0897
   550.5000      0.0000    361.4247     14.5380     90.8405
   550.7500      0.0000    373.5587     13.8580     99.4085
   551.0000      0.0000    380.3842     13.8634    105.8074
   551.2500      0.0000    374.0624     14.5488    109.8973
   551.5000      0.0000    359.0140     15.5058    112.0265
   551.7500      2.0000    346.0618     16.4761    112.6286
   552.0000      0.0000    340.4550     17.2865    112.2168
   552.2500      0.0000    340.6938     17.7217    111.2311
   552.5000      0.0000    342.2057     17.8678    109.7797
   552.7500      0.0000    339.6968     18.1429    107.9793
   553.0000      0.0000    332.1295     18.5944    106.4762
   553.2500      0.0000    324.5938     19.0614    105.9917
   553.5000      0.0000    322.1106     19.8340    106.2625
   553.7500      0.0000    325.2788     20.8784    106.0797
   554.0000      0.0000    333.1445     21.4253    104.5323
   554.2500      0.0000    347.1271     21.0017    101.7750
   554.5000      0.0000    367.0907     19.9059     98.5456
   554.7500      0.0000    385.4247     18.7345     95.3930
   555.0000      0.0000    397.6664     17.9268     92.5206
   555.2500      0.0000    416.6117     17.5651     90.0354
   555.5000      0.0000    458.0739     17.4486     88.0134
   555.7500      0.0000    514.2193     17.4475     86.3580
   556.0000      0.0000    556.8812     17.6297     84.7857
   556.2500      0.0000    565.6909     17.9665     83.0574
   556.5000      0.0000    541.7150     18.3043     81.3150
   556.7500      0.0000    502.4388     18.6506     80.1682
   557.0000      0.0000    469.7127     19.1101     80.3212
   557.2500      0.0000    453.9597     19.6323     82.0163
   557.5000      0.0000    448.5131     20.1185     84.8072
   557.7500      0.0000    436.0740     20.6453     87.8888
   558.0000      0.0000    406.5459     21.3126     90.5684
   558.2500      0.0000    373.4031     21.9450     92.3654
   558.5000      0.0000    359.0799     22.2198     92.8395
   558.7500      0.0000    369.5557     22.0616     91.7074
   559.0000      0.0000    392.8763     21.6570     89.2648
   559.2500      0.0000    412.2724     21.1937     86.4664
   559.5000      0.0000    417.1414     20.8166     84.3519
   559.7500      0.0000    408.2013     20.6713     83.4165
   560.0000      0.0000    393.7212     20.7798     83.5336
   560.2500      0.0000    380.6357     21.0315     84.2562
   560.5000      0.0000    369.0451     21.4290     85.1008
   560.7500      0.0000    354.7099     22.1275     85.7570
   561.0000      0.0000    336.5178     23.1487     86.1607
   561.2500      0.0000    319.1895     24.2808     86.2648
   561.5000      0.0000    307.7766     25.3002     85.8271
   561.7500      0.0000    302.6353     26.1900     84.7465
   562.0000      0.0000    300.9351     27.1414     83.5644
   562.2500      0.0000    300.2729     28.3080     83.2585
   562.5000      0.0000    299.7609     29.5637     84.4912
   562.7500      0.0000    299.3144     30.5317     87.1519
   563.0000      0.0000    299.0592     30.7783     90.3985
   563.2500      0.0000    299.2090     30.0933     93.0324
   563.5000      0.0000    300.2718     28.6753     94.1801
   563.7500      0.0000    303.7966     26.9302     93.9375
   564.0000      0.0000    312.7827     25.1994     93.2813
   564.2500      0.0000    329.0138     23.6885     93.0490
   564.5000      0.0000    348.4013     22.4307     92.9698
   564.7500      0.0000    362.6238     21.2939     91.9491
   565.0000      0.0000    367.2204     20.1020     89.3429
   565.2500      0.0000    365.1674     18.8029     85.7606
   565.5000      0.0000    363.1733     17.5729     82.6789
   565.7500      0.0000    364.9477     16.6977     81.3948
   566.0000      0.0000    367.8459     16.3090     82.0903
   566.2500      0.0000    367.4022     16.3526     83.7499
   566.5000      0.0000    362.8685     16.7812     85.1480
   566.7500      0.0000    356.7440     17.5580     85.9143
   567.0000      0.0000    350.4543     18.5312     86.6045
   567.2500      0.0000    343.4446     19.4903     87.9516
   567.5000      0.0000    336.6396     20.2924     90.0583
   567.7500      0.0000    332.9367     20.8816     92.0221
   568.0000      0.0000    333.4453     21.2717     92.4045
   568.2500      0.0000    333.8265     21.5709     90.4315
   568.5000      0.0000    328.2016     21.9232     86.8001
   568.7500      0.0000    318.2679     22.3317     83.1640
   569.0000      0.0000    311.4939     22.6727     80.8491
   569.2500      0.0000    310.8164     22.9026     80.1177
