~Version Information
VERS.                      2.0: CWLS Log ASCII Standard - VERSION 2.0
WRAP.                       NO: One line per depth step
~Well Information Block
STRT.FT               530.7500: 
STOP.FT              1325.2500: 
STEP.FT                 0.2500: 
NULL.                -999.2500: 
COMP.          Pioneer Natural Resources: COMPANY
WELL.            Erin 21-15 Tr: WELL
FLD.           Purgatoire River: FIELD
LOC.           1217' FNL & 2284' FWL--: LOCATION
CNTY.               Las Animas: COUNTY
SRVC.                Patterson: SERVICE COMPANY
DATE.          Fri Mar 03 23:07:06 2006: LOG DATE
UWI.           05 071 08712 00: UNIQUE WELL ID
STAT.                 Colorado: STATE
~Curve Information Block
DEPT.FT            0 000 00 00: Depth
SN.Ohm-m                      : IEL Short Normal
SP.mV                         : IEL Spontaneous Potential
DIR.Ohm-m                     : IEL Induction Resistivity
GR.GAPI                       : Gamma Ray
~Parameter Information Block
~A  Depth        SN          SP         DIR          GR     
# ...
   597.7500   2000.0000   2025.0000     10.5459    102.1380
   598.0000   2000.0000   2025.0000     10.6710    103.5742
   598.2500   2000.0000   2025.0000     10.8192    105.9459
   598.5000   2000.0000   2025.0000     10.9807    109.9642
   598.7500   2000.0000   2025.0000     11.1376    112.1833
   599.0000   2000.0000   2025.0000     11.2753    114.4503
   599.2500   2000.0000   2025.0000     11.3919    115.3764
   599.5000   2000.0000   2025.0000     11.5007    116.0297
   599.7500   2000.0000   2025.0000     11.6242    115.9395
   600.0000   2000.0000   2025.0000     11.7834    115.0507
   600.2500   2000.0000   2025.0000     11.9914    114.1230
   600.5000   2000.0000   2025.0000     12.2524    112.5156
   600.7500   2000.0000   2025.0000     12.5641    111.2945
   601.0000   2000.0000   2025.0000     12.9205    108.9873
   601.2500   2000.0000   2025.0000     13.3100    107.0044
   601.5000   2000.0000   2025.0000     13.7105    103.2566
   601.7500   2000.0000   2025.0000     14.0826    100.1533
   602.0000   2000.0000   2025.0000     14.3711     94.4212
   602.2500   2000.0000   2025.0000     14.5176     89.9953
   602.5000   2000.0000   2025.0000     14.4817     83.4766
   602.7500   2000.0000   2025.0000     14.2601     80.3513
   603.0000   2000.0000   2025.0000     13.8884     79.8166
   603.2500   2000.0000   2025.0000     13.4235     83.0562
   603.5000   2000.0000   2025.0000     12.9193     92.3049
   603.7500   2000.0000   2025.0000     12.4107     99.3955
   604.0000   2000.0000   2025.0000     11.9135    107.7847
   604.2500   2000.0000   2025.0000     11.4340    110.9675
   604.5000   2000.0000   2025.0000     10.9794    112.8889
   604.7500   2000.0000   2025.0000     10.5612    113.1562
   605.0000   2000.0000   2025.0000     10.1925    112.8567
   605.2500   2000.0000   2025.0000      9.8821    112.2045
   605.5000   2000.0000   2025.0000      9.6307    110.5575
   605.7500   2000.0000   2025.0000      9.4298    109.2892
   606.0000   2000.0000   2025.0000      9.2639    107.6683
   606.2500   2000.0000   2025.0000      9.1145    106.7570
   606.5000   2000.0000   2025.0000      8.9648    105.1986
   606.7500   2000.0000   2025.0000      8.8034    103.9835
   607.0000   2000.0000   2025.0000      8.6261    102.4939
   607.2500   2000.0000   2025.0000      8.4355    102.0945
   607.5000   2000.0000   2025.0000      8.2390    102.3630
   607.7500   2000.0000   2025.0000      8.0460    102.8343
   608.0000   2000.0000   2025.0000      7.8665    103.7082
   608.2500   2000.0000   2025.0000      7.7094    104.4942
   608.5000   2000.0000   2025.0000      7.5821    106.1712
   608.7500   2000.0000   2025.0000      7.4896    107.5317
   609.0000   2000.0000   2025.0000      7.4351    109.4391
   609.2500   2000.0000   2025.0000      7.4195    110.2676
   609.5000   2000.0000   2025.0000      7.4421    110.3291
   609.7500   2000.0000   2025.0000      7.5017    109.4383
   610.0000   2000.0000   2025.0000      7.5978    107.0265
   610.2500   2000.0000   2025.0000      7.7323    105.2059
   610.5000   2000.0000   2025.0000      7.9092    102.8783
   610.7500   2000.0000   2025.0000      8.1327    101.6115
   611.0000   2000.0000   2025.0000      8.4045    124.6544
   611.2500   2000.0000   2025.0000      8.7206    122.8484
   611.5000   2000.0000   2025.0000      9.0720    119.4878
   611.7500   2000.0000   2025.0000      9.4468    116.5801
   612.0000   2000.0000   2025.0000      9.8345    133.3413
   612.2500   2000.0000   2025.0000     10.2287    128.6098
   612.5000   2000.0000   2025.0000     10.6285    122.5134
   612.7500   2000.0000   2025.0000     11.0396    119.8099
   613.0000   2000.0000   2025.0000     11.4747    118.0807
   613.2500   2000.0000   2025.0000     11.9527    118.2442
   613.5000   2000.0000   2025.0000     12.4939    119.7138
   613.7500   2000.0000   2025.0000     13.1124    121.0163
   614.0000   2000.0000   2025.0000     13.8079    122.6856
   614.2500   2000.0000   2025.0000     14.5583    123.0986
   614.5000   2000.0000   2025.0000     15.3194    121.4303
   614.7500   2000.0000   2025.0000     16.0346    118.0725
   615.0000   2000.0000   2025.0000     16.6542    109.3933
   615.2500   2000.0000   2025.0000     17.1547    101.9127
   615.5000   2000.0000   2025.0000     17.5445     90.7539
   615.7500     19.6283   2025.0000     17.8507     85.1934
   616.0000     19.6312   2025.0000     18.0945     82.1175
   616.2500     19.8139   2025.0000     18.2714     83.9910
   616.5000     20.0168   2025.0000     18.3470     91.3814
   616.7500     20.0769   2025.0000     18.2720     97.8763
   617.0000     19.8807   2025.0000     18.0082    107.5564
   617.2500     19.3988     17.4579     17.5508    113.1124
   617.5000     18.6857     17.3203     16.9354    119.4790
   617.7500     17.8453     17.1926     16.2288    122.2376
   618.0000     16.9826     17.0916     15.5089    124.0552
   618.2500     16.1714     17.0295     14.8435    124.0495
   618.5000     15.4509     17.0157     14.2756    123.5945
   618.7500     14.8365     17.0562     13.8186    123.8194
   619.0000     14.3289     17.1541     13.4600    125.4015
   619.2500     13.9105     17.3098     13.1718    126.9750
   619.5000     13.5385     17.5216     12.9230    129.2258
   619.7500     13.1507     17.7865     12.6919    130.1257
   620.0000     12.6926     18.1018     12.4706    129.7727
   620.2500     12.1552     18.4653     12.2622    128.1933
   620.5000     11.5959     18.8751     12.0729    124.2323
   620.7500     11.1168     19.3280     11.9066    121.1583
   621.0000     10.8044     19.8177     11.7633    117.1277
   621.2500     10.6749     20.3339     11.6404    115.4419
   621.5000     10.6680     20.8613     11.5334    115.1218
   621.7500     10.6885     21.3821     11.4360    116.4439
   622.0000     10.6556     21.8784     11.3401    120.0346
   622.2500     10.5331     22.3359     11.2373    122.7577
   622.5000     10.3399     22.7463     11.1231    126.0635
   622.7500     10.1450     23.1090     10.9991    127.3054
   623.0000     10.0414     23.4297     10.8732    127.7671
   623.2500     10.1059     23.7184     10.7557    127.5523
   623.5000     10.3586     23.9860     10.6540    127.2363
   623.7500     10.7460     24.2414     10.5698    127.2202
   624.0000     11.1617     24.4894     10.5000    127.2482
   624.2500     11.4967     24.7297     10.4392    127.0268
   624.5000     11.6868     24.9580     10.3827    126.2282
   624.7500     11.7250     25.1661     10.3275    125.6956
   625.0000     11.6417     25.3450     10.2717    125.6590
   625.2500     11.4779     25.4869     10.2148    126.3451
   625.5000     11.2720     25.5879     10.1570    128.0762
   625.7500     11.0571     25.6501     10.1005    129.1922
   626.0000     10.8550     25.6824     10.0474    129.9612
   626.2500     10.6718     25.6988      9.9986    129.6797
   626.5000     10.5030     25.7163      9.9512    128.3144
   626.7500     10.3434     25.7508      9.8977    127.0255
   627.0000     10.1907     25.8135      9.8270    124.9518
   627.2500     10.0413     25.9089      9.7282    123.8355
   627.5000      9.8903     26.0342      9.5949    123.2831
   627.7500      9.7349     26.1806      9.4279    123.8774
   628.0000      9.5797     26.3363      9.2364    126.0073
   628.2500      9.4349     26.4903      9.0357    128.0076
   628.5000      9.3080     26.6355      8.8429    131.7170
   628.7500      9.1985     26.7716      8.6721    134.7643
   629.0000      9.0998     26.9062      8.5301    140.2416
   629.2500      9.0086     27.0528      8.4164    144.0649
   629.5000      8.9310     27.2287      8.3267    148.3931
   629.7500      8.8765     27.4498      8.2572    149.3443
   630.0000      8.8521     27.7272      8.2070    147.3508
   630.2500      8.8600     28.0635      8.1778    144.2656
   630.5000      8.8965     28.4526      8.1715    138.4917
   630.7500      8.9470     28.8801      8.1879    134.6057
   631.0000      8.9865     29.3263      8.2237    129.6189
