~Version Information
VERS.                      2.0: CWLS Log ASCII Standard - VERSION 2.0
WRAP.                       NO: One line per depth step
~Well Information Block
STRT.FT               460.0000: 
STOP.FT              2311.7500: 
STEP.FT                 0.2500: 
NULL.                -999.2500: 
COMP.          Pioneer Natural Resources: COMPANY
WELL.          McDonald 33-31 R: WELL
FLD.           Purgatoire River: FIELD
LOC.           1386' FSL & 1926' FEL: LOCATION
STAT.                 Colorado: State
CNTY.               Las Animas: COUNTY
CTRY.                      USA: Country
SECT.                       31: Section
TOWN.                      32S: Township
RANG.                      66W: Range
SRVC.                Patterson: SERVICE COMPANY
DATE.          Fri Sep 23 00:08:18 2005: LOG DATE
API.           05 071 08533 00: API#
~Curve Information Block
DEPT.FT            0 000 00 00: Depth
SN.Ohm-m                      : IEL Short Normal
SP.mV                         : IEL Spontaneous Potential
DIR.Ohm-m                     : IEL Induction Resistivity
GR.GAPI                       : Gamma Ray
~Parameter Information Block
~A  Depth        SN          SP         DIR          GR     
# ...
  1431.5000      1.9510   -381.9740     16.9369     70.1178
  1431.7500      1.9810   -382.2003     17.0029     69.2033
  1432.0000      2.0069   -382.4567     17.1022     66.9738
  1432.2500      2.0337   -382.7480     17.2365     65.1253
  1432.5000      2.0779   -383.0658     17.3988     62.5608
  1432.7500      2.1569   -383.3866     17.5739     61.4948
  1433.0000      2.2726   -383.6764     17.7433     61.6440
  1433.2500      2.4035   -383.8986     17.8938     63.1017
  1433.5000      2.5152   -384.0240     18.0221     66.8270
  1433.7500      2.5838   -384.0382     18.1331     69.7007
  1434.0000      2.6078   -383.9462     18.2310     73.6163
  1434.2500      2.6017   -383.7707     18.3127     75.6900
  1434.5000      2.5833   -383.5472     18.3694     78.0119
  1434.7500      2.5657   -383.3165     18.3971     79.2137
  1435.0000      2.5552   -383.1155     18.4038     80.8292
  1435.2500      2.5530   -382.9716     18.4058     81.8491
  1435.5000      2.5631   -382.8983     18.4153     83.2409
  1435.7500      2.5982   -382.8951     18.4324     84.1685
  1436.0000      2.6723   -382.9505     18.4504     86.1492
  1436.2500      2.7809   -383.0471     18.4687     88.2374
  1436.5000      2.8966   -383.1662     18.5001     92.5643
  1436.7500      2.9882   -383.2911     18.5642     95.8063
  1437.0000      3.0349   -383.4085     18.6733    100.0106
  1437.2500      3.0237   -383.5072     18.8205    101.7045
  1437.5000      2.9425   -383.5760     18.9796    101.8724
  1437.7500      2.7899   -383.6024     19.1150    100.3081
  1438.0000      2.5869   -383.5726     19.1982     95.6761
  1438.2500      2.3723   -383.4724     19.2198     91.3559
  1438.5000      2.1843   -383.2894     19.1912     83.9092
  1438.7500      2.0455   -383.0148     19.1358     79.0753
  1439.0000      1.9588   -382.6450     19.0750     73.4365
  1439.2500      1.9141   -382.1832     19.0206     71.2694
  1439.5000      1.8969   -381.6406     18.9740     70.2642
  1439.7500      1.8929   -381.0377     18.9326     70.4749
  1440.0000      1.8914   -380.4037     18.8966     70.8240
  1440.2500      1.8892   -379.7741     18.8718     70.5867
  1440.5000      1.8943   -379.1865     18.8675     69.4692
  1440.7500      1.9247   -378.6750     18.8903     68.5669
  1441.0000      2.0007   -378.2655     18.9380     67.7272
  1441.2500      2.1329   -377.9708     18.9998     67.7173
  1441.5000      2.3074   -377.7892     19.0613     68.3102
  1441.7500      2.4835   -377.7061     19.1102     68.8279
  1442.0000      2.6157   -377.6976     19.1364     69.5232
  1442.2500      2.6835   -377.7358     19.1313     70.0233
  1442.5000      2.7000   -377.7968     19.0900     71.1111
  1442.7500      2.6939   -377.8666     19.0175     71.9970
  1443.0000      2.6857   -377.9468     18.9308     72.9452
  1443.2500      2.6768   -378.0530     18.8514     72.9922
  1443.5000      2.6538   -378.2094     18.7915     72.2790
  1443.7500      2.6040   -378.4394     18.7442     71.6449
  1444.0000      2.5302   -378.7541     18.6818     70.9682
  1444.2500      2.4520   -379.1456     18.5642     70.7573
  1444.5000      2.3918   -379.5854     18.3507     70.7533
  1444.7500      2.3578   -380.0307     18.0093     71.0342
  1445.0000      2.3413   -380.4338     17.5197     72.1882
  1445.2500      2.3274   -380.7524     16.8757     73.6999
  1445.5000      2.3051   -380.9583     16.0903     77.7960
  1445.7500      2.2742   -381.0399     15.2007     82.3099
  1446.0000      2.2486   -381.0018     14.2620     92.3591
  1446.2500      2.2521   -380.8611     13.3299    100.9616
  1446.5000      2.3045   -380.6428     12.4439    115.0370
  1446.7500      2.4041   -380.3757     11.6222    123.8894
  1447.0000      2.5221   -380.0899     10.8683    134.3957
  1447.2500      2.6159   -379.8142     10.1815    138.8594
  1447.5000      2.6539   -379.5747      9.5627    141.6462
  1447.7500      2.6341   -379.3923      9.0153    141.4784
  1448.0000      2.5827   -379.2803      8.5433    139.8314
  1448.2500      2.5343   -379.2419      8.1492    138.8054
  1448.5000      2.5113   -379.2698      7.8325    138.7439
  1448.7500      2.5192   -379.3460      7.5897    140.1092
  1449.0000      2.5564   -379.4459      7.4137    143.9690
  1449.2500      2.6187   -379.5435      7.2946    146.9844
  1449.5000      2.6920   -379.6173      7.2209    150.6237
  1449.7500      2.7510   -379.6541      7.1815    152.0031
  1450.0000      2.7772   -379.6499      7.1671    152.8483
  1450.2500      2.7756   -379.6084      7.1698    153.0731
  1450.5000      2.7687   -379.5360      7.1820    153.0551
  1450.7500      2.7762   -379.4359      7.1961    152.2851
  1451.0000      2.8022   -379.3048      7.2063    149.0441
  1451.2500      2.8358   -379.1317      7.2105    145.7572
  1451.5000      2.8586   -378.9008      7.2110    141.3919
  1451.7500      2.8526   -378.5984      7.2129    140.4240
  1452.0000      2.8122   -378.2201      7.2220    142.9582
  1452.2500      2.7535   -377.7769      7.2425    146.6172
  1452.5000      2.7093   -377.2966      7.2764    152.7942
  1452.7500      2.7025   -376.8185      7.3229    156.3539
  1453.0000      2.7222   -376.3848      7.3812    160.3804
  1453.2500      2.7389   -376.0284      7.4527    162.3560
  1453.5000      2.7469   -375.7631      7.5425    164.2969
  1453.7500      2.7815   -375.5799      7.6591    164.5032
  1454.0000      2.8872   -375.4500      7.8121    162.1538
  1454.2500      3.0692   -375.3337      8.0089    158.5893
  1454.5000      3.2761   -375.1923      8.2531    151.2436
  1454.7500      3.4318   -374.9978      8.5444    146.1658
  1455.0000      3.4912   -374.7381      8.8803    139.8136
  1455.2500      3.4669   -374.4161      9.2577    136.4621
  1455.5000      3.4054   -374.0457      9.6729    131.6550
  1455.7500      3.3456   -373.6443     10.1202    127.9825
  1456.0000      3.2985   -373.2291     10.5899    121.7826
  1456.2500      3.2584   -372.8148     11.0669    117.7417
  1456.5000      3.2218   -372.4161     11.5325    112.7947
  1456.7500      3.1950   -372.0500     11.9651    110.4371
  1457.0000      3.1897   -371.7381     12.3424    108.1259
  1457.2500      3.2106   -371.5044     12.6427    107.3277
  1457.5000      3.2502   -371.3699     12.8465    107.5150
  1457.7500      3.2927   -371.3443     12.9406    108.8078
  1458.0000      3.3210   -371.4192     12.9232    112.6385
  1458.2500      3.3213   -371.5646     12.8067    116.3007
  1458.5000      3.2878   -371.7326     12.6146    122.8786
  1458.7500      3.2276   -371.8663     12.3747    127.4382
  1459.0000      3.1639   -371.9135     12.1136    133.0924
  1459.2500      3.1285   -371.8385     11.8560    135.0925
  1459.5000      3.1420   -371.6316     11.6261    134.6125
  1459.7500      3.1929   -371.3104     11.4482    132.4837
  1460.0000      3.2375   -370.9164     11.3439    128.5374
  1460.2500      3.2259   -370.5061     11.3279    126.2413
  1460.5000      3.1325   -370.1420     11.4048    123.3465
  1460.7500      2.9732   -369.8809     11.5668    121.3508
  1461.0000      2.7971   -369.7664     11.7962    117.7223
  1461.2500      2.6565   -369.8224     12.0695    114.9710
  1461.5000      2.5752   -370.0515     12.3648    111.1572
  1461.7500      2.5391   -370.4350     12.6673    109.3956
  1462.0000      2.5155   -370.9373     12.9710    108.4806
  1462.2500      2.4799   -371.5119     13.2742    108.9978
  1462.5000      2.4256   -372.1082     13.5733    110.8376
  1462.7500      2.3570   -372.6790     13.8581    112.1037
  1463.0000      2.2805   -373.1854     14.1138    112.8450
  1463.2500      2.2025   -373.6015     14.3286    112.2526
  1463.5000      2.1308   -373.9160     14.4985    110.3251
  1463.7500      2.0762   -374.1327     14.6286    109.1735
  1464.0000      2.0497   -374.2695     14.7314    108.9036
  1464.2500      2.0599   -374.3565     14.8246    109.8096
  1464.5000      2.1112   -374.4334     14.9283    111.8397
  1464.7500      2.2019   -374.5465     15.0595    112.8625
