~Version Information
VERS.                      2.0: CWLS Log ASCII Standard - VERSION 2.0
WRAP.                       NO: One line per depth step
~Well Information Block
STRT.FT                -8.0000: 
STOP.FT              1661.0000: 
STEP.FT                 0.2500: 
NULL.                -999.2500: 
COMP.          Pioneer Natural Resources: COMPANY
WELL.          Rollerball 34-30: WELL
FLD.           Purgatorie River: FIELD
LOC.           893' FSL & 2408' FEL----: LOCATION
CNTY.               Las Animas: COUNTY
SRVC.          Patterson Wireline: SERVICE COMPANY
DATE.          Mon Feb 20 08:34:38 2006: LOG DATE
UWI.           05 071 08581 00: UNIQUE WELL ID
STAT.                       CO: STATE
~Curve Information Block
DEPT.FT            0 000 00 00: Depth
CCL.                          : Casing Collar Locator
TT3.usec                      : CBL 3' Travel Time
AMP3.mV                       : CBL 3' Amplitude
GR.GAPI                       : Gamma Ray
~Parameter Information Block
~A  Depth       CCL         TT3         AMP3         GR     
# ...
  1198.0000      0.0000    731.0319      5.3256     57.1713
  1198.2500      0.0000    705.6638      5.2700     58.9236
  1198.5000      0.0000    671.6284      5.2160     59.8281
  1198.7500      0.0000    643.7275      5.1684     59.6009
  1199.0000      0.0000    635.3972      5.1253     59.0789
  1199.2500      0.0000    647.7859      5.0870     59.4173
  1199.5000      0.0000    670.0836      5.0623     60.9048
  1199.7500      0.0000    690.0328      5.0636     62.6001
  1200.0000      0.0000    702.2572      5.0977     63.1288
  1200.2500      0.0000    707.9294      5.1577     61.7434
  1200.5000      0.0000    710.2743      5.2255     58.7683
  1200.7500      0.0000    711.7369      5.2822     55.4952
  1201.0000      0.0000    713.7283      5.3183     53.8494
  1201.2500      0.0000    717.1156      5.3358     55.4238
  1201.5000      0.0000    722.1463      5.3426     59.9383
  1201.7500      0.0000    727.9488      5.3469     64.8347
  1202.0000      0.0000    732.7784      5.3541     67.2907
  1202.2500      0.0000    735.5796      5.3679     66.8804
  1202.5000      0.0000    737.2466      5.3925     65.8371
  1202.7500      0.0000    739.5671      5.4303     66.5669
  1203.0000      0.0000    742.7410      5.4743     69.3026
  1203.2500      0.0000    744.5185      5.5070     72.3052
  1203.5000      0.0000    741.7294      5.5124     73.7740
  1203.7500      0.0000    731.8426      5.4942     73.1729
  1204.0000      0.0000    712.6314      5.4770     71.2444
  1204.2500      0.0000    681.2223      5.4897     69.4335
  1204.5000      0.0000    635.7117      5.5442     69.0701
  1204.7500      0.0000    579.5202      5.6264     70.2770
  1205.0000      0.0000    523.6118      5.6997     71.4159
  1205.2500      0.0000    482.1078      5.7193     70.1823
  1205.5000      0.0000    464.2533      5.6534     65.8678
  1205.7500      0.0000    469.9775      5.5075     60.3486
  1206.0000      0.0000    491.6171      5.3343     56.3469
  1206.2500      0.0000    517.8875      5.2055     54.8257
  1206.5000      0.0000    536.5677      5.1547     54.5912
  1206.7500      0.0000    537.6631      5.1518     54.1684
  1207.0000      0.0000    518.7963      5.1454     53.2692
  1207.2500      0.0000    487.8106      5.1217     52.3582
  1207.5000      0.0000    457.7364      5.1028     51.5630
  1207.7500      0.0000    439.0150      5.1041     50.5909
  1208.0000      0.0000    437.2970      5.1188     49.4626
  1208.2500      1.8930    456.1249      5.1380     48.7706
  1208.5000      0.0000    496.9666      5.1745     49.1277
  1208.7500      0.0000    554.4831      5.2668     50.6232
  1209.0000      0.0000    614.2263      5.4457     52.7132
  1209.2500      0.0000    658.8380      5.6815     54.3412
  1209.5000      0.0000    678.3891      5.8832     54.4725
  1209.7500      0.0000    675.2814      5.9781     53.1000
  1210.0000      0.0000    659.8155      5.9746     51.6874
  1210.2500      0.0000    640.8605      5.9277     52.1702
  1210.5000      0.0000    621.1798      5.8806     55.4959
  1210.7500      0.0000    602.8352      5.8589     61.4612
  1211.0000      0.0000    594.0204      5.8806     69.9874
  1211.2500      0.0000    604.3177      5.9417     81.9911
  1211.5000      0.0000    632.9968      6.0083     98.3348
  1211.7500      0.0000    667.5476      6.0495    117.9308
  1212.0000      0.0000    695.0632      6.0727    137.4574
  1212.2500      0.0000    711.5061      6.1135    153.0980
  1212.5000      0.0000    720.1794      6.1879    162.3634
  1212.7500      0.0000    725.3936      6.2646    164.7366
  1213.0000      0.0000    729.1530      6.2888    161.6091
  1213.2500      0.0000    731.7112      6.2320    155.9042
  1213.5000      0.0000    733.0020      6.1177    151.0024
  1213.7500      0.0000    732.8695      5.9998    149.2493
  1214.0000      0.0000    730.1055      5.9196    151.0708
  1214.2500      0.0000    721.2499      5.8773    154.9747
  1214.5000      0.0000    700.6572      5.8437    158.1950
  1214.7500      0.0000    663.4653      5.7972    158.0765
  1215.0000      0.0000    610.8424      5.7493    153.6697
  1215.2500      0.0000    552.6358      5.7328    146.1865
  1215.5000      0.0000    502.9982      5.7647    137.9116
  1215.7500      0.0000    472.3190      5.8270    130.8618
  1216.0000      0.0000    463.1049      5.8824    126.2042
  1216.2500      0.0000    471.3955      5.9055    124.1546
  1216.5000      0.0000    489.5495      5.8984    123.9941
  1216.7500      0.0000    508.6699      5.8818    124.4849
  1217.0000      0.0000    521.6620      5.8763    124.8965
  1217.2500      0.0000    525.6506      5.8905    125.7862
  1217.5000      0.0000    522.1696      5.9207    128.2644
  1217.7500      0.0000    516.4850      5.9544    132.2746
  1218.0000      0.0000    516.2726      5.9742    136.4577
  1218.2500      0.0000    527.7228      5.9666    140.0965
  1218.5000      0.0000    550.6947      5.9296    144.0104
  1218.7500      0.0000    577.7417      5.8716    148.8807
  1219.0000      0.0000    598.4942      5.8045    153.9458
  1219.2500      0.0000    605.8149      5.7406    158.0655
  1219.5000      0.0000    599.6758      5.6920    160.8627
  1219.7500      0.0000    586.6406      5.6639    162.1680
  1220.0000      0.0000    574.8345      5.6514    161.2350
  1220.2500      0.0000    568.3951      5.6450    157.2725
  1220.5000      0.0000    566.5633      5.6342    150.6258
  1220.7500      0.0000    566.9390      5.6079    143.1421
  1221.0000      0.0000    568.1606      5.5603    137.2443
  1221.2500      0.0000    569.8068      5.5030    134.5554
  1221.5000      0.0000    571.1633      5.4618    135.1305
  1221.7500      0.0000    571.0071      5.4557    137.4989
  1222.0000      0.0000    568.6194      5.4792    139.3106
  1222.2500      0.0000    564.7990      5.5093    138.5348
  1222.5000      0.0000    561.7064      5.5260    134.7584
  1222.7500      0.0000    561.6295      5.5270    129.3981
  1223.0000      0.0000    565.7711      5.5238    124.2525
  1223.2500      0.0000    574.0714      5.5282    119.8446
  1223.5000      0.0000    585.9855      5.5422    115.5311
  1223.7500      0.0000    601.1364      5.5598    111.0675
  1224.0000      0.0000    619.2681      5.5735    107.4112
  1224.2500      0.0000    639.9153      5.5775    105.7772
  1224.5000      0.0000    661.8762      5.5670    106.2564
  1224.7500      0.0000    682.6783      5.5371    107.6900
  1225.0000      0.0000    699.2177      5.4837    108.7046
  1225.2500      0.0000    709.9452      5.4085    108.5654
  1225.5000      0.0000    716.4337      5.3234    107.2075
  1225.7500      0.0000    722.1201      5.2457    104.8684
  1226.0000      0.0000    729.3200      5.1900    101.9005
  1226.2500      0.0000    737.6255      5.1632     98.8520
  1226.5000      0.0000    744.8994      5.1702     96.5638
  1226.7500      0.0000    749.1389      5.2199     96.1697
  1227.0000      0.0000    749.2813      5.3193     98.7756
  1227.2500      0.0000    745.0087      5.4589    104.6271
  1227.5000      0.0000    736.6461      5.6065    112.4891
  1227.7500      0.0000    725.3925      5.7224    120.2833
  1228.0000      0.0000    713.3788      5.7845    126.6129
  1228.2500      0.0000    703.5046      5.7986    131.4064
  1228.5000      0.0000    698.9433      5.7872    134.9257
  1228.7500      0.0000    701.6883      5.7726    136.5454
  1229.0000      0.0000    710.6338      5.7661    135.0051
  1229.2500      0.0000    721.3529      5.7660    130.0316
  1229.5000      0.0000    728.4601      5.7629    123.4213
  1229.7500      0.0000    728.5812      5.7485    118.0466
  1230.0000      0.0000    721.5892      5.7212    115.6834
  1230.2500      0.0000    709.5806      5.6847    115.9870
  1230.5000      0.0000    694.6871      5.6443    117.6185
  1230.7500      0.0000    677.7225      5.6049    120.1570
  1231.0000      0.0000    659.0529      5.5696    124.4695
  1231.2500      0.0000    640.3543      5.5371    130.9906
