~Version Information
VERS.                      2.0: CWLS Log ASCII Standard - VERSION 2.0
WRAP.                       NO: One line per depth step
~Well Information Block
STRT.FT                 0.0000: 
STOP.FT              1538.0000: 
STEP.FT                 0.2500: 
NULL.                -999.2500: 
COMP.          Pioneer Natural Resources: COMPANY
WELL.           Butch 33-10 TR: WELL
FLD.           Purgatorie River: FIELD
LOC.           2309' FSL & 1337' FEL: LOCATION
PROV.                 Colorado: PROVINCE
CNTY.               Las Animas: COUNTRY
SRVC.                Patterson: SERVICE COMPANY
DATE.          Thu Jan 19 12:40:27 2006: LOG DATE
UWI.                          : UNIQUE WELL ID
~Curve Information Block
DEPT.FT            0 000 00 00: Depth
CCL.                          : Casing Collar Locator
TT3.usec                      : CBL 3' Travel Time
AMP3.mV                       : CBL 3' Amplitude
GR.GAPI                       : Gamma Ray
~Parameter Information Block
~A  Depth       CCL         TT3         AMP3         GR     
# ...
  1507.5000      0.0000    302.9933     21.7490    147.4151
  1507.7500      0.0000    303.0200     21.3799    154.5775
  1508.0000      0.0000    302.9908     21.0513    156.7102
  1508.2500      0.0000    302.9490     20.8327    154.3194
  1508.5000      0.0000    302.9651     20.7251    149.7054
  1508.7500      0.0000    303.1060     20.6611    144.8553
  1509.0000      0.0000    303.3720     20.5913    140.5379
  1509.2500      0.0000    303.6849     20.5221    136.8224
  1509.5000      0.0000    303.9428     20.4544    133.6206
  1509.7500      0.0000    304.0726     20.3572    130.6071
  1510.0000      0.0000    304.0617     20.2000    127.2119
  1510.2500      0.0000    303.9712     19.9723    123.1683
  1510.5000      0.0000    303.8976     19.6995    118.8946
  1510.7500      0.0000    303.9029     19.4504    115.1455
  1511.0000      0.0000    303.9819     19.2994    112.6649
  1511.2500      0.0000    304.0951     19.2769    112.3217
  1511.5000      0.0000    304.1909     19.3754    114.8744
  1511.7500      0.0000    304.2043     19.5879    120.1634
  1512.0000      0.0000    304.1034     19.8995    126.8953
  1512.2500      0.0000    303.9095     20.2758    133.4378
  1512.5000      0.0000    303.6445     20.7060    138.6413
  1512.7500      0.0000    303.3057     21.2200    141.9955
  1513.0000      0.0000    302.8964     21.8421    143.3497
  1513.2500      0.0000    302.4525     22.5696    142.7290
  1513.5000      0.0000    302.0298     23.3844    140.4543
  1513.7500      0.0000    301.6766     24.2411    137.1364
  1514.0000      0.0000    301.4234     25.0759    133.2083
  1514.2500      0.0000    301.2689     25.8668    128.5905
  1514.5000      0.0000    301.1722     26.6365    123.0971
  1514.7500      0.0000    301.0905     27.3676    117.0671
  1515.0000      0.0000    301.0150     27.9722    111.5165
  1515.2500      0.0000    300.9519     28.3636    107.7027
  1515.5000      0.0000    300.8992     28.5133    106.3291
  1515.7500      0.0000    300.8633     28.4231    107.1641
  1516.0000      0.0000    300.8661     28.1123    109.5119
  1516.2500      0.0000    300.9141     27.6582    112.7225
  1516.5000      0.0000    300.9932     27.1511    116.0668
  1516.7500      0.0000    301.1055     26.5987    118.5822
  1517.0000      0.0000    301.2772     25.9481    119.4179
  1517.2500      0.0000    301.5310     25.1691    118.2855
  1517.5000      0.0000    301.8752     24.2798    115.7184
  1517.7500      0.0000    302.3022     23.3555    113.0252
  1518.0000      0.0000    302.7750     22.5195    111.5439
  1518.2500      0.0000    303.2197     21.8584    111.5787
  1518.5000      0.0000    303.5452     21.3725    112.4518
  1518.7500      0.0000    303.6931     21.0295    113.8882
  1519.0000      0.0000    303.6968     20.7992    116.8392
  1519.2500      0.0000    303.6770     20.6403    122.3432
  1519.5000      0.0000    303.7264     20.5305    129.7657
  1519.7500      0.0000    303.8140     20.5001    136.7475
  1520.0000      0.0000    303.8437     20.5853    141.0859
  1520.2500      0.0000    303.7672     20.7766    142.4434
  1520.5000      0.0000    303.6282     21.0179    142.0177
  1520.7500      0.0000    303.5376     21.2296    140.8541
  1521.0000      0.0000    303.5695     21.3499    139.1011
  1521.2500      0.0000    303.6754     21.3709    136.7125
  1521.5000      0.0000    303.7433     21.3337    133.4538
  1521.7500      0.0000    303.7206     21.2981    127.3440
  1522.0000      0.0000    303.6611     21.3058    114.4384
  1522.2500      0.0000    303.6581     21.3518     92.3240
  1522.5000      0.0000    303.7433     21.3914     64.0492
  1522.7500      0.0000    303.8848     21.3776     37.0200
  1523.0000      0.0000    304.0556     21.3065     17.4533
  1523.2500      0.0000    304.2546     21.2208      6.6189
  1523.5000      0.0000    304.4859     21.1478      2.0006
  1523.7500      0.0000    304.7258     21.0655      0.4783
  1524.0000      0.0000    304.9489     20.9480      0.0895
  1524.2500      0.0000    305.4038     20.7912      0.0121
  1524.5000      0.0000    307.9214     20.5927   -999.2500
  1524.7500      0.0000    319.4620     20.3576   -999.2500
  1525.0000      0.0000    354.2120     20.1287   -999.2500
  1525.2500      0.0000    421.5449     19.9611   -999.2500
  1525.5000      0.0000    504.4953     19.8621   -999.2500
  1525.7500      0.0000    565.6707     19.8027   -999.2500
  1526.0000      0.0000    579.9667     19.7702   -999.2500
  1526.2500      0.0000    548.7009     19.7634   -999.2500
  1526.5000      0.0000    495.7796     19.7635   -999.2500
  1526.7500      0.0000    457.3351     19.7370   -999.2500
  1527.0000      0.0000    451.4897     19.5743   -999.2500
  1527.2500      0.0000    457.3470     18.8648   -999.2500
  1527.5000      0.0000    430.8589     16.7703   -999.2500
  1527.7500      0.0000    340.5457     12.7520   -999.2500
  1528.0000      0.0000    206.2561      7.7853   -999.2500
  1528.2500      0.0000     89.4255      3.8376   -999.2500
  1528.5000      0.0000     26.5547      1.8212   -999.2500
  1528.7500      0.0000      5.2575      1.1597   -999.2500
  1529.0000      0.0000      0.6817      1.0204   -999.2500
  1529.2500      0.0000   -999.2500   -999.2500   -999.2500
  1529.5000      0.0000   -999.2500   -999.2500   -999.2500
  1529.7500      0.0000   -999.2500   -999.2500   -999.2500
  1530.0000      0.0000   -999.2500   -999.2500   -999.2500
  1530.2500      0.0000   -999.2500   -999.2500   -999.2500
  1530.5000      0.0000   -999.2500   -999.2500   -999.2500
  1530.7500      0.0000   -999.2500   -999.2500   -999.2500
  1531.0000      0.0000   -999.2500   -999.2500   -999.2500
  1531.2500      0.0000   -999.2500   -999.2500   -999.2500
  1531.5000      0.0000   -999.2500   -999.2500   -999.2500
  1531.7500      0.0000   -999.2500   -999.2500   -999.2500
  1532.0000      0.0000   -999.2500   -999.2500   -999.2500
  1532.2500      0.0000   -999.2500   -999.2500   -999.2500
  1532.5000      0.0000   -999.2500   -999.2500   -999.2500
  1532.7500      0.0000   -999.2500   -999.2500   -999.2500
  1533.0000      0.0000   -999.2500   -999.2500   -999.2500
  1533.2500      0.0000   -999.2500   -999.2500   -999.2500
  1533.5000      0.0000   -999.2500   -999.2500   -999.2500
  1533.7500      0.0000   -999.2500   -999.2500   -999.2500
  1534.0000      0.0000   -999.2500   -999.2500   -999.2500
  1534.2500      0.0000   -999.2500   -999.2500   -999.2500
  1534.5000      0.0000   -999.2500   -999.2500   -999.2500
  1534.7500      0.0000   -999.2500   -999.2500   -999.2500
  1535.0000      0.0000   -999.2500   -999.2500   -999.2500
  1535.2500      0.0000   -999.2500   -999.2500   -999.2500
  1535.5000   -999.2500   -999.2500   -999.2500   -999.2500
  1535.7500   -999.2500   -999.2500   -999.2500   -999.2500
  1536.0000   -999.2500   -999.2500   -999.2500   -999.2500
  1536.2500   -999.2500   -999.2500   -999.2500   -999.2500
  1536.5000   -999.2500   -999.2500   -999.2500   -999.2500
  1536.7500   -999.2500   -999.2500   -999.2500   -999.2500
  1537.0000   -999.2500   -999.2500   -999.2500   -999.2500
  1537.2500   -999.2500   -999.2500   -999.2500   -999.2500
  1537.5000   -999.2500   -999.2500   -999.2500   -999.2500
  1537.7500   -999.2500   -999.2500   -999.2500   -999.2500
  1538.0000   -999.2500   -999.2500   -999.2500   -999.2500
