~Version Information
VERS.                      2.0: CWLS Log ASCII Standard - VERSION 2.0
WRAP.                       NO: One line per depth step
~Well Information Block
STRT.FT               239.2000: 
STOP.FT              1618.0000: 
STEP.FT                 0.1000: 
NULL.                -999.2500: 
COMP.          Pioneer Natural Resources: COMPANY
WELL.          Daytona 31-14 Tr: WELL
FLD.           Purgatoire River: FIELD
LOC.           683' FNL & 1943' FEL: LOCATION
CNTY.               Las Animas: COUNTY
SRVC.                         : SERVICE COMPANY
DATE.          Fri Jan 27 14:32:28 2006: LOG DATE
UWI.           05 071 08681 00: UNIQUE WELL ID
STAT.                 Colorado: STATE
~Curve Information Block
DEPT.FT            0 000 00 00: Depth
DCAL.in                       : CDL Caliper
RHOB.g/cc                     : CDL Bulk Density
RHOC.g/cc                     : CDL Density Correction
DPOR.pu                       : CDL Density Porosity
GR.GAPI                       : Gamma Ray
~Parameter Information Block
~A  Depth       DCAL        RHOB        RHOC        DPOR         GR     
# ...
   608.8000      8.0415      2.5764      0.1305      4.4599    147.8360
   608.9000      8.0415      2.5342      0.1195      7.0157    143.1391
   609.0000      8.0419      2.5036      0.0743      8.8702    141.2156
   609.1000      8.0419      2.4940      0.0277      9.4534    144.6447
   609.2000      8.0419      2.5068      0.0802      8.6800    150.0859
   609.3000      8.0425      2.5260      0.0604      7.5165    154.1028
   609.4000      8.0425      2.5420      0.0647      6.5453    153.6441
   609.5000      8.0421      2.5542      0.0801      5.8054    150.3844
   609.6000      8.0421      2.5591      0.0924      5.5113    147.9030
   609.7000      8.0421      2.5580      0.0805      5.5752    145.4532
   609.8000      8.0408      2.5598      0.0688      5.4684    143.1753
   609.9000      8.0408      2.5661      0.0773      5.0871    146.7114
   610.0000      8.0400      2.5673      0.0980      5.0138    155.2414
   610.1000      8.0400      2.5560      0.1170      5.6964    159.2426
   610.2000      8.0400      2.5346      0.0837      6.9941    153.3811
   610.3000      8.0396      2.5074      0.0398      8.6449    144.6259
   610.4000      8.0396      2.4733      0.0302     10.7103    139.6460
   610.5000      8.0403      2.4379      0.0097     12.8554    135.9961
   610.6000      8.0403      2.4237     -0.0120     13.7168    133.5078
   610.7000      8.0403      2.4430      0.0159     12.5478    133.1808
   610.8000      8.0407      2.4835      0.0385     10.0912    133.8717
   610.9000      8.0407      2.5317      0.0785      7.1700    133.4871
   611.0000      8.0401      2.5748      0.1189      4.5579    131.8916
   611.1000      8.0401      2.5882      0.2253      3.7431    130.3762
   611.2000      8.0401      2.5597      0.1611      5.4754    129.2738
   611.3000      8.0333      2.5098      0.1542      8.4953    127.8867
   611.4000      8.0333      2.4602      0.1474     11.5001    125.8564
   611.5000      8.0115      2.4150      0.1058     14.2402    126.8359
   611.6000      8.0115      2.3793      0.0892     16.4044    130.5206
   611.7000      8.0115      2.3721      0.0453     16.8435    128.9979
   611.8000      8.0068      2.4120      0.1276     14.4236    119.3453
   611.9000      8.0068      2.4934      0.1650      9.4938    111.6491
   612.0000      8.0110      2.5885      0.2825      3.7299    113.8343
   612.1000      8.0110      2.6635      0.3330     -0.8166    121.4090
   612.2000      8.0110      2.7061      0.2957     -3.4029    126.9140
   612.3000      8.0297      2.7276      0.3134     -4.7020    128.4562
   612.4000      8.0297      2.7255      0.3263     -4.5741    128.5372
   612.5000      8.0603      2.6934      0.2523     -2.6320    128.3094
   612.6000      8.0603      2.6504      0.1875     -0.0254    124.7074
   612.7000      8.0603      2.6166      0.1633      2.0239    117.6728
   612.8000      8.0640      2.5953      0.1280      3.3168    112.9098
   612.9000      8.0640      2.5869      0.0686      3.8239    113.6821
   613.0000      8.0606      2.5902      0.0744      3.6236    116.6678
   613.1000      8.0606      2.5968      0.1007      3.2257    116.1949
   613.2000      8.0606      2.6071      0.0465      2.5977    113.9568
   613.3000      8.0507      2.6295      0.0792      1.2428    116.1898
   613.4000      8.0507      2.6542      0.1064     -0.2552    119.0452
   613.5000      8.0621      2.6611      0.1253     -0.6743    116.8553
   613.6000      8.0621      2.6453      0.0597      0.2818    115.2806
   613.7000      8.0621      2.6234      0.0151      1.6095    117.9427
   613.8000      8.0641      2.6059      0.0625      2.6751    120.7721
   613.9000      8.0641      2.5858      0.0285      3.8891    121.0219
   614.0000      8.0638      2.5608      0.0142      5.4076    120.4844
   614.1000      8.0638      2.5409      0.0007      6.6110    123.5894
   614.2000      8.0638      2.5379     -0.0140      6.7956    131.3376
   614.3000      8.0634      2.5481      0.0273      6.1742    135.3512
   614.4000      8.0634      2.5603      0.0243      5.4346    129.0854
   614.5000      8.0631      2.5719      0.0318      4.7320    120.5238
   614.6000      8.0631      2.5836      0.0141      4.0269    115.1621
   614.7000      8.0631      2.5863      0.0697      3.8614    110.3332
   614.8000      8.0634      2.5705      0.0252      4.8196    107.9675
   614.9000      8.0634      2.5405      0.0280      6.6355    109.7385
   615.0000      8.0631      2.5098     -0.0342      8.4965    112.9324
   615.1000      8.0631      2.4937     -0.0045      9.4735    116.3364
   615.2000      8.0631      2.5010     -0.0315      9.0288    119.6444
   615.3000      8.0632      2.5268     -0.0045      7.4660    118.8218
   615.4000      8.0632      2.5545      0.0004      5.7901    113.2732
   615.5000      8.0624      2.5754      0.0314      4.5233    110.4744
   615.6000      8.0624      2.5898      0.0505      3.6472    112.9153
   615.7000      8.0624      2.5944      0.0374      3.3720    114.7200
   615.8000      8.0645      2.5882      0.0455      3.7432    113.3737
   615.9000      8.0645      2.5776      0.0227      4.3886    113.7535
   616.0000      8.0609      2.5701      0.0193      4.8424    117.0708
   616.1000      8.0609      2.5692      0.0210      4.8965    118.7757
   616.2000      8.0609      2.5708      0.0335      4.7986    118.8853
   616.3000      8.0581      2.5761      0.0364      4.4803    120.1787
   616.4000      8.0581      2.5931      0.0389      3.4462    120.9652
   616.5000      8.0594      2.6132      0.1019      2.2274    117.9382
   616.6000      8.0594      2.6231      0.0799      1.6311    113.1995
   616.7000      8.0594      2.6240      0.1026      1.5738    112.9494
   616.8000      8.0608      2.6130      0.1042      2.2422    119.6697
   616.9000      8.0608      2.5884      0.0826      3.7331    127.1333
   617.0000      8.0651      2.5627      0.0255      5.2893    127.0884
   617.1000      8.0651      2.5449      0.0466      6.3712    119.7023
   617.2000      8.0651      2.5372     -0.0017      6.8352    111.8654
   617.3000      8.0624      2.5457      0.0148      6.3239    106.6205
   617.4000      8.0624      2.5659      0.0149      5.0968    104.2020
   617.5000      8.0598      2.5853      0.0442      3.9205    105.0876
   617.6000      8.0598      2.5951      0.0571      3.3288    106.8342
   617.7000      8.0598      2.5940      0.0302      3.3933    108.4677
   617.8000      8.0572      2.5870      0.0603      3.8179    112.5218
   617.9000      8.0572      2.5772      0.0619      4.4149    118.2333
   618.0000      8.0572      2.5696      0.0296      4.8747    121.2338
   618.1000      8.0572      2.5662      0.0826      5.0799    122.4973
   618.2000      8.0572      2.5599      0.0729      5.4583    123.7805
   618.3000      8.0583      2.5489      0.0610      6.1278    121.7556
   618.4000      8.0583      2.5389      0.0571      6.7323    116.2223
   618.5000      8.0605      2.5402      0.0287      6.6563    112.3520
   618.6000      8.0605      2.5548      0.1041      5.7708    114.4198
   618.7000      8.0605      2.5680      0.1064      4.9690    121.1781
   618.8000      8.0541      2.5648      0.1264      5.1652    126.9789
   618.9000      8.0541      2.5434      0.0646      6.4593    129.3376
   619.0000      8.0551      2.5133      0.0801      8.2824    128.8572
   619.1000      8.0551      2.4758      0.0746     10.5583    125.9535
   619.2000      8.0551      2.4227      0.0931     13.7740    120.5923
   619.3000      8.0564      2.3540      0.0281     17.9412    114.1587
   619.4000      8.0564      2.2626      0.0641     23.4766    109.1569
   619.5000      8.0819      2.1353     -0.0003     31.1967    104.1074
   619.6000      8.0819      1.9879     -0.0658     40.1276     96.0963
   619.7000      8.0819      1.8522     -0.1031     48.3507     87.2156
   619.8000      8.1378      1.7390     -0.1114     55.2148     80.6004
   619.9000      8.1378      1.6322     -0.0654     61.6876     74.0399
