~Version Information
VERS.                      2.0: CWLS Log ASCII Standard - VERSION 2.0
WRAP.                       NO: One line per depth step
~Well Information Block
STRT.FT                -7.2500: 
STOP.FT              1273.5000: 
STEP.FT                 0.2500: 
NULL.                -999.2500: 
COMP.          Pioneer Natural Resources: COMPANY
WELL.            Keiko 14-6 Tr: WELL
FLD.           Purgatorie River: FIELD
LOC.           462' FSL & 1202' FWL--: LOCATION
PROV.                       CO: PROVINCE
CNTY.               Las Animas: COUNTRY
SRVC.          Patterson Wireline: SERVICE COMPANY
DATE.          Wed Jan 04 09:22:19 2006: LOG DATE
UWI.           05 071 08629 00: UNIQUE WELL ID
~Curve Information Block
DEPT.FT            0 000 00 00: Depth
CCL.                          : Casing Collar Locator
TT3.usec                      : CBL 3' Travel Time
AMP3.mV                       : CBL 3' Amplitude
GR.GAPI                       : Gamma Ray
~Parameter Information Block
~A  Depth       CCL         TT3         AMP3         GR     
# ...
   729.7500      0.0000    476.6627     10.9742    132.3788
   730.0000      0.0000    501.6958     10.9511    124.8447
   730.2500      0.0000    540.3828     10.9553    115.6477
   730.5000      0.0000    579.1733     10.9962    105.4730
   730.7500      0.0000    593.9006     11.0659     95.9686
   731.0000      0.0000    572.1799     11.1465     89.4361
   731.2500      0.0000    527.2371     11.2238     86.9215
   731.5000      0.0000    487.5311     11.2910     87.4033
   731.7500      0.0000    473.0085     11.3415     89.1814
   732.0000      0.0000    482.6340     11.3656     91.5882
   732.2500      0.0000    503.9106     11.3562     95.2509
   732.5000      0.0000    529.4574     11.3170    101.0478
   732.7500      0.0000    558.5268     11.2640    108.9314
   733.0000      0.0000    584.6540     11.2179    117.7574
   733.2500      0.0000    592.2053     11.1909    126.1197
   733.5000      0.0000    571.1575     11.1807    133.1024
   733.7500      0.0000    531.0699     11.1747    138.4602
   734.0000      0.0000    494.6648     11.1559    142.4720
   734.2500      0.0000    477.6455     11.1045    145.3105
   734.5000      0.0000    477.7553     10.9967    146.2646
   734.7500      0.0000    484.3789     10.8013    144.1239
   735.0000      0.0000    495.9324     10.4826    138.7298
   735.2500      0.0000    523.3022     10.0132    131.6888
   735.5000      0.0000    574.7334      9.3937    125.4308
   735.7500      0.0000    641.4519      8.6621    121.9813
   736.0000      0.0000    702.3124      7.8799    122.4011
   736.2500      0.0000    741.1049      7.1141    126.3587
   736.5000      0.0000    756.5506      6.4254    131.8575
   736.7500      0.0000    757.6512      5.8601    135.9454
   737.0000      0.0000    753.9553      5.4448    136.3895
   737.2500      0.0000    750.5714      5.1895    133.1523
   737.5000      0.0000    748.4545      5.0954    128.4453
   737.7500      0.0000    746.1989      5.1586    125.1174
   738.0000      0.0000    741.9498      5.3762    124.6607
   738.2500      0.0000    736.1856      5.7599    126.7643
   738.5000      0.0000    733.1965      6.3268    130.6124
   738.7500      0.0000    736.0970      7.0526    135.8476
   739.0000      0.0000    737.0444      7.8604    141.7841
   739.2500      0.0000    716.4227      8.6951    146.4110
   739.5000      0.0000    659.8796      9.5698    147.3898
   739.7500      0.0000    577.6941     10.4874    144.2641
   740.0000      0.0000    501.8821     11.3529    139.1228
   740.2500     -2.0000    461.4974     12.0203    134.8747
   740.5000      0.0000    461.4152     12.4109    133.1929
   740.7500      0.0000    483.3840     12.5684    134.1005
   741.0000      0.0000    505.0100     12.6194    136.7489
   741.2500      0.0000    518.4404     12.6831    139.8863
   741.5000      0.0000    532.8492     12.7925    141.7585
   741.7500      0.0000    561.5834     12.8912    140.2838
   742.0000      0.0000    608.8126     12.9173    133.7589
   742.2500      0.0000    666.3423     12.8854    121.7565
   742.5000      0.0000    720.0798     12.8724    105.8286
   742.7500      0.0000    759.6263     12.9358     89.1841
   743.0000      0.0000    783.1948     13.0616     74.9129
   743.2500      0.0000    794.8830     13.1931     64.2356
   743.5000      0.0000    799.2886     13.2952     56.6093
   743.7500      0.0000    798.9542     13.3701     51.2100
   744.0000      0.0000    794.9557     13.4198     47.9959
   744.2500      0.0000    788.3431     13.4269     47.7304
   744.5000      0.0000    780.7306     13.3757     51.3927
   744.7500      0.0000    773.5518     13.2705     59.2944
   745.0000      0.0000    766.8111     13.1231     70.2970
   745.2500      0.0000    759.2588     12.9356     81.8313
   745.5000      0.0000    749.7095     12.6996     90.9790
   745.7500      0.0000    737.8461     12.4093     96.0813
   746.0000      0.0000    724.7704     12.0768     97.6508
   746.2500      0.0000    714.1346     11.7349     97.5891
   746.5000      0.0000    711.2451     11.4208     97.3894
   746.7500      0.0000    718.0787     11.1585     97.2870
   747.0000      0.0000    729.0474     10.9536     97.0191
   747.2500      0.0000    732.6808     10.7994     96.7648
   747.5000      0.0000    716.9405     10.6849     97.0182
   747.7500      0.0000    674.5135     10.6000     97.8265
   748.0000      0.0000    608.1246     10.5353     98.5529
   748.2500      0.0000    532.9678     10.4782     98.4064
   748.5000      0.0000    470.2606     10.4170     97.1483
   748.7500      0.0000    434.6270     10.3514     95.3839
   749.0000      0.0000    426.7628     10.2936     94.1183
   749.2500      0.0000    436.7478     10.2574     93.9976
   749.5000      0.0000    451.9097     10.2467     95.1910
   749.7500      0.0000    462.2169     10.2548     98.0134
   750.0000      0.0000    462.1725     10.2719    103.0450
   750.2500      0.0000    451.6815     10.2902    110.1508
   750.5000      0.0000    436.7049     10.3007    117.6002
   750.7500      0.0000    428.2571     10.2893    122.5824
   751.0000      0.0000    438.7876     10.2443    123.0238
   751.2500      0.0000    476.4543     10.1706    119.1835
   751.5000      0.0000    539.1282     10.0927    113.3254
   751.7500      0.0000    612.6998     10.0398    107.7581
   752.0000      0.0000    678.0308     10.0276    103.5724
   752.2500      0.0000    722.2841     10.0503    101.1763
   752.5000      0.0000    744.1619     10.0903    100.9890
   752.7500      0.0000    749.9002     10.1324    102.8306
   753.0000      0.0000    746.7773     10.1700    105.0862
   753.2500      0.0000    739.9772     10.1990    105.3124
   753.5000      0.0000    732.2515     10.2113    101.9660
   753.7500      0.0000    724.0844     10.1947     95.5967
   754.0000      0.0000    713.7886     10.1435     88.4995
   754.2500      0.0000    698.2090     10.0687     83.2824
   754.5000      0.0000    675.1941      9.9969     81.3838
   754.7500      0.0000    647.4389      9.9519     82.3961
   755.0000      0.0000    622.8884      9.9360     84.7468
   755.2500      0.0000    608.0066      9.9282     87.2200
   755.5000      0.0000    600.8929      9.9053     89.7700
   755.7500      0.0000    594.5002      9.8675     92.7559
   756.0000      0.0000    585.8858      9.8455     95.7280
   756.2500      0.0000    578.4866      9.8797     97.5985
   756.5000      0.0000    576.7072      9.9842     97.9403
   756.7500      0.0000    581.9991     10.1322     97.3035
   757.0000      0.0000    591.9910     10.2798     96.1018
   757.2500      0.0000    600.5906     10.4015     94.0211
   757.5000      0.0000    602.2654     10.4991     90.7377
   757.7500      0.0000    598.9069     10.5850     86.4779
   758.0000      0.0000    599.5698     10.6640     81.8121
   758.2500      0.0000    612.2463     10.7327     77.6730
   758.5000      0.0000    637.8633     10.7894     75.5929
   758.7500      0.0000    671.0137     10.8444     77.0892
   759.0000      0.0000    703.5587     10.9226     82.4781
   759.2500      0.0000    728.3500     11.0469     90.4700
   759.5000      0.0000    742.2636     11.2130     98.9464
   759.7500      0.0000    746.8691     11.3839    106.0977
   760.0000      0.0000    746.3965     11.5164    111.1604
   760.2500      0.0000    744.8831     11.5947    114.5369
   760.5000      0.0000    744.6186     11.6373    117.3081
   760.7500      0.0000    746.3144     11.6689    120.4447
   761.0000      0.0000    749.5873     11.6847    124.2052
   761.2500      0.0000    752.7764     11.6496    127.9732
   761.5000      0.0000    753.0347     11.5296    130.6626
   761.7500      0.0000    747.9601     11.3180    131.5625
   762.0000      0.0000    737.8356     11.0345    130.9120
   762.2500      0.0000    726.1421     10.7116    129.7145
   762.5000      0.0000    717.1637     10.3835    129.1286
   762.7500      0.0000    712.7101     10.0810    129.8462
   763.0000      0.0000    711.5326      9.8307    131.6065
