~Version Information
VERS.                      2.0: CWLS Log ASCII Standard - VERSION 2.0
WRAP.                       NO: One line per depth step
~Well Information Block
STRT.FT               262.2500: 
STOP.FT              1942.0000: 
STEP.FT                 0.2500: 
NULL.                -999.2500: 
COMP.          XTO Energy Inc.: COMPANY
WELL.          Golden Eagle 19-11: WELL
FLD.           Purgatoire River: FIELD
LOC.           2351' FSL & 1926' FWL--: LOCATION
CNTY.               Las Animas: COUNTY
SRVC.                Patterson: SERVICE COMPANY
DATE.          Wed Mar 08 23:33:01 2006: LOG DATE
UWI.           05 071 08696 00: UNIQUE WELL ID
STAT.                 Colorado: STATE
~Curve Information Block
DEPT.FT            0 000 00 00: Depth
SP.mV                         : DIL Spontaneous Potential
RILD.Ohm-m                    : DIL Deep Resistivity
RILM.Ohm-m                    : DIL Medium Resistivity
RLL3.Ohm-m                    : DIL Shallow Resistivity
GR.GAPI                       : Gamma Ray
~Parameter Information Block
~A  Depth        SP         RILD        RILM        RLL3         GR     
# ...
  1494.2500     67.4414     15.9008     15.5896     16.6755     77.8017
  1494.5000     67.3595     15.8360     15.5335     16.9055     78.0317
  1494.7500     67.1063     15.7975     15.4875     17.0332     78.9245
  1495.0000     66.6602     15.7874     15.4503     17.1057     80.1856
  1495.2500     66.0881     15.8092     15.4267     17.1520     80.6123
  1495.5000     65.4699     15.8650     15.4271     17.1510     80.6452
  1495.7500     64.8465     15.9534     15.4659     17.0813     80.4299
  1496.0000     64.2288     16.0706     15.5562     16.9819     80.0479
  1496.2500     63.6420     16.2139     15.7045     16.9422     79.8008
  1496.5000     63.1460     16.3830     15.9089     17.0426     79.0975
  1496.7500     62.8071     16.5799     16.1630     17.3237     78.1168
  1497.0000     62.6530     16.8074     16.4628     17.8088     75.9429
  1497.2500     62.6530     17.0654     16.8113     18.5302     74.5279
  1497.5000     62.7299     17.3495     17.2160     19.5156     73.3664
  1497.7500     62.7871     17.6504     17.6800     20.7486     73.2700
  1498.0000     62.7453     17.9581     18.1948     22.1481     73.3011
  1498.2500     62.5776     18.2655     18.7395     23.5821     72.8876
  1498.5000     62.3192     18.5684     19.2865     24.8938     71.4305
  1498.7500     62.0358     18.8629     19.8074     25.9181     70.3259
  1499.0000     61.7767     19.1421     20.2746     26.5038     69.4211
  1499.2500     61.5519     19.3957     20.6630     26.5765     69.4805
  1499.5000     61.3431     19.6108     20.9577     26.2117     69.8856
  1499.7500     61.1296     19.7706     21.1632     25.6327     69.8058
  1500.0000     60.9039     19.8543     21.3026     25.1168     68.7891
  1500.2500     60.6755     19.8403     21.4011     24.8939     67.7041
  1500.5000     60.4651     19.7136     21.4637     25.1144     65.9207
  1500.7500     60.2914     19.4770     21.4630     25.8610     64.7499
  1501.0000     60.1559     19.1560     21.3439     27.1372     63.2337
  1501.2500     60.0430     18.7941     21.0488     28.7933     62.6832
  1501.5000     59.9403     18.4385     20.5512     30.4265     63.1352
  1501.7500     59.8648     18.1233     19.8818     31.3726     64.4026
  1502.0000     59.8694     17.8575     19.1271     30.9360     67.5284
  1502.2500     60.0164     17.6243     18.3989     28.8585     70.2531
  1502.5000     60.3293     17.3910     17.7928     25.7319     74.9749
  1502.7500     60.7592     17.1239     17.3600     22.8851     78.1112
  1503.0000     61.1970     16.8030     17.0986     21.5687     81.5684
  1503.2500     61.5303     16.4254     16.9616     21.9925     82.5232
  1503.5000     61.7057     16.0011     16.8746     23.1734     82.4690
  1503.7500     61.7522     15.5459     16.7594     23.8673     82.5857
  1504.0000     61.7500     15.0802     16.5554     23.6442     85.1522
  1504.2500     61.7703     14.6279     16.2303     22.9979     89.1780
  1504.5000     61.8318     14.2131     15.7796     22.5603     98.8077
  1504.7500     61.9031     13.8526     15.2206     22.4041    107.3871
  1505.0000     61.9418     13.5507     14.5887     22.0505    123.0234
  1505.2500     61.9320     13.3011     13.9332     20.9717    134.7246
  1505.5000     61.8910     13.0927     13.3090     19.0506    151.7358
  1505.7500     61.8467     12.9173     12.7653     16.6633    160.4296
  1506.0000     61.8088     12.7717     12.3372     14.4281    165.9608
  1506.2500     61.7540     12.6551     12.0430     12.8813    164.1024
  1506.5000     61.6329     12.5649     11.8845     12.2734    155.4239
  1506.7500     61.3977     12.4944     11.8500     12.5296    148.2351
  1507.0000     61.0348     12.4363     11.9168     13.3488    138.9603
  1507.2500     60.5733     12.3881     12.0570     14.3730    134.4770
  1507.5000     60.0612     12.3567     12.2441     15.3308    129.1818
  1507.7500     59.5353     12.3568     12.4593     16.0933    125.5455
  1508.0000     59.0084     12.4056     12.6943     16.6589    119.0941
  1508.2500     58.4677     12.5155     12.9470     17.1143    114.3489
  1508.5000     57.8778     12.6895     13.2155     17.5724    107.3637
  1508.7500     57.2125     12.9217     13.4916     18.0644    103.1922
  1509.0000     56.5119     13.1991     13.7615     18.4498     98.3268
  1509.2500     55.9128     13.5047     14.0103     18.4802     96.4393
  1509.5000     55.6006     13.8186     14.2308     18.0216     96.0483
  1509.7500     55.6999     14.1212     14.4283     17.2209     97.2005
  1510.0000     56.1861     14.3977     14.6185     16.4334     99.8242
  1510.2500     56.9050     14.6425     14.8187     15.9798    101.1557
  1510.5000     57.6916     14.8605     15.0383     15.9556    100.9986
  1510.7500     58.4797     15.0640     15.2739     16.2320     99.1634
  1511.0000     59.3041     15.2671     15.5131     16.6035     94.6911
  1511.2500     60.2197     15.4808     15.7450     16.9315     91.5065
  1511.5000     61.2208     15.7111     15.9705     17.1822     87.5962
  1511.7500     62.2099     15.9575     16.2035     17.3817     85.7374
  1512.0000     63.0113     16.2137     16.4635     17.5671     83.9249
  1512.2500     63.4313     16.4696     16.7650     17.7786     83.2626
  1512.5000     63.3621     16.7142     17.1126     18.0796     82.8259
  1512.7500     62.8723     16.9394     17.5056     18.5654     82.6288
  1513.0000     62.1861     17.1389     17.9418     19.3324     81.9358
  1513.2500     61.5254     17.3030     18.4151     20.4239     81.0335
  1513.5000     60.9370     17.4112     18.9050     21.7987     79.0303
  1513.7500     60.2565     17.4326     19.3697     23.3601     77.2509
  1514.0000     59.2365     17.3367     19.7505     25.0231     73.6248
  1514.2500     57.7276     17.1097     19.9825     26.7376     70.4870
  1514.5000     55.7824     16.7626     20.0035     28.4126     65.4168
  1514.7500     53.6418     16.3256     19.7621     29.8026     62.7474
  1515.0000     51.6488     15.8345     19.2313     30.4935     61.5916
  1515.2500     50.1480     15.3204     18.4285     30.0393     63.2521
  1515.5000     49.3870     14.8073     17.4259     28.1774     68.7986
  1515.7500     49.4285     14.3135     16.3332     25.0303     73.5224
  1516.0000     50.1131     13.8535     15.2628     21.1945     80.4281
  1516.2500     51.1247     13.4382     14.2990     17.5720     84.4492
  1516.5000     52.1387     13.0730     13.4858     14.9238     89.6555
  1516.7500     52.9572     12.7580     12.8309     13.4573     92.5875
  1517.0000     53.5424     12.4887     12.3175     12.8343     95.4637
  1517.2500     53.9561     12.2598     11.9193     12.5736     95.7473
  1517.5000     54.2801     12.0695     11.6146     12.4142     93.3827
  1517.7500     54.5726     11.9202     11.3945     12.3307     90.4145
  1518.0000     54.8485     11.8186     11.2633     12.3449     85.1424
  1518.2500     55.0573     11.7722     11.2321     12.4344     81.5384
  1518.5000     55.0805     11.7871     11.3116     12.6013     76.1077
  1518.7500     54.7831     11.8650     11.5079     12.9421     72.5447
  1519.0000     54.1064     12.0023     11.8209     13.6104     67.9915
  1519.2500     53.1311     12.1908     12.2426     14.7186     66.0070
  1519.5000     52.0581     12.4194     12.7535     16.2520     64.8966
  1519.7500     51.1266     12.6768     13.3210     18.0241     65.0740
  1520.0000     50.5225     12.9538     13.9022     19.6990     65.7095
  1520.2500     50.3122     13.2436     14.4526     20.9082     65.9066
  1520.5000     50.4287     13.5409     14.9365     21.4156     65.9705
  1520.7500     50.7267     13.8406     15.3326     21.2073     66.5447
  1521.0000     51.0808     14.1355     15.6351     20.4598     69.5497
  1521.2500     51.4550     14.4146     15.8498     19.4528     73.1594
  1521.5000     51.8911     14.6642     15.9900     18.4815     79.9232
  1521.7500     52.4393     14.8687     16.0722     17.7715     84.4434
  1522.0000     53.0990     15.0133     16.1125     17.4167     90.1504
