~Version Information
VERS.                      2.0: CWLS Log ASCII Standard - VERSION 2.0
WRAP.                       NO: One line per depth step
~Well Information Block
STRT.FT                -6.0000: 
STOP.FT               783.7500: 
STEP.FT                 0.2500: 
NULL.                -999.2500: 
COMP.          Pioneer Natural Resources: COMPANY
WELL.           Weissach 32-32: WELL
FLD.           Purgatorie River: FIELD
LOC.           --2193' FNL & 2256' FEL--: LOCATION
STAT.                       CO: State
CNTY.               Las Animas: COUNTY
CTRY. USA : Country
SECT. 32 : Section
TOWN. 33S : Township
RANG. 65W : Range
SRVC.          Patterson Wireline: SERVICE COMPANY
DATE.          Thu Sep 29 12:52:09 2005: LOG DATE
API.           05 071 08523 00: UNIQUE WELL ID
~Curve Information Block
DEPT.FT            0 000 00 00: Depth
CCL.                          : Casing Collar Locator
TT3.usec                      : CBL 3' Travel Time
AMP3.mV                       : CBL 3' Amplitude
GR.GAPI                       : Gamma Ray
~Parameter Information Block
~A  Depth       CCL         TT3         AMP3         GR     
# ...
   764.5000      0.0000    688.2803      9.4146     63.4709
   764.7500      0.0000    678.0115      9.2467     61.5488
   765.0000      0.0000    658.5416      9.0758     60.1122
   765.2500      0.0000    630.4554      8.9116     59.2094
   765.5000      0.0000    599.7395      8.7623     59.2714
   765.7500      0.0000    574.9726      8.6384     60.2942
   766.0000      0.0000    561.5801      8.5489     61.4942
   766.2500      0.0000    559.0935      8.4975     62.0149
   766.5000      0.0000    564.0813      8.4823     61.9302
   766.7500      0.0000    575.2897      8.4946     62.2734
   767.0000      0.0000    595.7560      8.5199     63.7426
   767.2500      0.0000    629.3393      8.5416     65.6430
   767.5000      0.0000    673.8339      8.5458     66.6086
   767.7500      0.0000    717.5413      8.5240     66.0371
   768.0000      0.0000    744.7692      8.4727     64.2862
   768.2500      0.0000    746.0610      8.3930     61.9672
   768.5000      0.0000    723.1900      8.2919     59.7035
   768.7500      0.0000    686.0139      8.1805     58.1520
   769.0000      0.0000    646.5485      8.0704     57.3267
   769.2500      0.0000    614.5833      7.9706     55.7088
   769.5000      0.0000    595.2057      7.8892     50.7430
   769.7500      0.0000    588.4784      7.8378     41.0692
   770.0000      0.0000    591.7762      7.8336     28.3237
   770.2500      0.0000    603.1606      7.8958     16.1811
   770.5000      0.0000    622.7147      8.0374      7.5194
   770.7500      0.0000    650.8126      8.2575      2.8093
   771.0000      0.0000    685.4210      8.5427      0.8369
   771.2500      0.0000    720.7665      8.8750      0.1975
   771.5000      0.0000    748.1957      9.2318      0.0366
   771.7500      0.0000    759.7217      9.5727      0.0047
   772.0000      0.0000    753.2150      9.8307      0.0000
   772.2500      0.0000    734.7959      9.9325   -999.2500
   772.5000      0.0000    715.0105      9.8463   -999.2500
   772.7500      0.0000    701.7752      9.6222   -999.2500
   773.0000      0.0000    696.7023      9.3839   -999.2500
   773.2500      0.0000    696.5794      9.2630   -999.2500
   773.5000      0.0000    696.4119      9.3211   -999.2500
   773.7500      0.0000    691.8322      9.5182   -999.2500
   774.0000      0.0000    681.2371      9.7413   -999.2500
   774.2500      0.0000    665.5642      9.8485   -999.2500
   774.5000      0.0000    642.5282      9.6828   -999.2500
   774.7500      0.0000    600.5265      9.0719   -999.2500
   775.0000      0.0000    523.6840      7.8892   -999.2500
   775.2500      0.0000    408.4688      6.1942   -999.2500
   775.5000      0.0000    274.5648      4.3076   -999.2500
   775.7500      0.0000    154.5722      2.6653   -999.2500
   776.0000      0.0000     71.3954      1.5476   -999.2500
   776.2500      0.0000     26.6625      0.9535   -999.2500
   776.5000      0.0000      7.9686      0.7072   -999.2500
   776.7500      0.0000      1.8881      0.6275   -999.2500
   777.0000      0.0000      0.3499      0.6074   -999.2500
   777.2500      0.0000      0.0465      0.6034   -999.2500
   777.5000      0.0000   -999.2500   -999.2500   -999.2500
   777.7500      0.0000   -999.2500   -999.2500   -999.2500
   778.0000      0.0000   -999.2500   -999.2500   -999.2500
   778.2500      0.0000   -999.2500   -999.2500   -999.2500
   778.5000      0.0000   -999.2500   -999.2500   -999.2500
   778.7500      0.0000   -999.2500   -999.2500   -999.2500
   779.0000      0.0000   -999.2500   -999.2500   -999.2500
   779.2500      0.0000   -999.2500   -999.2500   -999.2500
   779.5000      0.0000   -999.2500   -999.2500   -999.2500
   779.7500      0.0000   -999.2500   -999.2500   -999.2500
   780.0000      0.0000   -999.2500   -999.2500   -999.2500
   780.2500      0.0000   -999.2500   -999.2500   -999.2500
   780.5000      0.0000   -999.2500   -999.2500   -999.2500
   780.7500      0.0000   -999.2500   -999.2500   -999.2500
   781.0000      0.0000   -999.2500   -999.2500   -999.2500
   781.2500      0.0000   -999.2500   -999.2500   -999.2500
   781.5000      0.0000   -999.2500   -999.2500   -999.2500
   781.7500      0.0000   -999.2500   -999.2500   -999.2500
   782.0000      0.0000   -999.2500   -999.2500   -999.2500
   782.2500      0.0000   -999.2500   -999.2500   -999.2500
   782.5000      0.0000   -999.2500   -999.2500   -999.2500
   782.7500      0.0000   -999.2500   -999.2500   -999.2500
   783.0000      0.0000   -999.2500   -999.2500   -999.2500
   783.2500   -999.2500   -999.2500   -999.2500   -999.2500
   783.5000   -999.2500   -999.2500   -999.2500   -999.2500
   783.7500   -999.2500   -999.2500   -999.2500   -999.2500
