~Version Information
VERS.                      2.0: CWLS Log ASCII Standard - VERSION 2.0
WRAP.                       NO: One line per depth step
~Well Information Block
STRT.FT                -5.2500: 
STOP.FT              1184.2500: 
STEP.FT                 0.2500: 
NULL.                -999.2500: 
COMP.          Pioneer Natural Resources: COMPANY
WELL.          Lucky Lady 42-29: WELL
FLD.           Purgatoire River: FIELD
LOC.           2482' FNL & 662' FEL: LOCATION
CNTY.               Las Animas: COUNTY
SRVC.                         : SERVICE COMPANY
DATE.          Tue Mar 14 14:47:22 2006: LOG DATE
UWI.           05 071 08659 00: UNIQUE WELL ID
STAT.                       CO: STATE
~Curve Information Block
DEPT.FT            0 000 00 00: Depth
GR.GAPI                       : Gamma Ray
CCL.                          : Casing Collar Locator
TT3.usec                      : CBL 3' Travel Time
AMP3.mV                       : CBL 3' Amplitude
~Parameter Information Block
~A  Depth        GR         CCL         TT3         AMP3    
# ...
   999.7500    109.3774      0.0000    720.1005      5.6725
  1000.0000    113.4018      0.0000    719.8398      5.7053
  1000.2500    115.1674      0.0000    723.1541      5.8501
  1000.5000    114.5592      0.0000    730.0540      6.0823
  1000.7500    110.9805      0.0000    738.1308      6.3582
  1001.0000    104.1852      0.0000    743.5571      6.6361
  1001.2500     95.4416      0.0000    743.9481      6.8921
  1001.5000     87.8235      0.0000    740.0068      7.1151
  1001.7500     84.8445      0.0000    734.8609      7.2919
  1002.0000     88.1267      0.0000    731.8528      7.4019
  1002.2500     96.2069      0.0000    732.2453      7.4325
  1002.5000    105.7346      0.0000    734.5969      7.3962
  1002.7500    113.5648      0.0000    736.4465      7.3249
  1003.0000    117.6828      0.0000    736.5986      7.2467
  1003.2500    117.1099      0.0000    735.8634      7.1711
  1003.5000    112.0195      0.0000    736.0274      7.0970
  1003.7500    103.9324      0.0000    738.0844      7.0246
  1004.0000     95.2824      0.0000    740.9036      6.9608
  1004.2500     88.5312      0.0000    741.5130      6.9155
  1004.5000     85.3590      0.0000    737.2877      6.8936
  1004.7500     86.0928      0.0000    728.4154      6.8894
  1005.0000     89.6563      0.0000    718.2198      6.8908
  1005.2500     94.3169      0.0000    710.5278      6.8894
  1005.5000     98.6312      0.0000    706.2950      6.8827
  1005.7500    101.6979      0.0000    702.7144      6.8672
  1006.0000    102.9807      0.0000    695.5884      6.8366
  1006.2500    102.4951      0.0000    682.8939      6.7865
  1006.5000    100.9087      0.0000    666.9333      6.7202
  1006.7500     98.8634      0.0000    653.2860      6.6469
  1007.0000     96.3753      0.0000    646.8762      6.5743
  1007.2500     93.2430      0.0000    648.7422      6.5010
  1007.5000     89.7381      0.0000    656.9836      6.4213
  1007.7500     86.6036      0.0000    670.0833      6.3441
  1008.0000     84.5860      0.0000    687.5889      6.3057
  1008.2500     84.0544      0.0000    707.6974      6.3589
  1008.5000     84.7657      0.0000    726.3918      6.5472
  1008.7500     85.7644      0.0000    739.9772      6.8846
  1009.0000     85.6327      0.0000    747.4158      7.3472
  1009.2500     83.1846      0.0000    749.8098      7.8791
  1009.5000     78.2894      0.0000    748.6598      8.4150
  1009.7500     72.2439      0.0000    745.0795      8.9018
  1010.0000     67.3561      0.0000    739.9183      9.2965
  1010.2500     65.8790      0.0000    733.9285      9.5480
  1010.5000     68.7312      0.0000    727.8925      9.6060
  1010.7500     74.7808      0.0000    722.7087      9.4601
  1011.0000     81.5802      0.0000    719.1461      9.1616
  1011.2500     87.2649      0.0000    717.4541      8.7982
  1011.5000     91.7388      0.0000    717.1649      8.4480
  1011.7500     95.9181      0.0000    716.9534      8.1500
  1012.0000    100.2863      0.0000    714.6587      7.9039
  1012.2500    104.5618      0.0000    708.1514      7.6890
  1012.5000    108.2616      0.0000    696.8195      7.4856
  1012.7500    110.9956      0.0000    682.1738      7.2892
  1013.0000    112.3850      0.0000    667.0082      7.1106
  1013.2500    112.1442      0.0000    654.2790      6.9653
  1013.5000    110.2358      0.0000    646.3154      6.8630
  1013.7500    106.8941      0.0000    643.8838      6.8036
  1014.0000    102.8519      0.0000    645.4691      6.7800
  1014.2500     99.5849      0.0000    648.1432      6.7848
  1014.5000     98.6930      0.0000    650.0758      6.8164
  1014.7500    100.5630      0.0000    652.0320      6.8763
  1015.0000    103.8014      0.0000    655.3409      6.9572
  1015.2500    106.4226      0.0000    658.5710      7.0334
  1015.5000    107.7290      0.0000    658.3305      7.0676
  1015.7500    108.6166      0.0000    654.4701      7.0361
  1016.0000    109.7663      0.0000    652.4115      6.9514
  1016.2500    110.3067      0.0000    658.0356      6.8590
  1016.5000    109.1398      0.0000    671.1616      6.8077
  1016.7500    107.0404      0.0000    685.8781      6.8239
  1017.0000    106.2219      0.0000    696.7260      6.9124
  1017.2500    107.7073      0.0000    703.2506      7.0671
  1017.5000    109.8620      0.0000    709.0059      7.2668
  1017.7500    109.7709      0.0000    717.2983      7.4661
  1018.0000    105.6507      0.0000    728.1157      7.6050
  1018.2500     97.9744      0.0000    738.6949      7.6374
  1018.5000     89.0853      0.0000    746.3913      7.5554
  1018.7500     82.1016      0.0000    750.5507      7.3875
  1019.0000     79.3619      0.0000    752.0313      7.1780
  1019.2500     81.0867      0.0000    751.6875      6.9686
  1019.5000     85.5175      0.0000    749.2780      6.7908
  1019.7500     90.4277      0.0000    743.2468      6.6649
  1020.0000     94.4116      0.0000    731.6862      6.5997
  1020.2500     97.1043      0.0000    714.5746      6.5916
  1020.5000     98.8788      0.0000    695.6460      6.6226
  1020.7500    100.4430      0.0000    681.0562      6.6645
  1021.0000    102.2337      0.0000    674.8521      6.6884
  1021.2500    103.8650      0.0000    675.9028      6.6798
  1021.5000    104.3029      0.0000    680.1646      6.6489
  1021.7500    102.8926      0.0000    685.4610      6.6261
  1022.0000    100.2589      0.0000    692.6610      6.6389
  1022.2500     97.8861      0.0000    702.2302      6.6908
  1022.5000     96.7222      0.0000    710.6816      6.7643
  1022.7500     96.4827      0.0000    710.7719      6.8459
  1023.0000     96.3231      0.0000    695.5561      6.9398
  1023.2500     95.7536      0.0000    663.7924      7.0538
  1023.5000     94.7270      0.0000    622.2858      7.1783
  1023.7500     93.3894      0.0000    582.2670      7.2911
  1024.0000     92.1587      0.0000    552.3398      7.3815
  1024.2500     91.5306      0.0000    533.7191      7.4628
  1024.5000     91.4507      0.0000    520.9343      7.5579
  1024.7500     91.3205      0.0000    507.9005      7.6642
  1025.0000     90.7290      0.0000    495.3446      7.7292
  1025.2500     89.6902      0.0000    491.3571      7.6788
  1025.5000     88.2661      0.0000    502.1718      7.4974
  1025.7500     86.4875      0.0000    523.8112      7.2726
  1026.0000     84.6180      0.0000    545.6210      7.1286
  1026.2500     83.0829      0.0000    560.3340      7.1152
  1026.5000     82.0877      0.0000    567.6570      7.1824
  1026.7500     81.4923      0.0000    570.0981      7.2551
  1027.0000     81.0610     -2.0000    569.5716      7.3080
  1027.2500     80.7069      0.0000    568.2686      7.3851
  1027.5000     80.5880      0.0000    570.3950      7.5754
  1027.7500     81.1945      0.0000    581.4121      7.9394
  1028.0000     83.2173      0.0000    603.9028      8.4047
  1028.2500     86.7814      0.0000    633.7829      8.7612
  1028.5000     90.5009      0.0000    662.5458      8.8347
  1028.7500     91.7615      0.0000    683.9874      8.6518
  1029.0000     88.6813      0.0000    697.4712      8.3791
  1029.2500     81.9083      0.0000    705.4357      8.1392
  1029.5000     74.2277      0.0000    710.0955      7.9450
  1029.7500     68.5628      0.0000    712.6537      7.7683
  1030.0000     66.4200      0.0000    713.8388      7.6010
  1030.2500     67.6336      0.0000    714.2002      7.4531
  1030.5000     70.9586      0.0000    714.1016      7.3273
  1030.7500     74.8094      0.0000    713.6616      7.2106
  1031.0000     77.6789      0.0000    712.5438      7.0844
  1031.2500     78.4995      0.0000    709.3250      6.9404
  1031.5000     77.3494      0.0000    700.3958      6.7867
  1031.7500     75.6836      0.0000    679.6067      6.6418
  1032.0000     75.0619      0.0000    641.0529      6.5242
  1032.2500     75.4521      0.0000    585.0395      6.4456
  1032.5000     75.2517      0.0000    521.6996      6.4100
  1032.7500     72.9488      0.0000    466.2071      6.4127
  1033.0000     68.4132      0.0000    428.6362      6.4421
