~Version Information
VERS.                      2.0: CWLS Log ASCII Standard - VERSION 2.0
WRAP.                       NO: One line per depth step
~Well Information Block
STRT.FT                -5.0000: 
STOP.FT               912.2500: 
STEP.FT                 0.2500: 
NULL.                -999.2500: 
COMP.          Pioneer Natural Resources: COMPANY
WELL.               Ernie 31-6: WELL
FLD.           Purgatoire River: FIELD
LOC.           681' FNL & 2138' FEL: LOCATION
CNTY.               Las Animas: COUNTY
SRVC.                         : SERVICE COMPANY
DATE.          Tue Jun 27 10:36:58 2006: LOG DATE
UWI.           05 071 08716 00: UNIQUE WELL ID
STAT.                       CO: STATE
~Curve Information Block
DEPT.FT            0 000 00 00: Depth
GR.GAPI                       : Gamma Ray
CCL.                          : Casing Collar Locator
TT3.usec                      : CBL 3' Travel Time
AMP3.mV                       : CBL 3' Amplitude
~Parameter Information Block
~A  Depth        GR         CCL         TT3         AMP3    
# ...
   229.5000     60.4881      0.0000    824.0580      4.9984
   229.7500     60.0057      0.0000    818.8639      5.0553
   230.0000     59.6964      0.0000    804.5038      5.1305
   230.2500     60.5431      0.0000    774.5112      5.2345
   230.5000     63.6256      0.0000    727.7302      5.3660
   230.7500     69.3283      0.0000    671.5040      5.5079
   231.0000     76.6151      0.0000    616.5895      5.6374
   231.2500     83.5683      0.0000    568.2419      5.7453
   231.5000     88.8216      0.0000    524.3391      5.8436
   231.7500     92.2837      0.0000    482.2728      5.9499
   232.0000     94.5387      0.0000    444.1345      6.0706
   232.2500     95.8475      0.0000    413.9063      6.2030
   232.5000     95.8327      0.0000    392.7324      6.3490
   232.7500     94.1205      0.0000    378.8064      6.5188
   233.0000     91.3900      0.0000    369.9801      6.7236
   233.2500     89.5381      0.0000    364.9542      6.9654
   233.5000     90.1829      0.0000    362.9546      7.2278
   233.7500     92.9360      0.0000    363.4224      7.4793
   234.0000     95.5756      0.0000    365.9571      7.6938
   234.2500     95.8939      0.0000    370.0903      7.8715
   234.5000     93.2420      0.0000    375.1446      8.0332
   234.7500     88.7336      0.0000    380.3623      8.1924
   235.0000     84.3749      0.0000    385.0656      8.3411
   235.2500     81.7880      0.0000    388.6888      8.4652
   235.5000     81.4530      0.0000    390.9200      8.5634
   235.7500     83.0162      0.0000    391.8781      8.6495
   236.0000     85.9877      0.0000    391.9976      8.7422
   236.2500     89.8233      0.0000    391.6577      8.8521
   236.5000     93.4014      0.0000    390.8610      8.9723
   236.7500     94.9522      0.0000    389.0885      9.0795
   237.0000     93.2936      0.0000    385.4027      9.1473
   237.2500     89.4326      0.0000    378.9834      9.1597
   237.5000     86.3669      0.0000    370.0014      9.1172
   237.7500     86.6666      0.0000    360.0214      9.0420
   238.0000     90.2226      0.0000    351.2278      8.9737
   238.2500     94.5248      0.0000    345.0406      8.9492
   238.5000     96.9317      0.0000    341.4826      8.9821
   238.7500     96.5056      0.0000    339.6737      9.0600
   239.0000     94.1030      0.0000    338.5821      9.1538
   239.2500     91.3488      0.0000    337.2750      9.2310
   239.5000     89.5133      0.0000    334.8251      9.2754
   239.7500     88.8247      0.0000    330.4680      9.2961
   240.0000     88.6715      0.0000    324.1765      9.3171
   240.2500     88.6905      0.0000    317.0263      9.3573
   240.5000     89.5019      0.0000    310.6650      9.4163
   240.7500     91.9886      0.0000    306.2227      9.4713
   241.0000     96.0297      0.0000    303.7643      9.4859
   241.2500    100.2670      0.0000    302.6624      9.4353
   241.5000    103.2378      0.0000    302.2447      9.3229
   241.7500    104.9149      0.0000    302.1016      9.1694
   242.0000    107.0720      0.0000    302.0548      8.9934
   242.2500    111.5362      0.0000    302.0431      8.8094
   242.5000    117.8931      0.0000    302.0493      8.6385
   242.7500    123.4333      0.0000    302.0662      8.5063
   243.0000    125.4949      0.0000    302.0896      8.4257
   243.2500    123.5767      0.0000    302.1308      8.3860
   243.5000    119.3959      0.0000    302.2567      8.3647
   243.7500    115.3731      0.0000    302.6656      8.3475
   244.0000    112.8520      0.0000    303.7925      8.3317
   244.2500    111.3662      0.0000    306.3191      8.3163
   244.5000    109.6535      0.0000    310.8516      8.2953
   244.7500    107.3846      0.0000    317.2836      8.2626
   245.0000    105.5760      0.0000    324.4523      8.2220
   245.2500    105.1432      0.0000    330.6981      8.1861
   245.5000    105.5077      0.0000    334.9342      8.1630
   245.7500    105.0443      0.0000    337.1542      8.1466
   246.0000    102.6493      0.0000    338.0312      8.1267
   246.2500     98.5203      0.0000    338.2604      8.1065
   246.5000     93.6595      0.0000    338.2569      8.1000
   246.7500     89.0688      0.0000    338.2037      8.1160
   247.0000     85.3685      0.0000    338.1852      8.1508
   247.2500     82.7261      0.0000    338.2594      8.1951
   247.5000     80.8783      0.0000    338.5336      8.2396
   247.7500     79.3010      0.0000    339.2790      8.2751
   248.0000     77.5313      0.0000    341.3387      8.2895
   248.2500     75.5230      0.0000    346.8732      8.2689
   248.5000     73.7471      0.0000    360.1696      8.1977
   248.7500     72.8000      0.0000    386.8798      8.0643
   249.0000     72.7089      0.0000    429.5292      7.8842
   249.2500     72.5886      0.0000    480.7075      7.7381
   249.5000     71.3612      0.0000    521.7328      7.7697
   249.7500     69.1052      0.0000    532.9993      8.1105
   250.0000     67.3384      0.0000    508.8537      8.7859
   250.2500     67.5643      0.0000    461.9224      9.6927
   250.5000     69.8158      0.0000    412.7839     10.6536
   250.7500     72.9525      0.0000    376.5100     11.4855
   251.0000     76.0814      0.0000    357.9711     12.0426
   251.2500     79.2481     -2.0000    356.1519     12.2495
   251.5000     82.9549      0.0000    369.3279     12.1576
   251.7500     87.4546      0.0000    395.2779     11.9794
   252.0000     92.6472      0.0000    429.3998     11.9842
   252.2500     98.4880      0.0000    467.0381     12.2593
   252.5000    105.0807      0.0000    508.5004     12.5981
   252.7500    112.1076      0.0000    557.3199     12.7070
   253.0000    118.4329      0.0000    611.6190     12.4943
   253.2500    122.5688      0.0000    661.3648     12.0947
   253.5000    123.4230      0.0000    696.5051     11.6752
   253.7500    120.5577      0.0000    714.7377     11.3115
   254.0000    114.2193      0.0000    720.2185     11.0209
   254.2500    105.5132      0.0000    718.1737     10.8312
   254.5000     96.3589      0.0000    712.8543     10.7913
   254.7500     88.9213      0.0000    708.4573     10.9311
   255.0000     84.9382      0.0000    708.9641     11.2143
   255.2500     85.3896      0.0000    716.5449     11.5284
   255.5000     90.2820      0.0000    730.7472     11.7415
   255.7500     98.3354      0.0000    748.9673     11.7833
   256.0000    107.2168      0.0000    767.2809     11.6705
   256.2500    114.6623      0.0000    781.5505     11.4532
   256.5000    119.3347      0.0000    788.6013     11.1701
   256.7500    120.6303      0.0000    786.2507     10.8760
   257.0000    118.4564      0.0000    772.4299     10.6765
   257.2500    113.6348      0.0000    745.8317     10.6792
   257.5000    107.7584      0.0000    709.6712     10.8974
   257.7500    102.1562      0.0000    675.5298     11.2232
   258.0000     97.4770      0.0000    660.4514     11.5006
   258.2500     94.4292      0.0000    674.9067     11.6144
   258.5000     94.2122      0.0000    711.8290     11.5272
   258.7500     97.7342      0.0000    750.4071     11.2671
   259.0000    104.5480      0.0000    772.3007     10.9011
   259.2500    112.6382      0.0000    773.2609     10.5036
   259.5000    119.2996      0.0000    760.8416     10.1246
   259.7500    122.6106      0.0000    745.1259      9.7769
   260.0000    122.3399      0.0000    732.4347      9.4494
   260.2500    119.4507      0.0000    724.4849      9.1342
   260.5000    114.9763      0.0000    720.2911      8.8447
   260.7500    109.7309      0.0000    718.1807      8.6084
   261.0000    104.7655      0.0000    716.7899      8.4439
   261.2500    101.3100      0.0000    715.0676      8.3480
   261.5000     99.9524      0.0000    712.0125      8.3063
   261.7500    100.0724      0.0000    706.8231      8.3057
   262.0000    100.2771      0.0000    699.5955      8.3345
   262.2500     99.4961      0.0000    691.7890      8.3767
   262.5000     97.6298      0.0000    685.6716      8.4166
   262.7500     95.2626      0.0000    683.0392      8.4464
