~Version Information
VERS.                      2.0: CWLS Log ASCII Standard - VERSION 2.0
WRAP.                       NO: One line per depth step
~Well Information Block
STRT.FT                -8.2500: 
STOP.FT               686.7500: 
STEP.FT                 0.2500: 
NULL.                -999.2500: 
COMP.          Pioneer Natural Resources: COMPANY
WELL.           Quintessa 23-7: WELL
FLD.           Purgatorie River: FIELD
LOC.           1964' FSL & 2589' FWL--: LOCATION
PROV.                       CO: PROVINCE
CNTY.               Las Animas: COUNTRY
SRVC.          Patterson Wireline: SERVICE COMPANY
DATE.          Wed Nov 23 10:31:07 2005: LOG DATE
UWI.           05 071 08558 00: UNIQUE WELL ID
~Curve Information Block
DEPT.FT            0 000 00 00: Depth
CCL.                          : Casing Collar Locator
TT3.usec                      : CBL 3' Travel Time
AMP3.mV                       : CBL 3' Amplitude
GR.GAPI                       : Gamma Ray
~Parameter Information Block
~A  Depth       CCL         TT3         AMP3         GR     
# ...
   159.2500      0.0000    751.5546     17.4728     50.9754
   159.5000      0.0000    751.6454     17.5353     50.6507
   159.7500      0.0000    751.8209     17.5792     50.2479
   160.0000      0.0000    752.3624     17.6047     49.7652
   160.2500      0.0000    754.2535     17.6037     49.5997
   160.5000      0.0000    759.6073     17.5533     50.2157
   160.7500      0.0000    771.1752     17.4413     51.7793
   161.0000      0.0000    789.6571     17.2892     53.9896
   161.2500      0.0000    810.5457     17.1292     56.1065
   161.5000      0.0000    825.9490     16.9540     57.2796
   161.7500      0.0000    831.6707     16.7173     57.1503
   162.0000      0.0000    830.7324     16.3885     56.1919
   162.2500      0.0000    830.0453     15.9683     55.2268
   162.5000      0.0000    839.0659     15.4460     54.5408
   162.7500      0.0000    869.9513     14.8202     53.6444
   163.0000      0.0000    928.1531     14.1935     51.9951
   163.2500      0.0000   1001.5104     13.7459     49.7861
   163.5000      0.0000   1067.2310     13.5610     47.7945
   163.7500      0.0000   1110.5029     13.5535     46.4754
   164.0000      0.0000   1131.3982     13.5990     45.4835
   164.2500     -2.0000   1135.8104     13.6606     44.2725
   164.5000      0.0000   1124.2854     13.7929     43.0282
   164.7500      0.0000   1090.0135     14.0995     42.6929
   165.0000      0.0000   1026.7731     14.6829     43.9392
   165.2500      0.0000    939.1783     15.5590     46.2625
   165.5000      0.0000    843.4766     16.6152     48.3060
   165.7500      0.0000    759.2062     17.6971     49.0271
   166.0000      0.0000    705.7806     18.6853     48.3616
   166.2500      0.0000    703.9954     19.4572     46.8949
   166.5000      0.0000    765.2899     19.8890     45.2992
   166.7500      0.0000    873.6897     19.9714     44.1861
   167.0000      0.0000    989.5147     19.8418     44.1121
   167.2500      0.0000   1077.4690     19.6574     45.2894
   167.5000      0.0000   1127.1952     19.4909     47.3265
   167.7500      0.0000   1148.3391     19.3527     49.5458
   168.0000      0.0000   1153.9631     19.2570     51.5780
   168.2500      0.0000   1150.3022     19.2347     53.4723
   168.5000      0.0000   1134.7979     19.3090     55.2897
   168.7500      0.0000   1099.6078     19.4715     56.8554
   169.0000      0.0000   1040.0267     19.6794     58.0662
   169.2500      0.0000    964.9019     19.8638     59.2807
   169.5000      0.0000    898.2616     19.9491     61.1006
   169.7500      0.0000    865.8317     19.8928     63.7351
   170.0000      0.0000    875.3977     19.7184     66.9924
   170.2500      0.0000    909.3842     19.4994     70.9558
   170.5000      0.0000    940.1929     19.2929     76.1213
   170.7500      0.0000    956.0348     19.0945     82.5017
   171.0000      0.0000    966.9484     18.8780     88.9204
   171.2500      0.0000    980.2823     18.6708     93.7428
   171.5000      0.0000    978.5197     18.5606     96.3952
   171.7500      0.0000    933.4305     18.6145     97.7993
   172.0000      0.0000    843.2610     18.8097     99.2884
   172.2500      0.0000    748.8725     19.0471    101.4573
   172.5000      0.0000    706.1036     19.2231    104.0259
   172.7500      0.0000    738.1187     19.2890    106.3605
   173.0000      0.0000    815.6911     19.2623    107.9169
   173.2500      0.0000    887.9153     19.1866    108.3060
   173.5000      0.0000    929.7108     19.0831    107.0182
   173.7500      0.0000    952.6758     18.9521    103.3309
   174.0000      0.0000    971.0875     18.8239     96.9706
   174.2500      0.0000    971.0076     18.7743     88.9982
   174.5000      0.0000    922.3264     18.8610     81.5764
   174.7500      0.0000    817.3386     19.0608     76.4193
   175.0000      0.0000    691.4403     19.2872     73.5645
   175.2500      0.0000    605.3320     19.4559     71.8794
   175.5000      0.0000    605.8093     19.5219     70.5635
   175.7500      0.0000    696.3137     19.4809     69.8418
   176.0000      0.0000    837.4174     19.3687     70.3590
   176.2500      0.0000    974.9229     19.2503     72.3565
   176.5000      0.0000   1072.9264     19.1818     75.6182
   176.7500      0.0000   1126.1454     19.1724     79.9890
   177.0000      0.0000   1148.4672     19.1823     85.4757
   177.2500      0.0000   1155.7411     19.1525     91.6833
   177.5000      0.0000   1157.5814     19.0404     97.5442
   177.7500      0.0000   1157.9443     18.8475    102.0169
   178.0000      0.0000   1158.0000     18.6254    104.9106
   178.2500      0.0000   1158.0000     18.4478    106.8713
   178.5000      0.0000   1157.9443     18.3643    108.7025
   178.7500      0.0000   1157.6373     18.3749    110.5962
   179.0000      0.0000   1156.1582     18.4481    111.7529
   179.2500      0.0000   1150.7153     18.5607    111.0031
   179.5000      0.0000   1135.5061     18.7211    108.2871
   179.7500      0.0000   1103.7549     18.9532    105.1971
   180.0000      0.0000   1055.2332     19.2530    103.4298
   180.2500      0.0000   1002.5544     19.5674    102.9249
   180.5000      0.0000    962.4699     19.8296    102.0143
   180.7500      0.0000    935.3961     20.0136     99.1737
   181.0000      0.0000    903.0061     20.1405     94.2394
   181.2500      0.0000    857.2283     20.2301     88.1589
   181.5000      0.0000    823.3669     20.2631     82.0451
   181.7500      0.0000    838.4694     20.1978     76.6360
   182.0000      0.0000    908.8052     20.0172     72.2512
   182.2500      0.0000   1000.9577     19.7539     68.8397
   182.5000      0.0000   1072.1907     19.4756     66.1646
   182.7500      0.0000   1096.7926     19.2527     64.2049
   183.0000      0.0000   1065.6206     19.1333     63.2139
   183.2500      0.0000    979.7264     19.1296     63.0596
   183.5000      0.0000    857.8014     19.2084     62.8116
   183.7500      0.0000    743.3782     19.2964     61.5341
   184.0000      0.0000    685.6066     19.3152     59.5045
   184.2500      0.0000    702.5573     19.2286     58.2741
   184.5000      0.0000    769.1366     19.0575     59.4136
   184.7500      0.0000    846.9851     18.8537     63.3149
   185.0000      0.0000    918.0089     18.6637     69.2064
   185.2500      0.0000    981.7396     18.5181     76.1429
   185.5000      0.0000   1032.1003     18.4401     83.6930
   185.7500      0.0000   1053.6185     18.4466     91.5887
   186.0000      0.0000   1040.8073     18.5278     99.0584
   186.2500      0.0000   1012.0936     18.6228    104.8678
   186.5000      0.0000    998.8144     18.6325    107.9824
   186.7500      0.0000   1018.7180     18.4865    108.1216
   187.0000      0.0000   1062.4568     18.2041    105.7448
   187.2500      0.0000   1106.8877     17.8754    101.4946
   187.5000      0.0000   1136.6932     17.5815     95.7662
   187.7500      0.0000   1151.0826     17.3424     89.0652
   188.0000      0.0000   1156.2510     17.1332     82.6915
   188.2500      0.0000   1157.6556     16.9271     78.5161
   188.5000      0.0000   1157.9471     16.7137     77.6161
   188.7500      0.0000   1158.0000     16.4848     79.1613
   189.0000      0.0000   1158.0000     16.2204     80.9082
   189.2500      0.0000   1158.0000     15.8982     81.0232
   189.5000      0.0000   1158.0000     15.5138     79.5071
   189.7500      0.0000   1158.0000     15.0905     77.8352
   190.0000      0.0000   1158.0000     14.6749     77.3230
   190.2500      0.0000   1158.0000     14.3214     77.9834
   190.5000      0.0000   1158.0000     14.0657     78.7257
   190.7500      0.0000   1158.0000     13.9025     78.3488
   191.0000      0.0000   1158.0000     13.7917     76.5195
   191.2500      0.0000   1158.0000     13.6920     74.0846
   191.5000      0.0000   1158.0000     13.5918     72.4398
   191.7500      0.0000   1158.0000     13.5119     72.4853
   192.0000      0.0000   1158.0000     13.4817     74.1608
   192.2500      0.0000   1158.0000     13.5122     76.8236
   192.5000      0.0000   1157.9756     13.5885     79.8943
