~Version Information
VERS.                      2.0: CWLS Log ASCII Standard - VERSION 2.0
WRAP.                       NO: One line per depth step
~Well Information Block
STRT.FT                 0.0000: 
STOP.FT              1674.7500: 
STEP.FT                 0.2500: 
NULL.                -999.2500: 
COMP.          Pioneer Natural Resources: COMPANY
WELL.          Culver 14-12 Tr: WELL
FLD.           Purgatorie River: FIELD
LOC.           915' FSL & 1048' FWL: LOCATION
STAT.                 Colorado: Colorado
CNTY.               Las Animas: COUNTY
CTRY. USA : Country
SECT. 12 : Section
TOWN. 32S : Township
RANG. 66W : Range
SRVC.                Patterson: SERVICE COMPANY
DATE.          Mon Oct 03 12:52:29 2005: LOG DATE
API. 05-071-08520                         : UNIQUE WELL ID
~Curve Information Block
DEPT.FT            0 000 00 00: Depth
CCL.                          : Casing Collar Locator
TT3.usec                      : CBL 3' Travel Time
AMP3.mV                       : CBL 3' Amplitude
GR.GAPI                       : Gamma Ray
~Parameter Information Block
~A  Depth       CCL         TT3         AMP3         GR     
# ...
   536.0000      0.0000    853.9651     10.3657     86.4375
   536.2500      0.0000    853.9799     10.3767     87.3561
   536.5000      0.0000    853.9572     10.3578     90.0933
   536.7500      0.0000    853.9537     10.3777     95.1229
   537.0000      0.0000    853.9398     10.4457    101.5236
   537.2500      0.0000    853.8642     10.5146    108.1253
   537.5000      0.0000    853.7748     10.5295    114.1761
   537.7500      0.0000    853.8044     10.5044    119.0553
   538.0000      0.0000    854.0087     10.5117    121.9807
   538.2500      0.0000    854.2636     10.5697    122.7284
   538.5000      0.0000    854.3621     10.6085    122.5699
   538.7500      0.0000    854.1304     10.5649    123.5867
   539.0000      0.0000    853.2029     10.4490    126.6749
   539.2500      0.0000    850.9248     10.3142    130.7516
   539.5000      0.0000    847.6572     10.2068    134.0502
   539.7500      0.0000    845.8282     10.1467    135.5001
   540.0000      0.0000    847.1817     10.1218    134.8501
   540.2500      0.0000    850.0667     10.1098    132.4632
   540.5000      0.0000    852.0394     10.1174    129.3905
   540.7500      0.0000    852.6952     10.1585    126.9341
   541.0000      0.0000    852.7632     10.2040    125.5752
   541.2500      0.0000    852.7552     10.2143    124.5494
   541.5000      0.0000    852.8255     10.1870    122.7062
   541.7500      0.0000    852.9369     10.1359    119.6320
   542.0000      0.0000    853.0204     10.0608    115.7252
   542.2500      0.0000    853.1088      9.9689    111.2885
   542.5000      0.0000    853.2773      9.9052    105.8854
   542.7500      0.0000    853.5081      9.9196     98.7911
   543.0000      0.0000    853.7198     10.0106     89.9108
   543.2500      0.0000    853.8710     10.1237     80.0456
   543.5000      0.0000    853.8551     10.1983     70.4392
   543.7500      0.0000    853.1760     10.2177     62.3748
   544.0000      0.0000    851.0551     10.2255     57.1040
   544.2500      0.0000    847.8248     10.2883     55.5432
   544.5000      0.0000    845.5696     10.4229     57.5456
   544.7500      0.0000    844.5244     10.5752     61.5867
   545.0000      0.0000    840.1148     10.6953     65.6724
   545.2500      0.0000    828.7959     10.7947     68.7237
   545.5000      0.0000    816.2005     10.8988     70.9582
   545.7500      0.0000    813.0483     10.9970     73.0018
   546.0000      0.0000    821.6944     11.0611     75.0159
   546.2500      0.0000    833.0359     11.0729     76.7609
   546.5000      0.0000    838.2594     11.0319     78.0130
   546.7500      0.0000    838.3421     10.9629     78.5390
   547.0000      0.0000    839.7231     10.9037     77.9759
   547.2500      0.0000    844.5803     10.8639     76.1366
   547.5000      0.0000    849.7689     10.8072     73.3408
   547.7500      0.0000    852.7623     10.7013     70.2934
   548.0000      0.0000    853.8859     10.5724     67.7285
   548.2500      0.0000    854.1271     10.4812     66.1279
   548.5000      0.0000    853.5459     10.4607     65.6058
   548.7500      0.0000    851.5377     10.4997     66.0161
   549.0000      0.0000    848.5063     10.5746     67.0625
   549.2500      0.0000    846.8687     10.6660     68.1955
   549.5000      0.0000    848.3215     10.7541     68.7668
   549.7500      0.0000    851.2439     10.8212     68.7646
   550.0000      0.0000    853.2347     10.8501     69.1569
   550.2500      0.0000    853.8878     10.8233     70.8964
   550.5000      0.0000    853.9369     10.7458     73.5954
   550.7500      0.0000    853.8828     10.6518     75.7676
   551.0000      0.0000    853.8694     10.5675     76.4658
   551.2500      0.0000    853.9104     10.4951     76.1256
   551.5000      0.0000    853.9597     10.4356     75.6248
   551.7500      0.0000    853.9656     10.3942     75.0727
   552.0000      0.0000    853.9188     10.3755     73.9609
   552.2500      0.0000    853.7205     10.3897     72.2961
   552.5000      0.0000    852.8674     10.4471     71.0531
   552.7500      0.0000    850.3160     10.5352     71.2476
   553.0000      0.0000    845.2957     10.6061     72.8724
   553.2500      0.0000    838.5639     10.6146     75.1949
   553.5000      0.0000    833.0513     10.5606     77.7847
   553.7500      0.0000    833.6590     10.4765     80.5818
   554.0000      0.0000    842.9995     10.4031     83.1128
   554.2500      0.0000    856.0544     10.3814     84.4529
   554.5000      0.0000    864.1785     10.4288     84.0852
   554.7500      0.0000    864.2774     10.5236     82.3474
   555.0000      0.0000    860.3124     10.6371     80.0110
   555.2500      0.0000    856.8435     10.7567     77.8493
   555.5000      0.0000    855.0475     10.8630     76.6515
   555.7500      0.0000    854.3097     10.9313     77.2134
   556.0000      0.0000    854.0960     10.9661     79.9935
   556.2500      0.0000    854.1331     10.9846     84.6311
   556.5000      0.0000    854.2379     10.9846     89.6437
   556.7500      0.0000    854.3335     10.9701     92.7980
   557.0000      0.0000    854.3191     10.9755     92.4886
   557.2500      0.0000    853.6617     11.0358     89.2271
   557.5000      0.0000    851.3920     11.1554     85.5621
   557.7500      0.0000    847.3913     11.3003     84.1348
   558.0000      0.0000    843.3690     11.4060     85.6457
   558.2500      0.0000    841.0291     11.4249     88.6075
   558.5000      0.0000    840.2668     11.3804     90.8197
   558.7500      0.0000    840.1685     11.3464     91.0557
   559.0000      0.0000    840.2217     11.3595     89.8441
   559.2500      0.0000    840.3383     11.3941     89.1161
   559.5000      0.0000    840.4554     11.4294     90.7451
   559.7500      0.0000    840.3513     11.4825     94.6900
   560.0000      0.0000    839.5583     11.5718     98.6910
   560.2500      0.0000    837.7585     11.6839    100.4313
   560.5000      0.0000    835.8101     11.7754     99.9413
   560.7500      0.0000    835.0645     11.8090     99.4066
   561.0000      0.0000    834.5955     11.8003    100.7709
   561.2500      0.0000    832.8912     11.8115    103.9445
   561.5000      0.0000    831.6429     11.8772    107.1079
   561.7500      0.0000    832.5452     11.9674    108.2566
   562.0000      0.0000    833.3133     12.0390    106.5611
   562.2500      0.0000    831.6468     12.0685    102.7559
   562.5000      0.0000    829.7812     11.9931     98.5168
   562.7500      0.0000    830.9131     11.6793     95.3654
   563.0000      0.0000    832.6252     11.1176     93.8690
   563.2500      0.0000    830.2330     10.6731     93.4951
   563.5000      0.0000    834.3406     10.6784     93.0582
   563.7500      0.0000    871.8793     10.7323     91.4839
   564.0000      0.0000    946.0731     10.2940     88.3260
   564.2500      0.0000   1014.2217      9.6578     83.6203
   564.5000      0.0000   1036.2213      9.3634     77.6339
   564.7500      0.0000   1019.8080      9.4277     71.0949
   565.0000      0.0000    994.0205      9.6243     65.2633
   565.2500     -2.0000    977.3113      9.8084     61.1937
   565.5000      2.0000    981.4702      9.8960     59.1361
   565.7500      0.0000   1004.7543      9.8973     59.1054
   566.0000      0.0000   1025.6122     10.0909     61.7814
   566.2500      0.0000   1022.0784     10.8040     68.2154
   566.5000      0.0000    988.2870     11.7474     78.3639
   566.7500      0.0000    937.9191     12.3657     90.1826
   567.0000      0.0000    894.5789     12.8186    100.6076
   567.2500      0.0000    868.7870     13.4680    107.5972
   567.5000      0.0000    852.7215     14.0818    111.1108
   567.7500      0.0000    839.0837     14.3286    112.2326
   568.0000      0.0000    828.9072     14.2536    112.0075
   568.2500      0.0000    823.5709     14.0554    111.3493
   568.5000      0.0000    821.5471     13.8565    111.0731
   568.7500      0.0000    821.0226     13.6920    111.2053
   569.0000      0.0000    821.0756     13.5521    110.8246
   569.2500      0.0000    821.3095     13.4229    109.1730
