~Version Information
VERS.                      2.0: CWLS Log ASCII Standard - VERSION 2.0
WRAP.                       NO: One line per depth step
~Well Information Block
STRT.FT               695.5000: 
STOP.FT              1499.5000: 
STEP.FT                 0.2500: 
NULL.                -999.2500: 
COMP.          Pioneer Natural Resources: COMPANY
WELL.          Pallet Ranch 34-25 Tr: WELL
FLD.           Purgatoire River: FIELD
LOC.           465' FSL & 2138' FEL: LOCATION
PROV.                 Colorado: PROVINCE
CNTY.               Las Animas: COUNTRY
SRVC.                Patterson: SERVICE COMPANY
DATE.          Wed Jan 18 18:58:46 2006: LOG DATE
UWI.           05 071 08657 00: UNIQUE WELL ID
~Curve Information Block
DEPT.FT            0 000 00 00: Depth
SN.Ohm-m                      : IEL Short Normal
SP.mV                         : IEL Spontaneous Potential
DIR.Ohm-m                     : IEL Induction Resistivity
GR.GAPI                       : Gamma Ray
~Parameter Information Block
~A  Depth        SN          SP         DIR          GR     
# ...
   762.5000   2000.0000   2000.0000     26.3859     67.4055
   762.7500   2000.0000   2000.0000     27.3996     69.6222
   763.0000   2000.0000   2000.0000     28.4504     74.9540
   763.2500   2000.0000   2000.0000     29.3936     78.9279
   763.5000   2000.0000   2000.0000     30.0429     83.4328
   763.7500   2000.0000   2000.0000     30.2702     84.4772
   764.0000   2000.0000   2000.0000     30.0887     82.5406
   764.2500   2000.0000   2000.0000     29.6554     79.4491
   764.5000   2000.0000   2000.0000     29.1882     74.1968
   764.7500   2000.0000   2000.0000     28.8545     71.5092
   765.0000   2000.0000   2000.0000     28.6884     69.3811
   765.2500   2000.0000   2000.0000     28.5611     68.6882
   765.5000   2000.0000   2000.0000     28.2338     67.4716
   765.7500   2000.0000   2000.0000     27.5051     66.3629
   766.0000   2000.0000   2000.0000     26.3537     65.0657
   766.2500   2000.0000   2000.0000     24.9385     65.0884
   766.5000   2000.0000   2000.0000     23.4652     67.0733
   766.7500   2000.0000   2000.0000     22.0746     69.7831
   767.0000   2000.0000   2000.0000     20.8256     76.0194
   767.2500   2000.0000   2000.0000     19.7338     81.6641
   767.5000   2000.0000   2000.0000     18.8083     91.8154
   767.7500   2000.0000   2000.0000     18.0618     98.7871
   768.0000   2000.0000   2000.0000     17.4994    107.5312
   768.2500   2000.0000   2000.0000     17.1022    111.4576
   768.5000   2000.0000   2000.0000     16.8203    114.4553
   768.7500   2000.0000   2000.0000     16.5851    114.9839
   769.0000   2000.0000   2000.0000     16.3372    114.5665
   769.2500   2000.0000   2000.0000     16.0503    114.0143
   769.5000   2000.0000   2000.0000     15.7320    113.2961
   769.7500   2000.0000   2000.0000     15.4039    112.8225
   770.0000   2000.0000   2000.0000     15.0822    111.6325
   770.2500   2000.0000   2000.0000     14.7729    110.3671
   770.5000   2000.0000   2000.0000     14.4759    108.0942
   770.7500   2000.0000   2000.0000     14.1892    106.7422
   771.0000   2000.0000   2000.0000     13.9097    105.6203
   771.2500   2000.0000   2000.0000     13.6342    105.8089
   771.5000   2000.0000   2000.0000     13.3628    108.1113
   771.7500   2000.0000   2000.0000     13.0962    111.2569
   772.0000   2000.0000   2000.0000     12.8292    118.1348
   772.2500   2000.0000   2000.0000     12.5461    123.4756
   772.5000   2000.0000   2000.0000     12.2284    131.0284
   772.7500   2000.0000   2000.0000     11.8697    135.0567
   773.0000   2000.0000   2000.0000     11.4845    139.3232
   773.2500   2000.0000   2000.0000     11.0995    141.3274
   773.5000   2000.0000   2000.0000     10.7364    143.9176
   773.7500   2000.0000   2000.0000     10.4013    145.6081
   774.0000   2000.0000   2000.0000     10.0897    147.7624
   774.2500   2000.0000   2000.0000      9.8015    148.5442
   774.5000   2000.0000   2000.0000      9.5514    148.2915
   774.7500   2000.0000   2000.0000      9.3645    147.1716
   775.0000   2000.0000   2000.0000      9.2643    144.5685
   775.2500   2000.0000   2000.0000      9.2613    142.8823
   775.5000   2000.0000   2000.0000      9.3509    141.7345
   775.7500   2000.0000   2000.0000      9.5174    142.1082
   776.0000   2000.0000   2000.0000      9.7412    143.2572
   776.2500   2000.0000   2000.0000     10.0049    143.3673
   776.5000   2000.0000   2000.0000     10.2956    141.3778
   776.7500   2000.0000   2000.0000     10.6038    138.4820
   777.0000   2000.0000   2000.0000     10.9215    131.9456
   777.2500   2000.0000   2000.0000     11.2450    126.1984
   777.5000   2000.0000   2000.0000     11.5797    115.8773
   777.7500   2000.0000   2000.0000     11.9431    108.5855
   778.0000   2000.0000   2000.0000     12.3611     99.1695
   778.2500   2000.0000   2000.0000     12.8566     95.1908
   778.5000   2000.0000   2000.0000     13.4385     93.5688
   778.7500   2000.0000   2000.0000     14.0935     94.7022
   779.0000   2000.0000   2000.0000     14.7852     97.1502
   779.2500   2000.0000   2000.0000     15.4595     97.9664
   779.5000   2000.0000   2000.0000     16.0508     97.5061
   779.7500   2000.0000   2000.0000     16.4928     96.7981
   780.0000   2000.0000   2000.0000     16.7313     96.8065
   780.2500   2000.0000   2000.0000     16.7350     98.1260
   780.5000   2000.0000   2000.0000     16.5024    102.1253
   780.7500   2000.0000   2000.0000     16.0634    105.7537
   781.0000   2000.0000   2000.0000     15.4769    111.6598
   781.2500   2000.0000   2000.0000     14.8200    115.3263
   781.5000   2000.0000   2000.0000     14.1657    119.7644
   781.7500   2000.0000   2000.0000     13.5643    121.9009
   782.0000   2000.0000   2000.0000     13.0339    124.0066
   782.2500   2000.0000   2000.0000     12.5657    124.9852
   782.5000   2000.0000   2000.0000     12.1336    126.8154
   782.7500   2000.0000   2000.0000     11.7082    128.8899
   783.0000   2000.0000   2000.0000     11.2692    133.6423
   783.2500   2000.0000   2000.0000     10.8133    137.5751
   783.5000   2000.0000   2000.0000     10.3536    143.4552
   783.7500   2000.0000   2000.0000      9.9103    146.6172
   784.0000   2000.0000   2000.0000      9.5013    149.4251
   784.2500   2000.0000   2000.0000      9.1375    150.0246
   784.5000   2000.0000   2000.0000      8.8222    149.7351
   784.7500   2000.0000   2000.0000      8.5535    149.2562
   785.0000   2000.0000   2000.0000      8.3255    148.7359
   785.2500   2000.0000   2000.0000      8.1304    148.8112
   785.5000   2000.0000   2000.0000      7.9595    150.0373
   785.7500   2000.0000   2000.0000      7.8056    151.6299
   786.0000   2000.0000   2000.0000      7.6634    154.1986
   786.2500   2000.0000   2000.0000      7.5303    154.9968
   786.5000   2000.0000   2000.0000      7.4054    153.5313
   786.7500   2000.0000   2000.0000      7.2895    150.8602
   787.0000   2000.0000   2000.0000      7.1841    145.6942
   787.2500   2000.0000   2000.0000      7.0899    142.5519
   787.5000   2000.0000   2000.0000      7.0061    140.0413
   787.7500   2000.0000   2000.0000      6.9302    140.5001
   788.0000   2000.0000   2000.0000      6.8600    144.0638
   788.2500   2000.0000   2000.0000      6.7961    147.2335
   788.5000   2000.0000   2000.0000      6.7423    150.8516
   788.7500   2000.0000   2000.0000      6.7032    151.7559
   789.0000   2000.0000   2000.0000      6.6818    151.2834
   789.2500   2000.0000   2000.0000      6.6783    150.7425
   789.5000   2000.0000   2000.0000      6.6906    151.3120
   789.7500   2000.0000   2000.0000      6.7152    153.0190
   790.0000   2000.0000   2000.0000      6.7489    157.0910
   790.2500   2000.0000   2000.0000      6.7887    160.1676
   790.5000   2000.0000   2000.0000      6.8323    164.2451
   790.7500   2000.0000   2000.0000      6.8775    166.2362
   791.0000   2000.0000   2000.0000      6.9227    167.9718
   791.2500   2000.0000   2000.0000      6.9681    168.1774
   791.5000   2000.0000   2000.0000      7.0173    166.4107
   791.7500   2000.0000   2000.0000      7.0768    163.5172
   792.0000   2000.0000   2000.0000      7.1534    157.1069
   792.2500   2000.0000   2000.0000      7.2497    152.4010
   792.5000   2000.0000   2000.0000      7.3628    146.3410
   792.7500   2000.0000   2000.0000      7.4852    143.3161
   793.0000   2000.0000   2000.0000      7.6093    139.6848
   793.2500   2000.0000   2000.0000      7.7323    137.2274
   793.5000   2000.0000   2000.0000      7.8580    132.9033
   793.7500   2000.0000   2000.0000      7.9943    129.7916
   794.0000   2000.0000   2000.0000      8.1477    125.7249
   794.2500   2000.0000   2000.0000      8.3190    123.9992
   794.5000   2000.0000   2000.0000      8.5020    123.4884
   794.7500   2000.0000   2000.0000      8.6855    124.4999
   795.0000   2000.0000   2000.0000      8.8571    127.2008
   795.2500   2000.0000   2000.0000      9.0072    128.9519
   795.5000   2000.0000   2000.0000      9.1332    130.0873
   795.7500   2000.0000   2000.0000      9.2399    129.4419
