~Version Information
VERS.                      2.0: CWLS Log ASCII Standard - VERSION 2.0
WRAP.                       NO: One line per depth step
~Well Information Block
STRT.FT                -5.0000: 
STOP.FT              1761.2500: 
STEP.FT                 0.2500: 
NULL.                -999.2500: 
COMP.          Pioneer Natural Resources: COMPANY
WELL.          Manville 42-14 Tr: WELL
FLD.           Purgatoire River: FIELD
LOC.           2018'FNL & 562' FEL: LOCATION
STAT.                 Colorado: State
CNTY.               Las Animas: COUNTY
CTRY. USA : Country
SECT. 14 : Section
TOWN. 32S : Township
RANG. 66W : Range
SRVC.                Patterson: SERVICE COMPANY
DATE.          Fri Sep 23 10:37:02 2005: LOG DATE
API. 05-071-08522             : UNIQUE WELL ID
~Curve Information Block
DEPT.FT            0 000 00 00: Depth
CCL.                          : Casing Collar Locator
TT3.usec                      : CBL 3' Travel Time
AMP3.mV                       : CBL 3' Amplitude
AMP5.mV                       : CBL 5' Amplitude
GR.GAPI                       : Gamma Ray
~Parameter Information Block
~A  Depth       CCL         TT3         AMP3        AMP5         GR     
# ...
  1143.0000      0.0000    303.5508     18.1239      8.7435     83.4275
  1143.2500      0.0000    307.0164     17.6335      5.0005     83.9316
  1143.5000      0.0000    316.6943     16.9276      2.6503     84.4836
  1143.7500      0.0000    337.5267     15.9800     10.2233     83.9194
  1144.0000      0.0000    371.9850     14.8319      3.5207     81.8194
  1144.2500      0.0000    416.7440     13.6256      4.5653     79.1561
  1144.5000      0.0000    466.1014     12.5153      4.3912     77.5139
  1144.7500      0.0000    519.5559     11.5545      4.0430     77.6182
  1145.0000      0.0000    580.6932     10.7327      3.7819     78.7290
  1145.2500      0.0000    645.7222     10.0796      3.7819     79.2442
  1145.5000      0.0000    698.4484      9.6469      3.0855     77.9054
  1145.7500      2.0000    720.4135      9.4219      3.6078     74.8113
  1146.0000      0.0000    704.5436      9.3367      3.8689     71.2729
  1146.2500      0.0000    659.4498      9.3446      3.2596     68.5301
  1146.5000      0.0000    602.5624      9.4714      3.8689     66.9216
  1146.7500      0.0000    547.4539      9.8133      3.5207     66.4421
  1147.0000      0.0000    496.3687     10.4609      3.6078     67.4467
  1147.2500      0.0000    445.8683     11.3672      3.3466     70.2354
  1147.5000      0.0000    397.1981     12.3167      3.8689     74.0480
  1147.7500      0.0000    356.9993     13.0997      3.6078     76.9367
  1148.0000      0.0000    329.9940     13.6811      3.3466     77.0601
  1148.2500      0.0000    315.2238     14.1486      3.6078     74.2485
  1148.5000      0.0000    308.6131     14.5628      9.2658     70.1702
  1148.7500      0.0000    306.5034     14.9106      4.0430     67.0096
  1149.0000      0.0000    306.9952     15.1427      4.2171     66.1561
  1149.2500      0.0000    309.5545     15.2054      5.2617     67.9435
  1149.5000      0.0000    313.7422     15.0769      5.4358     71.9615
  1149.7500      0.0000    317.9705     14.8050      5.1746     77.1258
  1150.0000      0.0000    319.8597     14.4909      5.3487     81.6831
  1150.2500      0.0000    318.1681     14.2172      5.9580     83.9401
  1150.5000      0.0000    314.0124     14.0021      5.6098     83.4524
  1150.7500      0.0000    309.7215     13.8200      5.4358     81.4153
  1151.0000      0.0000    306.8318     13.6499      5.3487     79.6963
  1151.2500      0.0000    305.4543     13.4970      5.6098     79.5201
  1151.5000      0.0000    304.9874     13.3823      5.6969     81.0126
  1151.7500      0.0000    304.8777     13.3172      5.1746     83.5877
  1152.0000      0.0000    304.8515     13.2895      5.4358     86.4259
  1152.2500      0.0000    304.8303     13.2777      5.1746     88.7620
  1152.5000      0.0000    304.8017     13.2805      5.0876     90.0271
  1152.7500      0.0000    304.7406     13.3239      5.3487     89.8050
  1153.0000      0.0000    304.6141     13.4360      5.4358     87.8350
  1153.2500      0.0000    304.4404     13.6224      6.0451     84.5069
  1153.5000      0.0000    304.3848     13.8621      5.6098     81.4950
  1153.7500      0.0000    305.1229     14.1124      5.8710     81.3502
  1154.0000      0.0000    308.8112     14.3060      5.3487     85.7029
  1154.2500      0.0000    320.3633     14.3511      4.6523     93.6741
  1154.5000      0.0000    346.8719     14.1648      5.0876    102.3557
  1154.7500      0.0000    391.7549     13.7314      4.4782    109.0982
  1155.0000      0.0000    445.4395     13.1311      4.6523    113.4249
  1155.2500      0.0000    484.2038     12.5005      4.5653    116.8264
  1155.5000      0.0000    486.0448     11.9601      4.5653    120.7993
  1155.7500      0.0000    451.0645     11.5673      5.0876    125.0391
  1156.0000      0.0000    403.2469     11.3118      4.4782    127.5456
  1156.2500      0.0000    372.6404     11.1311      5.0005    126.6047
  1156.5000      0.0000    378.7140     10.9407      4.8264    122.5096
  1156.7500      0.0000    425.4821     10.6861      4.7394    117.2340
  1157.0000      0.0000    501.4522     10.3859      4.7394    112.8732
  1157.2500      0.0000    582.5809     10.1255      4.3912    110.7682
  1157.5000      0.0000    644.2590     10.0049      4.5653    111.5019
  1157.7500      0.0000    676.2180     10.0838      3.6078    114.7841
  1158.0000      0.0000    683.0319     10.3608      3.6078    119.1629
  1158.2500      0.0000    669.8030     10.7854      2.9984    122.4242
  1158.5000      0.0000    634.6701     11.2702      3.1725    122.7229
  1158.7500      0.0000    580.2806     11.6838      2.8244    119.4876
  1159.0000      0.0000    526.9821     11.8537      2.7373    113.4534
  1159.2500      0.0000    505.0845     11.6215      2.8244    106.0902
  1159.5000      0.0000    530.7383     10.9281      2.1280     99.0152
  1159.7500      0.0000    591.9836      9.8481      1.9539     93.5626
  1160.0000      0.0000    659.7477      8.5372      1.3446     90.3321
  1160.2500      0.0000    710.2544      7.1476      0.8223     88.8542
  1160.5000      0.0000    736.2455      5.7824      0.6482     88.0448
  1160.7500      0.0000    741.8177      4.5021      0.3000     87.3563
  1161.0000      0.0000    733.0308      3.3493      0.3000     87.0909
  1161.2500      0.0000    714.7614      2.3647      0.0389     87.2418
  1161.5000      0.0000    692.0950      1.5800     -0.0482     86.5629
  1161.7500      0.0000    670.3306      0.9999     -0.3964     83.3663
  1162.0000      0.0000    652.9257      0.5961     -0.3964     77.1085
  1162.2500      0.0000    640.8604      0.3264     -0.4834     69.0020
  1162.5000      0.0000    634.1552      0.1637     -0.2223     61.2328
  1162.7500      0.0000    633.3414      0.1088      0.0389     55.7573
  1163.0000      0.0000    639.2194      0.1802      0.0389     53.6137
  1163.2500      0.0000    651.3320      0.3943     -0.7446     54.8659
  1163.5000      0.0000    666.7736      0.7542     -0.0482     58.9048
  1163.7500      0.0000    681.2150      1.2582     -0.0482     65.0432
  1164.0000      0.0000    691.8810      1.9208      0.0389     73.1046
  1164.2500      0.0000    699.2262      2.7828      0.3000     83.2778
  1164.5000      0.0000    705.1074      3.8921     -0.0482     95.1100
  1164.7500      0.0000    709.3766      5.2689      0.5611    106.7823
  1165.0000      0.0000    707.4019      6.8811      0.4741    115.7429
  1165.2500      0.0000    689.5881      8.6422      0.9964    120.1084
  1165.5000      0.0000    645.4063     10.4248      1.6057    119.4306
  1165.7500      0.0000    572.9386     12.0758      2.0409    114.5153
  1166.0000      0.0000    485.7111     13.4382      2.9984    106.9573
  1166.2500      0.0000    406.2624     14.3889      3.8689     98.7839
  1166.5000      0.0000    350.8104     14.8805      4.0430     91.9608
  1166.7500      0.0000    320.9870     14.9609      4.6523     87.6380
  1167.0000      0.0000    308.6098     14.7559      5.0876     85.5414
  1167.2500      0.0000    304.6513     14.4268      5.9580     84.0914
  1167.5000      0.0000    303.6665     14.1196      5.7839     81.3981
  1167.7500      0.0000    303.4574     13.9220      5.7839     76.6617
  1168.0000      0.0000    303.4211     13.8422      5.6969     70.9143
  1168.2500      0.0000    303.4709     13.8269      5.5228     66.1266
  1168.5000      0.0000    303.6003     13.8127      5.1746     63.3674
  1168.7500      0.0000    303.7844     13.7714      5.6098     62.1752
  1169.0000      0.0000    303.9666     13.7182      5.4358     61.7717
  1169.2500      0.0000    304.0982     13.6879      6.4803     62.2162
  1169.5000      0.0000    304.1608     13.7036      5.6098     64.1107
  1169.7500      0.0000    304.1624     13.7603      5.6098     67.7374
  1170.0000      0.0000    304.1271     13.8328      5.7839     72.7934
  1170.2500      0.0000    304.0844     13.9001      5.4358     78.7986
  1170.5000      0.0000    304.0552     13.9638      5.1746     85.6118
  1170.7500      0.0000    304.0433     14.0421      5.7839     93.4862
