~Version Information
VERS.                      2.0: CWLS Log ASCII Standard - VERSION 2.0
WRAP.                       NO: One line per depth step
~Well Information Block
STRT.FT                -7.7500: 
STOP.FT              2446.5000: 
STEP.FT                 0.2500: 
NULL.                -999.2500: 
COMP.          XTO Energy Inc.: COMPANY
WELL.          Hill Ranch 15-09: WELL
FLD.           Purgatoire River: FIELD
LOC.           1816' FSL & 521' FEL: LOCATION
STAT.                 Colorado: State
CNTY.               Las Animas: COUNTY
CTRY. USA : Country
SECT. 15 : Section
TOWN. 35S : Township
RANG. 67W : Range
SRVC.          Patterson Wireline: SERVICE COMPANY
DATE.          Fri Dec 09 17:49:58 2005: LOG DATE
API. 05-071-08474                          : UNIQUE WELL ID
~Curve Information Block
DEPT.FT            0 000 00 00: Depth
CCL.                          : Casing Collar Locator
TT3.usec                      : CBL 3' Travel Time
AMP3.mV                       : CBL 3' Amplitude
AMP5.mV                       : CBL 5' Amplitude
GR.GAPI                       : Gamma Ray
~Parameter Information Block
~A  Depth       CCL         TT3         AMP3        AMP5         GR     
# ...
  2260.2500      0.0000    259.4797     75.7487     69.3112     78.0587
  2260.5000      0.0000    259.4741     75.7382     69.3500     79.8479
  2260.7500      0.0000    259.4673     75.7637     69.4183     75.9668
  2261.0000      0.0000    259.4627     75.7964     69.5115     66.7296
  2261.2500      0.0000    259.4594     75.8272     69.5971     54.5672
  2261.5000      0.0000    259.4543     75.8608     69.6561     42.6219
  2261.7500      0.0000    259.4470     75.8879     69.6948     33.2197
  2262.0000      0.0000    259.4419     75.8742     69.7377     27.2650
  2262.2500      0.0000    259.4452     75.7838     69.8187     24.4005
  2262.5000      0.0000    259.4590     75.6132     69.9477     23.5104
  2262.7500      0.0000    259.4785     75.4012     70.0647     23.4837
  2263.0000      0.0000    259.4948     75.2057     70.0240     23.8796
  2263.2500      0.0000    259.5033     75.0659     69.6082     24.8426
  2263.5000      0.0000    259.5048     74.9797     68.5041     26.3867
  2263.7500      0.0000    259.5026     74.9095     66.2458     28.0348
  2264.0000      0.0000    259.4987     74.7961     62.3258     29.3236
  2264.2500      0.0000    259.4995     74.5430     56.5758     30.3955
  2264.5000      0.0000    259.5270     73.9655     49.4957     31.8377
  2264.7500      0.0000    259.6624     72.7611     42.1018     33.9735
  2265.0000      0.0000    260.1228     70.6152     35.4510     36.3851
  2265.2500      0.0000    261.3195     67.4079     30.3077     38.0415
  2265.5000      0.0000    263.6998     63.2891     26.9857     37.8897
  2265.7500      0.0000    267.2400     58.5522     25.2538     35.6127
  2266.0000      0.0000    270.9748     53.6113     24.5062     32.0253
  2266.2500      0.0000    273.3616     49.1392     24.1904     28.5896
  2266.5000      0.0000    273.5056     45.8918     24.0710     26.3786
  2266.7500      0.0000    271.9379     44.1627     24.1292     25.5172
  2267.0000     -2.0000    270.0253     43.5600     24.3451     25.5425
  2267.2500      2.0000    268.8531     43.4112     24.6204     26.1441
  2267.5000      0.0000    268.8453     43.2427     24.8299     27.5900
  2267.7500      0.0000    270.0178     42.9421     24.9002     30.5460
  2268.0000      0.0000    271.9974     42.8171     24.8495     35.4850
  2268.2500      0.0000    273.7551     43.6361     24.7630     42.2737
  2268.5000      0.0000    273.9060     46.2672     24.7147     50.3637
  2268.7500      0.0000    271.7934     50.9235     24.7570     59.2177
  2269.0000      0.0000    268.1613     56.8318     25.1442     68.3341
  2269.2500      0.0000    264.4973     62.7502     26.6283     76.8944
  2269.5000      0.0000    261.8440     67.6803     30.2702     83.7013
  2269.7500      0.0000    260.3589     71.1462     36.5868     87.8666
  2270.0000      0.0000    259.6880     73.1581     44.8310     89.6438
  2270.2500      0.0000    259.4356     74.0720     53.2751     90.2220
  2270.5000      0.0000    259.3542     74.3573     60.2352     90.4537
  2270.7500      0.0000    259.3322     74.3812     64.8920     89.9591
  2271.0000      0.0000    259.3341     74.3564     67.4048     87.7454
  2271.2500      0.0000    259.3483     74.4038     68.4842     83.7292
  2271.5000      0.0000    259.3665     74.5834     68.8527     79.3127
  2271.7500      0.0000    259.3803     74.8776     68.9573     76.3241
  2272.0000      0.0000    259.3855     75.1964     69.0097     75.8347
  2272.2500      0.0000    259.3828     75.4307     69.1514     78.1205
  2272.5000      0.0000    259.3747     75.5094     69.4960     83.0354
  2272.7500      0.0000    259.3627     75.4238     70.0438     89.7502
  2273.0000      0.0000    259.3473     75.2253     70.6414     96.3175
  2273.2500      0.0000    259.3309     75.0023     71.0809    100.1006
  2273.5000      0.0000    259.3193     74.8305     71.2471     99.2661
  2273.7500      0.0000    259.3180     74.7353     71.1714     94.3896
  2274.0000      0.0000    259.3268     74.7020     70.9616     88.6664
  2274.2500      0.0000    259.3403     74.7093     70.6930     86.0439
  2274.5000      0.0000    259.3531     74.7422     70.3638     88.5471
  2274.7500      0.0000    259.3625     74.7832     69.9474     94.9334
  2275.0000      0.0000    259.3692     74.8077     69.4632    101.6299
  2275.2500      0.0000    259.3776     74.7891     68.9827    105.0916
  2275.5000      0.0000    259.3925     74.7129     68.5802    103.8234
  2275.7500      0.0000    259.4133     74.5931     68.2909     98.8573
  2276.0000      0.0000    259.4323     74.4737     68.0959     92.7944
  2276.2500      0.0000    259.4412     74.3979     67.9315     88.2671
  2276.5000      0.0000    259.4379     74.3711     67.7412     86.6566
  2276.7500      0.0000    259.4267     74.3559     67.5515     87.6195
  2277.0000      0.0000    259.4137     74.3023     67.4862     89.6107
  2277.2500      0.0000    259.4026     74.1742     67.6760     91.0177
  2277.5000      0.0000    259.3944     73.9641     68.1408     91.1955
  2277.7500      0.0000    259.3885     73.7093     68.7619     90.6515
  2278.0000      0.0000    259.3837     73.4976     69.3575     90.3296
  2278.2500      0.0000    259.3785     73.4258     69.7797     90.7783
  2278.5000      0.0000    259.3714     73.5240     69.9679     91.8879
  2278.7500      0.0000    259.3620     73.7243     69.9608     93.1098
  2279.0000      0.0000    259.3527     73.9140     69.8667     93.9411
  2279.2500      0.0000    259.3476     74.0195     69.7927     94.5246
  2279.5000      0.0000    259.3497     74.0400     69.7653     95.6830
  2279.7500      0.0000    259.3582     74.0179     69.7037     97.8436
  2280.0000      0.0000    259.3698     73.9859     69.4760    100.0928
  2280.2500      0.0000    259.3830     73.9402     69.0048    100.9931
  2280.5000      0.0000    259.3984     73.8640     68.3470    100.2333
  2280.7500      0.0000    259.4144     73.7779     67.6799     98.9100
  2281.0000      0.0000    259.4234     73.7463     67.1893     98.4541
  2281.2500      0.0000    259.4170     73.8149     66.9470     99.7888
  2281.5000      0.0000    259.3938     73.9584     66.8900    103.0792
  2281.7500      0.0000    259.3621     74.1105     66.9162    107.4881
  2282.0000      0.0000    259.3342     74.2294     66.9818    111.2143
  2282.2500      0.0000    259.3183     74.3148     67.1015    112.5502
  2282.5000      0.0000    259.3152     74.3745     67.2840    111.4186
  2282.7500      0.0000    259.3194     74.3991     67.4979    109.6495
  2283.0000      0.0000    259.3242     74.3602     67.6960    109.3403
  2283.2500      0.0000    259.3266     74.2205     67.8603    110.9329
  2283.5000      0.0000    259.3272     73.9578     68.0239    112.9804
  2283.7500      0.0000    259.3270     73.5950     68.2446    113.6897
  2284.0000      0.0000    259.3246     73.2025     68.5394    112.6627
  2284.2500      0.0000    259.3176     72.8623     68.8461    111.1449
  2284.5000      0.0000    259.3053     72.6377     69.0650    110.5714
  2284.7500      0.0000    259.2914     72.5740     69.1278    111.2225
  2285.0000      0.0000    259.2818     72.7013     69.0045    112.5528
  2285.2500      0.0000    259.2822     73.0091     68.6593    114.1751
  2285.5000      0.0000    259.2948     73.4213     68.0566    115.6651
  2285.7500      0.0000    259.3174     73.8077     67.2475    115.7947
  2286.0000      0.0000    259.3440     74.0340     66.4325    113.0703
  2286.2500      0.0000    259.3688     74.0238     65.8885    107.2152
  2286.5000      0.0000    259.3888     73.7952     65.7787     99.5518
  2286.7500      0.0000    259.4039     73.4483     66.0101     92.0279
  2287.0000      0.0000    259.4142     73.1185     66.3038     86.2689
  2287.2500      0.0000    259.4189     72.9294     66.4400     83.1977
  2287.5000      0.0000    259.4164     72.9569     66.4311     82.7914
  2287.7500      0.0000    259.4045     73.2056     66.4499     84.0822
  2288.0000      0.0000    259.3825     73.6131     66.6244     85.6589
