~Version Information
VERS.                      2.0: CWLS Log ASCII Standard - VERSION 2.0
WRAP.                       NO: One line per depth step
~Well Information Block
STRT.FT                 0.0000: 
STOP.FT              1674.7500: 
STEP.FT                 0.2500: 
NULL.                -999.2500: 
COMP.          Pioneer Natural Resources: COMPANY
WELL.          Culver 14-12 Tr: WELL
FLD.           Purgatorie River: FIELD
LOC.           915' FSL & 1048' FWL: LOCATION
STAT.                 Colorado: Colorado
CNTY.               Las Animas: COUNTY
CTRY. USA : Country
SECT. 12 : Section
TOWN. 32S : Township
RANG. 66W : Range
SRVC.                Patterson: SERVICE COMPANY
DATE.          Mon Oct 03 12:52:29 2005: LOG DATE
API. 05-071-08520                         : UNIQUE WELL ID
~Curve Information Block
DEPT.FT            0 000 00 00: Depth
CCL.                          : Casing Collar Locator
TT3.usec                      : CBL 3' Travel Time
AMP3.mV                       : CBL 3' Amplitude
GR.GAPI                       : Gamma Ray
~Parameter Information Block
~A  Depth       CCL         TT3         AMP3         GR     
# ...
   435.5000      0.0000   1042.0911     12.1927     58.4777
   435.7500      0.0000    980.6198     12.2038     60.9237
   436.0000      0.0000    933.9508     12.1714     64.0044
   436.2500      0.0000    910.7085     12.1122     67.1713
   436.5000      0.0000    903.1309     12.0707     69.4878
   436.7500      0.0000    901.7647     12.0849     69.8919
   437.0000      0.0000    903.1539     12.1620     67.9499
   437.2500      0.0000    909.2322     12.2911     64.1542
   437.5000      0.0000    923.8651     12.4579     59.4617
   437.7500      0.0000    943.0403     12.6309     54.8066
   438.0000      0.0000    949.1488     12.7594     50.8949
   438.2500      0.0000    930.2822     12.8163     48.0044
   438.5000      0.0000    899.2341     12.8222     45.9119
   438.7500      0.0000    876.0366     12.8068     44.2082
   439.0000      0.0000    865.7051     12.7941     42.7652
   439.2500      0.0000    862.5247     12.8159     41.9006
   439.5000      0.0000    861.5368     12.8705     42.0393
   439.7500      0.0000    861.2755     12.8817     43.0382
   440.0000      0.0000    862.3028     12.6910     43.8929
   440.2500      0.0000    866.8314     12.0455     43.5249
   440.5000      0.0000    880.4914     10.8404     42.0213
   440.7500      0.0000    914.8357      9.6034     40.7033
   441.0000      0.0000    978.2979      9.1183     40.7530
   441.2500      0.0000   1050.3080      9.2536     42.0057
   441.5000      0.0000   1083.3026      9.2514     43.1225
   441.7500      0.0000   1057.6138      9.0114     42.7449
   442.0000      0.0000   1016.8745      8.8831     40.6442
   442.2500     -2.0000   1022.5062      8.9278     38.0249
   442.5000      2.0000   1080.7606      9.0170     36.5856
   442.7500      0.0000   1143.9261      9.0626     37.0490
   443.0000     -2.0000   1172.3031      9.0662     38.5875
   443.2500      0.0000   1156.6738      9.2170     39.7405
   443.5000      0.0000   1101.8145      9.9115     39.7841
   443.7500      0.0000   1026.4998     11.2625     39.0562
   444.0000      0.0000    961.2388     12.5935     38.1498
   444.2500      0.0000    923.8403     13.2215     37.2380
   444.5000      0.0000    909.3783     13.3278     36.2585
   444.7500      0.0000    905.3801     13.2795     35.3960
   445.0000      0.0000    904.1042     13.0883     35.2836
   445.2500      0.0000    902.2365     12.7613     36.9428
   445.5000      0.0000    897.4387     12.4158     41.3508
   445.7500      0.0000    888.3604     12.1252     48.5459
   446.0000      0.0000    876.9991     11.8894     57.0654
   446.2500      0.0000    867.4135     11.6852     64.6975
   446.5000      0.0000    861.0091     11.4859     70.1295
   446.7500      0.0000    855.8342     11.2687     73.8621
   447.0000      0.0000    850.9050     11.0489     77.3782
   447.2500      0.0000    848.6711     10.8883     81.3606
   447.5000      0.0000    850.9069     10.8506     84.8535
   447.7500      0.0000    854.6312     10.9424     86.3093
   448.0000      0.0000    856.0201     11.1167     85.3114
   448.2500      0.0000    856.0049     11.3359     83.1111
   448.5000      0.0000    858.3089     11.5773     81.6398
   448.7500      0.0000    862.3828     11.7965     82.2276
   449.0000      0.0000    863.5867     11.9505     85.0945
   449.2500      0.0000    860.2285     12.0384     89.4846
   449.5000      0.0000    853.2284     12.0924     93.9588
   449.7500      0.0000    842.6868     12.1496     96.9381
   450.0000      0.0000    830.4902     12.2431     97.5657
   450.2500      0.0000    820.9036     12.3813     96.2921
   450.5000      0.0000    816.0458     12.5132     94.6222
   450.7500      0.0000    814.5740     12.5458     94.2171
   451.0000      0.0000    814.4392     12.4185     95.9715
   451.2500      0.0000    814.5534     12.1652     99.6018
   451.5000      0.0000    814.6367     11.8900    103.9939
   451.7500      0.0000    814.7352     11.6852    108.1201
   452.0000      0.0000    814.8936     11.5796    111.8673
   452.2500      0.0000    815.0970     11.5350    115.9661
   452.5000      0.0000    815.3091     11.4814    120.8318
   452.7500      0.0000    815.4140     11.3746    125.3709
   453.0000      0.0000    815.2917     11.2253    127.2173
   453.2500      0.0000    815.0194     11.0718    124.5326
   453.5000      0.0000    814.8381     10.9374    117.7352
   453.7500      0.0000    814.9100     10.8328    109.3856
   454.0000      0.0000    815.3818     10.7734    102.2779
   454.2500      0.0000    817.0300     10.7618     97.5780
   454.5000      0.0000    821.6914     10.7744     94.6388
   454.7500      0.0000    830.6589     10.7748     92.1755
   455.0000      0.0000    841.8404     10.7397     89.3642
   455.2500      0.0000    850.7902     10.6824     86.2883
   455.5000      0.0000    855.3617     10.6369     83.8750
   455.7500      0.0000    856.8226     10.6262     83.2064
   456.0000      0.0000    857.0918     10.6544     84.4655
   456.2500      0.0000    857.1046     10.7009     86.6120
   456.5000      0.0000    856.9253     10.7294     88.2467
   456.7500      0.0000    855.9007     10.7186     88.7726
   457.0000      0.0000    853.0073     10.6655     88.8641
   457.2500      0.0000    848.5437     10.5709     90.0277
   457.5000      0.0000    844.7897     10.4463     93.4516
   457.7500      0.0000    842.0617     10.3176     98.8388
   458.0000      0.0000    836.9378     10.2052    104.4525
   458.2500      0.0000    828.3950     10.1081    108.6315
   458.5000      0.0000    820.3314     10.0189    111.2285
   458.7500      0.0000    815.7958      9.9495    113.3792
   459.0000      0.0000    814.1507      9.9204    116.0700
   459.2500      0.0000    813.6678      9.9199    119.3250
   459.5000      0.0000    813.6497      9.9021    122.7008
   459.7500      0.0000    814.8552      9.8410    125.8705
   460.0000      0.0000    819.0623      9.7606    128.1832
   460.2500      0.0000    826.7179      9.7036    128.0485
   460.5000      0.0000    833.8923      9.7024    123.8224
   460.7500      0.0000    834.8007      9.7728    115.7975
   461.0000      0.0000    829.0682      9.8990    106.8342
   461.2500      0.0000    822.0973     10.0262    100.4410
   461.5000      0.0000    817.9335     10.1051     98.0193
   461.7500      0.0000    816.2206     10.1504     97.8508
   462.0000      0.0000    815.0198     10.2244     96.8659
   462.2500      0.0000    812.8498     10.3547     93.6332
   462.5000      0.0000    808.4521     10.5090     89.6731
   462.7500      0.0000    801.8123     10.6468     87.8195
   463.0000      0.0000    796.6789     10.7561     89.4263
   463.2500      0.0000    798.3948     10.8427     93.1499
   463.5000      0.0000    806.8152     10.9060     96.2834
   463.7500      0.0000    814.8632     10.9279     97.2601
   464.0000      0.0000    815.8465     10.8950     96.7677
   464.2500      0.0000    810.2551     10.8268     96.3883
   464.5000      0.0000    803.6822     10.7638     96.7344
   464.7500      0.0000    799.9075     10.7257     97.3124
   465.0000      0.0000    799.3327     10.6934     97.6836
   465.2500      0.0000    801.2731     10.6372     98.1384
   465.5000      0.0000    803.9781     10.5548     99.2055
   465.7500      0.0000    805.1613     10.4679    100.6816
   466.0000      0.0000    805.5176     10.3956    101.3956
   466.2500      0.0000    806.7580     10.3482    100.1767
   466.5000      0.0000    806.1843     10.3349     97.0522
   466.7500      0.0000    800.2152     10.3531     93.4985
   467.0000      0.0000    791.2455     10.3842     91.6447
   467.2500      0.0000    785.5285     10.4175     92.8973
   467.5000      0.0000    785.1392     10.4570     96.7355
   467.7500      0.0000    785.9088     10.4941    100.9008
   468.0000      0.0000    784.5822     10.5150    103.2807
   468.2500      0.0000    783.9135     10.5256    103.7472
   468.5000      0.0000    787.5627     10.5344    103.9978
   468.7500      0.0000    795.2341     10.5388    105.7657
