~Version Information
VERS.                      2.0: CWLS Log ASCII Standard - VERSION 2.0
WRAP.                       NO: One line per depth step
~Well Information Block
STRT.FT               505.0000: 
STOP.FT               770.5000: 
STEP.FT                 0.1000: 
NULL.                -999.2500: 
COMP.          Pioneer Natural Resources: COMPANY
WELL.                Zed 11-23: WELL
FLD.           Purgatoire River: FIELD
LOC.           641' FNL & 952' FWL: LOCATION
CNTY.               Las Animas: COUNTY
SRVC.                Patterson: SERVICE COMPANY
DATE.          Mon Feb 27 07:12:43 2006: LOG DATE
UWI.           05 071 08702 00: UNIQUE WELL ID
STAT.                 Colorado: STATE
~Curve Information Block
DEPT.FT            0 000 00 00: Depth
DCAL.in                       : CDL Caliper
RHOB.g/cc                     : CDL Bulk Density
RHOC.g/cc                     : CDL Density Correction
DPOR.pu                       : CDL Density Porosity
GR.GAPI                       : Gamma Ray
NPOR.pu                       : Neutron Porosity
~Parameter Information Block
~A  Depth       DCAL        RHOB        RHOC        DPOR         GR         NPOR    
# ...
   706.6000      7.9344      2.3651     -0.0030     17.2655     85.8985     27.1745
   706.7000      7.9344      2.3864      0.0270     15.9756     85.9843     27.3862
   706.8000      7.9385      2.4091      0.0707     14.5997     89.0808     27.2575
   706.9000      7.9385      2.4242      0.0452     13.6858     90.8401     26.8861
   707.0000      7.9397      2.4322      0.0448     13.1982     92.0616     26.7947
   707.1000      7.9397      2.4323      0.0653     13.1928     94.4193     26.7233
   707.2000      7.9397      2.4255      0.0035     13.6053    100.5370     26.0730
   707.3000      7.9429      2.4217      0.0206     13.8338    108.2406     25.7048
   707.4000      7.9429      2.4239      0.0431     13.7055    108.5186     26.3675
   707.5000      7.9367      2.4250      0.0155     13.6372    100.2522     27.3140
   707.6000      7.9367      2.4203      0.0234     13.9225     92.3555     27.6442
   707.7000      7.9367      2.4139      0.0124     14.3074     90.0526     27.4415
   707.8000      7.9404      2.4235     -0.0120     13.7302     92.6680     27.3023
   707.9000      7.9404      2.4558      0.0624     11.7695     97.4738     27.4384
   708.0000      7.9343      2.4880      0.0893      9.8175    100.5790     27.7435
   708.1000      7.9343      2.5007      0.0569      9.0489     99.9055     28.1187
   708.2000      7.9343      2.4970      0.0700      9.2710     97.3647     28.2809
   708.3000      7.9355      2.4838      0.0366     10.0753     96.6346     27.4645
   708.4000      7.9355      2.4670      0.0423     11.0910     97.9595     26.0372
   708.5000      7.9351      2.4604     -0.0050     11.4934     99.2409     25.6879
   708.6000      7.9351      2.4759      0.0461     10.5534     98.6731     26.3513
   708.7000      7.9351      2.4959      0.0920      9.3409     97.2455     26.9498
   708.8000      7.9396      2.4917      0.0598      9.5951     97.5301     27.4720
   708.9000      7.9396      2.4684      0.0112     11.0040     99.0484     27.6567
   709.0000      7.9358      2.4458      0.0491     12.3744    102.0163     26.6714
   709.1000      7.9358      2.4302      0.0278     13.3228    105.3055     25.1320
   709.2000      7.9358      2.4247      0.0209     13.6561    105.4072     24.4307
   709.3000      7.9343      2.4270      0.0222     13.5165    104.7362     24.9752
   709.4000      7.9343      2.4272      0.0304     13.5037    104.3653     26.0942
   709.5000      7.9403      2.4264      0.0019     13.5510    101.5706     26.6856
   709.6000      7.9403      2.4396      0.0177     12.7528     97.2345     26.2775
   709.7000      7.9403      2.4730      0.0251     10.7272     96.5154     25.3077
   709.8000      7.9349      2.5024      0.1106      8.9480    101.4824     24.6008
   709.9000      7.9349      2.4962      0.0484      9.3239    107.6400     24.4819
   710.0000      7.9339      2.4699     -0.0166     10.9129    108.5959     24.5461
   710.1000      7.9339      2.4547      0.0798     11.8366    101.8883     24.4572
   710.2000      7.9339      2.4478      0.0333     12.2535     94.4897     24.7919
   710.3000      7.9436      2.4478     -0.0032     12.2528     93.8459     25.9997
   710.4000      7.9436      2.4617      0.0486     11.4127     95.9178     27.1499
   710.5000      7.9471      2.4759      0.0635     10.5522     94.8376     26.8866
   710.6000      7.9471      2.4723      0.0349     10.7722     92.3646     25.5283
   710.7000      7.9471      2.4588      0.0516     11.5884     92.7321     24.5245
   710.8000      7.9428      2.4546      0.0190     11.8441     96.0033     24.8104
   710.9000      7.9428      2.4599      0.0376     11.5198     99.8853     25.7896
   711.0000      7.9459      2.4596      0.0200     11.5402    105.1454     26.1137
   711.1000      7.9459      2.4444      0.0448     12.4615    110.6979     26.1218
   711.2000      7.9459      2.4264     -0.0180     13.5531    111.4589     26.3567
   711.3000      7.9429      2.4221      0.0145     13.8096    107.5686     25.7382
   711.4000      7.9429      2.4249      0.0301     13.6399    102.2441     24.4293
   711.5000      7.9402      2.4302     -0.0158     13.3200     95.7639     23.7693
   711.6000      7.9402      2.4491      0.0208     12.1743     90.5478     23.6181
   711.7000      7.9402      2.4801      0.0416     10.2998     88.4742     23.1874
   711.8000      7.9416      2.5131      0.0069      8.2974     87.2526     22.4293
   711.9000      7.9416      2.5444      0.0508      6.4016     86.5179     21.8265
   712.0000      7.9411      2.5709      0.0883      4.7936     86.3729     21.9060
   712.1000      7.9411      2.5911      0.0838      3.5699     86.3837     22.6506
   712.2000      7.9411      2.6035      0.0666      2.8212     88.9817     23.2553
   712.3000      7.8865      2.6072      0.0823      2.5944     92.1166     23.0463
   712.4000      7.8865      2.6058      0.0738      2.6813     91.3118     22.2959
   712.5000      7.8381      2.6012      0.0573      2.9562     88.2897     21.5650
   712.6000      7.8381      2.5928      0.0199      3.4639     87.3193     20.7473
   712.7000      7.8381      2.5887     -0.0059      3.7149     87.1139     19.8915
   712.8000      7.8231      2.5984      0.0216      3.1249     83.6204     19.3851
   712.9000      7.8231      2.6143      0.0483      2.1626     76.9697     19.1149
   713.0000      7.8402      2.6251      0.0658      1.5101     71.1893     19.0891
   713.1000      7.8402      2.6310      0.0540      1.1535     68.7804     19.2265
   713.2000      7.8402      2.6379      0.0381      0.7363     67.3576     18.9595
   713.3000      7.8511      2.6471      0.0594      0.1772     64.6725     18.4373
   713.4000      7.8511      2.6478      0.1135      0.1314     65.3383     18.3745
   713.5000      7.8319      2.6289      0.1384      1.2790     72.0799     19.1394
   713.6000      7.8319      2.6052      0.0503      2.7181     79.4511     20.4011
   713.7000      7.8319      2.6069      0.0575      2.6137     81.7216     21.2223
   713.8000      7.8303      2.6300      0.1283      1.2150     80.2405     21.0247
   713.9000      7.8303      2.6439      0.0691      0.3702     79.8002     20.5835
   714.0000      7.8258      2.6397      0.0739      0.6216     82.3101     20.8132
   714.1000      7.8258      2.6212      0.0969      1.7470     87.3066     21.4033
   714.2000      7.8258      2.5811      0.0827      4.1743     91.2581     21.7481
   714.3000      7.8288      2.5244      0.0120      7.6142     91.9725     21.6575
   714.4000      7.8288      2.4703      0.0239     10.8899     91.1881     21.4800
   714.5000      7.8343      2.4268      0.0104     13.5267     90.7379     21.6350
   714.6000      7.8343      2.4021     -0.0474     15.0248     93.7800     21.9641
   714.7000      7.8343      2.4041      0.0085     14.9046     99.1849     22.1105
   714.8000      7.8496      2.4136      0.0665     14.3277    102.6705     22.1329
   714.9000      7.8496      2.4133     -0.0001     14.3482    105.0731     22.3884
   715.0000      7.8409      2.4161      0.0420     14.1777    106.4348     22.5805
   715.1000      7.8409      2.4311      0.1477     13.2684    106.3860     22.1844
   715.2000      7.8409      2.4493      0.1084     12.1613    108.1899     21.7730
   715.3000      7.8253      2.4593      0.1532     11.5590    111.3236     22.2103
   715.4000      7.8253      2.4558      0.1031     11.7672    109.2285     23.5509
   715.5000      7.7913      2.4496      0.1135     12.1465    101.8050     25.1792
   715.6000      7.7913      2.4503      0.1181     12.1028     96.2218     26.0405
   715.7000      7.7913      2.4530      0.1005     11.9415     93.8115     25.6662
   715.8000      7.7848      2.4483      0.0863     12.2241     93.0480     24.8743
   715.9000      7.7848      2.4359      0.0775     12.9738     96.7691     24.4444
   716.0000      7.8107      2.4279      0.0420     13.4609    104.3162     24.2365
   716.1000      7.8107      2.4277      0.0996     13.4750    108.3509     24.2480
