~Version Information
VERS.                      2.0: CWLS Log ASCII Standard - VERSION 2.0
WRAP.                       NO: One line per depth step
~Well Information Block
STRT.FT               795.0000: 
STOP.FT              2276.0000: 
STEP.FT                 0.1000: 
NULL.                -999.2500: 
COMP.          Pioneer Natural Resources: COMPANY
WELL.            Wildcard 31-5: WELL
FLD.           Purgatoire River: FIELD
LOC.           624' FNL & 1852' FEL--: LOCATION
CNTY.               Las Animas: COUNTY
SRVC.                Patterson: SERVICE COMPANY
DATE.          Tue Mar 07 07:04:10 2006: LOG DATE
UWI.           05 071 08707 00: UNIQUE WELL ID
STAT.                 Colorado: STATE
~Curve Information Block
DEPT.FT            0 000 00 00: Depth
DCAL.in                       : CDL Caliper
DPOR.pu                       : CDL Density Porosity
NPOR.pu                       : Neutron Porosity
RHOB.g/cc                     : CDL Bulk Density
RHOC.g/cc                     : CDL Density Correction
GR.GAPI                       : Gamma Ray
~Parameter Information Block
~A  Depth       DCAL        DPOR        NPOR        RHOB        RHOC         GR     
# ...
  2167.8000      7.8360     11.1904     20.2989      2.4654      0.0658    118.6435
  2167.9000      7.8360     11.6942     19.7723      2.4570      0.0226    105.9023
  2168.0000      7.8370     12.1184     19.4746      2.4500      0.0254     97.5842
  2168.1000      7.8370     12.1862     19.1842      2.4489      0.0504    104.7824
  2168.2000      7.8370     12.0460     18.6577      2.4512      0.0136    116.9928
  2168.3000      7.8378     11.5072     18.1607      2.4601      0.0297    119.5512
  2168.4000      7.8378     10.9007     17.7194      2.4701      0.0699    113.4428
  2168.5000      7.8398     10.9645     17.2714      2.4691      0.0557    112.3799
  2168.6000      7.8398     11.6718     17.0179      2.4574      0.0480    120.0920
  2168.7000      7.8398     12.6332     17.3603      2.4416      0.0144    124.9620
  2168.8000      7.8429     13.6421     18.0923      2.4249      0.0556    123.7418
  2168.9000      7.8429     14.3024     18.6363      2.4140     -0.0086    120.2499
  2169.0000      7.8427     14.0959     18.9328      2.4174      0.0111    115.9649
  2169.1000      7.8427     13.3394     19.1376      2.4299      0.0444    117.2907
  2169.2000      7.8427     12.8256     19.2713      2.4384      0.0708    123.6812
  2169.3000      7.8421     12.4278     19.0811      2.4449     -0.0045    120.3426
  2169.4000      7.8421     11.4920     18.6595      2.4604      0.0378    108.0804
  2169.5000      7.8436     10.5382     18.6595      2.4761      0.0576    106.6984
  2169.6000      7.8436     10.2558     19.0823      2.4808      0.0314    118.8820
  2169.7000      7.8436     10.2970     19.3750      2.4801      0.0623    128.0787
  2169.8000      7.8423     10.4310     19.3987      2.4779      0.0532    125.3669
  2169.9000      7.8423     10.4930     19.2594      2.4769      0.0194    116.0963
  2170.0000      7.8339     10.0528     19.0654      2.4841      0.0606    108.3293
  2170.1000      7.8339      9.3566     19.0330      2.4956      0.0629    109.1289
  2170.2000      7.8339      9.2556     19.2336      2.4973      0.0738    116.7226
  2170.3000      7.8261     10.0271     19.5195      2.4846      0.0734    120.6992
  2170.4000      7.8261     11.0899     19.6529      2.4670      0.0196    119.3916
  2170.5000      7.8294     12.0062     19.5122      2.4519      0.0306    118.8751
  2170.6000      7.8294     12.6435     19.2916      2.4414      0.0195    119.0261
  2170.7000      7.8294     12.6548     19.2491      2.4412      0.0295    117.0010
  2170.8000      7.8377     12.2125     19.4262      2.4485      0.0559    117.4245
  2170.9000      7.8377     11.6614     19.4787      2.4576      0.0279    129.1621
  2171.0000      7.8417     11.0629     19.1175      2.4675      0.0457    147.3843
  2171.1000      7.8417     11.0411     18.3769      2.4678      0.0703    152.4716
  2171.2000      7.8417     11.5917     17.5549      2.4587      0.0252    140.9759
  2171.3000      7.8413     11.3719     17.1406      2.4624      0.0108    126.8184
  2171.4000      7.8413     10.1290     17.1829      2.4829      0.0639    118.6344
  2171.5000      7.8402      9.2247     17.3350      2.4978      0.0488    110.9941
  2171.6000      7.8402      9.4810     17.4978      2.4936      0.0392     97.6733
  2171.7000      7.8402     10.3460     17.7292      2.4793      0.0362     84.5041
  2171.8000      7.8409     10.8491     17.6517      2.4710      0.0327     82.2311
  2171.9000      7.8409     10.9887     17.0037      2.4687      0.0500     94.1971
  2172.0000      7.8427     11.3935     16.4232      2.4620      0.0288    107.7413
  2172.1000      7.8427     11.8927     16.4608      2.4538      0.0398    109.8067
  2172.2000      7.8427     11.8176     16.7060      2.4550     -0.0191    108.1531
  2172.3000      7.8446     11.1763     16.7561      2.4656      0.0643    109.7105
  2172.4000      7.8446     10.7575     16.8239      2.4725      0.0599    112.1047
  2172.5000      7.8485     10.9492     17.0503      2.4693      0.0439    119.6048
  2172.6000      7.8485     11.3711     17.0464      2.4624      0.0368    131.2146
  2172.7000      7.8485     11.2677     16.8106      2.4641     -0.0065    132.8086
  2172.8000      7.8560     10.0441     16.9593      2.4843      0.0017    122.0166
  2172.9000      7.8560      8.3171     17.6288      2.5128      0.0682    115.5829
  2173.0000      7.8638      7.3794     18.2050      2.5282      0.0648    121.2986
  2173.1000      7.8638      7.0645     18.3647      2.5334      0.0216    130.1292
  2173.2000      7.8638      6.6281     18.3686      2.5406      0.0594    137.8844
  2173.3000      7.8632      6.5313     18.1207      2.5422      0.0759    150.5498
  2173.4000      7.8632      6.8624     17.3423      2.5368      0.0677    166.8340
  2173.5000      7.8486      6.6959     16.2935      2.5395      0.0644    168.4355
  2173.6000      7.8486      5.6518     15.3914      2.5567      0.0724    149.5776
  2173.7000      7.8486      4.0962     14.5563      2.5824      0.0368    129.2036
  2173.8000      7.8304      2.6023     13.8069      2.6071      0.1021    119.3513
  2173.9000      7.8304      1.8709     13.7883      2.6191      0.1020    116.7099
  2174.0000      7.8206      1.8113     14.4816      2.6201      0.0901    113.9166
  2174.1000      7.8206      1.5245     14.7679      2.6248      0.0886    104.6171
  2174.2000      7.8206      0.9329     14.0524      2.6346      0.1032     91.5651
  2174.3000      7.8186      0.7019     13.3136      2.6384      0.0663     83.0153
  2174.4000      7.8186      0.8254     13.6306      2.6364      0.0801     81.9634
  2174.5000      7.8190      0.9331     14.7230      2.6346      0.0603     81.3115
  2174.6000      7.8190      0.9067     15.8159      2.6350      0.0717     75.9893
  2174.7000      7.8190      1.0787     16.6068      2.6322      0.1053     72.7443
  2174.8000      7.8207      2.0752     16.9977      2.6158      0.1005     77.6969
  2174.9000      7.8207      3.7286     17.2155      2.5885      0.0479     87.5947
  2175.0000      7.8226      4.9308     17.6976      2.5686      0.0438     93.4597
  2175.1000      7.8226      5.5859     18.1461      2.5578      0.1168     90.6159
  2175.2000      7.8226      6.5619     18.1701      2.5417      0.0395     88.3697
  2175.3000      7.8231      7.4251     18.1922      2.5275      0.0707     98.6463
  2175.4000      7.8231      7.7804     18.5577      2.5216      0.0744    113.9156
  2175.5000      7.8205      8.0912     19.0032      2.5165      0.0843    117.0046
  2175.6000      7.8205      8.4966     19.4644      2.5098      0.0785    110.4494
  2175.7000      7.8205      9.1663     20.0631      2.4988      0.1060    104.5292
  2175.8000      7.8164     10.2875     20.5160      2.4803      0.0697     96.2121
  2175.9000      7.8164     11.2935     20.5881      2.4637      0.0813     84.6096
  2176.0000      7.8160     11.4728     20.3677      2.4607      0.0495     74.8295
  2176.1000      7.8160     10.8610     19.9598      2.4708      0.0545     69.6805
  2176.2000      7.8160     10.0621     19.4418      2.4840      0.0475     70.0292
  2176.3000      7.8187      9.2405     18.9120      2.4975      0.0519     76.5178
  2176.4000      7.8187      8.5921     18.6765      2.5082      0.0953     82.0279
  2176.5000      7.8215      8.8841     18.6604      2.5034      0.0839     80.5700
  2176.6000      7.8215      9.8274     18.4614      2.4878      0.0341     83.0017
  2176.7000      7.8215     10.3351     18.4088      2.4795      0.0243     98.5126
  2176.8000      7.8306     10.2633     18.9469      2.4807      0.0322    116.7247
  2176.9000      7.8306     10.1886     19.7162      2.4819      0.0540    121.6988
  2177.0000      7.8492     10.3024     20.2241      2.4800      0.0383    111.7354
  2177.1000      7.8492     10.3937     20.5762      2.4785      0.0284     97.4588
  2177.2000      7.8492     10.5042     20.7520      2.4767      0.0323     90.5399
  2177.3000      7.8622     10.8555     20.5467      2.4709      0.0505     95.3302
