~Version Information
 VERS.                                  2.0 : CWLS LAS VERSION
 WRAP.                                   NO : WRAPING MODE
 SWARE .                 MController 2.5.3A : SOFTWARE VERSION
~Well Information
 WELL.                           Ryan 41-17 : WELL
 COMP.  Pioneer Natural Resources USA, Inc. : COMPANY
 FLD.                      Purgatoire River : FIELD
 LOC.             NE/NE Sec. 17, T33S, R65W : LOCATION
 DATE.                           03/16/2006 : DATE(S) LOGGED
 SRVC.                  Entrada GeoSciences : SERVICE COMPANY
 STAT.                             Colorado : STATE
 CNTY.                           Las Animas : COUNTY
 CTRY.                        United States : COUNTRY
 API.                       05-071-08719-00 : API NUMBER
 STRT.FT                             250.00 : START DEPTH
 STOP.FT                            1155.00 : STOP DEPTH
 STEP.FT                               1.00 : DEPTH INCREMENT
 NULL.                                -9999 : NULL VALUE
~Curve information
 DEPTH.FT                                   :
 ROP.MIN/FT                                 :
 GAS.UNITS                                  :
~ASCII Log data
# ...
      850.00         0.27        129.6 
      851.00         0.27         87.9 
      852.00         0.33         77.4 
      853.00         0.40         68.8 
      854.00         0.37         57.9 
      855.00         0.33         38.6 
      856.00         0.30         34.4 
      857.00         0.17         31.4 
      858.00         0.17         31.4 
      859.00         0.23         30.7 
      860.00         0.23         30.5 
      861.00         0.30         29.8 
      862.00         0.27         29.2 
      863.00         0.28         30.0 
      864.00         0.30         29.1 
      865.00         0.23         28.4 
      866.00         0.30         28.3 
      867.00         0.33         29.3 
      868.00         0.37         31.8 
      869.00         0.33         32.3 
      870.00         0.27         32.0 
      871.00         0.30         30.5 
      872.00         0.30         29.9 
      873.00         0.30         29.9 
      874.00         0.32         29.8 
      875.00         0.33         29.7 
      876.00         0.33         29.2 
      877.00         0.33         28.7 
      878.00         0.37        348.6 
      879.00         0.30        255.0 
      880.00         0.27        225.5 
      881.00         0.33        132.2 
      882.00         0.40         97.0 
      883.00         0.07         91.7 
      884.00         0.27         82.0 
      885.00         0.33         64.7 
      886.00         0.32         50.3 
      887.00         0.30         44.0 
      888.00         0.23         32.9 
      889.00         0.13         32.9 
      890.00         0.50         33.0 
      891.00         0.30         29.6 
      892.00         0.30         29.9 
      893.00         0.27         28.4 
      894.00         0.23         27.8 
      895.00         0.23         27.6 
      896.00         0.23         27.7 
      897.00         0.23         28.7 
      898.00         0.27         27.7 
      899.00         0.25         27.7 
      900.00         0.23         28.1 
      901.00         0.17         28.1 
      902.00         0.23         27.1 
      903.00         0.27         27.8 
      904.00         0.23         27.8 
      905.00         0.27         27.0 
      906.00         0.23         27.9 
      907.00         0.23         27.9 
      908.00         0.27        352.5 
      909.00         0.27         94.1 
      910.00         0.23         76.5 
      911.00         0.45         86.6 
      912.00         0.30         83.7 
      913.00         0.17         73.7 
      914.00         0.33         60.3 
      915.00         0.27         46.8 
      916.00         0.23         38.9 
      917.00         0.20         35.3 
      918.00         0.20         32.4 
      919.00         0.23         30.3 
      920.00         0.23         29.4 
      921.00         0.27         28.4 
      922.00         0.23         27.9 
      923.00         0.27         28.5 
      924.00         0.23         28.0 
      925.00         0.28         28.0 
      926.00         0.27         27.8 
      927.00         0.30         28.4 
      928.00         0.30         28.2 
      929.00         0.30         28.1 
      930.00         0.27         27.3 
      931.00         0.23         27.3 
      932.00         0.23         27.4 
      933.00         0.20         27.4 
      934.00         0.20         27.3 
      935.00         0.17         27.9 
      936.00         0.23         28.7 
      937.00         0.33         27.8 
      938.00         0.28         26.5 
      939.00         0.27         25.9 
      940.00         0.27       1527.1 
      941.00         0.83        712.3 
      942.00         0.27        565.6 
      943.00         0.30        485.0 
      944.00         0.30        458.6 
      945.00         0.23        461.0 
      946.00         0.27        437.0 
      947.00         0.20        430.8 
      948.00         0.13        400.0 
      949.00         0.17        400.0 
      950.00         0.13        400.0 
      951.00         0.20        400.0 
      952.00         0.23        400.0 
      953.00         0.03        400.0 
      954.00         0.23        400.0 
      955.00         0.25        400.0 
      956.00         0.23        449.0 
      957.00         0.20        436.7 
      958.00         0.13        481.2 
      959.00         0.27        529.2 
      960.00         0.20        529.2 
      961.00         0.27        549.8 
      962.00         0.23        555.9 
      963.00         0.27        555.3 
      964.00         0.23        556.5 
      965.00         0.23        556.5 
      966.00         0.23        561.5 
      967.00         0.27       2094.6 
      968.00         0.23       1681.5 
      969.00         0.27       1330.5 
      970.00         0.15        910.4 
      971.00         0.63        797.9 
      972.00         0.17        819.9 
      973.00         0.30        857.1 
      974.00         0.37        816.9 
      975.00         0.33        710.3 
      976.00         0.30        656.4 
      977.00         0.33        600.4 
      978.00         0.33        570.6 
      979.00         0.27        570.3 
      980.00         0.33        574.9 
      981.00         0.25        575.8 
      982.00         0.37        561.2 
      983.00         0.23        585.2 
      984.00         0.23        601.6 
      985.00         0.27        600.7 
      986.00         0.27        591.9 
      987.00         0.23        590.2 
      988.00         0.23        583.7 
      989.00         0.27        581.4 
      990.00         0.30        583.7 
      991.00         0.27        584.0 
      992.00         0.27        583.7 
      993.00         0.55        577.0 
      994.00         0.30        587.8 
      995.00         0.27        594.9 
      996.00         0.27        599.0 
      997.00         0.27        567.0 
      998.00         0.20       3276.7 
      999.00         0.27       1717.5 
     1000.00         0.27       1607.4 
     1001.00         0.43        990.4 
     1002.00         0.30        801.4 
     1003.00         0.33        846.5 
     1004.00         0.23        771.2 
     1005.00         0.13        761.0 
     1006.00         0.32        695.6 
     1007.00         0.33        666.4 
     1008.00         0.30        652.3 
     1009.00         0.33        639.7 
     1010.00         0.37        637.9 
     1011.00         0.30        626.8 
     1012.00         0.27        620.9 
     1013.00         0.23        567.9 
     1014.00         0.23        554.4 
     1015.00         0.33        555.6 
     1016.00         0.27        578.2 
     1017.00         0.28        578.8 
     1018.00         0.33        588.7 
     1019.00         0.33        605.1 
     1020.00         0.33        607.5 
     1021.00         0.33        592.5 
     1022.00         0.37        571.1 
     1023.00         0.27        432.9 
     1024.00         0.27        443.4 
     1025.00         0.27        482.7 
     1026.00         0.13        482.7 
     1027.00         0.20        537.7 
     1028.00         0.27       2322.2 
     1029.00         0.28        903.1 
     1030.00         0.27        870.0 
     1031.00         0.27        836.0 
     1032.00         0.45        828.1 
     1033.00         0.33        656.4 
     1034.00         0.27        658.1 
     1035.00         0.03        654.9 
     1036.00         0.23        634.7 
     1037.00         0.27        602.2 
     1038.00         0.13        566.2 
     1039.00         0.10        542.4 
     1040.00         0.23        512.2 
     1041.00         0.13        523.7 
     1042.00         0.23        570.8 
     1043.00         0.20        573.5 
     1044.00         0.23        543.6 
     1045.00         0.20        529.2 
     1046.00         0.17        529.2 
     1047.00         0.23        531.3 
     1048.00         0.28        528.4 
     1049.00         0.27        524.8 
