~Version Information
VERS.                      2.0: CWLS Log ASCII Standard - VERSION 2.0
WRAP.                       NO: One line per depth step
~Well Information Block
STRT.FT                -8.0000: 
STOP.FT              1060.7500: 
STEP.FT                 0.2500: 
NULL.                -999.2500: 
COMP.          Pioneer Natural Resources: COMPANY
WELL.          Pavillion 44-25: WELL
FLD.           Purgatorie River: FIELD
LOC.           719' FSL & 650' FEL--: LOCATION
PROV.                       CO: PROVINCE
CNTY.               Las Animas: COUNTRY
SRVC.          Patterson Wireline: SERVICE COMPANY
DATE.          Mon Dec 19 11:59:26 2005: LOG DATE
UWI.           05 071 08624 00: UNIQUE WELL ID
~Curve Information Block
DEPT.FT            0 000 00 00: Depth
CCL.                          : Casing Collar Locator
TT3.usec                      : CBL 3' Travel Time
AMP3.mV                       : CBL 3' Amplitude
GR.GAPI                       : Gamma Ray
~Parameter Information Block
~A  Depth       CCL         TT3         AMP3         GR     
# ...
   762.5000      0.0000    650.1176      7.1013    121.0172
   762.7500      0.0000    634.2123      7.1020    123.4632
   763.0000      0.0000    621.1981      7.1034    124.4032
   763.2500      0.0000    611.8906      7.1020    123.7212
   763.5000      0.0000    609.9966      7.0920    121.5890
   763.7500      0.0000    619.0917      7.0661    118.7230
   764.0000      0.0000    638.0817      7.0195    115.8473
   764.2500      0.0000    659.5120      6.9527    112.9517
   764.5000      0.0000    673.1293      6.8707    109.6309
   764.7500      0.0000    672.5807      6.7814    105.9886
   765.0000      0.0000    659.4218      6.6980    102.4632
   765.2500      0.0000    639.8099      6.6400     98.7651
   765.5000      0.0000    616.6108      6.6227     93.8562
   765.7500      0.0000    586.3596      6.6428     87.4927
   766.0000      0.0000    546.2091      6.6777     81.4092
   766.2500      0.0000    503.1758      6.7032     78.3838
   766.5000      0.0000    473.2767      6.7097     80.0005
   766.7500      0.0000    469.7081      6.7019     85.4781
   767.0000      0.0000    491.9436      6.6897     92.6483
   767.2500      0.0000    526.2967      6.6813     99.7011
   767.5000      0.0000    556.6413      6.6825    105.7738
   767.7500      0.0000    574.7136      6.6956    110.2611
   768.0000      0.0000    581.4550      6.7175    112.3262
   768.2500      0.0000    581.4962      6.7375    111.5247
   768.5000      0.0000    578.8621      6.7365    108.6223
   768.7500      0.0000    577.2719      6.6932    105.2013
   769.0000      0.0000    581.4703      6.6000    102.4271
   769.2500      0.0000    595.4732      6.4774    100.5296
   769.5000      0.0000    619.0380      6.3692     99.3253
   769.7500      0.0000    647.1122      6.3158     98.7102
   770.0000      0.0000    673.0858      6.3291     98.7099
   770.2500      0.0000    691.7412      6.3913     99.4301
   770.5000      0.0000    700.0564      6.4734    100.8238
   770.7500      0.0000    698.3530      6.5540    102.2460
   771.0000      0.0000    691.7239      6.6251    102.6586
   771.2500      0.0000    687.8359      6.6842    101.8807
   771.5000      0.0000    691.1108      6.7204    101.3680
   771.7500      0.0000    699.2739      6.7152    103.0524
   772.0000      0.0000    706.1086      6.6620    107.4892
   772.2500      0.0000    706.9669      6.5833    113.5368
   772.5000      0.0000    701.4229      6.5202    119.2710
   772.7500      0.0000    692.2342      6.4997    122.7408
   773.0000      0.0000    683.5959      6.5170    122.7268
   773.2500      0.0000    679.4207      6.5491    119.6249
   773.5000      0.0000    680.7239      6.5804    115.1014
   773.7500      0.0000    683.9879      6.6112    110.3467
   774.0000      0.0000    683.4432      6.6451    105.0890
   774.2500      0.0000    675.6732      6.6763     98.5077
   774.5000      0.0000    662.0202      6.6921     90.5532
   774.7500      0.0000    647.1133      6.6876     82.0823
   775.0000      0.0000    636.1135      6.6753     74.1809
   775.2500      0.0000    632.8124      6.6799     67.8664
   775.5000      0.0000    638.2770      6.7206     64.1243
   775.7500      0.0000    649.7510      6.7960     63.4768
   776.0000      0.0000    659.8737      6.8876     65.4850
   776.2500      0.0000    657.2480      6.9762     69.1012
   776.5000      0.0000    631.1777      7.0526     73.4545
   776.7500      0.0000    580.1080      7.1177     78.0984
   777.0000      0.0000    516.0530      7.1774     82.6967
   777.2500      0.0000    458.3663      7.2356     86.6044
   777.5000      0.0000    422.0522      7.2893     88.7046
   777.7500      0.0000    411.6015      7.3284     87.8882
   778.0000      0.0000    422.3393      7.3412     83.9172
   778.2500      0.0000    443.0738      7.3219     77.7551
   778.5000      0.0000    459.0306      7.2751     71.0522
   778.7500      0.0000    458.8173      7.2147     65.5002
   779.0000      0.0000    442.1583      7.1584     62.6269
   779.2500      0.0000    419.3305      7.1220     63.6406
   779.5000      0.0000    402.2592      7.1160     68.8007
   779.7500      0.0000    397.3050      7.1430     76.7461
   780.0000      0.0000    405.1042      7.1927     84.8233
   780.2500      0.0000    423.5907      7.2352     90.5334
   780.5000      0.0000    449.8526      7.2168     92.9259
   780.7500      0.0000    480.7505      7.0738     92.6850
   781.0000      0.0000    513.1432      6.7820     90.9893
   781.2500      0.0000    544.1561      6.4157     88.3991
   781.5000      0.0000    572.4563      6.1246     84.8600
   781.7500      0.0000    599.8322      6.0027     80.5856
   782.0000      0.0000    630.1351      5.9978     76.5503
   782.2500      0.0000    664.9854      5.9966     73.9284
   782.5000      0.0000    701.1817      5.9633     73.2137
   782.7500      0.0000    734.1863      5.9420     74.0304
   783.0000      0.0000    763.4964      5.9652     75.6868
   783.2500     -2.0000    791.5272      6.0208     77.7324
   783.5000      0.0000    817.4477      6.0907     79.9976
   783.7500      0.0000    836.1046      6.1856     82.3440
   784.0000      0.0000    843.4922      6.3381     84.6832
   784.2500      0.0000    840.0980      6.5535     87.1488
   784.5000      0.0000    829.1539      6.7539     89.8854
   784.7500      0.0000    814.3271      6.8079     92.6832
   785.0000      0.0000    798.6339      6.6599     95.1751
   785.2500      0.0000    783.2436      6.4083     97.2247
   785.5000      0.0000    766.8714      6.2175     98.6275
   785.7500      0.0000    747.6736      6.1739     98.7354
   786.0000      0.0000    726.2000      6.2461     97.0221
   786.2500      0.0000    705.2422      6.3561     93.7459
   786.5000      0.0000    686.0165      6.4573     89.5032
   786.7500      0.0000    665.2244      6.5486     84.5064
   787.0000      0.0000    637.0254      6.6413     79.0918
   787.2500      0.0000    598.5244      6.7305     74.7432
   787.5000      0.0000    553.5936      6.7972     73.6679
   787.7500      0.0000    511.6284      6.8257     76.9422
   788.0000      0.0000    482.8416      6.8149     83.3169
   788.2500      0.0000    473.1744      6.7784     89.9797
   788.5000      0.0000    479.8603      6.7380     94.4878
   788.7500      0.0000    490.4206      6.7109     96.1276
   789.0000      0.0000    489.6778      6.7009     95.7197
   789.2500      0.0000    471.4543      6.7004     94.4371
   789.5000      0.0000    443.2371      6.6993     92.8956
   789.7500      0.0000    419.1766      6.6899     91.1401
   790.0000      0.0000    409.8250      6.6679     89.1448
   790.2500      0.0000    417.0008      6.6347     87.1247
   790.5000      0.0000    433.9676      6.5998     85.5532
   790.7500      0.0000    449.5826      6.5769     84.9529
   791.0000      0.0000    456.6736      6.5751     85.2984
   791.2500      0.0000    459.3891      6.5934     85.5523
   791.5000      0.0000    470.2488      6.6236     84.2775
   791.7500      0.0000    497.3876      6.6563     81.0350
   792.0000      0.0000    535.1158      6.6842     77.1636
   792.2500      0.0000    567.5324      6.7025     75.1080
   792.5000      0.0000    580.3156      6.7086     76.8252
   792.7500      0.0000    569.8281      6.6994     82.5331
   793.0000      0.0000    544.5745      6.6735     90.5716
   793.2500      0.0000    519.5459      6.6350     98.2860
   793.5000      0.0000    506.1177      6.5992    103.4097
   793.7500      0.0000    504.6968      6.5891    105.2393
   794.0000      0.0000    507.4606      6.6223    104.7478
   794.2500      0.0000    507.7340      6.6955    103.4179
   794.5000      0.0000    504.7537      6.7822    101.9131
   794.7500      0.0000    500.7943      6.8488     99.8288
   795.0000      0.0000    498.3341      6.8750     96.3545
   795.2500      0.0000    499.9045      6.8600     90.9489
   795.5000      0.0000    505.0486      6.8124     83.7723
   795.7500      0.0000    506.4539      6.7414     75.9154
