~Version Information
VERS.                      2.0: CWLS Log ASCII Standard - VERSION 2.0
WRAP.                       NO: One line per depth step
~Well Information Block
STRT.FT                -7.2500: 
STOP.FT              1273.5000: 
STEP.FT                 0.2500: 
NULL.                -999.2500: 
COMP.          Pioneer Natural Resources: COMPANY
WELL.            Keiko 14-6 Tr: WELL
FLD.           Purgatorie River: FIELD
LOC.           462' FSL & 1202' FWL--: LOCATION
PROV.                       CO: PROVINCE
CNTY.               Las Animas: COUNTRY
SRVC.          Patterson Wireline: SERVICE COMPANY
DATE.          Wed Jan 04 09:22:19 2006: LOG DATE
UWI.           05 071 08629 00: UNIQUE WELL ID
~Curve Information Block
DEPT.FT            0 000 00 00: Depth
CCL.                          : Casing Collar Locator
TT3.usec                      : CBL 3' Travel Time
AMP3.mV                       : CBL 3' Amplitude
GR.GAPI                       : Gamma Ray
~Parameter Information Block
~A  Depth       CCL         TT3         AMP3         GR     
# ...
   160.2500      0.0000    823.9939     11.0611     87.9645
   160.5000      0.0000    821.3629     11.0119     85.7365
   160.7500      0.0000    816.3129     10.9577     81.7777
   161.0000      0.0000    812.6803     10.8922     77.1522
   161.2500      0.0000    811.9302     10.8078     73.0085
   161.5000      0.0000    812.8524     10.7026     70.0372
   161.7500      0.0000    813.9485     10.5903     68.9344
   162.0000      0.0000    813.5629     10.4985     70.6582
   162.2500      0.0000    808.9852     10.4552     75.5022
   162.5000      0.0000    799.0560     10.4749     81.9974
   162.7500      0.0000    787.4287     10.5513     87.3611
   163.0000      0.0000    780.4283     10.6587     89.4988
   163.2500      0.0000    781.4969     10.7679     88.5687
   163.5000      0.0000    788.9618     10.8669     86.5773
   163.7500      0.0000    798.2856     10.9666     85.6555
   164.0000      0.0000    804.9611     11.0876     86.7412
   164.2500      0.0000    806.0179     11.2357     89.4182
   164.5000      0.0000    800.8504     11.3888     92.3130
   164.7500      0.0000    791.4492     11.5071     93.7447
   165.0000      0.0000    781.0421     11.5646     92.9528
   165.2500      0.0000    771.8484     11.5716     91.1209
   165.5000      0.0000    764.1198     11.5679     90.5017
   165.7500      0.0000    756.7985     11.5929     92.0994
   166.0000      0.0000    748.2794     11.6635     94.6776
   166.2500      0.0000    736.0742     11.7789     96.2826
   166.5000      0.0000    716.7135     11.9359     96.2388
   166.7500      0.0000    688.1581     12.1278     95.3241
   167.0000      0.0000    654.1225     12.3219     94.4409
   167.2500      0.0000    625.2049     12.4566     93.6774
   167.5000      0.0000    613.4331     12.4748     92.6235
   167.7500      0.0000    624.0798     12.3629     91.1233
   168.0000      0.0000    651.8058     12.1548     89.5458
   168.2500      0.0000    684.3045     11.9089     88.3547
   168.5000      0.0000    710.4426     11.6831     87.4021
   168.7500      0.0000    726.0212     11.5163     85.8549
   169.0000      0.0000    733.0681     11.4157     83.1127
   169.2500      0.0000    735.5251     11.3537     79.7769
   169.5000      0.0000    736.2286     11.2803     77.4563
   169.7500      0.0000    736.4418     11.1493     77.5151
   170.0000      0.0000    736.5382     10.9468     79.9639
   170.2500      0.0000    736.5372     10.7015     83.3577
   170.5000      0.0000    736.4161     10.4658     85.7184
   170.7500      0.0000    736.1716     10.2788     85.8750
   171.0000      0.0000    735.8478     10.1443     84.1498
   171.2500      0.0000    735.5035     10.0431     81.8223
   171.5000      0.0000    735.1469      9.9626     80.1634
   171.7500      0.0000    734.4376      9.9107     79.8625
   172.0000      0.0000    732.1547      9.9037     80.8865
   172.2500      0.0000    725.7191      9.9475     82.7357
   172.5000      0.0000    711.8913     10.0328     85.0691
   172.7500      0.0000    689.7151     10.1410     87.9963
   173.0000      0.0000    663.4063     10.2455     91.5836
   173.2500      0.0000    640.8045     10.3088     95.2141
   173.5000      0.0000    628.7682     10.2840     97.6511
   173.7500      0.0000    632.9302     10.1251     97.8377
   174.0000      0.0000    660.2483      9.8125     95.6643
   174.2500      0.0000    713.2384      9.3890     91.9234
   174.5000      0.0000    779.0014      8.9646     87.5517
   174.7500      0.0000    832.2814      8.6566     83.1262
   175.0000      0.0000    856.4254      8.5126     79.1435
   175.2500      0.0000    859.3830      8.4922     76.5538
   175.5000      2.0000    865.3304      8.5241     76.5828
   175.7500      0.0000    890.9693      8.5678     79.8079
   176.0000      0.0000    930.5339      8.6338     85.5235
   176.2500      0.0000    961.2040      8.7761     92.0662
   176.5000      0.0000    960.8619      9.0635     97.7867
   176.7500      0.0000    923.3289      9.5105    101.9152
   177.0000      0.0000    862.0111     10.0130    104.6441
   177.2500      0.0000    800.6243     10.3987    106.2588
   177.5000      0.0000    757.6141     10.5710    106.3703
   177.7500      0.0000    736.9528     10.5739    104.4433
   178.0000      0.0000    731.5059     10.5131    101.0687
   178.2500      0.0000    732.2448     10.4617     98.0745
   178.5000      0.0000    733.8571     10.4442     96.8972
   178.7500      0.0000    734.7448     10.4609     97.0588
   179.0000      0.0000    734.9847     10.5025     96.6753
   179.2500      0.0000    734.9308     10.5526     94.3830
   179.5000      0.0000    734.7843     10.5897     90.3883
   179.7500      0.0000    734.6304     10.5977     85.8518
   180.0000      0.0000    734.4984     10.5774     81.8739
   180.2500      0.0000    734.3917     10.5486     79.2209
   180.5000      0.0000    734.2938     10.5337     78.5079
   180.7500      0.0000    734.1914     10.5387     80.2382
   181.0000      0.0000    734.0707     10.5491     84.5258
   181.2500      0.0000    733.8387     10.5433     90.5921
   181.5000      0.0000    733.2105     10.5122     96.5459
   181.7500      0.0000    731.7985     10.4715    100.1291
   182.0000      0.0000    729.5903     10.4503    100.1160
   182.2500      0.0000    727.4424     10.4675     97.0232
   182.5000      0.0000    726.8784     10.5206     92.4591
   182.7500      0.0000    729.1703     10.5972     87.8813
   183.0000      0.0000    734.8135     10.6854     83.8682
   183.2500      0.0000    743.6531     10.7723     80.2104
   183.5000      0.0000    754.2961     10.8423     76.4718
   183.7500      0.0000    762.9692     10.8881     72.4773
   184.0000      0.0000    764.8771     10.9183     68.3454
   184.2500      0.0000    758.6155     10.9457     64.2722
   184.5000      0.0000    748.4044     10.9722     60.5507
   184.7500      0.0000    740.2831     10.9921     57.6428
   185.0000      0.0000    736.5348     11.0108     55.9340
   185.2500      0.0000    734.0898     11.0549     55.4459
   185.5000      0.0000    727.5121     11.1615     55.8714
   185.7500      0.0000    714.4867     11.3519     56.7933
   186.0000      0.0000    700.3708     11.6106     57.9185
   186.2500      0.0000    695.7717     11.8940     59.2412
   186.5000      0.0000    706.4794     12.1695     60.8704
   186.7500      0.0000    726.5240     12.4424     62.5812
   187.0000      0.0000    742.8173     12.7403     63.8621
   187.2500      0.0000    743.8235     13.0822     64.5755
   187.5000      0.0000    721.9566     13.4755     65.1491
   187.7500      0.0000    672.8106     13.9277     65.7937
   188.0000      0.0000    598.9206     14.4327     65.9498
   188.2500      0.0000    514.1728     14.9444     64.9875
   188.5000      0.0000    438.8388     15.3835     63.1595
   188.7500      0.0000    387.4397     15.6807     61.3506
   189.0000      0.0000    362.8876     15.8107     60.0880
   189.2500      0.0000    362.2615     15.7895     59.1763
   189.5000      0.0000    385.2826     15.6444     58.1986
   189.7500      0.0000    434.7175     15.3904     57.1442
   190.0000      0.0000    508.2782     15.0332     56.5805
   190.2500      0.0000    592.1774     14.5924     57.2075
   190.5000      0.0000    666.1787     14.1103     59.1502
   190.7500      0.0000    716.5873     13.6256     61.6785
   191.0000      0.0000    743.3799     13.1420     63.6946
   191.2500      0.0000    755.2405     12.6385     64.4468
   191.5000      0.0000    760.4682     12.1168     63.7529
   191.7500      0.0000    763.0126     11.6275     61.6486
   192.0000      0.0000    763.8823     11.2386     58.0115
   192.2500      0.0000    763.3724     10.9792     52.6955
   192.5000      0.0000    762.1498     10.8132     46.1283
   192.7500      0.0000    761.5958     10.6622     39.7310
   193.0000      0.0000    763.1642     10.4632     35.5356
   193.2500      0.0000    767.1630     10.2133     35.1285
   193.5000      0.0000    772.6672      9.9629     38.7786
