~Version Information
VERS.                      2.0: CWLS Log ASCII Standard - VERSION 2.0
WRAP.                       NO: One line per depth step
~Well Information Block
STRT.FT                -7.5000: 
STOP.FT              1517.5000: 
STEP.FT                 0.2500: 
NULL.                -999.2500: 
COMP.          Pioneer Natural Resources: COMPANY
WELL.          McClaren 13-34 Tr: WELL
FLD.           Purgatorie River: FIELD
LOC.           1934' FSL & 826' WL--: LOCATION
PROV.                       CO: PROVINCE
CNTY.               Las Animas: COUNTRY
SRVC.          Patterson Wireline: SERVICE COMPANY
DATE.          Fri Jul 15 13:10:35 2005: LOG DATE
UWI.           05 071 08437 00: UNIQUE WELL ID
~Curve Information Block
DEPT.FT            0 000 00 00: Depth
CCL.                          : Casing Collar Locator
TT3.usec                      : CBL 3' Travel Time
AMP3.mV                       : CBL 3' Amplitude
GR.GAPI                       : Gamma Ray
~Parameter Information Block
~A  Depth       CCL         TT3         AMP3         GR     
# ...
   997.5000      0.0000    691.0891     10.3433    145.3772
   997.7500      0.0000    692.1795     10.4337    141.9704
   998.0000      0.0000    694.8007     10.5183    137.1755
   998.2500      0.0000    699.1295     10.5970    132.8768
   998.5000      0.0000    704.2072     10.6547    130.4996
   998.7500      0.0000    707.9069     10.6625    130.7051
   999.0000      0.0000    708.3350     10.6036    132.8975
   999.2500      0.0000    705.4679     10.4970    135.4452
   999.5000      0.0000    701.1208     10.3947    136.8042
   999.7500      0.0000    697.3007     10.3493    136.4201
  1000.0000      0.0000    694.8674     10.3777    134.6441
  1000.2500      0.0000    693.5848     10.4516    132.1685
  1000.5000      0.0000    692.8749     10.5225    129.7525
  1000.7500      0.0000    692.3029     10.5579    128.3279
  1001.0000      0.0000    691.6111     10.5578    128.8554
  1001.2500      0.0000    690.3831     10.5477    131.5965
  1001.5000      0.0000    687.2861     10.5559    135.5288
  1001.7500      0.0000    678.9429     10.5901    138.7862
  1002.0000      0.0000    659.6415     10.6317    139.8208
  1002.2500      0.0000    624.0309     10.6563    138.5455
  1002.5000      0.0000    572.8564     10.6588    136.7085
  1002.7500      0.0000    516.7505     10.6551    136.7281
  1003.0000      0.0000    472.6052     10.6620    139.5652
  1003.2500      0.0000    454.3251     10.6803    143.7608
  1003.5000      0.0000    465.0246     10.6990    146.7150
  1003.7500      0.0000    494.8349     10.7099    146.8056
  1004.0000      0.0000    525.7429     10.7141    144.4181
  1004.2500      0.0000    542.6331     10.7175    141.3325
  1004.5000      0.0000    542.1386     10.7261    139.1945
  1004.7500      0.0000    529.6709     10.7443    138.2707
  1005.0000      0.0000    509.7739     10.7722    137.5187
  1005.2500      0.0000    483.3642     10.8042    135.8910
  1005.5000      0.0000    452.4486     10.8334    133.2691
  1005.7500      0.0000    422.1333     10.8595    130.0405
  1006.0000      0.0000    397.5925     10.8901    126.3955
  1006.2500      0.0000    381.5848     10.9340    122.5542
  1006.5000      0.0000    374.5976     10.9911    119.3168
  1006.7500      0.0000    375.4030     11.0483    117.9132
  1007.0000      0.0000    381.4054     11.0883    119.1893
  1007.2500      0.0000    389.6303     11.1029    122.9828
  1007.5000      0.0000    397.9061     11.0967    128.3027
  1007.7500      0.0000    405.0059     11.0754    134.0009
  1008.0000      0.0000    410.0686     11.0365    139.2931
  1008.2500      0.0000    412.5023     10.9733    143.6576
  1008.5000      0.0000    412.6668     10.8882    146.2315
  1008.7500      0.0000    412.2840     10.7991    145.6403
  1009.0000      0.0000    413.5684     10.7292    141.1517
  1009.2500      0.0000    417.2947     10.6896    134.3629
  1009.5000      0.0000    421.5983     10.6729    129.0585
  1009.7500      0.0000    423.1782     10.6647    128.2398
  1010.0000      0.0000    420.0851     10.6612    131.0353
  1010.2500      0.0000    413.3062     10.6700    133.4414
  1010.5000      0.0000    405.6779     10.6932    132.4863
  1010.7500      0.0000    399.5675     10.7141    128.8517
  1011.0000      0.0000    395.6936     10.7068    125.2504
  1011.2500      0.0000    393.6162     10.6592    123.5005
  1011.5000      0.0000    392.9615     10.5830    123.6018
  1011.7500      0.0000    394.4192     10.5020    124.4302
  1012.0000      0.0000    400.2624     10.4344    124.6580
  1012.2500      0.0000    413.6297     10.3885    123.6906
  1012.5000      0.0000    435.8275     10.3664    122.1959
  1012.7500      0.0000    464.1482     10.3633    121.6596
  1013.0000      0.0000    494.8005     10.3672    123.4049
  1013.2500      0.0000    528.7707     10.3676    127.7333
  1013.5000      0.0000    570.8539     10.3644    133.5455
  1013.7500      0.0000    620.8398     10.3635    139.1140
  1014.0000      0.0000    669.8834     10.3661    143.6709
  1014.2500      0.0000    708.1896     10.3717    147.8472
  1014.5000      0.0000    733.0842     10.3882    152.1643
  1014.7500      0.0000    748.1026     10.4265    155.5344
  1015.0000      0.0000    757.4773     10.4822    156.0036
  1015.2500      0.0000    763.4979     10.5305    153.0881
  1015.5000      0.0000    767.0775     10.5442    148.6808
  1015.7500      0.0000    768.2887     10.5132    145.2008
  1016.0000      0.0000    766.5303     10.4477    143.3488
  1016.2500      0.0000    761.5143     10.3720    142.1724
  1016.5000      0.0000    754.3855     10.3164    140.8236
  1016.7500      0.0000    747.3489     10.3039    139.6952
  1017.0000      0.0000    742.1305     10.3364    140.0484
  1017.2500      0.0000    739.0909     10.3933    142.7373
  1017.5000      0.0000    737.6302     10.4464    147.0217
  1017.7500      0.0000    737.0042     10.4740    150.4879
  1018.0000      0.0000    736.7448     10.4646    150.3325
  1018.2500      0.0000    736.7036     10.4145    145.2284
  1018.5000      0.0000    737.0740     10.3289    136.5466
  1018.7500      0.0000    738.5452     10.2231    127.8783
  1019.0000      0.0000    742.3762     10.1195    122.8723
  1019.2500      0.0000    749.9314     10.0400    123.0838
  1019.5000      0.0000    761.5729      9.9966    127.5787
  1019.7500      0.0000    775.8461      9.9843    134.0711
  1020.0000      0.0000    790.1377      9.9847    140.1292
  1020.2500      0.0000    802.2614      9.9765    143.8594
  1020.5000      0.0000    811.0580      9.9451    144.4498
  1020.7500      0.0000    815.5209      9.8845    142.6372
  1021.0000      0.0000    814.0563      9.7920    140.4599
  1021.2500      0.0000    805.2018      9.6624    139.9686
  1021.5000      0.0000    789.2383      9.4881    141.7482
  1021.7500      0.0000    769.0151      9.2566    144.4895
  1022.0000      0.0000    749.0175      8.9415    145.9559
  1022.2500      0.0000    733.8469      8.5165    144.6326
  1022.5000      0.0000    727.5659      8.0088    140.6407
  1022.7500      0.0000    732.9708      7.5176    134.9691
  1023.0000      0.0000    749.4974      7.1290    127.8938
  1023.2500      0.0000    771.8320      6.8220    118.4683
  1023.5000      0.0000    792.1788      6.5039    105.5740
  1023.7500      0.0000    804.8531      6.1218     89.3460
  1024.0000      0.0000    808.8425      5.6961     71.7295
  1024.2500      0.0000    806.9110      5.2706     55.7791
  1024.5000     -2.0000    803.4796      4.8800     44.0381
  1024.7500      0.0000    802.8266      4.5518     37.1434
  1025.0000      0.0000    807.2706      4.3103     33.9059
  1025.2500      0.0000    815.7778      4.1713     32.7703
  1025.5000      0.0000    824.8425      4.1310     32.9814
  1025.7500      0.0000    831.4018      4.1453     34.2368
  1026.0000      0.0000    834.5981      4.1324     35.7788
  1026.2500      0.0000    834.7412      4.0329     36.5478
  1026.5000      0.0000    831.6239      3.8749     36.1766
  1026.7500      0.0000    824.5223      3.7643     35.3021
  1027.0000      0.0000    813.3405      3.8057     34.8327
  1027.2500      0.0000    799.0618      4.0310     35.2855
  1027.5000      0.0000    783.4856      4.3907     36.7814
  1027.7500      0.0000    769.2010      4.8016     39.2203
  1028.0000      0.0000    758.8520      5.2011     42.3535
  1028.2500      0.0000    753.1258      5.5583     45.9427
  1028.5000      0.0000    750.1624      5.8525     49.8172
  1028.7500      0.0000    748.2870      6.0668     53.5963
  1029.0000      0.0000    748.7842      6.2038     56.5999
  1029.2500      0.0000    754.7229      6.2874     58.3707
  1029.5000      0.0000    767.1192      6.3344     59.0930
  1029.7500      0.0000    782.9093      6.3318     59.1521
  1030.0000      0.0000    796.7463      6.2525     58.3509
  1030.2500      0.0000    804.5354      6.0946     55.9449
  1030.5000      0.0000    805.6617      5.8924     51.6392
  1030.7500      0.0000    802.8298      5.6834     46.3486
