~Version Information
VERS.                      2.0: CWLS Log ASCII Standard - VERSION 2.0
WRAP.                       NO: One line per depth step
~Well Information Block
STRT.FT               380.0000: 
STOP.FT              1887.5000: 
STEP.FT                 0.1000: 
NULL.                -999.2500: 
COMP.          Pioneer Natural Resources: COMPANY
WELL.          Cortina 23-25 Tr: WELL
FLD.           Purgatoire River: FIELD
LOC.           2521' FSL & 2345' FWL: LOCATION
STAT.                 Colorado: State
CNTY.               Las Animas: COUNTY
CTRY. USA : Country
SECT. 25 : Section
TOWN. 32S : Township
RANG. 67W : Range
SRVC.                Patterson: SERVICE COMPANY
DATE.          Mon Sep 26 06:09:01 2005: LOG DATE
API.           05 071 08534 00: UNIQUE WELL ID
~Curve Information Block
DEPT.FT            0 000 00 00: Depth
DCAL.in                       : CDL Caliper
RHOB.g/cc                     : CDL Bulk Density
RHOC.g/cc                     : CDL Density Correction
DPOR.pu                       : CDL Density Porosity
GR.GAPI                       : Gamma Ray
NPOR.pu                       : Neutron Porosity
~Parameter Information Block
~A  Depth       DCAL        RHOB        RHOC        DPOR         GR         NPOR    
# ...
  1080.8000      7.9444      2.6908      0.0385     -2.4737    137.0121     27.4836
  1080.9000      7.9400      2.6985      0.0381     -2.9381    130.7411     27.2328
  1081.0000      7.9376      2.6828      0.0781     -1.9870    124.6034     27.4648
  1081.1000      7.9379      2.6360      0.0094      0.8459    120.8129     27.7387
  1081.2000      7.9412      2.5910     -0.0285      3.5736    121.5301     27.6068
  1081.3000      7.9475      2.5742     -0.0403      4.5931    126.1932     27.3054
  1081.4000      7.9564      2.5658      0.1102      5.1039    131.5343     27.1957
  1081.5000      7.9671      2.5474      0.0021      6.2196    133.7938     27.0404
  1081.6000      7.9786      2.5468      0.0268      6.2564    133.3730     26.6440
  1081.7000      7.9898      2.5797      0.1103      4.2633    134.3874     26.3525
  1081.8000      7.9999      2.6123      0.1956      2.2834    135.0289     26.2791
  1081.9000      8.0079      2.6154      0.1923      2.0986    129.4999     26.1660
  1082.0000      8.0137      2.6066      0.1199      2.6282    119.7636     26.2028
  1082.1000      8.0170      2.6123      0.1870      2.2868    113.4301     26.6840
  1082.2000      8.0181      2.6252      0.1546      1.5027    114.6418     27.0453
  1082.3000      8.0176      2.6256      0.1116      1.4799    120.2563     26.7056
  1082.4000      8.0161      2.6022      0.0854      2.8994    125.6774     26.2662
  1082.5000      8.0142      2.5598      0.0775      5.4668    129.8717     26.3646
  1082.6000      8.0126      2.5272      0.0066      7.4434    131.9795     26.6742
  1082.7000      8.0115      2.5320      0.0295      7.1501    132.4541     26.8549
  1082.8000      8.0109      2.5602      0.1169      5.4419    132.4937     27.0251
  1082.9000      8.0106      2.5780      0.1051      4.3631    130.8336     27.2091
  1083.0000      8.0101      2.5850      0.1159      3.9410    129.3368     27.1199
  1083.1000      8.0089      2.5941      0.1536      3.3901    129.3618     26.7298
  1083.2000      8.0065      2.6024      0.1600      2.8856    126.6526     26.4548
  1083.3000      8.0027      2.6079      0.1181      2.5494    120.4790     26.6091
  1083.4000      7.9976      2.6045      0.1653      2.7593    116.9811     26.9514
  1083.5000      7.9916      2.5808      0.1269      4.1933    118.6989     27.2188
  1083.6000      7.9852      2.5541      0.0063      5.8109    121.6256     27.6566
  1083.7000      7.9794      2.5374      0.1228      6.8250    121.3734     28.2560
  1083.8000      7.9751      2.5071      0.0923      8.6582    116.3895     28.4865
  1083.9000      7.9731      2.4667     -0.0106     11.1076    110.6082     27.9050
  1084.0000      7.9742      2.4512     -0.0131     12.0483    108.1468     26.7332
  1084.1000      7.9786      2.4648     -0.0038     11.2244    108.2278     25.8946
  1084.2000      7.9860      2.4906      0.0222      9.6578    109.0349     25.7305
  1084.3000      7.9958      2.5255      0.0311      7.5455    109.5404     25.7783
  1084.4000      8.0073      2.5695      0.1221      4.8796    106.8925     25.7350
  1084.5000      8.0190      2.6138      0.1188      2.1965    100.6385     25.3798
  1084.6000      8.0301      2.6501      0.1823     -0.0064     93.6305     24.6638
  1084.7000      8.0393      2.6723      0.1912     -1.3538     87.3097     23.9876
  1084.8000      8.0459      2.6770      0.2032     -1.6382     82.9860     23.4115
  1084.9000      8.0494      2.6699      0.1684     -1.2040     81.8403     22.9656
  1085.0000      8.0497      2.6597      0.1974     -0.5873     82.9194     22.9592
  1085.1000      8.0469      2.6534      0.1148     -0.2035     85.2244     23.2468
  1085.2000      8.0414      2.6595      0.1131     -0.5762     90.0833     23.3846
  1085.3000      8.0338      2.6658      0.1394     -0.9577     95.9249     23.2588
  1085.4000      8.0247      2.6498      0.1362      0.0144     97.8950     23.1496
  1085.5000      8.0149      2.6275      0.0628      1.3617     95.9104     23.2414
  1085.6000      8.0052      2.6251      0.0849      1.5092     92.3840     23.4295
  1085.7000      7.9962      2.6285      0.1278      1.3024     88.5449     23.8892
  1085.8000      7.9883      2.6184      0.0640      1.9162     87.9921     24.6814
  1085.9000      7.9822      2.6010      0.0131      2.9677     92.0954     25.2798
  1086.0000      7.9779      2.5799      0.1111      4.2456     95.7551     25.5327
  1086.1000      7.9756      2.5496      0.0720      6.0829     96.3429     25.6936
  1086.2000      7.9750      2.5303      0.0006      7.2519     96.9233     25.8655
  1086.3000      7.9758      2.5530      0.0249      5.8795    100.1993     26.1985
  1086.4000      7.9774      2.6130      0.0711      2.2432    103.9403     26.6478
  1086.5000      7.9791      2.6848      0.0873     -2.1076    102.5999     26.6742
  1086.6000      7.9804      2.7419      0.1379     -5.5724     97.0310     25.9471
  1086.7000      7.9807      2.7598      0.1606     -6.6573     94.3503     25.1423
  1086.8000      7.9797      2.7346      0.1527     -5.1297     97.2905     25.0399
  1086.9000      7.9772      2.6848      0.1348     -2.1075    103.1467     25.4156
  1087.0000      7.9733      2.6418      0.0763      0.4957    106.2490     25.7209
  1087.1000      7.9684      2.6304      0.0326      1.1865    101.7089     25.9211
  1087.2000      7.9628      2.6381      0.0677      0.7216     95.2403     26.0810
  1087.3000      7.9569      2.6349      0.0296      0.9124     94.0517     26.0027
  1087.4000      7.9510      2.6179      0.0384      1.9448     95.0029     25.4820
  1087.5000      7.9454      2.5981      0.0699      3.1473     96.2372     24.8243
  1087.6000      7.9401      2.5795      0.0311      4.2735     99.0843     24.6145
  1087.7000      7.9352      2.5656      0.0795      5.1138    100.3096     24.9453
  1087.8000      7.9304      2.5637      0.0351      5.2296    100.2090     25.3925
  1087.9000      7.9259      2.5812      0.1025      4.1721    102.7913     25.4297
  1088.0000      7.9214      2.6097      0.0562      2.4427    104.2516     25.0794
  1088.1000      7.9171      2.6293      0.0744      1.2521     99.3325     24.7816
  1088.2000      7.9131      2.6272      0.0200      1.3817     91.3680     24.6373
  1088.3000      7.9097      2.6079      0.0217      2.5505     86.7665     24.3336
  1088.4000      7.9070      2.5856     -0.0034      3.9052     86.1128     23.8006
  1088.5000      7.9053      2.5769     -0.0048      4.4291     85.1025     23.4651
  1088.6000      7.9046      2.5902      0.0224      3.6258     83.7164     23.4445
  1088.7000      7.9053      2.6150      0.0278      2.1188     84.5557     23.4699
  1088.8000      7.9072      2.6380      0.0532      0.7292     85.3344     23.4888
  1088.9000      7.9103      2.6535      0.0600     -0.2123     85.7521     23.5933
  1089.0000      7.9146      2.6583      0.0204     -0.5001     89.2151     23.5888
  1089.1000      7.9199      2.6478      0.0372      0.1331     92.9701     23.2801
  1089.2000      7.9261      2.6254      0.0213      1.4879     92.0857     22.9303
  1089.3000      7.9328      2.6034      0.0577      2.8220     87.6785     22.7548
  1089.4000      7.9398      2.5918      0.0299      3.5247     83.9546     22.6308
  1089.5000      7.9467      2.5973      0.0396      3.1968     82.9979     22.4980
  1089.6000      7.9532      2.6205      0.0530      1.7862     84.7714     22.4691
  1089.7000      7.9587      2.6511      0.1014     -0.0644     88.5721     22.5399
  1089.8000      7.9632      2.6657      0.1627     -0.9507     90.6980     22.5895
  1089.9000      7.9664      2.6528      0.1166     -0.1691     88.8087     22.6574
  1090.0000      7.9683      2.6323      0.0604      1.0758     86.0813     22.8133
  1090.1000      7.9690      2.6245      0.0898      1.5448     84.2986     22.8883
  1090.2000      7.9689      2.6253      0.0908      1.4989     81.9007     22.8802
  1090.3000      7.9682      2.6260      0.0762      1.4548     80.3180     22.9584
