~Version Information
VERS.                      2.0: CWLS Log ASCII Standard - VERSION 2.0
WRAP.                       NO: One line per depth step
~Well Information Block
STRT.FT               240.0000: 
STOP.FT              1252.5000: 
STEP.FT                 0.2500: 
NULL.                -999.2500: 
COMP.          Pioneer Natural Resources: COMPANY
WELL.             Margaux 11-1: WELL
FLD.           Purgatoire River: FIELD
LOC.           1154' FNL & 472' FWL: LOCATION
PROV.                 Colorado: PROVINCE
CNTY.               Las Animas: COUNTRY
SRVC.                Patterson: SERVICE COMPANY
DATE.          Mon Dec 19 04:21:59 2005: LOG DATE
UWI.           05 071 08639 00: UNIQUE WELL ID
~Curve Information Block
DEPT.FT            0 000 00 00: Depth
SN.Ohm-m                      : IEL Short Normal
SP.mV                         : IEL Spontaneous Potential
DIR.Ohm-m                     : IEL Induction Resistivity
GR.GAPI                       : Gamma Ray
~Parameter Information Block
~A  Depth        SN          SP         DIR          GR     
# ...
   575.0000   2000.0000   2000.0000     17.6426    137.9637
   575.2500   2000.0000   2000.0000     17.3458    144.4703
   575.5000   2000.0000   2000.0000     17.0542    152.9637
   575.7500   2000.0000   2000.0000     16.7615    156.9610
   576.0000   2000.0000   2000.0000     16.4462    160.2260
   576.2500   2000.0000   2000.0000     16.0869    160.9417
   576.5000   2000.0000   2000.0000     15.6757    160.3069
   576.7500   2000.0000   2000.0000     15.2221    158.7412
   577.0000   2000.0000   2000.0000     14.7472    154.8257
   577.2500   2000.0000   2000.0000     14.2755    151.6693
   577.5000   2000.0000   2000.0000     13.8291    147.4641
   577.7500   2000.0000   2000.0000     13.4254    145.7523
   578.0000   2000.0000   2000.0000     13.0775    145.6043
   578.2500   2000.0000   2000.0000     12.7973    147.1992
   578.5000   2000.0000   2000.0000     12.5972    151.6144
   578.7500   2000.0000   2000.0000     12.4890    155.3783
   579.0000   2000.0000   2000.0000     12.4790    161.2733
   579.2500   2000.0000   2000.0000     12.5632    164.8006
   579.5000   2000.0000   2000.0000     12.7273    168.5943
   579.7500   2000.0000   2000.0000     12.9523    169.7685
   580.0000   2000.0000   2000.0000     13.2203    169.2084
   580.2500   2000.0000   2000.0000     13.5188    167.1057
   580.5000   2000.0000   2000.0000     13.8392    160.7783
   580.7500   2000.0000   2000.0000     14.1782    154.2590
   581.0000   2000.0000   2000.0000     14.5417    141.9057
   581.2500   2000.0000   2000.0000     14.9482    133.1699
   581.5000   2000.0000   2000.0000     15.4233    121.3443
   581.7500   2000.0000   2000.0000     15.9862    114.8934
   582.0000   2000.0000   2000.0000     16.6390    107.5001
   582.2500   2000.0000   2000.0000     17.3712    103.9629
   582.5000   2000.0000   2000.0000     18.1765    100.4114
   582.7500   2000.0000   2000.0000     19.0685     99.1971
   583.0000   2000.0000   2000.0000     20.0716     99.9970
   583.2500   2000.0000   2000.0000     21.1869    103.0672
   583.5000   2000.0000   2000.0000     22.3514    111.5437
   583.7500   2000.0000   2000.0000     23.4197    118.4570
   584.0000   2000.0000   2000.0000     24.1906    127.0955
   584.2500   2000.0000   2000.0000     24.4801    129.9805
   584.5000   2000.0000   2000.0000     24.2028    129.2170
   584.7500   2000.0000   2000.0000     23.4104    126.1088
   585.0000   2000.0000   2000.0000     22.2615    120.0687
   585.2500   2000.0000   2000.0000     20.9503    116.6488
   585.5000   2000.0000   2000.0000     19.6406    114.2388
   585.7500   2000.0000   2000.0000     18.4365    114.8052
   586.0000   2000.0000   2000.0000     17.3856    118.7204
   586.2500   2000.0000   2000.0000     16.4980    123.2363
   586.5000   2000.0000   2000.0000     15.7644    132.7284
   586.7500   2000.0000   2000.0000     15.1671    140.4043
   587.0000   2000.0000   2000.0000     14.6827    152.1388
   587.2500   2000.0000   2000.0000     14.2819    158.9668
   587.5000   2000.0000   2000.0000     13.9310    166.6512
   587.7500   2000.0000   2000.0000     13.5994    169.8793
   588.0000   2000.0000   2000.0000     13.2732    171.6186
   588.2500   2000.0000   2000.0000     12.9644    170.7139
   588.5000   2000.0000   2000.0000     12.7064    167.3600
   588.7500   2000.0000   2000.0000     12.5391    165.0342
   589.0000   2000.0000   2000.0000     12.4942    163.2493
   589.2500   2000.0000   2000.0000     12.5900    163.3176
   589.5000   2000.0000   2000.0000     12.8350    163.4005
   589.7500   2000.0000   2000.0000     13.2347    161.6582
   590.0000   2000.0000   2000.0000     13.7946    154.3730
   590.2500   2000.0000   2000.0000     14.5194    146.7140
   590.5000   2000.0000   2000.0000     15.4080    133.3165
   590.7500   2000.0000   2000.0000     16.4436    124.4317
   591.0000   2000.0000   2000.0000     17.5795    112.6282
   591.2500   2000.0000   2000.0000     18.7277    106.4039
   591.5000   2000.0000   2000.0000     19.7721    100.2696
   591.7500   2000.0000   2000.0000     20.6111     98.1534
   592.0000   2000.0000   2000.0000     21.1970     96.5283
   592.2500   2000.0000   2000.0000     21.5290     95.5158
   592.5000   2000.0000   2000.0000     21.6140     93.3624
   592.7500   2000.0000   2000.0000     21.4484     91.9536
   593.0000   2000.0000   2000.0000     21.0367     92.1346
   593.2500   2000.0000   2000.0000     20.4173     95.3794
   593.5000   2000.0000   2000.0000     19.6566    106.2189
   593.7500   2000.0000   2000.0000     18.8181    116.6587
   594.0000   2000.0000   2000.0000     17.9365    133.7005
   594.2500   2000.0000   2000.0000     17.0174    143.6521
   594.5000   2000.0000   2000.0000     16.0606    153.7388
   594.7500   2000.0000   2000.0000     15.0814    157.0160
   595.0000   2000.0000   2000.0000     14.1128    158.5442
   595.2500   2000.0000   2000.0000     13.1926    158.7889
   595.5000   2000.0000   2000.0000     12.3501    159.7026
   595.7500   2000.0000   2000.0000     11.6044    160.9238
   596.0000   2000.0000   2000.0000     10.9656    163.5156
   596.2500   2000.0000   2000.0000     10.4368    165.7212
   596.5000   2000.0000   2000.0000     10.0133    169.7767
   596.7500   2000.0000   2000.0000      9.6842    172.8132
   597.0000   2000.0000   2000.0000      9.4354    177.1226
   597.2500   2000.0000   2000.0000      9.2543    179.2935
   597.5000   2000.0000   2000.0000      9.1330    180.9633
   597.7500   2000.0000   2000.0000      9.0691    181.1399
   598.0000   2000.0000   2000.0000      9.0638    180.5837
   598.2500   2000.0000   2000.0000      9.1170    179.7536
   598.5000   2000.0000   2000.0000      9.2238    177.1614
   598.7500   2000.0000   2000.0000      9.3760    173.8936
   599.0000   2000.0000   2000.0000      9.5668    165.8851
   599.2500   2000.0000   2000.0000      9.7969    158.6430
   599.5000   2000.0000   2000.0000     10.0765    146.7541
   599.7500   2000.0000   2000.0000     10.4237    139.7155
   600.0000   2000.0000   2000.0000     10.8611    132.3128
   600.2500   2000.0000   2000.0000     11.4133    129.4585
   600.5000   2000.0000   2000.0000     12.1064    126.9079
   600.7500   2000.0000   2000.0000     12.9658    125.4297
   601.0000   2000.0000   2000.0000     14.0103    122.5262
   601.2500   2000.0000   2000.0000     15.2414    119.9342
   601.5000   2000.0000   2000.0000     16.6320    115.1583
   601.7500   2000.0000   2000.0000     18.1236    111.5166
   602.0000   2000.0000   2000.0000     19.6361    105.6039
   602.2500   2000.0000   2000.0000     21.0864    101.6197
   602.5000   2000.0000   2000.0000     22.4035     96.5045
   602.7500   2000.0000   2000.0000     23.5375     94.4573
   603.0000   2000.0000   2000.0000     24.4618     94.6878
   603.2500   2000.0000   2000.0000     25.1698     97.3528
   603.5000   2000.0000   2000.0000     25.6617    104.5935
   603.7500   2000.0000   2000.0000     25.9280    110.8216
   604.0000   2000.0000   2000.0000     25.9454    120.7587
   604.2500   2000.0000   2000.0000     25.6896    126.9452
   604.5000   2000.0000   2000.0000     25.1597    134.2828
   604.7500   2000.0000   2000.0000     24.3909    137.4154
   605.0000   2000.0000   2000.0000     23.4486    139.7009
   605.2500   2000.0000   2000.0000     22.4090    140.2819
   605.5000   2000.0000   2000.0000     21.3405    141.0280
   605.7500   2000.0000   2000.0000     20.2930    142.0032
   606.0000   2000.0000   2000.0000     19.2945    144.8771
   606.2500   2000.0000   2000.0000     18.3540    147.9292
   606.5000   2000.0000   2000.0000     17.4685    153.7521
   606.7500   2000.0000   2000.0000     16.6329    157.7137
   607.0000   2000.0000   2000.0000     15.8439    162.2877
   607.2500   2000.0000   2000.0000     15.0980    163.8463
   607.5000   2000.0000   2000.0000     14.3863    163.8240
   607.7500   2000.0000   2000.0000     13.6956    162.6202
   608.0000   2000.0000   2000.0000     13.0182    160.0879
   608.2500   2000.0000   2000.0000     12.3597    158.5935
