~Version Information
VERS.                      2.0: CWLS Log ASCII Standard - VERSION 2.0
WRAP.                       NO: One line per depth step
~Well Information Block
STRT.FT               245.0000: 
STOP.FT              1217.7000: 
STEP.FT                 0.1000: 
NULL.                -999.2500: 
COMP.          Pioneer Natural Resources: COMPANY
WELL.          Lucky Lady 42-29: WELL
FLD.           Purgatoire River: FIELD
LOC.           2482' FNL & 662' FEL--: LOCATION
CNTY.               Las Animas: COUNTY
SRVC.                Patterson: SERVICE COMPANY
DATE.          Thu Mar 09 18:39:54 2006: LOG DATE
UWI.           05 071 08659 00: UNIQUE WELL ID
STAT.                 Colorado: STATE
~Curve Information Block
DEPT.FT            0 000 00 00: Depth
DCAL.in                       : CDL Caliper
RHOB.g/cc                     : CDL Bulk Density
RHOC.g/cc                     : CDL Density Correction
DPOR.pu                       : CDL Density Porosity
NPOR.pu                       : Neutron Porosity
GR.GAPI                       : Gamma Ray
~Parameter Information Block
~A  Depth       DCAL        RHOB        RHOC        DPOR        NPOR         GR     
# ...
  1061.0000      7.8999      2.4424      0.0122     12.5805     20.2276    138.3415
  1061.1000      7.8999      2.4577      0.0631     11.6534     19.7804    137.8149
  1061.2000      7.8999      2.4660      0.0700     11.1507     19.7049    136.6864
  1061.3000      7.9010      2.4667      0.0514     11.1087     19.5979    136.3188
  1061.4000      7.9010      2.4651      0.0525     11.2063     19.2029    136.5394
  1061.5000      7.9004      2.4648      0.0544     11.2221     18.9271    137.2373
  1061.6000      7.9004      2.4752      0.0562     10.5962     19.1072    139.1337
  1061.7000      7.9004      2.5020      0.0421      8.9705     19.6450    141.6640
  1061.8000      7.8985      2.5294      0.1312      7.3103     20.2453    140.9678
  1061.9000      7.8985      2.5342      0.0737      7.0189     20.6910    135.0907
  1062.0000      7.8977      2.5180      0.0734      7.9972     20.9107    127.8030
  1062.1000      7.8977      2.4982      0.0464      9.2008     21.0157    122.1964
  1062.2000      7.8977      2.4869      0.0501      9.8872     21.0615    121.7529
  1062.3000      7.8965      2.4880      0.0344      9.8173     20.8472    125.2284
  1062.4000      7.8965      2.4961      0.0467      9.3254     20.3512    126.5488
  1062.5000      7.8975      2.5004      0.0621      9.0664     19.8544    126.3854
  1062.6000      7.8975      2.4951      0.0418      9.3864     19.4948    126.7696
  1062.7000      7.8975      2.4787      0.0541     10.3833     19.1554    125.0831
  1062.8000      7.8983      2.4446      0.0367     12.4498     18.8864    122.3932
  1062.9000      7.8983      2.3917      0.0151     15.6561     18.8698    121.5285
  1063.0000      7.8892      2.3416     -0.0186     18.6896     18.9960    122.2071
  1063.1000      7.8892      2.3328     -0.0462     19.2235     19.0002    125.2195
  1063.2000      7.8892      2.3817     -0.0186     16.2620     18.9176    127.8570
  1063.3000      7.8702      2.4562      0.0670     11.7483     19.0279    124.3825
  1063.4000      7.8702      2.5108      0.1091      8.4388     19.4165    117.5147
  1063.5000      7.8507      2.5285      0.1338      7.3609     19.8740    111.1850
  1063.6000      7.8507      2.5163      0.0978      8.1044     20.1036    104.8573
  1063.7000      7.8507      2.4953      0.0986      9.3736     20.0272    101.3746
  1063.8000      7.8374      2.4908      0.0569      9.6509     19.9352    102.3820
  1063.9000      7.8374      2.5120      0.0726      8.3649     19.8602    104.6090
  1064.0000      7.8390      2.5408      0.1180      6.6208     19.6879    105.4298
  1064.1000      7.8390      2.5530      0.0657      5.8804     19.4702    106.6777
  1064.2000      7.8390      2.5445      0.0928      6.3938     19.2115    110.8997
  1064.3000      7.8621      2.5276      0.0546      7.4209     18.9924    113.4705
  1064.4000      7.8621      2.5257      0.0394      7.5336     19.0152    106.2066
  1064.5000      7.8908      2.5443      0.1027      6.4044     19.0876     94.4251
  1064.6000      7.8908      2.5609      0.0788      5.3974     18.9287     89.7014
  1064.7000      7.8908      2.5642      0.0423      5.1987     18.9851     91.5899
  1064.8000      7.9065      2.5608      0.0285      5.4051     19.5712     92.9009
  1064.9000      7.9065      2.5500      0.0458      6.0616     20.0267     89.2910
  1065.0000      7.9041      2.5270      0.0318      7.4556     19.8089     84.6261
  1065.1000      7.9041      2.4988      0.0166      9.1629     19.3723     85.2413
  1065.2000      7.9041      2.4820     -0.0062     10.1817     19.2972     87.6818
  1065.3000      7.8987      2.4863     -0.0071      9.9198     19.4220     87.1545
  1065.4000      7.8987      2.5033      0.0249      8.8908     19.2873     87.4352
  1065.5000      7.8997      2.5164      0.0578      8.0964     18.8618     93.3873
  1065.6000      7.8997      2.5177      0.0603      8.0198     18.4580    100.3852
  1065.7000      7.8997      2.5096      0.0331      8.5086     18.2898     99.4277
  1065.8000      7.9011      2.4983      0.0129      9.1955     18.4176     92.2847
  1065.9000      7.9011      2.4912      0.0135      9.6250     18.8437     87.9958
  1066.0000      7.8992      2.4954      0.0231      9.3710     19.3816     89.9988
  1066.1000      7.8992      2.5092      0.0535      8.5326     19.6542     93.7410
  1066.2000      7.8992      2.5237      0.0365      7.6529     19.6747     95.8877
  1066.3000      7.8929      2.5335      0.0596      7.0584     19.8340     95.7879
  1066.4000      7.8929      2.5455      0.0514      6.3307     20.2427     92.9090
  1066.5000      7.8825      2.5707      0.0614      4.8073     20.7255     87.4178
  1066.6000      7.8825      2.5976      0.1076      3.1779     21.1429     81.5214
  1066.7000      7.8825      2.6071      0.1054      2.6001     21.4094     78.2900
  1066.8000      7.8747      2.6013      0.0842      2.9544     21.5299     79.5703
  1066.9000      7.8747      2.5865      0.0802      3.8514     21.7306     82.7948
  1067.0000      7.8722      2.5634      0.0384      5.2478     22.1725     83.1063
  1067.1000      7.8722      2.5359      0.0511      6.9175     22.7636     80.9113
  1067.2000      7.8722      2.5086      0.0063      8.5711     23.2016     79.7298
  1067.3000      7.8763      2.4874      0.0161      9.8544     23.0762     82.9658
  1067.4000      7.8763      2.4720     -0.0144     10.7883     22.4224     92.1640
  1067.5000      7.8860      2.4631     -0.0163     11.3295     21.7656    102.6036
  1067.6000      7.8860      2.4678      0.0035     11.0453     21.3310    109.0425
  1067.7000      7.8860      2.4823      0.0329     10.1646     21.0416    111.8024
  1067.8000      7.8954      2.4880      0.0478      9.8195     20.8783    113.1750
  1067.9000      7.8954      2.4760      0.0506     10.5435     20.8875    113.5684
  1068.0000      7.8996      2.4649      0.0002     11.2180     20.9437    114.0291
  1068.1000      7.8996      2.4777      0.0627     10.4408     20.8755    116.8825
  1068.2000      7.8996      2.5078      0.1039      8.6164     20.7419    120.6368
  1068.3000      7.8928      2.5237      0.1232      7.6539     20.5098    120.3203
  1068.4000      7.8928      2.5115      0.0916      8.3914     20.1772    115.9925
  1068.5000      7.8882      2.4900      0.0531      9.6977     19.8618    112.8206
  1068.6000      7.8882      2.4697      0.0752     10.9295     19.5365    115.5937
  1068.7000      7.8882      2.4448      0.0537     12.4364     19.1826    123.0318
  1068.8000      7.8946      2.4308     -0.0054     13.2818     19.0331    126.9994
  1068.9000      7.8946      2.4411      0.0621     12.6594     19.2353    122.9636
  1069.0000      7.8996      2.4559      0.0730     11.7642     19.3854    118.3831
  1069.1000      7.8996      2.4663      0.0453     11.1335     19.2229    120.0673
  1069.2000      7.8996      2.4841      0.0422     10.0549     19.0215    121.2086
  1069.3000      7.8983      2.5077      0.0688      8.6248     19.0386    117.3437
  1069.4000      7.8983      2.5260      0.1066      7.5171     19.3576    115.5745
  1069.5000      7.8939      2.5299      0.1167      7.2816     19.8721    117.8026
  1069.6000      7.8939      2.5136      0.1096      8.2649     20.2520    119.0657
  1069.7000      7.8939      2.4859      0.0362      9.9474     20.1920    118.1455
  1069.8000      7.8891      2.4650      0.0448     11.2134     19.7258    116.6048
  1069.9000      7.8891      2.4599      0.0341     11.5214     19.2684    114.3731
  1070.0000      7.8867      2.4738      0.0307     10.6789     19.2020    114.5270
  1070.1000      7.8867      2.4995      0.0772      9.1210     19.6092    118.8294
  1070.2000      7.8867      2.5176      0.0816      8.0220     20.2692    120.0915
  1070.3000      7.8875      2.5194      0.0739      7.9179     20.9450    114.3950
  1070.4000      7.8875      2.5096      0.0362      8.5084     21.4771    106.8495
  1070.5000      7.8927      2.4969      0.0139      9.2778     21.5592    101.9859
