~Version Information
VERS.                      2.0: CWLS Log ASCII Standard - VERSION 2.0
WRAP.                       NO: One line per depth step
~Well Information Block
STRT.FT               305.0000: 
STOP.FT              1376.5000: 
STEP.FT                 0.1000: 
NULL.                -999.2500: 
COMP.          Pioneer Natural Resources: COMPANY
WELL.               LPGC 32-32: WELL
FLD.           Purgatoire River: FIELD
LOC.           1937' FNL & 1661' FEL: LOCATION
PROV.                 Colorado: PROVINCE
CNTY.               Las Animas: COUNTRY
SRVC.                Patterson: SERVICE COMPANY
DATE.          Mon Jan 30 07:33:36 2006: LOG DATE
UWI.           05 071 08641 00: UNIQUE WELL ID
~Curve Information Block
DEPT.FT            0 000 00 00: Depth
DCAL.in                       : CDL Caliper
RHOB.g/cc                     : CDL Bulk Density
RHOC.g/cc                     : CDL Density Correction
DPOR.pu                       : CDL Density Porosity
GR.GAPI                       : Gamma Ray
NPOR.pu                       : Neutron Porosity
~Parameter Information Block
~A  Depth       DCAL        RHOB        RHOC        DPOR         GR         NPOR    
# ...
  1293.8000      7.8651      2.3965      0.0687     15.3664     82.1467     24.0956
  1293.9000      7.8651      2.3874      0.0375     15.9171     83.9690     23.6057
  1294.0000      7.8659      2.3652      0.0064     17.2580     84.3915     23.1735
  1294.1000      7.8659      2.3482      0.0056     18.2931     81.6903     23.5443
  1294.2000      7.8659      2.3455      0.0175     18.4568     76.1024     24.0890
  1294.3000      7.8572      2.3536      0.0190     17.9664     70.6816     23.9471
  1294.4000      7.8572      2.3698      0.0144     16.9805     69.7801     23.3772
  1294.5000      7.8795      2.3930      0.0578     15.5765     75.3191     23.5064
  1294.6000      7.8795      2.4055      0.0878     14.8190     83.9793     24.3046
  1294.7000      7.8795      2.3950      0.0314     15.4559     89.9217     24.2819
  1294.8000      7.8497      2.3800     -0.0235     16.3659     91.2253     23.3254
  1294.9000      7.8497      2.3781      0.0497     16.4777     88.7098     22.7896
  1295.0000      7.8563      2.3848      0.0675     16.0729     81.4939     22.8800
  1295.1000      7.8563      2.3958      0.0511     15.4050     70.3038     22.7762
  1295.2000      7.8563      2.4096      0.0667     14.5702     63.3965     22.4928
  1295.3000      7.8729      2.4124      0.1038     14.4023     68.3588     22.4564
  1295.4000      7.8729      2.3936      0.0408     15.5396     79.6314     22.6136
  1295.5000      7.8750      2.3689      0.0027     17.0364     88.3270     23.2202
  1295.6000      7.8750      2.3625     -0.0115     17.4255     89.9875     24.2246
  1295.7000      7.8750      2.3757      0.0536     16.6260     84.3227     24.7089
  1295.8000      7.8600      2.3965      0.0397     15.3647     78.4150     24.6235
  1295.9000      7.8600      2.4175      0.1034     14.0903     77.6741     24.5197
  1296.0000      7.8630      2.4302      0.0389     13.3209     79.0720     24.4231
  1296.1000      7.8630      2.4350      0.0678     13.0333     78.9893     24.4248
  1296.2000      7.8630      2.4381      0.0666     12.8424     77.4856     24.6034
  1296.3000      7.8896      2.4389      0.0661     12.7951     75.0466     24.4526
  1296.4000      7.8896      2.4417      0.0223     12.6224     74.3299     23.7186
  1296.5000      7.8608      2.4585      0.0602     11.6032     79.7962     22.8124
  1296.6000      7.8608      2.4847      0.1134     10.0207     87.7282     22.5395
  1296.7000      7.8608      2.5002      0.0809      9.0786     89.0948     23.2500
  1296.8000      7.8577      2.4962      0.0648      9.3242     84.5955     24.3282
  1296.9000      7.8577      2.4812      0.0511     10.2289     82.0023     25.2483
  1297.0000      7.8561      2.4715      0.0236     10.8160     81.5130     25.8773
  1297.1000      7.8561      2.4689      0.0589     10.9784     78.9580     25.9097
  1297.2000      7.8561      2.4620      0.0424     11.3963     75.2423     25.5084
  1297.3000      7.8738      2.4526     -0.0176     11.9647     73.5312     25.1809
  1297.4000      7.8738      2.4485      0.0143     12.2143     74.6765     24.7137
  1297.5000      7.9282      2.4500      0.0257     12.1237     77.0588     24.1876
  1297.6000      7.9282      2.4543      0.0497     11.8598     79.7192     23.9875
  1297.7000      7.9282      2.4594      0.0602     11.5490     82.9786     24.1141
  1297.8000      7.8728      2.4660      0.0669     11.1545     84.6430     24.7143
  1297.9000      7.8728      2.4667      0.0619     11.1098     82.3025     25.4338
  1298.0000      7.8524      2.4575      0.0215     11.6657     79.0741     25.3167
  1298.1000      7.8524      2.4517     -0.0010     12.0153     78.4278     24.7120
  1298.2000      7.8524      2.4536      0.0676     11.9039     79.8511     24.6198
  1298.3000      7.8572      2.4526      0.0603     11.9627     81.6550     24.9637
  1298.4000      7.8572      2.4511      0.0215     12.0540     81.7115     25.1063
  1298.5000      7.8667      2.4539      0.0507     11.8840     80.3682     24.8336
  1298.6000      7.8667      2.4563      0.0185     11.7422     79.3245     24.4498
  1298.7000      7.8667      2.4571      0.0480     11.6933     77.9294     24.3010
  1298.8000      7.8620      2.4527      0.0906     11.9591     78.0651     24.7612
  1298.9000      7.8620      2.4413      0.0340     12.6510     80.1152     25.5601
  1299.0000      7.8707      2.4365      0.0192     12.9372     79.3333     25.2827
  1299.1000      7.8707      2.4480      0.0455     12.2435     78.2162     24.1140
  1299.2000      7.8707      2.4660      0.0368     11.1498     82.1555     23.6171
  1299.3000      7.8633      2.4751      0.0689     10.5977     88.7573     23.7566
  1299.4000      7.8633      2.4741      0.0188     10.6583     91.3119     23.8339
  1299.5000      7.8682      2.4721      0.0449     10.7842     88.2295     24.2491
  1299.6000      7.8682      2.4699      0.0240     10.9130     83.5132     25.0753
  1299.7000      7.8682      2.4646      0.0147     11.2382     80.3099     25.5157
  1299.8000      7.8718      2.4540      0.0301     11.8765     79.8870     25.1725
  1299.9000      7.8718      2.4433      0.0085     12.5263     81.4803     24.4124
  1300.0000      7.8874      2.4429      0.0306     12.5536     82.7422     23.9557
  1300.1000      7.8874      2.4514      0.0565     12.0383     81.8442     24.1726
  1300.2000      7.8874      2.4535      0.0931     11.9095     78.4228     24.8803
  1300.3000      7.8755      2.4404      0.0485     12.7030     74.7142     25.7097
  1300.4000      7.8755      2.4190      0.0254     13.9987     73.2869     26.5483
  1300.5000      7.8690      2.4036     -0.0336     14.9347     75.9082     27.3225
  1300.6000      7.8690      2.4131     -0.0131     14.3550     80.5984     27.4788
  1300.7000      7.8690      2.4459      0.0512     12.3674     81.3330     26.8482
  1300.8000      7.8848      2.4725      0.0462     10.7567     77.4293     26.4072
  1300.9000      7.8848      2.4814      0.0460     10.2191     73.1454     26.4031
  1301.0000      7.8799      2.4858      0.0758      9.9516     69.0635     26.0480
  1301.1000      7.8799      2.4889      0.0507      9.7619     65.9836     25.4670
  1301.2000      7.8799      2.4821      0.0592     10.1782     67.1550     25.4870
  1301.3000      7.8738      2.4696      0.0424     10.9304     75.2547     26.1783
  1301.4000      7.8738      2.4699      0.0305     10.9161     87.1777     26.6997
  1301.5000      7.8738      2.4875      0.0648      9.8456     94.9932     26.3743
  1301.6000      7.8738      2.5091      0.0189      8.5364     96.2613     25.2094
  1301.7000      7.8738      2.5212      0.0850      7.8048     95.8114     24.0049
  1301.8000      7.8711      2.5170      0.0986      8.0625     95.2963     23.8816
  1301.9000      7.8711      2.5039      0.0839      8.8534     91.8012     25.1210
  1302.0000      7.8605      2.4995      0.0623      9.1230     87.5597     26.4895
  1302.1000      7.8605      2.5016      0.0698      8.9923     86.0689     26.4358
  1302.2000      7.8605      2.4995      0.0021      9.1184     87.2491     25.4201
  1302.3000      7.8605      2.5003      0.0656      9.0708     93.3422     25.0278
  1302.4000      7.8605      2.5106      0.0312      8.4459    102.3402     25.5797
  1302.5000      7.8610      2.5262      0.0572      7.5040    107.4275     26.4656
  1302.6000      7.8610      2.5380      0.0889      6.7888    108.1785     26.8822
  1302.7000      7.8610      2.5381      0.1213      6.7791    107.8347     26.4521
  1302.8000      7.8598      2.5306      0.0488      7.2388    105.7024     25.6648
  1302.9000      7.8598      2.5317      0.0493      7.1719    100.5124     25.2435
  1303.0000      7.8542      2.5457      0.0733      6.3225     96.0966     25.4661
  1303.1000      7.8542      2.5581      0.0558      5.5675     96.0875     25.9576
  1303.2000      7.8542      2.5627      0.0488      5.2908     98.6312     26.3819
  1303.3000      7.8554      2.5641      0.0248      5.2060    102.4864     26.5081
