~Version Information
VERS.                      2.0: CWLS Log ASCII Standard - VERSION 2.0
WRAP.                       NO: One line per depth step
~Well Information Block
STRT.FT              1186.0000: 
STOP.FT              1577.0000: 
STEP.FT                 0.2500: 
NULL.                -999.2500: 
COMP.          XTO Energy Inc.: COMPANY
WELL.          Golden Eagle 19-10: WELL
FLD.           Purgatorie River: FIELD
LOC.           2684' FSL & 1825' FEL--: LOCATION
CNTY.               Las Animas: COUNTY
SRVC.          Superior Well Services: SERVICE COMPANY
DATE.          Mon Dec 11 16:19:11 2006: LOG DATE
UWI.           05 071 08697 00: UNIQUE WELL ID
STAT.                       CO: STATE
~Curve Information Block
DEPT.FT            0 000 00 00: Depth
CCL.                          : Casing Collar Locator
TT3.usec                      : CBL 3' Travel Time
AMP3.mV                       : CBL 3' Amplitude
GR.GAPI                       : Gamma Ray
~Parameter Information Block
~A  Depth       CCL         TT3         AMP3         GR     
# ...
  1554.5000      0.0000    306.9980     22.7085     67.5755
  1554.7500      0.0000    308.1616     23.0314     68.5659
  1555.0000      0.0000    309.7628     23.9044     71.7231
  1555.2500      0.0000    311.0418     25.3171     76.8038
  1555.5000      0.0000    310.8265     27.0714     82.6866
  1555.7500      0.0000    308.5820     28.8429     87.8832
  1556.0000      0.0000    305.0441     30.4457     91.0951
  1556.2500      0.0000    301.5991     31.9392     91.5176
  1556.5000      0.0000    299.1740     33.3941     89.1044
  1556.7500      0.0000    297.8525     34.6850     84.7752
  1557.0000      0.0000    297.2640     35.6070     80.1805
  1557.2500      0.0000    297.0402     36.0770     77.1347
  1557.5000      0.0000    296.9734     36.1421     77.0009
  1557.7500      0.0000    296.9816     35.8762     80.0781
  1558.0000      0.0000    297.0515     35.3273     85.2810
  1558.2500      0.0000    297.1972     34.5293     90.6463
  1558.5000      0.0000    297.4285     33.5357     94.3726
  1558.7500      0.0000    297.7214     32.4532     95.6018
  1559.0000      0.0000    298.0224     31.4331     94.6849
  1559.2500      0.0000    298.2793     30.6056     92.9939
  1559.5000      0.0000    298.4668     30.0081     92.0820
  1559.7500      0.0000    298.5843     29.5872     92.4735
  1560.0000      0.0000    298.6399     29.2812     93.3370
  1560.2500      0.0000    298.6366     29.1003     93.7579
  1560.5000      0.0000    298.5686     29.1208     94.1086
  1560.7500      0.0000    298.4271     29.4120     95.6604
  1561.0000      0.0000    298.2126     29.9803     98.9560
  1561.2500      0.0000    297.9442     30.7717    103.0533
  1561.5000      0.0000    297.6574     31.6943    106.2975
  1561.7500      0.0000    297.3899     32.6305    107.5009
  1562.0000      0.0000    297.1680     33.4587    106.3492
  1562.2500      0.0000    297.0028     34.0911    102.9409
  1562.5000      0.0000    296.8936     34.4938     96.9864
  1562.7500      0.0000    296.8350     34.6740     87.4415
  1563.0000      0.0000    296.8245     34.6619     73.2661
  1563.2500      0.0000    296.8651     34.5032     55.0646
  1563.5000      0.0000    296.9581     34.2479     35.8785
  1563.7500      0.0000    297.0894     33.9328     19.7048
  1564.0000      0.0000    297.2232     33.5787      8.9286
  1564.2500      0.0000    297.3149     33.2009      3.2863
  1564.5000      0.0000    297.3373     32.8122      0.9709
  1564.7500      0.0000    297.2985     32.4252      0.2282
  1565.0000      0.0000    297.2314     32.0671      0.0418
  1565.2500      0.0000    297.1649     31.7910      0.0055
  1565.5000      0.0000    297.1045     31.6559      0.0000
  1565.7500      0.0000    297.0404     31.6889   -999.2500
  1566.0000      0.0000    296.9694     31.8706   -999.2500
  1566.2500      0.0000    296.9053     32.1535   -999.2500
  1566.5000      0.0000    296.8710     32.4836   -999.2500
  1566.7500      0.0000    296.8652     32.7994   -999.2500
  1567.0000      0.0000    296.8046     33.0130   -999.2500
  1567.2500      0.0000    296.2647     32.9788   -999.2500
  1567.5000      0.0000    293.8128     32.4603   -999.2500
  1567.7500      0.0000    285.9521     31.1003   -999.2500
  1568.0000      0.0000    266.8443     28.4558   -999.2500
  1568.2500      0.0000    230.9644     24.2257   -999.2500
  1568.5000      0.0000    178.6380     18.6559   -999.2500
  1568.7500      0.0000    119.2699     12.7202   -999.2500
  1569.0000      0.0000     66.8371      7.6751   -999.2500
  1569.2500      0.0000     30.7817      4.2878   -999.2500
  1569.5000      0.0000     11.4755      2.5016   -999.2500
  1569.7500      0.0000      3.4253      1.7642   -999.2500
  1570.0000      0.0000      0.8112      1.5264   -999.2500
  1570.2500      0.0000      0.1502      1.4665   -999.2500
  1570.5000      0.0000      0.0200      1.4548   -999.2500
  1570.7500      0.0000   -999.2500   -999.2500   -999.2500
  1571.0000      0.0000   -999.2500   -999.2500   -999.2500
  1571.2500      0.0000   -999.2500   -999.2500   -999.2500
  1571.5000      0.0000   -999.2500   -999.2500   -999.2500
  1571.7500      0.0000   -999.2500   -999.2500   -999.2500
  1572.0000      0.0000   -999.2500   -999.2500   -999.2500
  1572.2500      0.0000   -999.2500   -999.2500   -999.2500
  1572.5000      0.0000   -999.2500   -999.2500   -999.2500
  1572.7500      0.0000   -999.2500   -999.2500   -999.2500
  1573.0000      0.0000   -999.2500   -999.2500   -999.2500
  1573.2500      0.0000   -999.2500   -999.2500   -999.2500
  1573.5000      0.0000   -999.2500   -999.2500   -999.2500
  1573.7500      0.0000   -999.2500   -999.2500   -999.2500
  1574.0000      0.0000   -999.2500   -999.2500   -999.2500
  1574.2500      0.0000   -999.2500   -999.2500   -999.2500
  1574.5000      0.0000   -999.2500   -999.2500   -999.2500
  1574.7500      0.0000   -999.2500   -999.2500   -999.2500
  1575.0000      0.0000   -999.2500   -999.2500   -999.2500
  1575.2500      0.0000   -999.2500   -999.2500   -999.2500
  1575.5000      0.0000   -999.2500   -999.2500   -999.2500
  1575.7500      0.0000   -999.2500   -999.2500   -999.2500
  1576.0000      0.0000   -999.2500   -999.2500   -999.2500
  1576.2500      0.0000   -999.2500   -999.2500   -999.2500
  1576.5000   -999.2500   -999.2500   -999.2500   -999.2500
  1576.7500   -999.2500   -999.2500   -999.2500   -999.2500
  1577.0000   -999.2500   -999.2500   -999.2500   -999.2500
