~Version Information
VERS.                      2.0: CWLS Log ASCII Standard - VERSION 2.0
WRAP.                       NO: One line per depth step
~Well Information Block
STRT.FT               645.0000: 
STOP.FT              2133.5000: 
STEP.FT                 0.2500: 
NULL.                -999.2500: 
COMP.          Pioneer Natural Resources: COMPANY
WELL.          Gunslinger 13-24: WELL
FLD.           Purgatoire River: FIELD
LOC.           1968' FSL & 633' FWL: LOCATION
PROV.                 Colorado: PROVINCE
CNTY.               Las Animas: COUNTRY
SRVC.                Patterson: SERVICE COMPANY
DATE.          Fri Jul 29 15:04:35 2005: LOG DATE
UWI.           05 071 08442 00: UNIQUE WELL ID
~Curve Information Block
DEPT.FT            0 000 00 00: Depth
SN.Ohm-m                      : IEL Short Normal
SP.mV                         : IEL Spontaneous Potential
DIR.Ohm-m                     : IEL Induction Resistivity
GR.GAPI                       : Gamma Ray
~Parameter Information Block
~A  Depth        SN          SP         DIR          GR     
   645.0000   2000.0000   2000.0000      6.1361    134.0345
   645.2500   2000.0000   2000.0000      6.1295    135.6243
   645.5000   2000.0000   2000.0000      6.1059    138.8782
   645.7500   2000.0000   2000.0000      6.0683    140.9875
   646.0000   2000.0000   2000.0000      6.0197    143.1510
   646.2500   2000.0000   2000.0000      5.9639    143.5671
   646.5000   2000.0000   2000.0000      5.9062    142.9315
   646.7500   2000.0000   2000.0000      5.8533    142.3172
   647.0000   2000.0000   2000.0000      5.8097    141.9303
   647.2500   2000.0000   2000.0000      5.7768    141.8714
   647.5000   2000.0000   2000.0000      5.7533    141.0274
   647.7500   2000.0000   2000.0000      5.7382    139.2952
   648.0000   2000.0000   2000.0000      5.7318    134.4952
   648.2500   2000.0000   2000.0000      5.7350    130.3882
   648.5000   2000.0000   2000.0000      5.7471    125.0735
   648.7500   2000.0000   2000.0000      5.7648    123.1976
   649.0000   2000.0000   2000.0000      5.7830    122.8720
   649.2500   2000.0000   2000.0000      5.7974    123.4198
   649.5000   2000.0000   2000.0000      5.8064    124.1585
   649.7500   2000.0000   2000.0000      5.8118    124.6173
   650.0000   2000.0000   2000.0000      5.8167    125.9322
   650.2500   2000.0000   2000.0000      5.8225    127.4588
   650.5000   2000.0000   2000.0000      5.8281    130.5740
   650.7500   2000.0000   2000.0000      5.8300    132.8243
   651.0000   2000.0000   2000.0000      5.8238    135.1839
   651.2500   2000.0000   2000.0000      5.8060    135.1576
   651.5000   2000.0000   2000.0000      5.7759    132.0260
   651.7500   2000.0000   2000.0000      5.7371    128.5519
   652.0000   2000.0000   2000.0000      5.6976    123.9217
   652.2500   2000.0000   2000.0000      5.6676    122.7574
   652.5000   2000.0000   2000.0000      5.6550    124.7731
   652.7500   2000.0000   2000.0000      5.6620    127.9278
   653.0000   2000.0000   2000.0000      5.6843    133.2914
   653.2500   2000.0000   2000.0000      5.7142    136.3736
   653.5000   2000.0000   2000.0000      5.7444    139.9516
   653.7500   2000.0000   2000.0000      5.7697    132.6035
   654.0000   2000.0000   2000.0000      5.7869    135.9496
   654.2500   2000.0000   2000.0000      5.7931    138.3539
   654.5000   2000.0000   2000.0000      5.7869    141.1065
   654.7500   2000.0000   2000.0000      5.7705    131.3691
   655.0000   2000.0000   2000.0000      5.7507    128.5698
   655.2500   2000.0000   2000.0000      5.7368    124.1660
   655.5000   2000.0000   2000.0000      5.7358    114.5890
   655.7500   2000.0000   2000.0000      5.7506     99.2915
   656.0000   2000.0000   2000.0000      5.7789     91.1742
   656.2500   2000.0000   2000.0000      5.8142     87.7628
   656.5000   2000.0000   2000.0000      5.8488     85.6480
   656.7500   2000.0000   2000.0000      5.8763     78.3721
   657.0000   2000.0000   2000.0000      5.8949     78.5044
   657.2500   2000.0000   2000.0000      5.9065     78.3504
   657.5000   2000.0000   2000.0000      5.9133     77.7533
   657.7500   2000.0000   2000.0000      5.9132     70.3459
   658.0000   2000.0000   2000.0000      5.9001     70.2778
   658.2500   2000.0000   2000.0000      5.8690     70.5588
   658.5000   2000.0000   2000.0000      5.8232     71.0974
   658.7500   2000.0000   2000.0000      5.7739     71.2522
   659.0000   2000.0000   2000.0000      5.7330     70.8449
   659.2500   2000.0000   2000.0000      5.7039     69.9228
   659.5000   2000.0000   2000.0000      5.6799     67.0707
   659.7500   2000.0000   2000.0000      5.6512     64.1531
   660.0000   2000.0000   2000.0000      5.6149     58.9562
   660.2500   2000.0000   2000.0000      5.5774     55.5114
   660.5000   2000.0000   2000.0000      5.5483     50.9689
   660.7500   2000.0000   2000.0000      5.5314     48.4859
   661.0000   2000.0000   2000.0000      5.5216     45.7361
   661.2500   2000.0000   2000.0000      5.5091     44.6444
   661.5000   2000.0000   2000.0000      5.4859     44.1506
   661.7500   2000.0000   2000.0000      5.4504     44.4568
   662.0000   2000.0000   2000.0000      5.4106     45.4013
   662.2500   2000.0000   2000.0000      5.3852     46.0789
   662.5000   2000.0000   2000.0000      5.4033     47.1172
   662.7500   2000.0000   2000.0000      5.4984     48.1245
   663.0000   2000.0000   2000.0000      5.6931     50.7829
   663.2500   2000.0000   2000.0000      5.9790     53.4549
   663.5000   2000.0000   2000.0000      6.3002     58.3679
   663.7500   2000.0000   2000.0000      6.5626     61.8032
   664.0000   2000.0000   2000.0000      6.6865     66.5498
   664.2500   2000.0000   2000.0000      6.6662     69.1231
   664.5000   2000.0000   2000.0000      6.5696     71.5556
   664.7500   2000.0000   2000.0000      6.4912     72.1669
   665.0000   2000.0000   2000.0000      6.5265     72.4818
   665.2500   2000.0000   2000.0000      6.8012     73.2004
   665.5000   2000.0000   2000.0000      7.5530     75.8804
   665.7500   2000.0000   2000.0000      9.3496     78.3010
   666.0000   2000.0000   2000.0000     13.9841     81.1749
   666.2500   2000.0000   2000.0000     31.4329     81.8258
   666.5000   2000.0000   2000.0000 100000.0000     80.8302
   666.7500   2000.0000   2000.0000 100000.0000     79.3563
   667.0000   2000.0000   2000.0000 100000.0000     77.0650
   667.2500   2000.0000   2000.0000 100000.0000     76.0893
   667.5000   2000.0000   2000.0000 100000.0000     76.2098
   667.7500   2000.0000   2000.0000 100000.0000     77.5011
   668.0000   2000.0000   2000.0000 100000.0000     80.8077
   668.2500   2000.0000   2000.0000 100000.0000     83.2710
   668.5000   2000.0000   2000.0000 100000.0000     86.1024
   668.7500   2000.0000   2000.0000 100000.0000     87.0446
   669.0000   2000.0000   2000.0000 100000.0000     87.3956
   669.2500   2000.0000   2000.0000 100000.0000     87.4708
   669.5000   2000.0000   2000.0000 100000.0000     88.1878
   669.7500   2000.0000   2000.0000     17.4383     89.3896
   670.0000   2000.0000   2000.0000      5.5697     92.6526
   670.2500   2000.0000   2000.0000      3.4924     95.8366
   670.5000   2000.0000   2000.0000      2.8916    101.5392
   670.7500   2000.0000   2000.0000      2.8556    105.3407
   671.0000   2000.0000   2000.0000      3.1848    110.2407
   671.2500   2000.0000   2000.0000      3.8683    112.8679
   671.5000   2000.0000   2000.0000      5.0384    115.8458
   671.7500   2000.0000   2000.0000      7.1347    116.9996
   672.0000   2000.0000   2000.0000     11.5366    116.9761
   672.2500   2000.0000   2000.0000     23.4505    115.6482
   672.5000   2000.0000   2000.0000     72.3532    111.7322
   672.7500   2000.0000   2000.0000    292.5056    107.9546
   673.0000   2000.0000   2000.0000    103.5441    101.3021
   673.2500   2000.0000   2000.0000     37.6576     97.2811
   673.5000   2000.0000   2000.0000     21.7574     94.2157
   673.7500   2000.0000   2000.0000     16.2999     94.9544
   674.0000   2000.0000   2000.0000     14.2169     99.5199
   674.2500   2000.0000   2000.0000     13.5065    103.4097
   674.5000   2000.0000   2000.0000     13.3704    107.7110
   674.7500   2000.0000   2000.0000     13.4255    108.6195
   675.0000   2000.0000   2000.0000     13.4946    107.3853
   675.2500   2000.0000   2000.0000     13.5211    105.8606
   675.5000   2000.0000   2000.0000     13.5257    104.3767
   675.7500   2000.0000   2000.0000     13.5732    104.5028
   676.0000   2000.0000   2000.0000     13.7244    106.4586
   676.2500   2000.0000   2000.0000     13.9659    108.7641
   676.5000   2000.0000   2000.0000     14.1624    113.4544
   676.7500   2000.0000   2000.0000     14.1015    117.2985
   677.0000   2000.0000   2000.0000     13.6504    123.8791
   677.2500   2000.0000   2000.0000     12.8775    128.4161
   677.5000   2000.0000   2000.0000     11.9815    134.2329
   677.7500   2000.0000   2000.0000     11.1332    136.7606
   678.0000   2000.0000   2000.0000     10.4062    138.2082
   678.2500   2000.0000   2000.0000      9.8016    137.9829
