~Version Information
 VERS.                                  2.0 : CWLS LAS VERSION
 WRAP.                                   NO : WRAPING MODE
 SWARE .                 MController 2.5.0J : SOFTWARE VERSION
~Well Information
 WELL.                    Parklane 43-34 Tr : WELL
 COMP.   Pioneer Natural Resources USA Inc. : COMPANY
 FLD.                      Purgatoire River : FIELD
 LOC.                NE/SE SEC 34 T32S R66W : LOCATION
 DATE.                             07/28/05 : DATE(S) LOGGED
 SRVC.       Blanco Geological Services LLC : SERVICE COMPANY
 STAT.                             Colorado : STATE
 CNTY.                           Las Animas : COUNTY
 CTRY.                                  USA : COUNTRY
 API.                       05-071-08452-00 : API NUMBER
 STRT.FT                             594.00 : START DEPTH
 STOP.FT                            1451.00 : STOP DEPTH
 STEP.FT                               1.00 : DEPTH INCREMENT
 NULL.                                -9999 : NULL VALUE
~Curve information
 DEPTH.FT                                   :
 ROP.MIN/FT                                 :
 GAS.UNITS                                  :
~ASCII Log data
# ...
       794.0         0.17          6.2 
       795.0         0.10          6.4 
       796.0         0.13          7.1 
       797.0         0.20          6.7 
       798.0         0.17          7.1 
       799.0         0.17          7.2 
       800.0         0.20          8.0 
       801.0         0.17          9.3 
       802.0         0.17         11.5 
       803.0         0.20         14.3 
       804.0         0.17         17.0 
       805.0         0.10         19.5 
       806.0         1.05         29.8 
       807.0         0.63         16.5 
       808.0         0.30         12.6 
       809.0         0.23         12.1 
       810.0         0.23         11.8 
       811.0         0.20         12.1 
       812.0         0.20         11.5 
       813.0         0.17         10.9 
       814.0         0.17         10.7 
       815.0         0.17         11.2 
       816.0         0.20         11.1 
       817.0         0.13         10.6 
       818.0         0.18         10.5 
       819.0         0.17         12.3 
       820.0         0.17         12.8 
       821.0         0.17         13.1 
       822.0         0.17         12.9 
       823.0         0.13         12.0 
       824.0         0.13         12.4 
       825.0         0.17         12.1 
       826.0         0.17         11.1 
       827.0         0.13         10.8 
       828.0         0.10         10.5 
       829.0         0.13         10.5 
       830.0         0.17          9.8 
       831.0         0.17         10.4 
       832.0         0.17         10.1 
       833.0         0.17         11.6 
       834.0         0.20         13.7 
       835.0         0.13         16.5 
       836.0         2.12         35.5 
       837.0         0.27         23.2 
       838.0         0.13         28.6 
       839.0         0.17         37.1 
       840.0         0.10         41.7 
       841.0         0.13         47.2 
       842.0         0.13         47.7 
       843.0         0.20         48.2 
       844.0         0.17         47.9 
       845.0         0.13         47.9 
       846.0         0.13         49.3 
       847.0         0.17         53.2 
       848.0         0.18         58.8 
       849.0         0.20         61.8 
       850.0         0.13         62.6 
       851.0         0.07         62.4 
       852.0         0.13         62.2 
       853.0         0.20         61.7 
       854.0         0.20         61.0 
       855.0         0.17         55.3 
       856.0         0.13         45.4 
       857.0         0.20         36.1 
       858.0         0.17         23.9 
       859.0         0.17         17.2 
       860.0         0.17         14.1 
       861.0         0.17         11.4 
       862.0         0.17         10.7 
       863.0         0.27         10.6 
       864.0         0.60         15.4 
       865.0         0.32         23.2 
       866.0         0.80         26.2 
       867.0         0.33         14.8 
       868.0         0.33         13.5 
       869.0         0.33         15.0 
       870.0         0.23         15.9 
       871.0         0.13         14.8 
       872.0         0.10         13.9 
       873.0         0.17         12.2 
       874.0         0.13         11.7 
       875.0         0.17         11.2 
       876.0         0.20          9.0 
       877.0         0.20          8.0 
       878.0         0.22          7.2 
       879.0         0.20          6.7 
       880.0         0.20          6.8 
       881.0         0.20          5.7 
       882.0         0.17          5.6 
       883.0         0.20          5.8 
       884.0         0.17          6.1 
       885.0         0.17          6.1 
       886.0         0.20          5.7 
       887.0         0.17          5.9 
       888.0         0.10          6.0 
       889.0         0.07          6.0 
       890.0         0.20          6.2 
       891.0         0.17          6.2 
       892.0         0.17          5.9 
       893.0         0.20          6.4 
       894.0         0.20          6.7 
       895.0         0.42         11.3 
       896.0         1.07         12.6 
       897.0         0.37          8.3 
       898.0         0.40          7.6 
       899.0         0.37          6.6 
       900.0         0.20          7.0 
       901.0         0.27          7.1 
       902.0         0.27          7.4 
       903.0         0.27          7.4 
       904.0         0.18          6.9 
       905.0         0.20          7.3 
       906.0         0.20          7.1 
       907.0         0.13          7.7 
       908.0         0.20          7.6 
       909.0         0.17          7.1 
       910.0         0.17          7.5 
       911.0         0.17          7.3 
       912.0         0.20          7.2 
       913.0         0.17          7.2 
       914.0         0.20          7.3 
       915.0         0.23          7.9 
       916.0         0.20          7.6 
       917.0         0.20          7.4 
       918.0         0.17          8.3 
       919.0         0.20          7.8 
       920.0         0.20          8.1 
       921.0         0.17          8.1 
       922.0         0.18          7.6 
       923.0         0.17          7.4 
       924.0         0.17          7.5 
       925.0         0.13          7.4 
       926.0         1.63          8.2 
       927.0         0.37          8.0 
       928.0         0.30          7.7 
       929.0         0.17          8.2 
       930.0         0.17          8.0 
       931.0         0.13          7.7 
       932.0         0.12          7.5 
       933.0         0.10          8.3 
       934.0         0.13          7.6 
       935.0         0.13          7.7 
       936.0         0.17          7.8 
       937.0         0.13          7.6 
       938.0         0.27          7.9 
       939.0         0.43          8.4 
       940.0         0.23          8.0 
       941.0         0.13          8.2 
       942.0         0.13          8.0 
       943.0         0.13          8.3 
       944.0         0.20          8.2 
       945.0         0.17          8.1 
       946.0         0.13          7.9 
       947.0         0.20          8.2 
       948.0         0.20          8.3 
       949.0         0.20          8.4 
       950.0         0.25          8.8 
       951.0         0.17          8.3 
       952.0         0.20          8.6 
       953.0         0.23          7.7 
       954.0         0.17          7.8 
       955.0         0.17          8.3 
       956.0         1.13          8.6 
       957.0         0.23          8.3 
       958.0         0.43          8.2 
       959.0         0.30          8.3 
       960.0         0.20          8.4 
       961.0         0.15          8.0 
       962.0         0.20          8.2 
       963.0         0.23          8.4 
       964.0         0.17          8.5 
       965.0         0.23          8.5 
       966.0         0.20          8.2 
       967.0         0.17          8.2 
       968.0         0.20          8.6 
       969.0         0.20          8.3 
       970.0         0.17          8.3 
       971.0         0.17          7.6 
       972.0         0.20          8.6 
       973.0         0.17          8.6 
       974.0         0.20          8.5 
       975.0         0.20          8.6 
       976.0         0.20          8.1 
       977.0         0.22          8.2 
       978.0         0.10          9.1 
       979.0         0.10          8.4 
       980.0         0.07          8.8 
       981.0         0.10          8.8 
       982.0         0.07          8.7 
       983.0         0.13          8.4 
       984.0         0.20          8.7 
       985.0         0.17          8.9 
       986.0         1.87          9.4 
       987.0         0.20          7.9 
       988.0         0.22          8.8 
       989.0         0.17          8.3 
       990.0         0.23          8.3 
       991.0         0.20          8.5 
       992.0         0.20          9.2 
       993.0         0.17          9.1 
