~Version Information
VERS.                      2.0: CWLS Log ASCII Standard - VERSION 2.0
WRAP.                       NO: One line per depth step
~Well Information Block
STRT.FT                -4.7500: 
STOP.FT              2723.2500: 
STEP.FT                 0.2500: 
NULL.                -999.2500: 
COMP.          Pioneer Natural Resources: COMPANY
WELL.           Dolzanie 34-12: WELL
FLD.           Purgatorie River: FIELD
LOC.           1001' FSL & 1750' FEL: LOCATION
PROV.                 Colorado: PROVINCE
CNTY.               Las Animas: COUNTRY
SRVC.                Patterson: SERVICE COMPANY
DATE.          Wed Jul 27 14:23:29 2005: LOG DATE
UWI.                          : UNIQUE WELL ID
~Curve Information Block
DEPT.FT            0 000 00 00: Depth
GR.GAPI                       : Gamma Ray
CCL.                          : Casing Collar Locator
TT3.usec                      : CBL 3' Travel Time
AMP3.mV                       : CBL 3' Amplitude
~Parameter Information Block
~A  Depth        GR         CCL         TT3         AMP3    
# ...
  2507.7500    192.0640      0.0000    676.2429      5.4342
  2508.0000    184.7507      0.0000    674.0635      5.4562
  2508.2500    169.4383      0.0000    673.5904      5.4500
  2508.5000    149.7542      0.0000    673.5610      5.4666
  2508.7500    131.1336      0.0000    673.2559      5.5350
  2509.0000    118.1595      0.0000    671.7578      5.6168
  2509.2500    111.9428      0.0000    667.9418      5.6517
  2509.5000    110.2112      0.0000    662.5984      5.6202
  2509.7500    109.8128      0.0000    659.9825      5.5421
  2510.0000    108.8903      0.0000    663.4298      5.4345
  2510.2500    107.1200      0.0000    670.8076      5.2944
  2510.5000    104.7909      0.0000    677.5127      5.1301
  2510.7500    102.2436      0.0000    680.4727      4.9877
  2511.0000    100.0240      0.0000    679.3813      4.9184
  2511.2500     98.8738      0.0000    676.6019      4.9278
  2511.5000     99.1341      0.0000    673.7010      4.9744
  2511.7500    100.3432      0.0000    666.5478      5.0077
  2512.0000    101.6416      0.0000    643.4416      5.0033
  2512.2500    102.4012      0.0000    594.4588      4.9804
  2512.5000    102.4237      0.0000    529.6516      4.9746
  2512.7500    101.9161      0.0000    475.2425      4.9903
  2513.0000    101.5170      0.0000    445.3173      4.9968
  2513.2500    102.0769      0.0000    433.2821      4.9626
  2513.5000    104.1965      0.0000    428.2122      4.8807
  2513.7500    107.8769      0.0000    425.0024      4.7758
  2514.0000    112.3393      0.0000    422.6442      4.6863
  2514.2500    116.0774      0.0000    421.0573      4.6372
  2514.5000    117.4202      0.0000    420.1072      4.6300
  2514.7500    115.4277      0.0000    419.8362      4.6460
  2515.0000    110.4270      0.0000    421.6820      4.6703
  2515.2500    103.8599      0.0000    431.6624      4.7156
  2515.5000     97.6227      0.0000    462.2907      4.8020
  2515.7500     93.1399      0.0000    521.9575      4.9262
  2516.0000     90.6537      0.0000    596.2136      5.0521
  2516.2500     89.2986      0.0000    654.5018      5.1278
  2516.5000     87.8194      0.0000    679.9363      5.1334
  2516.7500     85.2007      0.0000    674.1194      5.1104
  2517.0000     80.8859      0.0000    638.4063      5.1371
  2517.2500     74.7777      0.0000    574.5268      5.2671
  2517.5000     67.2137      0.0000    505.8119      5.4866
  2517.7500     58.9461      0.0000    474.8589      5.7268
  2518.0000     51.0312      0.0000    504.6033      5.8979
  2518.2500     44.5434      0.0000    572.9995      5.9264
  2518.5000     40.2553      0.0000    637.4385      5.8005
  2518.7500     38.5501      0.0000    675.0852      5.5795
  2519.0000     39.4783      0.0000    689.3323      5.3548
  2519.2500     42.7287      0.0000    691.7164      5.2082
  2519.5000     47.6433      0.0000    690.5397      5.1756
  2519.7500     53.4888      0.0000    687.3839      5.2225
  2520.0000     59.7519      0.0000    677.1014      5.2837
  2520.2500     65.9521      0.0000    652.5635      5.3307
  2520.5000     71.1401      0.0000    608.3351      5.3665
  2520.7500     73.9963      0.0000    544.5005      5.3728
  2521.0000     73.9373      0.0000    475.2392      5.3097
  2521.2500     72.0693      0.0000    423.5182      5.1702
  2521.5000     70.6224      0.0000    400.1983      5.0066
  2521.7500     71.2385      0.0000    403.0378      4.8748
  2522.0000     73.8320      0.0000    434.0463      4.7813
  2522.2500     76.9616      0.0000    497.0783      4.7245
  2522.5000     79.1061      0.0000    578.2062      4.7451
  2522.7500     79.6377      0.0000    649.0452      4.8847
  2523.0000     78.9235      0.0000    690.3747      5.1177
  2523.2500     78.0073      0.0000    702.0814      5.3680
  2523.5000     78.3021      0.0000    699.3888      5.5888
  2523.7500     80.9412      0.0000    699.1867      5.7880
  2524.0000     85.8569      0.0000    703.6224      5.9703
  2524.2500     91.7777      0.0000    705.7624      6.1000
  2524.5000     97.5109      0.0000    707.1254      6.1234
  2524.7500    102.9064      0.0000    713.6793      6.0005
  2525.0000    108.2176      0.0000    722.9290      5.7444
  2525.2500    112.8168      0.0000    726.4418      5.4585
  2525.5000    115.0881      0.0000    714.3984      5.2683
  2525.7500    113.6656      0.0000    675.6242      5.1879
  2526.0000    108.5904      0.0000    608.9155      5.1371
  2526.2500    101.2244      0.0000    533.9763      5.0769
  2526.5000     93.3322      0.0000    477.6869      5.0395
  2526.7500     86.3974      0.0000    450.7892      5.0357
  2527.0000     81.3913      0.0000    449.8145      5.0094
  2527.2500     78.6527      0.0000    475.5844      4.8988
  2527.5000     77.9431      0.0000    531.3273      4.7068
  2527.7500     78.7059      0.0000    602.7209      4.4963
  2528.0000     80.0982      0.0000    662.2770      4.3442
  2528.2500     80.7749      0.0000    698.1506      4.3161
  2528.5000     79.1626      0.0000    718.2491      4.4313
  2528.7500     74.4490      0.0000    731.6078      4.6306
  2529.0000     67.3270      0.0000    743.2754      4.8352
  2529.2500     59.8041      0.0000    754.7546      5.0213
  2529.5000     54.3590      0.0000    760.2284      5.1857
  2529.7500     52.8619      0.0000    754.2643      5.2974
  2530.0000     55.7441      0.0000    741.8203      5.3091
  2530.2500     62.0453      0.0000    734.0214      5.1616
  2530.5000     70.1325      0.0000    735.6563      4.7958
  2530.7500     78.1607      0.0000    740.3788      4.2410
  2531.0000     84.3007      0.0000    740.7725      3.6611
  2531.2500     87.5459      0.0000    735.6458      3.2175
  2531.5000     88.6093      0.0000    724.9149      2.9913
  2531.7500     89.4235      0.0000    709.1165      3.0274
  2532.0000     91.2729      0.0000    694.3019      3.2296
  2532.2500     93.5042      0.0000    686.9413      3.4414
  2532.5000     94.2004      0.0000    684.9791      3.7269
  2532.7500     92.1063      0.0000    680.4819      4.2095
  2533.0000     87.8654      0.0000    673.9810      4.8008
  2533.2500     83.4102     -2.0000    677.5504      5.3076
  2533.5000     80.2806     -2.0000    697.1052      5.5959
  2533.7500     78.6307      0.0000    721.9641      5.6706
  2534.0000     77.6118      0.0000    737.6142      5.7819
  2534.2500     76.3844      0.0000    739.4442      6.3210
  2534.5000     74.7076      0.0000    729.6123      7.3242
  2534.7500     72.8043      0.0000    711.4767      8.1686
  2535.0000     70.9621      0.0000    690.1262      8.2963
  2535.2500     69.3802      0.0000    672.8081      8.0417
  2535.5000     68.2931      0.0000    665.3668      8.0323
  2535.7500     68.0118      0.0000    665.8113      8.3270
  2536.0000     68.6682      0.0000    666.3311      8.6243
  2536.2500     69.9283      0.0000    658.9277      8.7481
  2536.5000     71.0396      0.0000    636.4383      8.7159
  2536.7500     71.1774      0.0000    601.9877      8.6119
  2537.0000     69.8957      0.0000    578.1534      8.4936
  2537.2500     67.4480      0.0000    583.4650      8.3562
  2537.5000     64.6741      0.0000    602.7795      8.1528
  2537.7500     62.5279      0.0000    602.4802      7.8568
  2538.0000     61.7585      0.0000    569.8344      7.5144
  2538.2500     62.9514      0.0000    533.4042      7.2199
  2538.5000     66.5739      0.0000    536.1235      7.0319
  2538.7500     72.6870      0.0000    581.3356      6.9442
  2539.0000     80.3572      0.0000    629.9800      6.9247
  2539.2500     87.5117      0.0000    647.2030      6.9321
  2539.5000     92.0977      0.0000    623.8641      6.9243
  2539.7500     93.7222      0.0000    569.6351      6.8879
  2540.0000     93.6463      0.0000    507.9485      6.8351
  2540.2500     93.1042      0.0000    463.1596      6.7672
  2540.5000     92.3781      0.0000    442.0819      6.6698
  2540.7500     91.5514      0.0000    435.5407      6.5435
  2541.0000     91.1008      0.0000    433.6325      6.4235
