~Version Information
VERS.                      2.0: CWLS Log ASCII Standard - VERSION 2.0
WRAP.                       NO: One line per depth step
~Well Information Block
STRT.FT               -15.7500: 
STOP.FT              1862.5000: 
STEP.FT                 0.2500: 
NULL.                -999.2500: 
COMP.          XTO Energy Inc.: COMPANY
WELL.          Golden Eagle 19-11: WELL
FLD.           Purgatorie River: FIELD
LOC.           2351' FSL &1926' WL--: LOCATION
CNTY.               Las Animas: COUNTY
SRVC.          Patterson Wireline: SERVICE COMPANY
DATE.          Fri Mar 24 16:29:29 2006: LOG DATE
UWI.           05 071 08696 00: UNIQUE WELL ID
STAT.                       CO: STATE
~Curve Information Block
DEPT.FT            0 000 00 00: Depth
CCL.                          : Casing Collar Locator
TT3.usec                      : CBL 3' Travel Time
AMP3.mV                       : CBL 3' Amplitude
GR.GAPI                       : Gamma Ray
~Parameter Information Block
~A  Depth       CCL         TT3         AMP3         GR     
# ...
  1223.7500      0.0000    659.7146      4.3350    138.5775
  1224.0000      0.0000    653.6421      4.0279    141.2368
  1224.2500      0.0000    656.1201      3.7318    141.1912
  1224.5000      0.0000    667.6812      3.5208    139.1300
  1224.7500      0.0000    683.7361      3.4263    136.8492
  1225.0000      0.0000    698.0648      3.4506    134.7797
  1225.2500      0.0000    707.2728      3.5795    131.5590
  1225.5000     -2.0000    713.5847      3.7680    125.7936
  1225.7500      2.0000    724.2494      3.9528    117.5226
  1226.0000      0.0000    746.1038      4.1078    107.9392
  1226.2500     -2.0000    777.1093      4.2866     98.4329
  1226.5000      2.0000    802.3231      4.6052     90.1337
  1226.7500      2.0000    801.4913      5.1789     83.9058
  1227.0000     -2.0000    763.4397      6.1118     80.3692
  1227.2500      0.0000    692.8703      7.6176     79.7166
  1227.5000      0.0000    604.4249     10.2009     81.3447
  1227.7500      0.0000    513.6943     14.5566     84.0175
  1228.0000      0.0000    433.0059     20.9838     86.9383
  1228.2500      0.0000    370.1389     28.7317     90.6439
  1228.5000      0.0000    327.5242     36.1711     96.4321
  1228.7500      0.0000    302.7127     42.0499    104.8477
  1229.0000      0.0000    290.1212     46.6765    114.8418
  1229.2500      0.0000    283.3771     51.5922    124.5098
  1229.5000      0.0000    277.9203     57.9427    132.7440
  1229.7500      0.0000    272.4352     65.3174    139.8977
  1230.0000      0.0000    267.7610     72.1856    146.3212
  1230.2500      0.0000    264.7517     77.1633    150.5271
  1230.5000      0.0000    263.3221     79.7024    149.8148
  1230.7500      0.0000    262.8723     79.8824    143.0391
  1231.0000      0.0000    262.8789     78.0229    132.0313
  1231.2500      0.0000    263.1004     74.5731    119.9576
  1231.5000      0.0000    263.6053     70.0445    108.9206
  1231.7500      0.0000    264.9547     64.7385     99.4810
  1232.0000      0.0000    268.5909     58.5855     91.6050
  1232.2500      0.0000    277.2940     51.3978     85.1525
  1232.5000      0.0000    295.4314     43.3060     79.8110
  1232.7500      0.0000    328.2196     34.9293     75.5819
  1233.0000      0.0000    378.9185     27.1562     73.3955
  1233.2500      0.0000    444.7408     20.6958     74.3090
  1233.5000      0.0000    515.6284     15.7360     77.7301
  1233.7500      0.0000    579.1404     12.0191     81.1820
  1234.0000      0.0000    627.8105      9.2177     82.3034
  1234.2500      0.0000    661.7864      7.1729     80.6375
  1234.5000      0.0000    685.4068      5.8252     77.3861
  1234.7500      2.0000    702.8575      5.0593     74.1409
  1235.0000      0.0000    716.7665      4.6762     71.9954
  1235.2500      0.0000    728.6174      4.4800     71.1123
  1235.5000      0.0000    738.7471      4.3578     70.7156
  1235.7500      0.0000    745.9599      4.2717     69.7166
  1236.0000      0.0000    748.2548      4.1974     67.4768
  1236.2500      0.0000    744.7375      4.0954     64.0043
  1236.5000      0.0000    736.7593      3.9425     59.7288
  1236.7500      0.0000    727.2160      3.7611     55.2897
  1237.0000      0.0000    719.2495      3.5968     51.4484
  1237.2500      0.0000    715.6011      3.4772     49.0282
  1237.5000      0.0000    718.4219      3.4036     48.5866
  1237.7500      0.0000    728.5065      3.3720     49.8004
  1238.0000      0.0000    743.6965      3.3902     51.3736
  1238.2500      0.0000    758.5044      3.4756     51.9070
  1238.5000      0.0000    767.0565      3.6416     50.8002
  1238.7500      0.0000    767.0788      3.8840     48.3629
  1239.0000      0.0000    760.4080      4.1788     45.4515
  1239.2500      0.0000    750.1213      4.4918     43.0071
  1239.5000      0.0000    738.5798      4.7912     41.4991
  1239.7500      0.0000    727.7026      5.0560     40.5691
  1240.0000      0.0000    719.1848      5.2732     39.2996
  1240.2500      0.0000    713.7887      5.4330     37.0697
  1240.5000      0.0000    711.0691      5.5272     34.3997
  1240.7500      0.0000    710.0500      5.5565     32.8377
  1241.0000      0.0000    709.9484      5.5384     33.6278
  1241.2500      0.0000    710.3486      5.5018     36.4422
  1241.5000      0.0000    711.0385      5.4703     39.7079
  1241.7500      0.0000    711.8928      5.4495     42.0803
  1242.0000      0.0000    712.9380      5.4284     43.2795
  1242.2500      0.0000    714.3630      5.3915     43.6921
  1242.5000      0.0000    716.1952      5.3277     43.7421
  1242.7500      0.0000    717.8970      5.2340     43.7815
  1243.0000      0.0000    718.5655      5.1135     44.2176
  1243.2500      0.0000    717.8060      4.9762     45.4108
  1243.5000      0.0000    716.3300      4.8402     47.3424
  1243.7500      0.0000    715.5955      4.7298     49.3921
  1244.0000      0.0000    716.9813      4.6634     50.6218
  1244.2500      0.0000    721.0170      4.6394     50.5125
  1244.5000      0.0000    726.6415      4.6321     49.4514
  1244.7500      0.0000    731.1148      4.6094     48.3985
  1245.0000      0.0000    731.6653      4.5573     48.0925
  1245.2500      0.0000    727.9657      4.4891     48.5859
  1245.5000      0.0000    722.7023      4.4304     49.4603
  1245.7500      0.0000    719.5090      4.3987     50.3486
  1246.0000      0.0000    720.5568      4.3959     51.1080
  1246.2500      0.0000    725.6900      4.4172     51.6613
  1246.5000      0.0000    732.8268      4.4592     52.0785
  1246.7500      0.0000    738.8688      4.5157     52.8782
  1247.0000      0.0000    740.9543      4.5700     55.0163
  1247.2500      0.0000    737.8694      4.5995     59.4089
  1247.5000      0.0000    730.8231      4.5907     66.1509
  1247.7500      0.0000    722.6863      4.5470     73.7662
  1248.0000      0.0000    716.0583      4.4814     79.4788
  1248.2500      0.0000    711.9003      4.4044     81.0826
  1248.5000      0.0000    709.7747      4.3182     78.9026
  1248.7500      0.0000    708.8870      4.2201     75.6078
  1249.0000      0.0000    708.7629      4.1068     74.0324
  1249.2500      0.0000    709.4071      3.9788     75.3046
  1249.5000      0.0000    711.2549      3.8407     78.6396
  1249.7500      0.0000    714.7896      3.7004     82.1593
  1250.0000      0.0000    719.6522      3.5673     83.7934
  1250.2500      0.0000    724.0723      3.4487     82.1428
  1250.5000      0.0000    725.7863      3.3466     77.3154
  1250.7500      0.0000    724.0496      3.2570     71.0525
  1251.0000      0.0000    720.6441      3.1755     65.5524
  1251.2500      0.0000    718.5414      3.1012     62.0151
  1251.5000      0.0000    719.4414      3.0385     60.4423
  1251.7500      0.0000    722.6400      2.9935     60.4798
  1252.0000      0.0000    726.0725      2.9714     61.8653
  1252.2500      0.0000    727.9561      2.9750     64.1218
  1252.5000      0.0000    727.3915      3.0067     66.3353
  1252.7500      0.0000    724.2641      3.0677     67.5786
  1253.0000      0.0000    719.2827      3.1551     67.5858
  1253.2500      0.0000    713.7307      3.2638     66.7938
  1253.5000      0.0000    708.5221      3.3923     65.6227
  1253.7500      0.0000    703.5411      3.5412     64.0218
  1254.0000      0.0000    698.2493      3.7030     61.8417
  1254.2500      0.0000    693.0220      3.8549     59.2141
  1254.5000      0.0000    689.5766      3.9689     56.3843
  1254.7500      0.0000    689.6290      4.0303     53.6149
  1255.0000      0.0000    693.1107      4.0475     51.5045
  1255.2500      0.0000    698.1591      4.0425     51.0554
  1255.5000      0.0000    702.9381      4.0318     53.1451
  1255.7500      0.0000    707.1461      4.0160     58.0266
  1256.0000      0.0000    711.7502      3.9893     65.2502
  1256.2500      0.0000    717.5209      3.9558     73.6862
  1256.5000      0.0000    723.8369      3.9323     81.5357
  1256.7500      0.0000    728.8607      3.9320     86.8174
  1257.0000      0.0000    730.9048      3.9498     88.3923
