~Version Information
VERS.                      2.0: CWLS Log ASCII Standard - VERSION 2.0
WRAP.                       NO: One line per depth step
~Well Information Block
STRT.FT               480.0000: 
STOP.FT              1946.0000: 
STEP.FT                 0.2500: 
NULL.                -999.2500: 
COMP.          XTO Energy Inc.: COMPANY
WELL.          Golden Eagle 19-15: WELL
FLD.           Purgatoire River: FIELD
LOC.           1121' FSL & 2332' FEL--: LOCATION
CNTY.               Las Animas: COUNTY
SRVC.                Patterson: SERVICE COMPANY
DATE.          Sun Mar 12 15:00:51 2006: LOG DATE
UWI.           05 071 08717 00: UNIQUE WELL ID
STAT.                 Colorado: STATE
~Curve Information Block
DEPT.FT            0 000 00 00: Depth
SP.mV                         : DIL Spontaneous Potential
RILD.Ohm-m                    : DIL Deep Resistivity
RILM.Ohm-m                    : DIL Medium Resistivity
RLL3.Ohm-m                    : DIL Shallow Resistivity
GR.GAPI                       : Gamma Ray
~Parameter Information Block
~A  Depth        SP         RILD        RILM        RLL3         GR     
# ...
  1515.0000      6.2110     11.1227     13.1080     19.4503     86.6591
  1515.2500      5.8176     11.1519     13.1589     19.1867     88.9454
  1515.5000      5.4553     11.1850     13.1365     18.4793     94.4753
  1515.7500      5.2343     11.2232     13.0590     17.4935     99.1183
  1516.0000      5.3026     11.2628     12.9410     16.3971    106.2705
  1516.2500      5.7862     11.2938     12.7939     15.3193    110.1610
  1516.5000      6.6952     11.3013     12.6309     14.3458    113.1966
  1516.7500      7.8501     11.2683     12.4716     13.5325    113.1591
  1517.0000      8.9039     11.1802     12.3391     12.9180    110.8922
  1517.2500      9.4954     11.0284     12.2506     12.5246    108.6015
  1517.5000      9.4509     10.8126     12.2072     12.3498    104.8560
  1517.7500      8.8788     10.5401     12.1861     12.3551    102.6036
  1518.0000      8.0738     10.2248     12.1412     12.4617    100.4444
  1518.2500      7.3239      9.8855     12.0147     12.5608    100.1124
  1518.5000      6.7769      9.5439     11.7600     12.5391    101.0803
  1518.7500      6.4331      9.2214     11.3659     12.3143    102.2691
  1519.0000      6.2208      8.9344     10.8643     11.8657    104.0512
  1519.2500      6.0842      8.6909     10.3165     11.2453    104.9674
  1519.5000      6.0321      8.4895      9.7861     10.5618    105.9360
  1519.7500      6.1216      8.3215      9.3191      9.9438    106.3816
  1520.0000      6.3916      8.1747      8.9376      9.4975    106.6864
  1520.2500      6.8024      8.0371      8.6428      9.2787    106.5234
  1520.5000      7.2409      7.9004      8.4234      9.2867    105.4659
  1520.7500      7.5871      7.7618      8.2618      9.4784    104.0754
  1521.0000      7.7780      7.6242      8.1400      9.7916    100.9562
  1521.2500      7.8173      7.4937      8.0420     10.1634     98.4000
  1521.5000      7.7404      7.3774      7.9564     10.5390     94.5258
  1521.7500      7.5794      7.2820      7.8769     10.8727     92.3956
  1522.0000      7.3551      7.2140      7.8014     11.1270     90.5900
  1522.2500      7.0895      7.1800      7.7318     11.2755     90.5801
  1522.5000      6.8123      7.1858      7.6727     11.3072     92.5690
  1522.7500      6.5536      7.2350      7.6298     11.2313     95.0997
  1523.0000      6.3300      7.3283      7.6103     11.0751     99.6133
  1523.2500      6.1406      7.4633      7.6219     10.8773    102.0940
  1523.5000      5.9749      7.6360      7.6733     10.6798    103.7364
  1523.7500      5.8251      7.8422      7.7745     10.5220    103.4196
  1524.0000      5.6910      8.0789      7.9368     10.4424    101.8652
  1524.2500      5.5777      8.3444      8.1724     10.4868    100.8790
  1524.5000      5.4870      8.6375      8.4944     10.7189    100.1620
  1524.7500      5.4087      8.9582      8.9159     11.2242     99.9863
  1525.0000      5.3169      9.3069      9.4474     12.0986     99.0798
  1525.2500      5.1801      9.6845     10.0942     13.4210     97.3874
  1525.5000      4.9822     10.0917     10.8535     15.2150     92.7116
  1525.7500      4.7360     10.5283     11.7119     17.4176     88.3932
  1526.0000      4.4757     10.9929     12.6460     19.8747     81.2005
  1526.2500      4.2343     11.4835     13.6227     22.3709     76.6849
  1526.5000      4.0230     11.9975     14.6029     24.6865     71.3293
  1526.7500      3.8273     12.5326     15.5438     26.6555     69.0243
  1527.0000      3.6313     13.0847     16.4033     28.1923     67.4934
  1527.2500      3.4540     13.6442     17.1413     29.2740     67.4961
  1527.5000      3.3627     14.1893     17.7220     29.8934     68.6430
  1527.7500      3.4311     14.6838     18.1179     30.0208     70.3631
  1528.0000      3.6729     15.0824     18.3175     29.6079     75.1739
  1528.2500      4.0138     15.3459     18.3357     28.6373     79.8368
  1528.5000      4.3310     15.4558     18.2137     27.1810     87.2232
  1528.7500      4.5204     15.4179     18.0078     25.4219     90.9318
  1529.0000      4.5449     15.2526     17.7669     23.6162     93.5430
  1529.2500      4.4420     14.9828     17.5139     22.0153     93.9528
  1529.5000      4.3021     14.6319     17.2375     20.7851     94.6651
  1529.7500      4.2295     14.2281     16.8996     19.9615     96.0201
  1530.0000      4.3038     13.8065     16.4567     19.4509     99.2832
  1530.2500      4.5516     13.4049     15.8886     19.0729    101.4965
  1530.5000      4.9382     13.0547     15.2185     18.6321    103.0457
  1530.7500      5.3845     12.7741     14.5092     17.9992    102.1892
  1531.0000      5.8065     12.5658     13.8395     17.1714     98.5080
  1531.2500      6.1516     12.4177     13.2767     16.2816     95.5692
  1531.5000      6.4070     12.3082     12.8598     15.5430     92.2870
  1531.7500      6.5843     12.2132     12.5960     15.1522     91.1575
  1532.0000      6.7030     12.1130     12.4639     15.1973     90.5016
  1532.2500      6.7842     11.9964     12.4220     15.6161     90.5133
  1532.5000      6.8480     11.8625     12.4184     16.2209     91.5387
  1532.7500      6.9076     11.7179     12.4037     16.7754     93.2190
  1533.0000      6.9665     11.5747     12.3446     17.0830     97.2032
  1533.2500      7.0205     11.4482     12.2326     17.0507    100.4028
  1533.5000      7.0652     11.3551     12.0836     16.7048    104.9880
  1533.7500      7.1009     11.3103     11.9278     16.1592    107.3487
  1534.0000      7.1315     11.3233     11.7964     15.5602    109.2035
  1534.2500      7.1593     11.3953     11.7118     15.0346    109.2828
  1534.5000      7.1834     11.5182     11.6852     14.6625    108.3633
  1534.7500      7.2059     11.6772     11.7205     14.4779    107.5950
  1535.0000      7.2380     11.8559     11.8198     14.4875    106.3571
  1535.2500      7.2952     12.0410     11.9862     14.6920    104.9614
  1535.5000      7.3892     12.2252     12.2230     15.0982    101.0452
  1535.7500      7.5201     12.4060     12.5302     15.7186     97.2329
  1536.0000      7.6720     12.5804     12.9022     16.5601     90.9013
  1536.2500      7.8152     12.7434     13.3264     17.6082     87.1917
  1536.5000      7.9195     12.8911     13.7813     18.8145     83.5580
  1536.7500      7.9723     13.0274     14.2341     20.0879     82.7149
  1537.0000      7.9889     13.1671     14.6408     21.3007     83.5257
  1537.2500      8.0080     13.3304     14.9572     22.3161     84.7130
  1537.5000      8.0749     13.5311     15.1607     23.0464     85.6429
  1537.7500      8.2176     13.7659     15.2697     23.5284     84.9021
  1538.0000      8.4306     14.0096     15.3420     23.9734     81.6632
  1538.2500      8.6817     14.2205     15.4472     24.7321     78.6191
  1538.5000      8.9354     14.3560     15.6277     26.1430     73.6259
  1538.7500      9.1721     14.3896     15.8680     28.3109     70.2100
  1539.0000      9.3857     14.3189     16.0856     30.9377     65.1712
  1539.2500      9.5741     14.1614     16.1565     33.3390     62.3945
  1539.5000      9.7406     13.9440     15.9780     34.6856     60.8878
  1539.7500      9.9000     13.6943     15.5347     34.3663     62.6964
  1540.0000     10.0680     13.4369     14.9102     32.2707     69.9929
  1540.2500     10.2384     13.1934     14.2355     28.8325     76.9950
  1540.5000     10.3753     12.9799     13.6248     24.8209     88.1569
  1540.7500     10.4360     12.8040     13.1429     21.0195     94.7780
  1541.0000     10.4047     12.6632     12.8079     17.9740    102.2904
  1541.2500     10.3073     12.5466     12.6084     15.9072    105.3766
  1541.5000     10.1964     12.4417     12.5211     14.7813    107.0359
  1541.7500     10.1242     12.3429     12.5227     14.4150    106.4649
  1542.0000     10.1204     12.2555     12.5932     14.5779    104.2401
  1542.2500     10.1837     12.1937     12.7141     15.0359    102.6836
  1542.5000     10.2897     12.1726     12.8645     15.5713    101.3227
  1542.7500     10.4089     12.2010     13.0228     16.0083    101.1602
