~Version Information
VERS.                      2.0: CWLS Log ASCII Standard - VERSION 2.0
WRAP.                       NO: One line per depth step
~Well Information Block
STRT.FT                -8.5000: 
STOP.FT              1214.7500: 
STEP.FT                 0.2500: 
NULL.                -999.2500: 
COMP.          Pioneer Natural Resources: COMPANY
WELL.          Rock Island 44-24 Tr: WELL
FLD.           Purgatorie River: FIELD
LOC.           814' FSL & 761' FEL--: LOCATION
CNTY.               Las Animas: COUNTY
SRVC.          Patterson Wireline: SERVICE COMPANY
DATE.          Fri Apr 28 10:23:18 2006: LOG DATE
UWI.           05 071 08680 00: UNIQUE WELL ID
STAT.                       CO: STATE
~Curve Information Block
DEPT.FT            0 000 00 00: Depth
CCL.                          : Casing Collar Locator
TT3.usec                      : CBL 3' Travel Time
AMP3.mV                       : CBL 3' Amplitude
GR.GAPI                       : Gamma Ray
~Parameter Information Block
~A  Depth       CCL         TT3         AMP3         GR     
    -8.5000   -999.2500   -999.2500   -999.2500     80.5320
    -8.2500   -999.2500   -999.2500   -999.2500     84.5878
    -8.0000   -999.2500   -999.2500   -999.2500     90.0742
    -7.7500   -999.2500   -999.2500   -999.2500     93.9448
    -7.5000   -999.2500   -999.2500   -999.2500     94.8352
    -7.2500   -999.2500   -999.2500   -999.2500     93.5284
    -7.0000   -999.2500   -999.2500   -999.2500     91.4335
    -6.7500   -999.2500   -999.2500   -999.2500     89.2701
    -6.5000   -999.2500   -999.2500   -999.2500     87.2550
    -6.2500   -999.2500   -999.2500   -999.2500     85.7078
    -6.0000   -999.2500   -999.2500   -999.2500     84.8239
    -5.7500   -999.2500   -999.2500   -999.2500     84.2509
    -5.5000   -999.2500   -999.2500   -999.2500     83.4770
    -5.2500   -999.2500   -999.2500   -999.2500     82.4117
    -5.0000   -999.2500   -999.2500   -999.2500     81.2401
    -4.7500   -999.2500   -999.2500   -999.2500     80.0940
    -4.5000   -999.2500   -999.2500   -999.2500     79.2289
    -4.2500   -999.2500   -999.2500   -999.2500     79.1681
    -4.0000   -999.2500   -999.2500   -999.2500     80.2266
    -3.7500   -999.2500   -999.2500   -999.2500     82.0141
    -3.5000   -999.2500   1161.0000      1.6697     83.7304
    -3.2500   -999.2500   1161.0000      1.6727     84.7732
    -3.0000   -999.2500   1161.0000      1.6731     84.6439
    -2.7500   -999.2500   1161.0000      1.6733     82.5534
    -2.5000   -999.2500   1161.0000      1.6767     77.9733
    -2.2500   -999.2500   1161.0000      1.6843     71.5952
    -2.0000   -999.2500   1161.0000      1.6962     65.0083
    -1.7500   -999.2500   1161.0000      1.7149     59.2631
    -1.5000   -999.2500   1161.0000      1.7470     54.2044
    -1.2500   -999.2500   1161.0000      1.7945     49.2559
    -1.0000   -999.2500   1161.0000      1.8447     44.4829
    -0.7500   -999.2500   1161.0000      1.8741     40.7702
    -0.5000   -999.2500   1161.0000      1.8678     39.0442
    -0.2500   -999.2500   1161.0000      1.8338     39.3125
     0.0000   -999.2500   1161.0000      1.7645     40.8671
     0.2500   -999.2500   1161.0000      1.7466     39.7437
     0.5000   -999.2500   1161.0000      1.7342     37.1895
     0.7500   -999.2500   1161.0000      1.7218     34.0435
     1.0000   -999.2500   1161.0000      1.7098     31.3488
     1.2500   -999.2500   1161.0000      1.7029     29.9572
     1.5000   -999.2500   1161.0000      1.7035     30.3422
     1.7500      0.0000   1161.0000      1.7072     32.5436
     2.0000      0.0000   1161.0000      1.7057     36.1860
     2.2500      0.0000   1161.0000      1.6953     40.6636
     2.5000      0.0000   1161.0000      1.6812     45.4261
     2.7500      0.0000   1161.0000      1.6720     50.1327
     3.0000      0.0000   1161.0000      1.6726     54.6718
     3.2500      0.0000   1161.0000      1.6810     59.0075
     3.5000      0.0000   1161.0000      1.6922     62.7283
     3.7500      0.0000   1160.9805      1.7028     64.7957
     4.0000      0.0000   1160.8444      1.7136     64.2079
     4.2500      0.0000   1160.1405      1.7280     61.1283
     4.5000      0.0000   1157.2589      1.7547     57.1130
     4.7500      0.0000   1148.0150      1.8225     53.9994
     5.0000      0.0000   1124.4926      2.0587     52.5363
     5.2500      0.0000   1076.4636      2.8870     52.0568
     5.5000      0.0000    996.3263      5.3259     51.3672
     5.7500      0.0000    884.2800     11.0528     49.7634
     6.0000      0.0000    749.5106     21.6227     47.2536
     6.2500      0.0000    607.9871     36.8716     44.3046
     6.5000      0.0000    479.0842     54.0089     41.7005
     6.7500      0.0000    379.6337     68.9690     40.2136
     7.0000      0.0000    316.4109     79.1030     39.8778
     7.2500      0.0000    284.0210     84.4921     39.7609
     7.5000      0.0000    270.8494     86.9024     38.8797
     7.7500      0.0000    266.6455     88.0285     37.2970
     8.0000      0.0000    265.6118     88.7088     36.0584
     8.2500      0.0000    265.4263     89.1504     36.1126
     8.5000      0.0000    265.4087     89.3530     37.4586
     8.7500      0.0000    265.4183     89.2516     39.2316
     9.0000      0.0000    265.4323     88.6325     40.3309
     9.2500      0.0000    265.4699     87.0545     40.0421
     9.5000      0.0000    265.5696     83.9724     38.4730
     9.7500      2.0000    265.7949     79.0458     36.5890
    10.0000      0.0000    266.2548     72.4189     35.6046
    10.2500      0.0000    267.1641     64.7121     36.1434
    10.5000      0.0000    268.9496     56.7148     37.9303
    10.7500      0.0000    272.2650     49.0421     40.1219
    11.0000      0.0000    277.7096     42.0101     41.7533
    11.2500      0.0000    285.3159     35.7231     42.1210
    11.5000      0.0000    294.4148     30.1977     41.2152
    11.7500      0.0000    304.3020     25.4195     39.8565
    12.0000      0.0000    315.0355     21.3574     39.0892
    12.2500      0.0000    327.1896     17.9771     39.3813
    12.5000      0.0000    340.7742     15.2487     40.5314
    12.7500      0.0000    354.7754     13.1313     42.1133
    13.0000      0.0000    368.2749     11.5455     43.6843
    13.2500      0.0000    381.7353     10.3788     44.8898
    13.5000      0.0000    395.8317      9.5409     45.8421
    13.7500      0.0000    408.3875      9.0017     47.1584
    14.0000      0.0000    414.5240      8.7360     49.0494
    14.2500      0.0000    411.9229      8.6439     50.5136
    14.5000      0.0000    404.4881      8.5835     50.0324
    14.7500      0.0000    398.8450      8.4786     47.1813
    15.0000      0.0000    398.9453      8.3449     43.2710
    15.2500      0.0000    405.7409      8.2228     40.3596
    15.5000      2.0000    420.4357      8.1319     39.7494
    15.7500      0.0000    445.4446      8.0846     41.2952
    16.0000      0.0000    481.2648      8.1150     43.8399
    16.2500      0.0000    522.4145      8.2784     46.1122
    16.5000      0.0000    557.8564      8.6001     47.3474
    16.7500      0.0000    577.7590      9.0047     47.5360
    17.0000      0.0000    580.2661      9.3258     47.3567
    17.2500      0.0000    570.9065      9.4386     47.6019
    17.5000      0.0000    556.7109      9.3685     48.4160
    17.7500      0.0000    541.6636      9.2357     49.2929
    18.0000      0.0000    525.1265      9.1285     49.8025
    18.2500      0.0000    503.2941      9.0624     50.0546
    18.5000      0.0000    474.4190      9.0197     50.4552
    18.7500      0.0000    442.7113      8.9868     51.2562
    19.0000      0.0000    415.0346      8.9589     52.3683
    19.2500      0.0000    394.6832      8.9351     53.3208
    19.5000      0.0000    380.3801      8.9171     53.4317
    19.7500      0.0000    369.8167      8.9066     52.4663
    20.0000      0.0000    362.0566      8.9049     51.2537
    20.2500      0.0000    356.9876      8.9094     51.2734
    20.5000      0.0000    354.2059      8.9152     53.3683
    20.7500      0.0000    352.9010      8.9196     56.8438
    21.0000      0.0000    352.3391      8.9245     59.7831
    21.2500      0.0000    352.2638      8.9326     60.4511
    21.5000      0.0000    352.9952      8.9435     58.7207
    21.7500      0.0000    355.3326      8.9531     56.1039
    22.0000      0.0000    360.0875      8.9550     54.3148
    22.2500      0.0000    367.2561      8.9427     54.0659
    22.5000      0.0000    375.5288      8.9141     55.2646
    22.7500      0.0000    382.9053      8.8745     57.9917
    23.0000      0.0000    388.0118      8.8338     62.7931
    23.2500      0.0000    390.8065      8.8021     69.7244
    23.5000      0.0000    392.1584      8.7851     77.5053
    23.7500      0.0000    393.0042      8.7818     84.3610
    24.0000      0.0000    394.0825      8.7872     89.7006
    24.2500      0.0000    396.4320      8.7966     94.2041
    24.5000      0.0000    402.1255      8.8077     98.2254
    24.7500      0.0000    413.6721      8.8194    101.0024
