~Version Information
VERS.                      2.0: CWLS Log ASCII Standard - VERSION 2.0
WRAP.                       NO: One line per depth step
~Well Information Block
STRT.FT                 0.0000: 
STOP.FT              1981.7500: 
STEP.FT                 0.2500: 
NULL.                -999.2500: 
COMP.          Petrogulf Corporation: COMPANY
WELL.          Collister 17-31R: WELL
FLD.           Purgatorie River: FIELD
LOC.           962' FNL & 1520' FEL: LOCATION
STAT.                 Colorado: State
CNTY.               Las Animas: COUNTY
CTRY. USA : Country
SECT. 17 : Section
TOWN. 33S : Township
RANG. 67W : Range
SRVC.                Patterson: SERVICE COMPANY
DATE.          Fri Jan 06 10:32:29 2006: LOG DATE
API. 05-071-08436                         : UNIQUE WELL ID
~Curve Information Block
DEPT.FT            0 000 00 00: Depth
CCL.                          : Casing Collar Locator
TT3.usec                      : CBL 3' Travel Time
AMP3.mV                       : CBL 3' Amplitude
GR.GAPI                       : Gamma Ray
~Parameter Information Block
~A  Depth       CCL         TT3         AMP3         GR     
     0.0000   -999.2500   1197.0000      1.8369     44.7557
     0.2500   -999.2500   1197.0000      1.6893     53.1128
     0.5000   -999.2500   1197.0000      1.6754     55.5011
     0.7500   -999.2500   1197.0000      1.6877     56.3427
     1.0000   -999.2500   1197.0000      1.6918     55.9556
     1.2500   -999.2500   1197.0000      1.6972     54.9067
     1.5000      0.0000   1197.0000      1.7302     53.9190
     1.7500      0.0000   1197.0000      1.7731     53.6111
     2.0000      0.0000   1197.0000      1.7932     54.0770
     2.2500      0.0000   1197.0000      1.7979     54.9108
     2.5000      0.0000   1197.0000      1.7964     55.8263
     2.7500      0.0000   1197.0000      1.7762     56.9893
     3.0000      0.0000   1197.0000      1.7497     58.5134
     3.2500      0.0000   1197.0000      1.7508     59.9831
     3.5000      0.0000   1197.0000      1.7943     60.8214
     3.7500      0.0000   1197.0000      1.8676     60.8999
     4.0000      0.0000   1197.0000      1.9367     60.5574
     4.2500      0.0000   1197.0000      1.9757     60.2517
     4.5000      0.0000   1197.0000      1.9917     60.3620
     4.7500      0.0000   1197.0000      2.0051     61.0503
     5.0000      0.0000   1197.0000      2.0202     62.0612
     5.2500      0.0000   1197.0000      2.0242     62.8523
     5.5000      0.0000   1197.0000      1.9960     63.1591
     5.7500      0.0000   1197.0000      1.9202     63.2499
     6.0000      0.0000   1197.0000      1.8058     63.3740
     6.2500     -2.0000   1197.0000      1.6975     63.1770
     6.5000      0.0000   1197.0000      1.6524     61.9926
     6.7500      0.0000   1197.0000      1.6927     59.6870
     7.0000      0.0000   1197.0000      1.7906     56.9506
     7.2500      0.0000   1197.0000      1.9011     54.6389
     7.5000      0.0000   1197.0000      1.9903     52.9698
     7.7500      2.0000   1197.0000      2.0353     51.5979
     8.0000      0.0000   1197.0000      2.0249     50.3914
     8.2500      0.0000   1197.0000      1.9684     49.7400
     8.5000      0.0000   1197.0000      1.8889     49.9381
     8.7500      0.0000   1197.0000      1.8084     50.4700
     9.0000      0.0000   1197.0000      1.7505     50.2023
     9.2500      0.0000   1197.0000      1.7341     48.5028
     9.5000      0.0000   1197.0000      1.7587     46.0758
     9.7500      0.0000   1196.9659      1.8106     44.3198
    10.0000      0.0000   1196.5238      1.8788     43.8488
    10.2500      0.0000   1193.0521      1.9892     44.0383
    10.5000      0.0000   1175.0889      2.4281     43.9831
    10.7500      0.0000   1113.3441      4.3949     43.5599
    11.0000      0.0000    971.2885     10.5082     43.5903
    11.2500      0.0000    751.4604     23.0557     45.1840
    11.5000      0.0000    522.5032     40.1484     48.7353
    11.7500      0.0000    362.6196     55.7160     53.3180
    12.0000      0.0000    288.2850     65.2433     57.2091
    12.2500      0.0000    265.4598     69.1652     59.2491
    12.5000      0.0000    260.8661     70.2483     59.7056
    12.7500      0.0000    260.2680     70.4451     59.8128
    13.0000      0.0000    260.2166     70.4687     60.5195
    13.2500      0.0000    260.1944     70.5223     61.6739
    13.5000      0.0000    260.1571     70.6734     62.4188
    13.7500      0.0000    260.1280     70.8664     62.3164
    14.0000      0.0000    260.1264     71.0109     61.9204
    14.2500      0.0000    260.1484     71.1281     62.2498
    14.5000      0.0000    260.1736     71.2889     63.8356
    14.7500      0.0000    260.1865     71.4726     66.3678
    15.0000      0.0000    260.1851     71.6081     69.2476
    15.2500      0.0000    260.1759     71.6808     72.3291
    15.5000      0.0000    260.1642     71.7327     75.8614
    15.7500      0.0000    260.1495     71.8180     79.7110
    16.0000      0.0000    260.1344     71.9688     82.9914
    16.2500      0.0000    260.1311     72.1748     84.7592
    16.5000      0.0000    260.1460     72.3937     85.0098
    16.7500      0.0000    260.1707     72.5840     84.7413
    17.0000      0.0000    260.1937     72.7235     84.8455
    17.2500      0.0000    260.2080     72.8061     85.0350
    17.5000      0.0000    260.2118     72.8502     84.2701
    17.7500      0.0000    260.2109     72.9014     82.4497
    18.0000      0.0000    260.2152     72.9859     81.1691
    18.2500      0.0000    260.2260     73.0722     82.1911
    18.5000      0.0000    260.2364     73.1110     85.2840
    18.7500      0.0000    260.2420     73.1123     88.0484
    19.0000      0.0000    260.2421     73.1328     88.0730
    19.2500      0.0000    260.2385     73.1290     85.2013
    19.5000      0.0000    260.2515     72.7416     81.5901
    19.7500      0.0000    260.3625     71.1539     79.6176
    20.0000      0.0000    260.7682     67.6399     79.9436
    20.2500      0.0000    261.7023     62.9513     81.6648
    20.5000      0.0000    263.1697     59.0595     84.0332
    20.7500      0.0000    264.8312     56.5075     87.3187
    21.0000      0.0000    266.2202     54.3086     91.7040
    21.2500      0.0000    267.0691     52.3757     96.0136
    21.5000      0.0000    267.4672     51.2079     98.2512
    21.7500      0.0000    267.6516     50.6798     97.1764
    22.0000      2.0000    267.7534     50.4793     92.9624
    22.2500     -2.0000    267.7983     50.4529     86.7591
    22.5000      0.0000    267.7767     50.5116     80.2069
    22.7500      0.0000    267.6140     50.8811     75.0467
    23.0000      0.0000    267.0964     52.4153     72.4474
    23.2500      0.0000    265.9466     55.6859     72.5338
    23.5000      0.0000    264.1538     59.6718     74.6388
    23.7500      0.0000    262.2312     63.2001     77.6812
    24.0000      0.0000    260.8520     66.6743     80.2146
    24.2500      0.0000    260.2109     70.2818     80.9000
    24.5000      0.0000    260.0287     73.0210     79.5665
    24.7500      0.0000    260.0013     74.3959     77.4296
    25.0000      0.0000    259.9936     74.8866     75.9173
    25.2500      0.0000    259.9760     75.0019     75.5416
    25.5000      0.0000    259.9514     74.9087     75.9466
    25.7500      0.0000    259.9256     74.6688     76.4234
    26.0000      0.0000    259.9039     74.4391     76.0600
    26.2500      0.0000    259.8960     74.4257     73.9820
    26.5000      0.0000    259.9064     74.6865     70.0119
    26.7500      0.0000    259.9215     75.0775     64.9464
    27.0000      0.0000    259.9258     75.4182     59.9150
    27.2500      0.0000    259.9179     75.6143     55.6062
    27.5000      0.0000    259.9036     75.6436     52.1658
    27.7500      0.0000    259.8927     75.5529     49.4868
    28.0000      0.0000    259.8927     75.4627     47.3671
    28.2500      0.0000    259.8971     75.4852     45.7018
    28.5000      0.0000    259.8972     75.6284     44.7338
    28.7500      0.0000    259.8942     75.7965     44.8825
    29.0000      0.0000    259.8882     75.8777     46.1644
    29.2500      0.0000    259.8750     75.8351     47.8763
    29.5000      0.0000    259.8564     75.7331     48.9741
    29.7500      0.0000    259.8415     75.6935     48.7950
    30.0000      0.0000    259.8381     75.7792     47.3924
    30.2500      0.0000    259.8419     75.9168     45.2140
    30.5000      0.0000    259.8434     76.0148     42.6058
    30.7500      0.0000    259.8411     76.1097     39.8139
    31.0000      0.0000    259.8386     76.2738     37.3471
    31.2500      0.0000    259.8356     76.4468     35.9391
    31.5000      0.0000    259.8329     76.4966     35.9068
    31.7500      0.0000    259.8347     76.4228     36.6809
    32.0000      0.0000    259.8395     76.3778     37.2486
    32.2500      0.0000    259.8392     76.4737     37.1175
    32.5000      0.0000    259.8307     76.6758     36.6445
    32.7500      0.0000    259.8225     76.8937     36.4226
    33.0000      0.0000    259.8227     77.0681     36.6734
    33.2500      0.0000    259.8284     77.1845     37.3820
