~Version Information
VERS.                      2.0: CWLS Log ASCII Standard - VERSION 2.0
WRAP.                       NO: One line per depth step
~Well Information Block
STRT.FT               460.0000: 
STOP.FT              1349.5000: 
STEP.FT                 0.2500: 
NULL.                -999.2500: 
COMP.          Pioneer Natural Resources: COMPANY
WELL.              Dicks 32-5R: WELL
FLD.           Purgatorie River: FIELD
LOC.           1485' FNL & 1684' FEL: LOCATION
PROV.                 Colorado: PROVINCE
CNTY.               Las Animas: COUNTRY
SRVC.                Patterson: SERVICE COMPANY
DATE.          Thu Dec 08 23:11:15 2005: LOG DATE
UWI.                          : UNIQUE WELL ID
~Curve Information Block
DEPT.FT            0 000 00 00: Depth
SN.Ohm-m                      : IEL Short Normal
SP.mV                         : IEL Spontaneous Potential
DIR.Ohm-m                     : IEL Induction Resistivity
GR.GAPI                       : Gamma Ray
~Parameter Information Block
~A  Depth        SN          SP         DIR          GR     
# ...
   527.0000   2000.0000   2000.0000      6.6268    149.2158
   527.2500   2000.0000   2000.0000      6.6523    148.0640
   527.5000   2000.0000   2000.0000      6.6824    146.6891
   527.7500   2000.0000   2000.0000      6.7231    145.9744
   528.0000   2000.0000   2000.0000      6.7794    145.1819
   528.2500   2000.0000   2000.0000      6.8538    144.8597
   528.5000   2000.0000   2000.0000      6.9460    144.8789
   528.7500   2000.0000   2000.0000      7.0551    145.3482
   529.0000   2000.0000   2000.0000      7.1829    146.4916
   529.2500   2000.0000   2000.0000      7.3355    147.0638
   529.5000   2000.0000   2000.0000      7.5215    146.8684
   529.7500   2000.0000   2000.0000      7.7469    146.0401
   530.0000   2000.0000   2000.0000      8.0106    144.4606
   530.2500   2000.0000   2000.0000      8.3035    143.5401
   530.5000   2000.0000   2000.0000      8.6116    142.2803
   530.7500   2000.0000   2000.0000      8.9201    141.2582
   531.0000   2000.0000   2000.0000      9.2158    139.4013
   531.2500   2000.0000   2000.0000      9.4899    138.2834
   531.5000   2000.0000   2000.0000      9.7392    137.4628
   531.7500   2000.0000   2000.0000      9.9696    137.6386
   532.0000   2000.0000   2000.0000     10.1960    139.0269
   532.2500   2000.0000   2000.0000     10.4387    140.9755
   532.5000   2000.0000   2000.0000     10.7156    146.3946
   532.7500   2000.0000   2000.0000     11.0343    151.8938
   533.0000   2000.0000   2000.0000     11.3863    161.4008
   533.2500   2000.0000   2000.0000     11.7478    166.5628
   533.5000   2000.0000   2000.0000     12.0852    169.1045
   533.7500   2000.0000   2000.0000     12.3678    166.5807
   534.0000   2000.0000   2000.0000     12.5799    158.2453
   534.2500   2000.0000   2000.0000     12.7268    151.8536
   534.5000   2000.0000   2000.0000     12.8320    144.3307
   534.7500   2000.0000   2000.0000     12.9276    141.3415
   535.0000   2000.0000   2000.0000     13.0446    138.9113
   535.2500   2000.0000   2000.0000     13.2061    137.7577
   535.5000   2000.0000   2000.0000     13.4249    135.9974
   535.7500   2000.0000   2000.0000     13.7048    134.8640
   536.0000   2000.0000   2000.0000     14.0428    133.4030
   536.2500   2000.0000   2000.0000     14.4300    132.5345
   536.5000   2000.0000   2000.0000     14.8526    131.1625
   536.7500   2000.0000   2000.0000     15.2924    129.9778
   537.0000   2000.0000   2000.0000     15.7297    126.9723
   537.2500   2000.0000   2000.0000     16.1483    123.5018
   537.5000   2000.0000   2000.0000     16.5396    115.5262
   537.7500   2000.0000   2000.0000     16.8998    108.7139
   538.0000   2000.0000   2000.0000     17.2221     97.8775
   538.2500   2000.0000   2000.0000     17.4853     91.4331
   538.5000   2000.0000   2000.0000     17.6503     84.7424
   538.7500   2000.0000   2000.0000     17.6683     82.8440
   539.0000   2000.0000   2000.0000     17.5010     83.6331
   539.2500   2000.0000   2000.0000     17.1395     85.9390
   539.5000   2000.0000   2000.0000     16.6112     90.9198
   539.7500   2000.0000   2000.0000     15.9691     94.8811
   540.0000   2000.0000   2000.0000     15.2737    101.5018
   540.2500   2000.0000   2000.0000     14.5777    106.1146
   540.5000   2000.0000   2000.0000     13.9165    112.5387
   540.7500   2000.0000   2000.0000     13.3064    116.0899
   541.0000   2000.0000   2000.0000     12.7485    120.3010
   541.2500   2000.0000   2000.0000     12.2360    122.6633
   541.5000   2000.0000   2000.0000     11.7620    125.9370
   541.7500   2000.0000   2000.0000     11.3242    127.9441
   542.0000   2000.0000   2000.0000     10.9267    130.5194
   542.2500   2000.0000   2000.0000     10.5781    131.8817
   542.5000   2000.0000   2000.0000     10.2884    133.4604
   542.7500   2000.0000   2000.0000     10.0664    134.4101
   543.0000   2000.0000   2000.0000      9.9181    136.3441
   543.2500   2000.0000   2000.0000      9.8466    138.3298
   543.5000   2000.0000   2000.0000      9.8515    142.3394
   543.7500   2000.0000   2000.0000      9.9290    145.2651
   544.0000   2000.0000   2000.0000     10.0712    149.1141
   544.2500   2000.0000   2000.0000     10.2680    151.0362
   544.5000   2000.0000   2000.0000     10.5092    152.9957
   544.7500   2000.0000   2000.0000     10.7862    153.7593
   545.0000   2000.0000   2000.0000     11.0943    153.9076
   545.2500   2000.0000   2000.0000     11.4339    153.1604
   545.5000   2000.0000   2000.0000     11.8108    150.7072
   545.7500   2000.0000   2000.0000     12.2344    148.1839
   546.0000   2000.0000   2000.0000     12.7146    142.5961
   546.2500   2000.0000   2000.0000     13.2598    137.1788
   546.5000   2000.0000   2000.0000     13.8746    126.3346
   546.7500   2000.0000   2000.0000     14.5535    118.0665
   547.0000   2000.0000   2000.0000     15.2710    106.7013
   547.2500   2000.0000   2000.0000     15.9739    101.3841
   547.5000   2000.0000   2000.0000     16.5834     98.2935
   547.7500   2000.0000   2000.0000     17.0155     99.3840
   548.0000   2000.0000   2000.0000     17.2109    104.2709
   548.2500   2000.0000   2000.0000     17.1591    108.5442
   548.5000   2000.0000   2000.0000     16.8985    114.7187
   548.7500   2000.0000   2000.0000     16.4969    117.9818
   549.0000   2000.0000   2000.0000     16.0303    121.0647
   549.2500   2000.0000   2000.0000     15.5706    121.9343
   549.5000   2000.0000   2000.0000     15.1794    121.8938
   549.7500   2000.0000   2000.0000     14.9017    121.4317
   550.0000   2000.0000   2000.0000     14.7590    121.2578
   550.2500   2000.0000   2000.0000     14.7457    122.2450
   550.5000   2000.0000   2000.0000     14.8352    126.0894
   550.7500   2000.0000   2000.0000     14.9935    129.9324
   551.0000   2000.0000   2000.0000     15.1949    135.9670
   551.2500   2000.0000   2000.0000     15.4304    139.0742
   551.5000   2000.0000   2000.0000     15.7035    141.4188
   551.7500   2000.0000   2000.0000     16.0181    141.6621
   552.0000   2000.0000   2000.0000     16.3644    141.0945
   552.2500   2000.0000   2000.0000     16.7124    140.5119
   552.5000   2000.0000   2000.0000     17.0121    139.2317
   552.7500   2000.0000   2000.0000     17.2063    137.8139
   553.0000   2000.0000   2000.0000     17.2478    134.6800
   553.2500   2000.0000   2000.0000     17.1159    132.1048
   553.5000   2000.0000   2000.0000     16.8206    127.7518
   553.7500   2000.0000   2000.0000     16.3954    124.3824
   554.0000   2000.0000   2000.0000     15.8842    118.3120
   554.2500   2000.0000   2000.0000     15.3300    113.7859
   554.5000   2000.0000   2000.0000     14.7691    107.4674
   554.7500   2000.0000   2000.0000     14.2335    104.4161
   555.0000   2000.0000   2000.0000     13.7540    102.4995
   555.2500   2000.0000   2000.0000     13.3613    103.0619
   555.5000   2000.0000   2000.0000     13.0797    106.2563
   555.7500   2000.0000   2000.0000     12.9189    109.6046
   556.0000   2000.0000   2000.0000     12.8701    115.7986
   556.2500   2000.0000   2000.0000     12.9095    120.2984
   556.5000   2000.0000   2000.0000     13.0078    126.9914
   556.7500   2000.0000   2000.0000     13.1400    131.1941
   557.0000   2000.0000   2000.0000     13.2922    136.8940
   557.2500   2000.0000   2000.0000     13.4631    140.1614
   557.5000   2000.0000   2000.0000     13.6625    143.9549
   557.7500   2000.0000   2000.0000     13.9084    145.5358
   558.0000   2000.0000   2000.0000     14.2240    146.0033
   558.2500   2000.0000   2000.0000     14.6365    144.6110
   558.5000   2000.0000   2000.0000     15.1725    139.1283
   558.7500   2000.0000   2000.0000     15.8524    133.0114
   559.0000   2000.0000   2000.0000     16.6823    120.8983
   559.2500   2000.0000   2000.0000     17.6483    111.9504
   559.5000   2000.0000   2000.0000     18.7172     99.6454
   559.7500   2000.0000   2000.0000     19.8455     93.5673
   560.0000   2000.0000   2000.0000     20.9884     89.3596
   560.2500   2000.0000   2000.0000     22.1008     90.2047
