~Version Information
VERS.                      2.0: CWLS Log ASCII Standard - VERSION 2.0
WRAP.                       NO: One line per depth step
~Well Information Block
STRT.FT               800.0000: 
STOP.FT              3500.0000: 
STEP.FT                 0.1000: 
NULL.                -999.2500: 
COMP.          Pioneer Natural Resources: COMPANY
WELL.          Cordillera 34-7: WELL
FLD.           Purgatoire River: FIELD
LOC.           598' FSL & 1770' FEL--: LOCATION
PROV.                 Colorado: PROVINCE
CNTY.               Las Animas: COUNTRY
SRVC.                Patterson: SERVICE COMPANY
DATE.          Fri Oct 28 07:22:44 2005: LOG DATE
UWI.           05 071 08552 00: UNIQUE WELL ID
~Curve Information Block
DEPT.FT            0 000 00 00: Depth
DCAL.in                       : CDL Caliper
RHOB.g/cc                     : CDL Bulk Density
RHOC.g/cc                     : CDL Density Correction
DPOR.pu                       : CDL Density Porosity
NPOR.pu                       : Neutron Porosity
GR.GAPI                       : Gamma Ray
~Parameter Information Block
~A  Depth       DCAL        RHOB        RHOC        DPOR        NPOR         GR     
# ...
  2576.0000      8.0357      2.5108      0.0178      8.4353     21.2528     58.1137
  2576.1000      8.0357      2.5164      0.0322      8.0991     21.9590     65.3154
  2576.2000      8.0357      2.5375      0.0843      6.8156     22.7066     70.0189
  2576.3000      8.0463      2.5419      0.0965      6.5528     23.7130     69.9974
  2576.4000      8.0463      2.5094      0.0662      8.5211     25.2995     69.7967
  2576.5000      8.0545      2.4516      0.0228     12.0263     27.1447     74.5954
  2576.6000      8.0545      2.3789      0.0299     16.4278     28.8307     82.6772
  2576.7000      8.0545      2.2868     -0.0209     22.0113     30.4754     88.1931
  2576.8000      8.0600      2.1790     -0.0359     28.5471     32.0365     88.7157
  2576.9000      8.0600      2.0667     -0.0571     35.3533     33.0615     86.7250
  2577.0000      8.0677      1.9610     -0.0784     41.7560     33.3954     86.2552
  2577.1000      8.0677      1.8700     -0.0873     47.2719     33.2970     87.5343
  2577.2000      8.0677      1.7905     -0.0446     52.0902     32.8997     87.2430
  2577.3000      8.0827      1.7234     -0.0329     56.1563     32.3529     85.8487
  2577.4000      8.0827      1.6807      0.0569     58.7451     32.2473     86.7113
  2577.5000      8.0963      1.6681      0.0752     59.5107     32.8860     90.6124
  2577.6000      8.0963      1.6888      0.0849     58.2574     33.7090     93.2981
  2577.7000      8.0963      1.7459      0.1180     54.7915     33.9776     93.5142
  2577.8000      8.0855      1.8304      0.1742     49.6726     33.8101     97.9929
  2577.9000      8.0855      1.9257      0.1898     43.8951     33.2787    108.3433
  2578.0000      8.0513      2.0301      0.1725     37.5705     32.0220    118.0633
  2578.1000      8.0513      2.1506      0.2217     30.2662     30.5715    123.4414
  2578.2000      8.0513      2.2750      0.2353     22.7266     29.5590    125.0374
  2578.3000      8.0252      2.3759      0.1993     16.6091     28.7699    125.4757
  2578.4000      8.0252      2.4405      0.1495     12.6998     28.0785    128.0484
  2578.5000      8.0182      2.4749      0.1558     10.6095     27.3782    133.7886
  2578.6000      8.0182      2.4880      0.1629      9.8166     26.4486    138.2858
  2578.7000      8.0182      2.4943      0.0865      9.4336     25.8336    136.1819
  2578.8000      8.0166      2.5140      0.0804      8.2430     26.1270    130.4173
  2578.9000      8.0166      2.5490      0.0585      6.1194     26.7078    128.5738
  2579.0000      8.0170      2.5769      0.1073      4.4297     26.8085    133.4600
  2579.1000      8.0170      2.5779      0.0629      4.3717     26.7686    139.2205
  2579.2000      8.0170      2.5600      0.0592      5.4555     26.9370    142.1361
  2579.3000      8.0179      2.5329      0.0781      7.0945     27.2234    143.5206
  2579.4000      8.0179      2.4945      0.0289      9.4225     27.5325    141.9193
  2579.5000      8.0180      2.4534     -0.0024     11.9147     27.8026    137.7288
  2579.6000      8.0180      2.4233     -0.0015     13.7389     28.1264    134.8161
  2579.7000      8.0180      2.4015      0.0420     15.0594     28.6275    135.1037
  2579.8000      8.0186      2.3810      0.0035     16.3000     29.1589    137.6438
  2579.9000      8.0186      2.3668      0.0283     17.1609     29.2587    141.3741
  2580.0000      8.0175      2.3711     -0.0279     16.9041     28.5975    147.0263
  2580.1000      8.0175      2.4002      0.0303     15.1376     27.7239    154.9258
  2580.2000      8.0175      2.4360      0.0933     12.9716     27.4714    161.6488
  2580.3000      8.0158      2.4551      0.1118     11.8123     27.8322    163.6788
  2580.4000      8.0158      2.4624      0.0766     11.3709     28.1649    161.0435
  2580.5000      8.0153      2.4696      0.1254     10.9312     27.9783    157.6341
  2580.6000      8.0153      2.4691      0.1172     10.9613     27.8129    158.1989
  2580.7000      8.0153      2.4620      0.0378     11.3962     28.5586    161.0954
  2580.8000      8.0140      2.4666      0.0492     11.1161     29.8445    160.1278
  2580.9000      8.0140      2.4852      0.0409      9.9874     30.5867    159.2313
  2581.0000      8.0118      2.5021      0.0635      8.9639     30.4486    162.2284
  2581.1000      8.0118      2.5048      0.0525      8.7984     29.7955    159.4688
  2581.2000      8.0118      2.4974      0.0430      9.2464     29.2862    150.1295
  2581.3000      8.0088      2.4898      0.0624      9.7078     29.5381    147.6960
  2581.4000      8.0088      2.4775      0.0595     10.4559     30.3918    150.7632
  2581.5000      8.0099      2.4513      0.0335     12.0433     31.2390    150.5661
  2581.6000      8.0099      2.4162      0.0163     14.1712     31.6868    150.1934
  2581.7000      8.0099      2.3851      0.0022     16.0559     31.5174    149.7743
  2581.8000      8.0139      2.3682     -0.0024     17.0780     30.8968    146.0834
  2581.9000      8.0139      2.3638      0.0331     17.3429     30.3446    138.4289
  2582.0000      8.0166      2.3640      0.0188     17.3346     30.3236    131.2370
  2582.1000      8.0166      2.3677      0.0179     17.1082     30.6994    134.5398
  2582.2000      8.0166      2.3714      0.0575     16.8854     31.0130    145.3790
  2582.3000      8.0172      2.3702      0.0700     16.9585     31.0313    149.8117
  2582.4000      8.0172      2.3703      0.0933     16.9535     30.5144    148.3438
  2582.5000      8.0162      2.3789      0.0912     16.4307     29.6671    149.8606
  2582.6000      8.0162      2.4011      0.1050     15.0855     29.0233    149.5844
  2582.7000      8.0162      2.4411      0.1182     12.6626     28.4838    140.5221
  2582.8000      8.0139      2.4921      0.1357      9.5668     27.9081    129.0029
  2582.9000      8.0139      2.5435      0.1239      6.4531     27.5929    126.6216
  2583.0000      8.0136      2.5942      0.1203      3.3846     27.4359    133.6112
  2583.1000      8.0136      2.6459      0.1102      0.2458     27.1959    137.5788
  2583.2000      8.0136      2.6947      0.1546     -2.7089     26.8988    132.6698
  2583.3000      8.0153      2.7311      0.1392     -4.9140     26.5914    127.1664
  2583.4000      8.0153      2.7524      0.1206     -6.2032     26.3964    125.8940
  2583.5000      8.0161      2.7663      0.0484     -7.0461     26.7069    125.0934
  2583.6000      8.0161      2.7713      0.1234     -7.3487     27.5712    120.7547
  2583.7000      8.0161      2.7510      0.0513     -6.1216     28.1999    111.9614
  2583.8000      8.0163      2.7064      0.0737     -3.4181     27.9632    103.1516
  2583.9000      8.0163      2.6508      0.0472     -0.0514     27.7175    100.3219
  2584.0000      8.0144      2.5941      0.0417      3.3888     28.3043    102.8185
  2584.1000      8.0144      2.5513      0.0178      5.9811     28.9335    109.2987
  2584.2000      8.0144      2.5346      0.0328      6.9918     29.0225    122.3821
  2584.3000      8.0122      2.5335      0.0755      7.0612     29.0835    139.4246
  2584.4000      8.0122      2.5241      0.0962      7.6299     29.3706    150.9271
  2584.5000      8.0201      2.5011      0.0564      9.0262     29.7188    154.3621
  2584.6000      8.0201      2.4864      0.0871      9.9167     29.9015    158.5222
  2584.7000      8.0201      2.4944      0.1399      9.4300     29.8148    165.5993
  2584.8000      8.0361      2.5139      0.1602      8.2455     29.7632    167.8627
  2584.9000      8.0361      2.5308      0.1753      7.2213     30.0926    163.1730
  2585.0000      8.0460      2.5395      0.1499      6.6975     30.5238    155.2620
  2585.1000      8.0460      2.5418      0.1459      6.5566     30.4580    147.7645
  2585.2000      8.0460      2.5458      0.0809      6.3131     30.3033    145.7488
  2585.3000      8.0458      2.5520      0.1145      5.9396     30.5517    150.2851
  2585.4000      8.0458      2.5472      0.1157      6.2311     30.8131    156.0253
  2585.5000      8.0409      2.5284      0.0546      7.3687     30.8626    159.5901
