~Version Information
VERS.                      2.0: CWLS Log ASCII Standard - VERSION 2.0
WRAP.                       NO: One line per depth step
~Well Information Block
STRT.FT                -8.5000: 
STOP.FT              2823.2500: 
STEP.FT                 0.2500: 
NULL.                -999.2500: 
COMP.          Pioneer Natural Resources: COMPANY
WELL.                AMX 13-13: WELL
FLD.           Purgatorie River: FIELD
LOC.           2316' FSL & 865' FWL--: LOCATION
PROV.                       CO: PROVINCE
CNTY.               Las Animas: COUNTRY
SRVC.          Patterson Wireline: SERVICE COMPANY
DATE.          Tue Dec 27 10:40:58 2005: LOG DATE
UWI.           05 071 08630 00: UNIQUE WELL ID
~Curve Information Block
DEPT.FT            0 000 00 00: Depth
CCL.                          : Casing Collar Locator
TT3.usec                      : CBL 3' Travel Time
AMP3.mV                       : CBL 3' Amplitude
GR.GAPI                       : Gamma Ray
~Parameter Information Block
~A  Depth       CCL         TT3         AMP3         GR     
# ...
  1867.5000      0.0000    715.4952      7.3932    118.9813
  1867.7500      0.0000    717.3679      7.4274    118.3870
  1868.0000      0.0000    718.2229      7.4768    116.1862
  1868.2500      0.0000    718.5759      7.5234    114.1269
  1868.5000      0.0000    719.1228      7.5681    114.9852
  1868.7500      0.0000    719.8824      7.6135    120.2965
  1869.0000      0.0000    720.7436      7.6541    128.6950
  1869.2500      0.0000    722.2752      7.6810    136.5165
  1869.5000      0.0000    725.5974      7.6921    140.2895
  1869.7500      0.0000    731.3647      7.6946    139.1519
  1870.0000      0.0000    738.3275      7.7000    135.1702
  1870.2500      0.0000    742.8638      7.7167    131.5756
  1870.5000      0.0000    741.2970      7.7501    130.7632
  1870.7500      0.0000    733.4570      7.8085    133.3526
  1871.0000      0.0000    723.0963      7.9008    138.2693
  1871.2500      0.0000    714.4960      8.0174    143.4686
  1871.5000      0.0000    709.4131      8.1194    146.7863
  1871.7500      0.0000    707.1384      8.1563    146.4979
  1872.0000      0.0000    706.1713      8.1006    141.8878
  1872.2500      0.0000    705.2017      7.9641    133.8267
  1872.5000      0.0000    702.9963      7.7852    124.4999
  1872.7500      0.0000    698.1867      7.6026    116.2407
  1873.0000      0.0000    689.9417      7.4398    110.6072
  1873.2500      0.0000    679.3893      7.3076    108.2786
  1873.5000      0.0000    670.0530      7.2179    109.3891
  1873.7500      0.0000    665.8388      7.1857    113.5581
  1874.0000      0.0000    668.0985      7.2145    119.2361
  1874.2500      0.0000    675.0060      7.2826    123.6269
  1874.5000      0.0000    683.5744      7.3506    124.5023
  1874.7500      0.0000    691.3143      7.3840    122.1817
  1875.0000      0.0000    696.0828      7.3710    118.9362
  1875.2500      0.0000    695.8699      7.3255    116.6759
  1875.5000      0.0000    689.7425      7.2742    116.0001
  1875.7500      0.0000    678.6113      7.2393    117.0859
  1876.0000      0.0000    664.9596      7.2282    120.2892
  1876.2500      0.0000    652.6760      7.2375    125.5254
  1876.5000      0.0000    646.7216      7.2631    131.5827
  1876.7500      0.0000    650.1572      7.3011    136.2489
  1877.0000      0.0000    659.8403      7.3419    137.0947
  1877.2500      0.0000    667.2288      7.3714    132.7294
  1877.5000      0.0000    665.7966      7.3839    124.2536
  1877.7500      0.0000    656.9299      7.3898    115.5202
  1878.0000      0.0000    647.7776      7.4031    110.9983
  1878.2500      0.0000    644.7042      7.4251    112.6052
  1878.5000      0.0000    648.8686      7.4422    118.7445
  1878.7500      0.0000    655.6412      7.4418    126.3763
  1879.0000      0.0000    657.5519      7.4303    133.3183
  1879.2500      0.0000    649.9459      7.4304    138.6049
  1879.5000      0.0000    634.6372      7.4562    141.8696
  1879.7500      0.0000    616.7516      7.4927    143.1270
  1880.0000      0.0000    598.8324      7.5104    142.7048
  1880.2500      0.0000    580.4843      7.4957    141.1010
  1880.5000      0.0000    563.0421      7.4625    139.0829
  1880.7500      0.0000    551.8223      7.4332    137.5447
  1881.0000      0.0000    553.2966      7.4146    136.7515
  1881.2500      0.0000    570.4669      7.3963    136.0251
  1881.5000      0.0000    599.7130      7.3685    134.5730
  1881.7500      0.0000    631.1196      7.3399    132.3987
  1882.0000      0.0000    653.2161      7.3312    130.2433
  1882.2500      0.0000    659.9924      7.3532    128.8476
  1882.5000      0.0000    655.2413      7.3959    128.5636
  1882.7500      0.0000    650.3069      7.4423    129.5693
  1883.0000      0.0000    655.8633      7.4905    131.8648
  1883.2500      0.0000    673.9151      7.5554    134.5253
  1883.5000      0.0000    697.3745      7.6440    135.3904
  1883.7500      0.0000    717.2607      7.7288    132.2933
  1884.0000      0.0000    729.6083      7.7516    124.7384
  1884.2500      0.0000    735.9753      7.6613    114.3904
  1884.5000      0.0000    739.4223      7.4549    104.2026
  1884.7500      0.0000    741.1728      7.1915     96.9143
  1885.0000      0.0000    740.1702      6.9643     93.7065
  1885.2500      0.0000    735.4449      6.8307     93.9434
  1885.5000      0.0000    729.4566      6.7509     96.1662
  1885.7500      0.0000    727.7246      6.6183     99.2609
  1886.0000      0.0000    733.2659      6.3738    102.7779
  1886.2500      0.0000    742.6496      6.0710    106.5578
  1886.5000      0.0000    749.2536      5.8111    110.2391
  1886.7500      0.0000    749.4262      5.6476    113.1162
  1887.0000      2.0000    743.9915      5.5744    114.5266
  1887.2500      0.0000    734.3618      5.5742    114.5502
  1887.5000      0.0000    719.5437      5.6524    114.3513
  1887.7500      0.0000    699.0074      5.8263    115.4182
  1888.0000      0.0000    677.2934      6.0830    118.0879
  1888.2500      0.0000    661.6326      6.3468    121.2019
  1888.5000      0.0000    654.0145      6.5193    123.5957
  1888.7500      0.0000    649.4263      6.5749    125.5034
  1889.0000      0.0000    642.8912      6.5897    127.9568
  1889.2500      0.0000    634.2052      6.6519    131.2500
  1889.5000      0.0000    624.6846      6.7765    134.7052
  1889.7500      0.0000    614.0787      6.9187    137.8332
  1890.0000      0.0000    603.6872      7.0298    140.9109
  1890.2500      0.0000    599.5328      7.0833    144.0137
  1890.5000      0.0000    608.8671      7.0757    145.7758
  1890.7500      0.0000    633.3359      7.0196    143.5937
  1891.0000      0.0000    666.0875      6.9314    135.4038
  1891.2500      0.0000    695.1200      6.8214    121.8319
  1891.5000      0.0000    709.3396      6.7002    106.9422
  1891.7500      0.0000    702.8954      6.5917     96.2193
  1892.0000      0.0000    677.3604      6.5310     92.7853
  1892.2500      0.0000    643.5311      6.5417     95.3574
  1892.5000      0.0000    619.9589      6.6089    100.0931
  1892.7500      0.0000    622.9573      6.6811    104.1947
  1893.0000      0.0000    653.4386      6.7076    107.3583
  1893.2500      0.0000    695.2853      6.6797    110.3258
  1893.5000      0.0000    728.9789      6.6327    113.4249
  1893.7500      0.0000    746.4025      6.6090    117.1714
  1894.0000      0.0000    753.0032      6.6228    123.3668
  1894.2500      0.0000    758.5524      6.6577    134.1531
  1894.5000      0.0000    767.7395      6.6890    149.3595
  1894.7500      0.0000    778.5861      6.7008    165.2804
  1895.0000      0.0000    786.8026      6.6846    176.6955
  1895.2500      0.0000    789.3367      6.6350    180.1830
  1895.5000      0.0000    783.9834      6.5537    175.5768
  1895.7500      0.0000    768.3051      6.4569    164.9464
  1896.0000      0.0000    742.0138      6.3708    151.0345
  1896.2500      0.0000    711.3304      6.3193    136.6256
  1896.5000      0.0000    688.1381      6.3155    124.3603
  1896.7500      0.0000    681.2041      6.3638    116.0442
  1897.0000      0.0000    687.7597      6.4612    111.7773
  1897.2500      0.0000    695.3506      6.5891    110.1902
  1897.5000      0.0000    692.7717      6.7085    110.0555
  1897.7500      0.0000    679.9513      6.7740    111.6440
  1898.0000      0.0000    667.4431      6.7599    116.2174
  1898.2500      0.0000    665.5157      6.6726    124.2494
  1898.5000      0.0000    674.5658      6.5420    134.2809
  1898.7500      0.0000    687.0300      6.4044    143.4177
  1899.0000      0.0000    695.8810      6.2907    148.9166
  1899.2500      0.0000    698.7955      6.2239    149.7528
  1899.5000      0.0000    696.4463      6.2224    147.2220
  1899.7500      0.0000    690.6448      6.2952    144.2125
  1900.0000      0.0000    684.4571      6.4280    143.4843
  1900.2500      0.0000    681.5150      6.5772    146.1552
  1900.5000      0.0000    683.2023      6.6908    151.4778
  1900.7500      0.0000    686.8868      6.7393    157.7055
