~Version Information
VERS.                      2.0: CWLS Log ASCII Standard - VERSION 2.0
WRAP.                       NO: One line per depth step
~Well Information Block
STRT.FT               245.0000: 
STOP.FT              1273.7000: 
STEP.FT                 0.1000: 
NULL.                -999.2500: 
COMP.          Pioneer Natural Resources: COMPANY
WELL.                 Ray 34-6: WELL
FLD.           Purgatoire River: FIELD
LOC.           684' FSL & 2254' FEL--: LOCATION
CNTY.               Las Animas: COUNTY
SRVC.                Patterson: SERVICE COMPANY
DATE.          Fri May 26 09:17:30 2006: LOG DATE
UWI.           05 071 08695 00: UNIQUE WELL ID
STAT.                 Colorado: STATE
~Curve Information Block
DEPT.FT            0 000 00 00: Depth
DCAL.in                       : CDL Caliper
RHOB.g/cc                     : CDL Bulk Density
RHOC.g/cc                     : CDL Density Correction
DPOR.pu                       : CDL Density Porosity
NPOR.pu                       : Neutron Porosity
GR.GAPI                       : Gamma Ray
~Parameter Information Block
~A  Depth       DCAL        RHOB        RHOC        DPOR        NPOR         GR     
# ...
   773.0000      7.9880      2.5093     -0.0156      8.5294     24.8302     90.9526
   773.1000      7.9880      2.4979     -0.0699      9.2174     25.3206     94.9148
   773.2000      7.9880      2.5034     -0.0198      8.8852     25.9294    102.4225
   773.3000      7.9922      2.5096      0.0285      8.5107     26.6494    106.5946
   773.4000      7.9922      2.5072     -0.0233      8.6555     27.0639    105.3347
   773.5000      7.9966      2.5120      0.0016      8.3631     27.0381    101.4923
   773.6000      7.9966      2.5251      0.0534      7.5712     26.9867     97.9926
   773.7000      7.9966      2.5298      0.0340      7.2825     27.0138     98.0287
   773.8000      7.9993      2.5279      0.0090      7.3994     26.7964     99.9932
   773.9000      7.9993      2.5308      0.0201      7.2261     26.3078     99.4922
   774.0000      7.9980      2.5352      0.0638      6.9562     25.8118     97.0464
   774.1000      7.9980      2.5347      0.0423      6.9878     25.4930     95.5419
   774.2000      7.9980      2.5383      0.0221      6.7714     25.3855     94.6661
   774.3000      7.9962      2.5537      0.0524      5.8372     25.3267     91.4870
   774.4000      7.9962      2.5722      0.0620      4.7137     25.0350     87.1748
   774.5000      7.9953      2.5844      0.0439      3.9773     24.3998     86.9135
   774.6000      7.9953      2.5864      0.0625      3.8518     23.7927     92.9943
   774.7000      7.9953      2.5764      0.0670      4.4622     23.5034    101.2346
   774.8000      7.9948      2.5617      0.0347      5.3510     23.3729    106.6474
   774.9000      7.9948      2.5604      0.0177      5.4311     23.3587    108.7089
   775.0000      7.9955      2.5737      0.1043      4.6261     23.6607    108.0102
   775.1000      7.9955      2.5789      0.1037      4.3114     24.1969    107.1019
   775.2000      7.9955      2.5688      0.0735      4.9231     24.5243    106.4231
   775.3000      7.9947      2.5601      0.0596      5.4511     24.5630    103.5645
   775.4000      7.9947      2.5591      0.0925      5.5068     24.6605     99.5372
   775.5000      7.9936      2.5602      0.0796      5.4451     24.9634     97.4296
   775.6000      7.9936      2.5680      0.0443      4.9700     25.4125     97.0799
   775.7000      7.9936      2.5897      0.0643      3.6571     26.1463     93.7667
   775.8000      7.9946      2.6166      0.0888      2.0239     27.0613     86.4829
   775.9000      7.9946      2.6377      0.0986      0.7454     27.7647     81.3891
   776.0000      7.9957      2.6431      0.1317      0.4204     28.2164     81.8623
   776.1000      7.9957      2.6240      0.0873      1.5755     28.6722     85.1962
   776.2000      7.9957      2.5927      0.0615      3.4753     29.1278     86.9602
   776.3000      7.9961      2.5718      0.0595      4.7400     29.2647     86.1658
   776.4000      7.9961      2.5692      0.0064      4.8964     28.9478     84.7056
   776.5000      7.9969      2.5721      0.0342      4.7234     28.1589     83.5089
   776.6000      7.9969      2.5618      0.0293      5.3477     27.0002     84.2756
   776.7000      7.9969      2.5463     -0.0294      6.2834     25.9283     87.5347
   776.8000      7.9952      2.5491      0.0589      6.1166     25.3278     90.7435
   776.9000      7.9952      2.5711      0.0814      4.7799     25.1285     92.5958
   777.0000      7.9938      2.5977      0.0933      3.1675     25.0405     93.5773
   777.1000      7.9938      2.6094      0.1117      2.4577     24.8970     94.4453
   777.2000      7.9938      2.5949      0.0632      3.3383     24.6840     96.1827
   777.3000      7.9977      2.5698      0.0304      4.8579     24.3281     97.2685
   777.4000      7.9977      2.5600      0.0252      5.4566     23.9071     98.0883
   777.5000      8.0026      2.5711      0.0249      4.7840     23.6419    100.6868
   777.6000      8.0026      2.5877      0.0587      3.7743     23.4706    103.0078
   777.7000      8.0026      2.5947      0.0438      3.3530     23.1124    104.4255
   777.8000      8.0030      2.5911      0.0298      3.5696     22.8497    106.4464
   777.9000      8.0030      2.5811      0.0579      4.1732     22.9637    107.0925
   778.0000      8.0020      2.5688      0.0428      4.9238     22.8725    104.1688
   778.1000      8.0020      2.5586      0.0332      5.5373     22.3385     98.9242
   778.2000      8.0020      2.5439      0.0650      6.4329     21.9536     93.4270
   778.3000      8.0031      2.5150      0.0148      8.1845     22.0075     90.0912
   778.4000      8.0031      2.4876     -0.0380      9.8411     22.1179     90.0273
   778.5000      8.0035      2.4820     -0.0162     10.1824     21.8441     91.4042
   778.6000      8.0035      2.4891      0.0021      9.7509     21.5656     92.7829
   778.7000      8.0035      2.4942      0.0061      9.4403     21.7638     94.9934
   778.8000      8.0030      2.5013     -0.0041      9.0135     21.9669     97.6518
   778.9000      8.0030      2.5188      0.0411      7.9485     21.9238     96.2951
   779.0000      8.0025      2.5444      0.0352      6.3999     21.9164     86.9551
   779.1000      8.0025      2.5709      0.0425      4.7937     21.8950     74.6263
   779.2000      8.0025      2.5951      0.0265      3.3301     21.6633     69.1153
   779.3000      7.9994      2.6077      0.0960      2.5635     21.2936     69.8434
   779.4000      7.9994      2.5985      0.0714      3.1224     21.1114     69.4876
   779.5000      7.9979      2.5795      0.0078      4.2755     21.1824     69.5924
   779.6000      7.9979      2.5677      0.0464      4.9854     21.2009     74.5098
   779.7000      7.9979      2.5621      0.0271      5.3272     21.1188     80.9200
   779.8000      7.9980      2.5640      0.0193      5.2149     21.0446     82.9335
   779.9000      7.9980      2.5739      0.0871      4.6117     20.8691     79.4638
   780.0000      7.9976      2.5837      0.0448      4.0169     20.6742     76.1872
   780.1000      7.9976      2.5924      0.0923      3.4931     20.6568     76.2247
   780.2000      7.9976      2.6020      0.0407      2.9113     20.7803     74.3481
   780.3000      7.9965      2.6090      0.0829      2.4835     21.1186     67.9241
   780.4000      7.9965      2.6055      0.0730      2.6979     21.7000     62.8932
   780.5000      7.9960      2.5984      0.0303      3.1283     22.1986     62.3373
   780.6000      7.9960      2.6084      0.0268      2.5229     22.4102     63.2879
   780.7000      7.9960      2.6335      0.0990      1.0007     22.4483     64.9709
   780.8000      7.9950      2.6506      0.1074     -0.0345     22.3198     66.2973
   780.9000      7.9950      2.6517      0.0670     -0.1010     21.9916     65.2379
   781.0000      7.9936      2.6436      0.0815      0.3883     21.4682     63.4767
   781.1000      7.9936      2.6354      0.0340      0.8844     20.8550     62.1754
   781.2000      7.9936      2.6398      0.0359      0.6158     20.4866     61.8134
   781.3000      7.9942      2.6509      0.0776     -0.0537     20.5441     64.2338
   781.4000      7.9942      2.6476      0.0879      0.1476     20.9294     68.7541
   781.5000      7.9954      2.6306      0.0555      1.1731     21.4807     73.1733
   781.6000      7.9954      2.6211      0.0484      1.7539     21.8951     76.4873
   781.7000      7.9954      2.6271      0.0469      1.3905     22.0535     76.0423
   781.8000      7.9961      2.6381      0.0295      0.7238     22.4012     71.5773
   781.9000      7.9961      2.6495      0.0772      0.0316     23.3295     68.6601
   782.0000      7.9963      2.6698      0.0642     -1.2021     24.6018     69.1646
   782.1000      7.9963      2.7029      0.0885     -3.2036     25.8426     68.2052
   782.2000      7.9963      2.7403      0.0652     -5.4749     26.9480     64.4381
   782.3000      7.9956      2.7696      0.0833     -7.2479     27.9429     61.0086
   782.4000      7.9956      2.7750      0.0832     -7.5780     28.5969     58.9987
   782.5000      7.9962      2.7567      0.0155     -6.4667     28.7037     56.8984
