~Version Information
VERS.                      2.0: CWLS Log ASCII Standard - VERSION 2.0
WRAP.                       NO: One line per depth step
~Well Information Block
STRT.FT                -7.5000: 
STOP.FT              1310.7500: 
STEP.FT                 0.2500: 
NULL.                -999.2500: 
COMP.          Pioneer Natural Resources: COMPANY
WELL.          Challenger 31-29: WELL
FLD.           Purgatorie River: FIELD
LOC.           51' FNL & 1923' FEL------: LOCATION
STAT.                       CO: State
CNTY.               Las Animas: COUNTY
CTRY. USA : Country
SECT. 29 : Section
TOWN. 33S : Township
RANG. 65W : Range
SRVC.          Patterson Wireline: SERVICE COMPANY
DATE.          Wed Sep 21 12:11:38 2005: LOG DATE
API.           05 071 08514 00: UNIQUE WELL ID
~Curve Information Block
DEPT.FT            0 000 00 00: Depth
CCL.                          : Casing Collar Locator
TT3.usec                      : CBL 3' Travel Time
AMP3.mV                       : CBL 3' Amplitude
GR.GAPI                       : Gamma Ray
~Parameter Information Block
~A  Depth       CCL         TT3         AMP3         GR     
# ...
  1265.5000      0.0000    677.1302     14.2420     71.3498
  1265.7500      0.0000    674.2885     14.1831     69.7814
  1266.0000      0.0000    672.5080     14.1251     69.3024
  1266.2500      0.0000    671.6537     14.0617     69.5457
  1266.5000      0.0000    671.3159     13.9891     69.9970
  1266.7500      0.0000    671.1680     13.9124     70.7148
  1267.0000      0.0000    671.0534     13.8479     72.3125
  1267.2500      0.0000    670.9135     13.8172     74.9713
  1267.5000      0.0000    670.7448     13.8378     77.6072
  1267.7500      0.0000    670.5806     13.9124     78.5787
  1268.0000      0.0000    670.4646     14.0239     77.2452
  1268.2500      0.0000    670.4086     14.1375     74.3551
  1268.5000      0.0000    670.3825     14.2142     71.1030
  1268.7500      0.0000    670.3505     14.2299     68.4030
  1269.0000      0.0000    670.3248     14.1885     66.9102
  1269.2500      0.0000    670.3762     14.1152     67.1855
  1269.5000      0.0000    670.6749     14.0394     69.6469
  1269.7500      0.0000    671.6261     13.9798     74.1367
  1270.0000      0.0000    674.0422     13.9426     79.3037
  1270.2500      0.0000    678.8479     13.9246     82.8800
  1270.5000      0.0000    685.8926     13.9145     83.2728
  1270.7500      0.0000    692.7830     13.8974     80.9921
  1271.0000      0.0000    695.9180     13.8600     78.3340
  1271.2500      0.0000    693.8236     13.7935     77.6777
  1271.5000      0.0000    689.1212     13.6923     80.0793
  1271.7500      0.0000    686.2283     13.5535     85.0951
  1272.0000      0.0000    687.0187     13.3798     91.2985
  1272.2500      0.0000    689.3159     13.1770     96.7499
  1272.5000      0.0000    690.4280     12.9326     99.5902
  1272.7500      0.0000    692.3861     12.5967     99.0233
  1273.0000      0.0000    702.1902     12.1080     95.8820
  1273.2500      0.0000    725.4370     11.4704     91.8295
  1273.5000      0.0000    760.4369     10.8049     87.7586
  1273.7500      0.0000    799.2023     10.2978     83.2168
  1274.0000      0.0000    832.9583     10.0714     77.6819
  1274.2500      0.0000    856.3129     10.0959     72.1780
  1274.5000      0.0000    868.0240     10.2246     69.1625
  1274.7500     -2.0000    869.4510     10.3219     70.7412
  1275.0000      0.0000    862.2497     10.3845     77.1514
  1275.2500      0.0000    845.7549     10.5923     86.7673
  1275.5000      0.0000    816.1890     11.2320     97.3366
  1275.7500      0.0000    770.9739     12.4676    107.4196
  1276.0000      0.0000    714.5547     14.1136    117.0941
  1276.2500      0.0000    655.9048     15.7011    127.4027
  1276.5000      0.0000    598.8905     16.8539    138.7283
  1276.7500      0.0000    540.4013     17.5543    149.2011
  1277.0000      0.0000    479.7887     18.0149    154.6276
  1277.2500      0.0000    424.3431     18.4024    150.6595
  1277.5000      0.0000    383.0090     18.7456    136.2341
  1277.7500      0.0000    358.8177     19.0079    115.3904
  1278.0000      0.0000    348.8884     19.1517     95.1649
  1278.2500      0.0000    348.5610     19.1582     81.3730
  1278.5000      0.0000    353.7934     19.0416     76.3890
  1278.7500      0.0000    361.2276     18.8567     80.0493
  1279.0000      0.0000    368.1676     18.6799     91.2223
  1279.2500      0.0000    373.0788     18.5722    108.0490
  1279.5000      0.0000    375.8578     18.5512    127.4410
  1279.7500      0.0000    377.3274     18.5911    145.3165
  1280.0000      0.0000    378.7520     18.6452    158.0751
  1280.2500      0.0000    382.2483     18.6695    164.4076
  1280.5000      0.0000    392.0357     18.6362    166.0764
  1280.7500      0.0000    414.9198     18.5357    166.6825
  1281.0000      0.0000    457.2347     18.3757    168.7023
  1281.2500      0.0000    517.9689     18.1763    171.0775
  1281.5000      0.0000    583.9002     17.9593    169.9732
  1281.7500      0.0000    633.8366     17.7362    162.1614
  1282.0000      0.0000    650.3303     17.5026    147.6360
  1282.2500      0.0000    629.7471     17.2449    129.2096
  1282.5000      0.0000    583.9108     16.9539    110.3205
  1282.7500      0.0000    532.3607     16.6368     93.6419
  1283.0000      0.0000    489.6841     16.3151     81.0601
  1283.2500      0.0000    458.2930     16.0144     73.6586
  1283.5000      0.0000    433.3194     15.7535     71.1856
  1283.7500      0.0000    411.9557     15.5396     72.0770
  1284.0000      0.0000    395.7173     15.3664     74.5028
  1284.2500      0.0000    386.4998     15.2170     77.3251
  1284.5000      0.0000    384.6442     15.0731     80.0123
  1284.7500      0.0000    391.1872     14.9254     82.0509
  1285.0000      0.0000    409.9493     14.7765     82.9507
  1285.2500      0.0000    445.4125     14.6330     82.7832
  1285.5000      0.0000    496.9618     14.5007     82.1854
  1285.7500      0.0000    555.4624     14.3903     81.6024
  1286.0000      0.0000    607.7430     14.3227     80.9048
  1286.2500      0.0000    645.8421     14.3219     80.0880
  1286.5000      0.0000    671.5511     14.4024     79.9695
  1286.7500      0.0000    692.4155     14.5662     81.5017
  1287.0000      0.0000    714.3464     14.8101     84.5144
  1287.2500      0.0000    737.5958     15.1268     87.8983
  1287.5000      0.0000    758.2382     15.4960     91.0752
  1287.7500      0.0000    771.9335     15.8827     94.5737
  1288.0000      0.0000    775.5218     16.2584     98.9770
  1288.2500      0.0000    765.5776     16.6277    103.7670
  1288.5000      0.0000    737.1641     17.0319    107.3948
  1288.7500      0.0000    686.2307     17.5178    108.3434
  1289.0000      0.0000    615.2657     18.0971    106.1787
  1289.2500      0.0000    536.6133     18.7358    101.7948
  1289.5000      0.0000    467.4032     19.3777     96.7691
  1289.7500      0.0000    419.1700     19.9755     92.3479
  1290.0000      0.0000    392.8445     20.5011     88.6599
  1290.2500      0.0000    383.4767     20.9392     84.7501
  1290.5000      0.0000    386.7138     21.2872     79.6351
  1290.7500      0.0000    398.3694     21.5605     73.5043
  1291.0000      0.0000    409.7598     21.7862     67.6880
  1291.2500      0.0000    409.6831     21.9778     63.3750
  1291.5000      0.0000    395.3412     22.1127     60.6674
  1291.7500      0.0000    379.6803     22.1385     59.0252
  1292.0000      0.0000    384.8730     22.0067     58.1868
  1292.2500      0.0000    427.2963     21.7012     58.2457
  1292.5000      0.0000    505.8482     21.2456     59.0977
  1292.7500      0.0000    601.1055     20.6939     60.2743
  1293.0000      0.0000    686.8834     20.1146     61.3606
  1293.2500      0.0000    746.1749     19.5703     62.4028
  1293.5000      0.0000    777.9442     19.0959     63.8883
  1293.7500      0.0000    791.1840     18.6890     66.3087
  1294.0000      0.0000    795.4799     18.3210     69.6823
  1294.2500      0.0000    796.5742     17.9631     73.5677
  1294.5000      0.0000    796.7946     17.6103     77.4837
  1294.7500      0.0000    796.8042     17.2875     81.0069
  1295.0000      0.0000    796.7280     17.0283     83.4564
  1295.2500      0.0000    796.6064     16.8453     83.9833
  1295.5000      0.0000    796.4800     16.7203     82.2773
  1295.7500      0.0000    796.3855     16.6195     78.9605
  1296.0000      0.0000    796.3161     16.5136     74.8518
  1296.2500      0.0000    796.2051     16.3848     69.6808
  1296.5000      0.0000    795.9030     16.2255     61.7984
  1296.7500      0.0000    795.1097     16.0387     49.8266
  1297.0000      0.0000    793.3668     15.8382     34.8599
  1297.2500      0.0000    790.3300     15.6433     20.4104
  1297.5000      0.0000    786.3173     15.4688      9.7576
  1297.7500      0.0000    782.5786     15.3183      3.7491
  1298.0000      0.0000    780.6467     15.1887      1.1461
  1298.2500      0.0000    781.1266     15.0817      0.2765
  1298.5000      0.0000    783.2492     15.0083      0.0523
  1298.7500      0.0000    785.7888     14.9826      0.0072
