~Version Information
VERS.                      2.0: CWLS Log ASCII Standard - VERSION 2.0
WRAP.                       NO: One line per depth step
~Well Information Block
STRT.FT                 0.0000: 
STOP.FT               878.7500: 
STEP.FT                 0.2500: 
NULL.                -999.2500: 
COMP.          Pioneer Natural Resources: COMPANY
WELL.          Screamin 12-29 Tr: WELL
FLD.           Purgatoire River: FIELD
LOC.           1979' FNL & 532' FWL--: LOCATION
CNTY.               Las Animas: COUNTY
SRVC.                Patterson: SERVICE COMPANY
DATE.          Thu Apr 13 22:21:38 2006: LOG DATE
UWI.           05 071 08660 00: UNIQUE WELL ID
STAT.                 Colorado: STATE
~Curve Information Block
DEPT.FT            0 000 00 00: Depth
GR.GAPI                       : Gamma Ray
CCL.                          : Casing Collar Locator
TT3.usec                      : CBL 3' Travel Time
AMP3.mV                       : CBL 3' Amplitude
~Parameter Information Block
~A  Depth        GR         CCL         TT3         AMP3    
# ...
   670.0000    106.1912      0.0000    630.7104      4.6621
   670.2500    108.3709      0.0000    631.1490      4.6643
   670.5000    110.9401      0.0000    631.8834      4.6880
   670.7500    112.7722      0.0000    632.2700      4.7109
   671.0000    115.7569      0.0000    632.5256      4.7485
   671.2500    117.7126      0.0000    632.4907      4.7772
   671.5000    120.4098      0.0000    632.3199      4.8322
   671.7500    121.9795      0.0000    632.2756      4.8768
   672.0000    124.1740      0.0000    632.4911      4.9458
   672.2500    125.9264      0.0000    632.8250      4.9869
   672.5000    129.2539      0.0000    633.3813      5.0344
   672.7500    131.2381      0.0000    633.5262      5.0551
   673.0000    131.7261      0.0000    632.8154      5.0685
   673.2500    129.6834      0.0000    631.3922      5.0664
   673.5000    124.2438      0.0000    627.6532      5.0542
   673.7500    120.6951      0.0000    624.4706      5.0475
   674.0000    117.5781      0.0000    620.4108      5.0424
   674.2500    116.8306      0.0000    619.6348      5.0308
   674.5000    115.9916      0.0000    623.6422      4.9682
   674.7500    114.9589      0.0000    630.4486      4.8838
   675.0000    112.9858      0.0000    647.4420      4.7053
   675.2500    111.7926      0.0000    663.8672      4.5803
   675.5000    110.2788      0.0000    696.2817      4.4439
   675.7500    109.3555      0.0000    720.7441      4.4063
   676.0000    108.3222      0.0000    753.1184      4.4173
   676.2500    108.1332      1.9861    766.7939      4.4480
   676.5000    108.8004     -1.0852    771.9310      4.4991
   676.7500    109.6734      0.0000    765.9919      4.5286
   677.0000    110.6101      0.0000    746.2014      4.5656
   677.2500    110.2750      0.0000    727.9576      4.5931
   677.5000    107.8545      0.0000    699.7803      4.6580
   677.7500    105.3100      0.0000    686.4247      4.7214
   678.0000    101.2006      0.0000    683.1063      4.8312
   678.2500     98.8817      0.0000    692.3364      4.9019
   678.5000     96.8981      0.0000    714.1851      4.9976
   678.7500     96.8964      0.0000    726.0291      5.0557
   679.0000     98.9888      0.0000    729.0111      5.1320
   679.2500    101.6737      0.0000    719.2835      5.1721
   679.5000    107.4538      0.0000    691.4211      5.2161
   679.7500    112.3816      0.0000    669.2297      5.2385
   680.0000    120.8644      0.0000    640.0103      5.2679
   680.2500    126.4787      0.0000    627.0220      5.2859
   680.5000    132.9323      0.0000    618.8851      5.3064
   680.7500    135.2803      0.0000    619.5173      5.3085
   681.0000    136.9483      0.0000    624.9756      5.2794
   681.2500    138.3520      0.0000    629.0726      5.2375
   681.5000    142.7236      0.0000    633.3882      5.1592
   681.7500    147.0260      0.0000    634.8337      5.1118
   682.0000    153.7650      0.0000    635.7618      5.0671
   682.2500    157.0748      0.0000    636.2914      5.0587
   682.5000    158.2335      0.0000    638.1399      5.0680
   682.7500    155.8657      0.0000    640.6954      5.0746
   683.0000    148.4122      0.0000    647.2444      5.0623
   683.2500    142.6590      0.0000    653.4470      5.0338
   683.5000    136.8693      0.0000    664.7375      4.9675
   683.7500    135.9310      0.0000    672.6447      4.9178
   684.0000    136.5647      0.0000    682.3978      4.8509
   684.2500    136.1036      0.0000    685.6582      4.8156
   684.5000    133.3124      0.0000    684.3124      4.7747
   684.7500    131.8566      0.0000    680.3908      4.7571
   685.0000    133.4023      0.0000    673.7491      4.7586
   685.2500    136.6137      0.0000    670.4297      4.7836
   685.5000    141.1906      0.0000    667.5985      4.8442
   685.7500    142.4050      0.0000    666.6100      4.8833
   686.0000    141.2463      0.0000    665.4177      4.9168
   686.2500    139.1216      0.0000    664.4347      4.9175
   686.5000    134.6928      0.0000    662.6581      4.8869
   686.7500    131.3233      0.0000    661.6396      4.8504
   687.0000    126.9498      0.0000    661.0370      4.7880
   687.2500    125.4345      0.0000    661.1257      4.7528
   687.5000    126.3231      0.0000    660.5149      4.7211
   687.7500    128.9630      0.0000    658.5276      4.7142
   688.0000    134.7457      0.0000    652.5199      4.7167
   688.2500    138.8146      0.0000    647.2733      4.7195
   688.5000    144.0237      0.0000    640.2127      4.7143
   688.7500    146.6476      0.0000    637.4986      4.7026
   689.0000    149.0283      0.0000    637.4261      4.6771
   689.2500    149.2934      0.0000    639.6594      4.6565
   689.5000    147.7219      0.0000    644.6858      4.6174
   689.7500    146.0314      0.0000    647.8998      4.5841
   690.0000    144.1177      0.0000    650.6942      4.5302
   690.2500    143.6279      0.0000    650.7888      4.5006
   690.5000    143.1402      0.0000    649.0278      4.4773
   690.7500    141.9785      0.0000    647.3427      4.4762
   691.0000    137.9194      0.0000    644.1844      4.4881
   691.2500    133.9072      0.0000    640.9439      4.4996
   691.5000    127.5470      0.0000    633.9161      4.5184
   691.7500    124.1787      0.0000    629.0763      4.5328
   692.0000    121.5647      0.0000    625.5128      4.5537
   692.2500    121.3768      0.0000    626.9514      4.5607
   692.5000    122.1984      0.0000    632.9376      4.5538
   692.7500    122.6078      0.0000    636.5985      4.5389
   693.0000    122.3365      0.0000    637.7376      4.5061
   693.2500    121.8075      0.0000    635.6514      4.4776
   693.5000    121.2832      0.0000    631.5604      4.4264
   693.7500    121.1922      0.0000    630.2693      4.3920
   694.0000    120.3951      0.0000    632.2692      4.3582
   694.2500    118.5184      0.0000    636.4841      4.3570
   694.5000    113.2579      0.0000    647.1437      4.3906
   694.7500    108.9674      0.0000    656.7766      4.4314
   695.0000    103.6414      0.0000    673.3400      4.5013
   695.2500    101.7211      0.0000    684.4926      4.5369
   695.5000    101.6815      0.0000    699.1078      4.5443
   695.7500    103.6852      0.0000    706.0130      4.5108
   696.0000    110.4524      0.0000    710.2271      4.4198
   696.2500    117.5777      0.0000    709.0097      4.3570
   696.5000    130.3487      0.0000    702.9784      4.3004
   696.7500    138.2381      0.0000    696.8701      4.2979
   697.0000    146.4156      0.0000    684.1559      4.3368
   697.2500    149.1112      0.0000    673.3348      4.3755
   697.5000    149.9996      0.0000    656.2011      4.4227
   697.7500    149.2360      0.0000    646.5151      4.4346
   698.0000    147.2772      0.0000    637.0124      4.4198
   698.2500    145.9317      0.0000    633.8443      4.3957
   698.5000    143.4745      0.0000    631.9742      4.3568
   698.7500    140.8311      0.0000    631.5637      4.3388
   699.0000    135.5855      0.0000    631.1364      4.3352
   699.2500    132.7856      0.0000    630.7695      4.3507
   699.5000    132.5132      0.0000    630.1417      4.3918
   699.7500    135.2300      0.0000    629.8130      4.4223
   700.0000    141.6186      0.0000    629.8825      4.4659
   700.2500    145.8322      0.0000    630.8162      4.4970
   700.5000    150.1315      0.0000    635.2971      4.5521
   700.7500    151.1157      0.0000    641.7664      4.5906
   701.0000    150.0617      0.0000    658.0326      4.6340
   701.2500    148.4799      0.0000    671.9165      4.6455
   701.5000    145.5807      0.0000    690.9854      4.6337
   701.7500    142.4526      0.0000    698.6597      4.6092
   702.0000    133.3734      0.0000    700.9698      4.5567
   702.2500    123.9987      0.0000    699.2507      4.5201
   702.5000    107.7458      0.0000    700.1442      4.4812
   702.7500     98.0979      0.0000    706.9177      4.4741
   703.0000     88.7938      0.0000    726.8685      4.4915
   703.2500     86.5395      0.0000    743.2147      4.5115
