~Version Information
VERS.                      2.0: CWLS Log ASCII Standard - VERSION 2.0
WRAP.                       NO: One line per depth step
~Well Information Block
STRT.FT                -7.0000: 
STOP.FT              1155.0000: 
STEP.FT                 0.2500: 
NULL.                -999.2500: 
COMP.          Pioneer Natural Resources: COMPANY
WELL.          Whitecoat 14-36: WELL
FLD.           Purgatorie River: FIELD
LOC.           606' FSL & 260' FWL--: LOCATION
PROV.                       CO: PROVINCE
CNTY.               Las Animas: COUNTRY
SRVC.          Patterson Wireline: SERVICE COMPANY
DATE.          Mon Dec 12 12:56:49 2005: LOG DATE
UWI.           08 071 08593 00: UNIQUE WELL ID
~Curve Information Block
DEPT.FT            0 000 00 00: Depth
CCL.                          : Casing Collar Locator
TT3.usec                      : CBL 3' Travel Time
AMP3.mV                       : CBL 3' Amplitude
GR.GAPI                       : Gamma Ray
~Parameter Information Block
~A  Depth       CCL         TT3         AMP3         GR     
# ...
   596.0000      0.0000    880.2081      4.6473     80.1402
   596.2500      0.0000    887.5010      4.6903     88.6256
   596.5000      0.0000    886.4203      4.7385     95.5071
   596.7500      0.0000    879.6025      4.7911     98.8161
   597.0000      0.0000    871.5775      4.8440     98.6463
   597.2500      0.0000    865.5177      4.8927     96.9086
   597.5000      0.0000    862.1691      4.9344     95.6904
   597.7500      0.0000    860.8212      4.9685     95.7040
   598.0000      0.0000    860.5894      4.9966     96.2184
   598.2500      0.0000    860.9215      5.0242     96.3570
   598.5000      0.0000    861.2003      5.0593     96.1577
   598.7500      0.0000    859.7565      5.1062     96.3514
   599.0000      0.0000    853.2292      5.1552     97.5304
   599.2500      0.0000    837.7025      5.1812     99.8574
   599.5000      0.0000    811.7888      5.1608    103.6286
   599.7500      0.0000    779.0519      5.0926    109.7736
   600.0000      0.0000    746.7706      5.0009    119.1987
   600.2500      0.0000    721.6009      4.9163    131.3715
   600.5000      0.0000    706.0453      4.8548    144.0164
   600.7500      0.0000    698.4848      4.8175    154.6128
   601.0000      0.0000    695.6859      4.8058    161.9541
   601.2500      0.0000    694.9871      4.8297    166.1517
   601.5000      0.0000    694.9232      4.8936    167.8609
   601.7500      0.0000    694.9106      4.9785    167.9322
   602.0000      0.0000    694.9156      5.0431    167.1486
   602.2500      0.0000    695.3575      5.0482    165.7925
   602.5000      0.0000    697.1118      4.9811    164.0127
   602.7500      0.0000    701.3229      4.8605    162.7754
   603.0000      0.0000    708.7511      4.7242    163.4579
   603.2500      0.0000    718.9738      4.6105    165.9909
   603.5000      0.0000    730.2714      4.5431    168.0639
   603.7500      0.0000    740.5233      4.5244    166.5957
   604.0000      0.0000    748.3492      4.5427    160.0850
   604.2500      0.0000    753.7389      4.5829    149.9738
   604.5000      0.0000    757.5887      4.6285    140.2227
   604.7500      0.0000    760.1483      4.6612    135.3589
   605.0000      0.0000    760.3177      4.6677    138.0396
   605.2500      0.0000    757.3820      4.6495    147.4490
   605.5000      0.0000    753.4105      4.6228    159.5161
   605.7500      0.0000    753.0865      4.6119    168.9471
   606.0000      0.0000    760.7084      4.6368    171.8650
   606.2500      0.0000    776.7075      4.7023    167.3663
   606.5000      0.0000    796.7416      4.7948    157.1556
   606.7500      0.0000    814.4964      4.8947    144.0287
   607.0000      0.0000    825.6061      4.9896    130.6030
   607.2500      0.0000    829.2385      5.0729    118.8354
   607.5000      0.0000    826.9839      5.1372    109.9099
   607.7500      0.0000    821.0419      5.1753    104.2314
   608.0000      0.0000    813.5967      5.1901    101.9662
   608.2500      0.0000    807.6508      5.1977    103.7100
   608.5000      0.0000    807.6056      5.2164    109.8574
   608.7500      0.0000    817.7369      5.2532    118.8510
   609.0000      0.0000    838.3664      5.2988    126.9395
   609.2500      0.0000    862.3958      5.3360    130.4930
   609.5000      0.0000    877.6511      5.3519    128.3268
   609.7500      0.0000    876.5417      5.3457    121.8238
   610.0000      0.0000    863.9222      5.3284    113.7448
   610.2500      0.0000    852.3160      5.3123    107.0865
   610.5000      0.0000    848.9927      5.3003    104.0560
   610.7500      0.0000    850.7994      5.2858    105.2615
   611.0000      0.0000    851.2756      5.2644    109.7101
   611.2500      0.0000    848.3618      5.2423    115.8382
   611.5000      0.0000    843.5965      5.2302    122.8004
   611.7500      0.0000    837.3454      5.2315    130.6644
   612.0000      0.0000    828.1116      5.2375    139.3109
   612.2500      0.0000    815.5035      5.2331    147.6935
   612.5000      0.0000    801.1584      5.2093    154.7368
   612.7500      0.0000    786.6478      5.1709    160.3235
   613.0000      0.0000    772.6891      5.1319    164.5724
   613.2500      0.0000    761.5372      5.1014    166.8130
   613.5000      0.0000    759.0658      5.0745    166.3573
   613.7500      0.0000    772.3995      5.0385    163.7795
   614.0000      0.0000    803.6115      4.9889    160.2249
   614.2500      0.0000    845.2382      4.9419    155.5981
   614.5000      0.0000    883.0675      4.9295    148.3278
   614.7500      0.0000    905.5618      4.9825    136.8635
   615.0000      0.0000    911.9014      5.1163    121.0399
   615.2500      0.0000    911.0593      5.3235    102.5363
   615.5000      0.0000    912.5276      5.5725     84.6557
   615.7500      0.0000    916.3875      5.8085     71.2807
   616.0000      0.0000    911.8740      5.9602     65.2931
   616.2500      0.0000    888.2404      5.9665     67.5730
   616.5000      0.0000    848.0801      5.8185     77.1660
   616.7500      0.0000    807.0073      5.5819     91.9679
   617.0000      0.0000    779.2466      5.3646    109.2915
   617.2500      0.0000    766.1176      5.2501    126.4270
   617.5000      0.0000    758.6542      5.2521    141.4090
   617.7500      0.0000    747.9518      5.3103    153.4414
   618.0000      0.0000    731.9495      5.3197    162.1612
   618.2500      0.0000    715.6640      5.1958    166.4374
   618.5000      0.0000    707.0883      4.9514    164.6550
   618.7500      0.0000    711.2227      4.7047    156.6138
   619.0000      0.0000    725.7175      4.5877    144.5002
   619.2500      0.0000    742.0439      4.6370    131.6606
   619.5000      0.0000    751.8454      4.7804    121.0454
   619.7500      2.0000    752.9485      4.9142    114.7614
   620.0000      0.0000    749.7473      4.9845    113.9406
   620.2500      0.0000    748.5207      5.0059    118.2690
   620.5000      0.0000    752.5706      5.0367    126.0495
   620.7500      0.0000    760.4821      5.1443    135.2227
   621.0000      0.0000    767.5526      5.3580    144.3743
   621.2500      0.0000    769.1655      5.6217    152.9287
   621.5000      0.0000    763.9009      5.8126    160.9433
   621.7500      0.0000    753.6879      5.8441    168.7610
   622.0000      0.0000    741.1886      5.7429    176.1485
   622.2500      0.0000    728.0256      5.6057    181.6276
   622.5000      0.0000    715.4515      5.5042    183.5752
   622.7500      0.0000    705.0897      5.4484    182.4072
   623.0000      0.0000    698.0673      5.4113    180.8392
   623.2500      0.0000    694.0934      5.3638    181.2177
   623.5000      0.0000    691.7994      5.2956    182.9570
   623.7500      0.0000    689.7881      5.2207    183.3949
   624.0000      0.0000    687.4863      5.1640    181.0918
   624.2500      0.0000    685.4543      5.1390    177.5329
   624.5000      0.0000    684.8414      5.1404    175.4354
   624.7500      0.0000    686.1479      5.1563    175.8773
   625.0000      0.0000    688.5239      5.1806    177.3114
   625.2500      0.0000    690.3818      5.2078    177.1428
   625.5000      0.0000    690.5796      5.2252    174.0528
   625.7500      0.0000    689.1243      5.2189    168.9340
   626.0000      0.0000    687.1548      5.1856    163.9235
   626.2500      0.0000    686.1877      5.1356    160.6091
   626.5000      0.0000    686.8805      5.0853    158.7268
   626.7500      0.0000    688.3864      5.0456    156.4323
   627.0000      0.0000    689.1379      5.0144    152.3588
   627.2500      0.0000    688.3478      4.9788    147.4085
   627.5000      0.0000    686.7485      4.9236    143.8574
   627.7500      0.0000    685.9012      4.8423    142.9436
   628.0000      0.0000    686.7321      4.7445    144.3315
   628.2500      0.0000    688.7800      4.6543    147.5966
   628.5000      0.0000    690.8707      4.6012    152.8649
   628.7500      0.0000    692.2495      4.6052    159.7796
   629.0000      0.0000    692.9327      4.6611    166.6483
   629.2500      0.0000    693.2835      4.7370    171.1030
