~Version Information
VERS.                      2.0: CWLS Log ASCII Standard - VERSION 2.0
WRAP.                       NO: One line per depth step
~Well Information Block
STRT.FT               390.0000: 
STOP.FT              1434.5000: 
STEP.FT                 0.1000: 
NULL.                -999.2500: 
COMP.          Pioneer Natural Resources: COMPANY
WELL.             John K 12-28: WELL
FLD.           Purgatoire River: FIELD
LOC.           1476' FNL & 465' FWL: LOCATION
CNTY.               Las Animas: COUNTY
SRVC.                Patterson: SERVICE COMPANY
DATE.          Mon Apr 10 06:53:47 2006: LOG DATE
UWI.           05 071 08723 00: UNIQUE WELL ID
STAT.                 Colorado: STATE
~Curve Information Block
DEPT.FT            0 000 00 00: Depth
DCAL.in                       : CDL Caliper
RHOB.g/cc                     : CDL Bulk Density
RHOC.g/cc                     : CDL Density Correction
DPOR.pu                       : CDL Density Porosity
GR.GAPI                       : Gamma Ray
NPOR.pu                       : Neutron Porosity
~Parameter Information Block
~A  Depth       DCAL        RHOB        RHOC        DPOR         GR         NPOR    
# ...
   802.8000      7.9419      2.4519      0.0946     12.0036    140.2974     27.1735
   802.9000      7.9419      2.4427      0.1042     12.5642    140.6997     26.6609
   803.0000      7.9440      2.4387      0.0768     12.8069    135.1631     26.0793
   803.1000      7.9440      2.4403      0.1165     12.7062    129.3247     25.2045
   803.2000      7.9440      2.4269      0.1058     13.5199    131.7911     23.9539
   803.3000      7.9463      2.3897      0.0192     15.7736    139.5427     22.7686
   803.4000      7.9463      2.3499      0.0026     18.1887    144.1013     22.0295
   803.5000      7.9468      2.3199      0.0658     20.0047    143.1259     21.6647
   803.6000      7.9468      2.2828      0.0955     22.2523    140.0876     21.4191
   803.7000      7.9468      2.2230      0.0531     25.8769    140.9557     21.2894
   803.8000      7.9464      2.1553      0.0652     29.9811    144.8545     21.3583
   803.9000      7.9464      2.1096      0.0405     32.7510    141.1494     21.4972
   804.0000      7.9468      2.1047      0.0323     33.0472    127.4009     21.7830
   804.1000      7.9468      2.1354      0.1104     31.1880    113.6119     22.4831
   804.2000      7.9468      2.1747      0.1638     28.8057    107.5630     23.3308
   804.3000      7.9477      2.2060      0.1468     26.9082    110.0338     23.8466
   804.4000      7.9477      2.2394      0.1942     24.8822    115.1950     24.0393
   804.5000      7.9477      2.2857      0.2373     22.0788    116.1255     24.1334
   804.6000      7.9477      2.3354      0.2546     19.0664    114.9628     24.2176
   804.7000      7.9477      2.3729      0.2144     16.7910    116.9523     24.5042
   804.8000      7.9472      2.3995      0.1534     15.1796    121.2455     25.2135
   804.9000      7.9472      2.4230      0.1053     13.7566    123.7634     26.0817
   805.0000      7.9469      2.4453      0.0764     12.4067    123.6551     26.5763
   805.1000      7.9469      2.4709      0.0862     10.8566    124.9164     26.8617
   805.2000      7.9469      2.4994      0.1202      9.1303    129.2525     27.4384
   805.3000      7.9468      2.5249      0.1366      7.5846    134.6741     27.9619
   805.4000      7.9468      2.5430      0.1152      6.4845    139.6888     27.9805
   805.5000      7.9472      2.5495      0.1504      6.0886    140.0989     27.8849
   805.6000      7.9472      2.5455      0.1675      6.3319    135.2036     28.0735
   805.7000      7.9472      2.5406      0.1551      6.6277    132.0386     28.5323
   805.8000      7.9484      2.5364      0.1369      6.8832    132.8337     29.3220
   805.9000      7.9484      2.5216      0.1108      7.7814    135.4018     30.1182
   806.0000      7.9479      2.5067      0.0199      8.6864    139.3239     30.2184
   806.1000      7.9479      2.5157      0.0533      8.1366    141.6696     29.5864
   806.2000      7.9479      2.5374      0.0750      6.8213    140.4771     28.7442
   806.3000      7.9461      2.5436      0.0735      6.4475    140.6636     28.1499
   806.4000      7.9461      2.5373      0.0483      6.8283    145.4781     28.0047
   806.5000      7.9446      2.5424      0.0585      6.5209    150.5979     28.1576
   806.6000      7.9446      2.5618      0.0786      5.3432    151.2887     28.4881
   806.7000      7.9446      2.5749      0.0763      4.5527    148.6380     28.8591
   806.8000      7.9439      2.5636      0.0808      5.2366    146.4970     28.9564
   806.9000      7.9439      2.5266      0.0567      7.4817    146.7865     28.6900
   807.0000      7.9436      2.4750      0.0587     10.6059    149.1231     28.3208
   807.1000      7.9436      2.4279     -0.0326     13.4625    148.8243     27.9250
   807.2000      7.9436      2.4053      0.0126     14.8317    144.1591     27.5974
   807.3000      7.9437      2.4129      0.0178     14.3687    140.0414     27.5611
   807.4000      7.9437      2.4418      0.0318     12.6170    140.1815     27.4350
   807.5000      7.9441      2.4753      0.0626     10.5881    143.1559     26.8991
   807.6000      7.9441      2.4944      0.0923      9.4292    147.0025     26.5930
   807.7000      7.9441      2.4927      0.0602      9.5327    152.7420     26.8613
   807.8000      7.9442      2.4782      0.0928     10.4120    160.3920     27.2448
   807.9000      7.9442      2.4538      0.1029     11.8904    167.4336     27.6131
   808.0000      7.9441      2.4146      0.1203     14.2686    170.0725     27.8801
   808.1000      7.9441      2.3700      0.0904     16.9718    165.8834     27.7581
   808.2000      7.9441      2.3546      0.0591     17.9052    160.2065     27.5186
   808.3000      7.9445      2.3983      0.0813     15.2522    158.2548     27.4223
   808.4000      7.9445      2.4873      0.1402      9.8602    156.0095     27.4810
   808.5000      7.9456      2.5758      0.2054      4.4991    149.6729     27.5788
   808.6000      7.9456      2.6405      0.2209      0.5751    143.3915     27.1681
   808.7000      7.9456      2.6837      0.3304     -2.0429    142.6433     26.4107
   808.8000      7.9466      2.6985      0.3605     -2.9402    146.2543     25.9460
   808.9000      7.9466      2.6799      0.3262     -1.8092    149.2858     25.7461
   809.0000      7.9480      2.6444      0.2253      0.3388    151.4329     25.5941
   809.1000      7.9480      2.6105      0.1609      2.3937    153.4260     25.7043
   809.2000      7.9480      2.5788      0.1092      4.3122    151.7404     26.0816
   809.3000      7.9472      2.5559      0.0301      5.7009    148.9202     26.4956
   809.4000      7.9472      2.5617      0.1049      5.3514    151.4509     26.9688
   809.5000      7.9331      2.5881      0.2332      3.7500    153.7650     27.3902
   809.6000      7.9331      2.6064      0.2153      2.6411    148.0613     27.6456
   809.7000      7.9331      2.6093      0.2212      2.4656    140.3345     27.8623
   809.8000      7.9063      2.6026      0.2165      2.8742    138.9356     28.1795
   809.9000      7.9063      2.5900      0.1635      3.6381    141.4400     28.5181
   810.0000      7.8894      2.5735      0.1123      4.6343    140.6222     28.5358
   810.1000      7.8894      2.5488      0.1166      6.1360    137.6860     28.4110
   810.2000      7.8894      2.5187      0.0065      7.9549    137.6816     28.7026
   810.3000      7.8856      2.5052      0.0088      8.7759    140.0752     29.3133
   810.4000      7.8856      2.5189      0.0435      7.9430    139.7669     29.7364
   810.5000      7.8849      2.5524      0.0196      5.9178    132.2495     29.8071
   810.6000      7.8849      2.5897      0.0766      3.6520    122.7437     29.6413
   810.7000      7.8849      2.6108      0.0896      2.3745    122.0827     29.1336
   810.8000      7.8843      2.6187      0.0809      1.8988    131.2142     28.4315
   810.9000      7.8843      2.6339      0.0918      0.9738    142.0660     28.0819
   811.0000      7.8842      2.6570      0.0965     -0.4237    147.6354     27.8842
   811.1000      7.8842      2.6751      0.0747     -1.5239    145.1035     27.5980
   811.2000      7.8842      2.6817      0.0895     -1.9210    137.2549     27.6812
   811.3000      7.8859      2.6748      0.0830     -1.5040    130.9260     28.2069
   811.4000      7.8859      2.6618      0.0348     -0.7148    128.6175     28.5514
   811.5000      7.8871      2.6499      0.0389      0.0047    128.0415     28.2389
   811.6000      7.8871      2.6392      0.0508      0.6516    128.0133     27.5349
   811.7000      7.8871      2.6307      0.0261      1.1676    127.6453     26.9170
   811.8000      7.8838      2.6192      0.0261      1.8662    123.9475     26.6004
   811.9000      7.8838      2.5956      0.0495      3.2991    116.3356     26.8675
   812.0000      7.8805      2.5729     -0.0123      4.6717    110.5802     27.7769
   812.1000      7.8805      2.5766     -0.0061      4.4500    110.7770     28.8901
   812.2000      7.8805      2.6057      0.0539      2.6818    111.9346     29.7201
   812.3000      7.8818      2.6425      0.0423      0.4546    111.0804     30.1043
