~Version Information
VERS.                      2.0: CWLS Log ASCII Standard - VERSION 2.0
WRAP.                       NO: One line per depth step
~Well Information Block
STRT.FT                -9.5000: 
STOP.FT              1401.5000: 
STEP.FT                 0.2500: 
NULL.                -999.2500: 
COMP.          Pioneer Natural Resources: COMPANY
WELL.             John K 12-28: WELL
FLD.           Purgatorie River: FIELD
LOC.           1476' FNL & 465' FWL--: LOCATION
CNTY.               Las Animas: COUNTY
SRVC.          Patterson Wireline: SERVICE COMPANY
DATE.          Fri Apr 28 08:36:46 2006: LOG DATE
UWI.           05 071 08723 00: UNIQUE WELL ID
STAT.                       CO: STATE
~Curve Information Block
DEPT.FT            0 000 00 00: Depth
CCL.                          : Casing Collar Locator
TT3.usec                      : CBL 3' Travel Time
AMP3.mV                       : CBL 3' Amplitude
GR.GAPI                       : Gamma Ray
~Parameter Information Block
~A  Depth       CCL         TT3         AMP3         GR     
# ...
   895.0000      0.0000    648.2450      4.7413    133.9636
   895.2500      0.0000    629.6577      4.8117    128.1781
   895.5000      0.0000    608.9402      4.8868    122.7006
   895.7500      0.0000    584.9919      4.9640    117.7754
   896.0000      0.0000    560.5924      5.0672    113.0847
   896.2500      0.0000    539.9742      5.1994    108.9488
   896.5000     -2.0000    525.0986      5.3314    106.7915
   896.7500      0.0000    515.4462      5.4304    108.2922
   897.0000      0.0000    511.8480      5.4945    113.9248
   897.2500      0.0000    518.7186      5.5604    122.4059
   897.5000      0.0000    539.4695      5.6666    131.7577
   897.7500      0.0000    568.8156      5.7946    140.6452
   898.0000      0.0000    592.1281      5.8670    148.2021
   898.2500      0.0000    595.2418      5.8304    152.8643
   898.5000      0.0000    576.2674      5.7188    152.5018
   898.7500      0.0000    548.5895      5.6143    146.3907
   899.0000      0.0000    532.0977      5.5632    136.5218
   899.2500      0.0000    539.4410      5.5503    126.2182
   899.5000      0.0000    568.1017      5.5314    117.6054
   899.7500      0.0000    603.7741      5.4754    110.9647
   900.0000      0.0000    630.9695      5.3859    106.2893
   900.2500      0.0000    642.3448      5.2985    104.5840
   900.5000      0.0000    641.3857      5.2537    107.2096
   900.7500      0.0000    637.9677      5.2635    114.4591
   901.0000      0.0000    639.9659      5.3047    125.2064
   901.2500      0.0000    647.4066      5.3418    137.5388
   901.5000      0.0000    654.1790      5.3574    149.3526
   901.7500      0.0000    653.8861      5.3608    158.8880
   902.0000      0.0000    642.6672      5.3715    165.4893
   902.2500      0.0000    618.6246      5.4006    169.8995
   902.5000      0.0000    582.7937      5.4441    173.4148
   902.7500      0.0000    541.5776      5.4903    176.5581
   903.0000      0.0000    505.3165      5.5276    178.6891
   903.2500      0.0000    482.6374      5.5477    178.9128
   903.5000      0.0000    476.1469      5.5452    177.1189
   903.7500      0.0000    481.9901      5.5194    174.1635
   904.0000      0.0000    491.5911      5.4772    171.3239
   904.2500      0.0000    495.5732      5.4326    169.4794
   904.5000      0.0000    489.6801      5.3996    168.6160
   904.7500      0.0000    477.5025      5.3843    168.3647
   905.0000      0.0000    466.1098      5.3849    168.9349
   905.2500      0.0000    459.4492      5.3986    171.0138
   905.5000      0.0000    456.6293      5.4252    174.7141
   905.7500      0.0000    455.0292      5.4633    179.0822
   906.0000      0.0000    453.3388      5.5068    182.5190
   906.2500      0.0000    451.9677      5.5478    183.4661
   906.5000      0.0000    452.1959      5.5797    181.1151
   906.7500      0.0000    455.6845      5.5988    175.9936
   907.0000      0.0000    463.9680      5.6055    169.9713
   907.2500      0.0000    477.2230      5.6045    165.2984
   907.5000      0.0000    493.2766      5.6017    162.9108
   907.7500      0.0000    508.1028      5.6011    161.3714
   908.0000      0.0000    516.9473      5.6039    157.8542
   908.2500      0.0000    515.3790      5.6093    150.5094
   908.5000      0.0000    501.8367      5.6153    139.9752
   908.7500      0.0000    481.5183      5.6175    128.7347
   909.0000      0.0000    466.0504      5.6088    119.0709
   909.2500      0.0000    465.7825      5.5829    111.5732
   909.5000      0.0000    481.1474      5.5382    105.3683
   909.7500      0.0000    502.4055      5.4780     99.4882
   910.0000      0.0000    518.8336      5.4092     93.8812
   910.2500      0.0000    528.8178      5.3432     89.4210
   910.5000      0.0000    541.0987      5.2987     87.3034
   910.7500      0.0000    565.2930      5.2952     88.4641
   911.0000      0.0000    600.8776      5.3394     93.3387
   911.2500      0.0000    636.3061      5.4178    101.8980
   911.5000      0.0000    658.5737      5.5031    113.7498
   911.7500      0.0000    662.2452      5.5703    127.9754
   912.0000      0.0000    650.8925      5.6056    142.5455
   912.2500      0.0000    632.9586      5.6076    154.1789
   912.5000      0.0000    616.4444      5.5822    159.7182
   912.7500      0.0000    605.3520      5.5400    158.1970
   913.0000      0.0000    599.8182      5.4944    151.5022
   913.2500      0.0000    599.4794      5.4580    143.0998
   913.5000      0.0000    605.8123      5.4372    136.1089
   913.7500      0.0000    619.9197      5.4306    131.9911
   914.0000      0.0000    637.7879      5.4305    130.2941
   914.2500      0.0000    649.2840      5.4279    129.4381
   914.5000      0.0000    644.0366      5.4183    128.0987
   914.7500      0.0000    619.5461      5.4038    126.2001
   915.0000      0.0000    583.8190      5.3886    124.7853
   915.2500      0.0000    549.9763      5.3726    125.1119
   915.5000      0.0000    527.7835      5.3520    127.8121
   915.7500      0.0000    519.1038      5.3233    132.5586
   916.0000      0.0000    519.7325      5.2861    138.1535
   916.2500      0.0000    524.1694      5.2432    142.9304
   916.5000      0.0000    528.7047      5.1998    145.3898
   916.7500      0.0000    531.1898      5.1599    144.8504
   917.0000      0.0000    529.8421      5.1239    141.5861
   917.2500      0.0000    523.5948      5.0917    136.3505
   917.5000      0.0000    513.2333      5.0676    130.1718
   917.7500      0.0000    501.2200      5.0582    124.9202
   918.0000      0.0000    490.2590      5.0636    123.2649
   918.2500      0.0000    482.0570      5.0768    126.9102
   918.5000      0.0000    476.8567      5.0902    135.0048
   918.7500      0.0000    473.7886      5.1036    145.0606
   919.0000      0.0000    472.0338      5.1218    155.0560
   919.2500      0.0000    472.0873      5.1480    163.8648
   919.5000      0.0000    475.5797      5.1770    170.3051
   919.7500      0.0000    483.1365      5.1995    173.2473
   920.0000      0.0000    492.6269      5.2095    172.8271
   920.2500      0.0000    500.6659      5.2070    170.5430
   920.5000      0.0000    506.2005      5.1955    167.8521
   920.7500      0.0000    511.7888      5.1793    165.2845
   921.0000      0.0000    521.2196      5.1645    162.9448
   921.2500      0.0000    536.5109      5.1586    161.1909
   921.5000      0.0000    556.7253      5.1664    160.5989
   921.7500      0.0000    578.3254      5.1866    161.6298
   922.0000      0.0000    596.8470      5.2130    164.4917
   922.2500      0.0000    610.2469      5.2379    169.0717
   922.5000      0.0000    621.3594      5.2554    174.7220
   922.7500      0.0000    635.3600      5.2604    180.1328
   923.0000      0.0000    652.9671      5.2482    183.8562
   923.2500      0.0000    666.3990      5.2170    185.4445
   923.5000      0.0000    663.9274      5.1740    185.8243
   923.7500      0.0000    640.0664      5.1363    185.9505
   924.0000      0.0000    601.4212      5.1225    185.2606
   924.2500      0.0000    562.0670      5.1405    182.1080
   924.5000      0.0000    533.3961      5.1838    175.7971
   924.7500      0.0000    518.2347      5.2356    167.7422
   925.0000      0.0000    512.7568      5.2753    160.5873
   925.2500      0.0000    511.7084      5.2860    156.4445
   925.5000      0.0000    511.7115      5.2633    155.8680
   925.7500      0.0000    511.5682      5.2171    158.0121
   926.0000      0.0000    511.2922      5.1627    161.4323
   926.2500      0.0000    511.4636      5.1128    164.7536
   926.5000      0.0000    513.1501      5.0772    166.8508
   926.7500      0.0000    518.0074      5.0643    167.0860
   927.0000      0.0000    527.7728      5.0780    165.8912
   927.2500      0.0000    542.8967      5.1125    164.7373
   927.5000      0.0000    561.7298      5.1524    165.0385
   927.7500      0.0000    582.0942      5.1794    167.2695
   928.0000      0.0000    603.7051      5.1851    170.8716
   928.2500      0.0000    627.5482      5.1774    174.2252
