~Version Information
VERS.                      2.0: CWLS Log ASCII Standard - VERSION 2.0
WRAP.                       NO: One line per depth step
~Well Information Block
STRT.FT                 0.0000: 
STOP.FT               683.5000: 
STEP.FT                 0.2500: 
NULL.                -999.2500: 
COMP.          Pioneer Natural Resources: COMPANY
WELL.           Belvedere 14-7: WELL
FLD.           Purgatorie River: FIELD
LOC.           786' FSL & 1283' FWL: LOCATION
PROV.                 Colorado: PROVINCE
CNTY.               Las Animas: COUNTRY
SRVC.                Patterson: SERVICE COMPANY
DATE.          Fri Dec 02 12:52:31 2005: LOG DATE
UWI.           05-071-08557               : UNIQUE WELL ID
~Curve Information Block
DEPT.FT            0 000 00 00: Depth
CCL.                          : Casing Collar Locator
TT3.usec                      : CBL 3' Travel Time
AMP3.mV                       : CBL 3' Amplitude
GR.GAPI                       : Gamma Ray
~Parameter Information Block
~A  Depth       CCL         TT3         AMP3         GR     
# ...
   201.0000      2.0000    658.8586      9.0430     91.6448
   201.2500     -2.0000    650.0396      9.0214     93.5449
   201.5000      0.0000    633.0576      9.0584     98.6347
   201.7500      0.0000    618.3645      9.1585    105.5285
   202.0000      0.0000    604.4302      9.3902    111.2477
   202.2500      0.0000    588.7277      9.8744    113.6263
   202.5000      0.0000    561.2537     10.5919    112.9821
   202.7500      0.0000    509.8949     11.4583    111.1862
   203.0000      0.0000    442.3830     12.5152    109.6133
   203.2500      0.0000    385.3818     13.6034    108.5149
   203.5000      0.0000    355.0058     14.3220    107.8227
   203.7500      0.0000    344.9395     14.5772    107.6685
   204.0000      0.0000    342.9420     14.6369    108.0769
   204.2500      0.0000    342.6571     14.7193    108.5013
   204.5000      0.0000    342.3579     14.8360    107.8541
   204.7500      0.0000    341.8152     14.9013    105.2853
   205.0000      0.0000    341.1106     14.8628    101.1664
   205.2500      0.0000    340.4391     14.7473     96.9939
   205.5000      0.0000    340.0369     14.6494     94.1187
   205.7500      0.0000    339.9623     14.6852     92.8425
   206.0000      0.0000    339.9811     14.9049     92.6724
   206.2500      0.0000    339.8289     15.2457     92.8370
   206.5000      0.0000    339.4297     15.5935     92.5038
   206.7500      0.0000    338.4897     15.9034     91.1772
   207.0000      0.0000    336.2191     16.1998     89.1939
   207.2500      0.0000    332.7986     16.4390     87.3909
   207.5000      0.0000    330.7392     16.5063     86.1278
   207.7500      0.0000    331.8971     16.3750     85.0243
   208.0000      0.0000    333.9611     16.1741     83.7329
   208.2500      0.0000    332.7577     16.0769     82.6739
   208.5000      0.0000    326.5792     16.1409     82.9022
   208.7500      0.0000    317.6870     16.2705     85.1757
   209.0000      0.0000    310.1829     16.3368     89.0496
   209.2500      0.0000    306.0962     16.3048     93.0668
   209.5000      0.0000    304.5920     16.2450     95.8502
   209.7500      0.0000    304.2575     16.2263     96.6599
   210.0000      0.0000    304.4157     16.2205     95.1315
   210.2500      0.0000    305.0222     16.1539     91.3372
   210.5000      0.0000    306.7275     16.0139     86.2857
   210.7500      0.0000    311.0901     15.8609     81.5898
   211.0000      0.0000    319.3627     15.7539     78.2270
   211.2500      0.0000    330.5260     15.6856     75.9998
   211.5000      0.0000    343.1065     15.6005     74.3020
   211.7500      0.0000    359.2561     15.4791     72.8137
   212.0000      0.0000    382.3137     15.3820     71.3345
   212.2500      0.0000    414.2218     15.3654     69.6792
   212.5000      0.0000    463.1990     15.3800     68.0662
   212.7500      0.0000    537.5424     15.3157     67.0861
   213.0000      0.0000    621.6638     15.1157     67.0298
   213.2500      0.0000    684.8346     14.8446     67.5264
   213.5000      0.0000    715.6263     14.6258     67.9528
   213.7500      0.0000    725.3356     14.4873     68.0145
   214.0000      0.0000    727.3398     14.3479     67.7795
   214.2500      0.0000    727.7278     14.1424     67.1794
   214.5000      0.0000    727.9318     13.8578     65.7478
   214.7500      0.0000    728.0465     13.4753     63.1389
   215.0000      0.0000    728.0441     13.0174     59.8781
   215.2500      0.0000    727.9312     12.5880     57.1982
   215.5000      0.0000    727.7336     12.2413     55.8314
   215.7500      0.0000    727.4930     11.9353     55.1919
   216.0000      0.0000    727.2272     11.6605     54.1348
   216.2500      0.0000    726.9901     11.4677     52.3852
   216.5000      0.0000    726.9302     11.3367     50.8056
   216.7500      0.0000    727.0990     11.1227     50.3546
   217.0000      0.0000    727.2719     10.7329     51.2440
   217.2500      0.0000    727.1870     10.2609     53.1240
   217.5000      0.0000    726.8651      9.8266     55.7537
   217.7500      0.0000    726.5256      9.4347     59.2793
   218.0000      0.0000    726.3426      9.1126     63.7373
   218.2500      0.0000    725.9584      9.0229     68.4209
   218.5000      0.0000    722.5557      9.2723     72.1095
   218.7500      0.0000    707.1956      9.7524     74.0193
   219.0000      0.0000    665.7444     10.2906     74.3584
   219.2500      0.0000    597.0764     10.7624     74.0604
   219.5000      0.0000    535.4689     11.0278     74.1402
   219.7500      0.0000    527.1447     11.0019     75.1744
   220.0000      0.0000    572.5933     10.7956     77.1699
   220.2500      0.0000    628.5588     10.6142     79.8460
   220.5000      0.0000    665.4327     10.5320     82.9026
   220.7500      0.0000    681.1886     10.4746     85.8838
   221.0000      0.0000    678.3567     10.3856     87.9234
   221.2500      0.0000    664.5767     10.2838     87.9660
   221.5000      0.0000    657.3645     10.1639     85.4224
   221.7500      0.0000    667.8978      9.9870     80.6668
   222.0000      0.0000    688.7762      9.7544     74.9241
   222.2500      0.0000    704.0172      9.4972     69.6802
   222.5000      0.0000    707.6328      9.2405     66.0625
   222.7500      0.0000    707.6521      9.0164     64.5334
   223.0000      0.0000    712.0243      8.8682     64.9504
   223.2500      0.0000    718.0672      8.8223     66.8185
   223.5000      0.0000    718.8192      8.8642     69.5532
   223.7500      0.0000    711.3436      8.9367     72.7602
   224.0000      0.0000    694.1349      8.9775     76.4798
   224.2500      0.0000    660.6651      8.9856     81.1754
   224.5000      0.0000    603.4102      9.0175     87.3005
   224.7500      0.0000    528.0198      9.1229     94.5837
   225.0000      0.0000    457.9889      9.3195    101.4950
   225.2500      0.0000    421.7283      9.5738    105.6195
   225.5000      0.0000    437.8324      9.7826    105.1256
   225.7500      0.0000    505.8134      9.7958    100.1763
   226.0000      0.0000    596.9742      9.5122     92.7410
   226.2500      0.0000    668.3995      9.0004     85.0230
   226.5000      0.0000    699.7317      8.4870     78.2053
   226.7500      0.0000    697.2632      8.1903     72.4591
   227.0000      0.0000    663.5648      8.1286     67.6904
   227.2500      0.0000    593.5521      8.1287     64.1119
   227.5000      0.0000    505.2851      8.0719     62.2861
   227.7500      0.0000    442.7038      8.0070     62.7745
   228.0000      0.0000    437.8298      7.9759     65.6702
   228.2500      0.0000    487.2864      7.8991     70.2976
   228.5000      0.0000    560.0639      7.7253     75.1973
   228.7500      0.0000    625.3561      7.5342     78.4010
   229.0000      0.0000    673.0970      7.3966     78.1874
   229.2500      0.0000    703.7176      7.2767     74.3350
   229.5000      0.0000    718.0762      7.1445     68.7943
   229.7500      0.0000    720.2682      7.0346     64.5230
   230.0000      0.0000    716.9802      6.9483     63.1781
   230.2500      0.0000    714.8834      6.8318     64.0366
   230.5000      0.0000    716.9860      6.6660     65.1618
   230.7500      0.0000    720.1235      6.4974     65.3092
   231.0000      0.0000    719.7102      6.3920     64.6212
   231.2500      0.0000    715.7117      6.3985     63.7992
   231.5000      0.0000    712.1520      6.5274     63.1046
   231.7500      0.0000    711.0115      6.7287     62.5221
   232.0000      0.0000    709.6989      6.9253     62.5580
   232.2500      0.0000    706.2678      7.0778     63.9244
   232.5000      0.0000    701.9603      7.1860     66.2107
   232.7500      0.0000    699.6526      7.2609     67.7876
   233.0000      0.0000    702.6724      7.3042     67.4355
   233.2500      0.0000    710.6601      7.2995     65.3812
   233.5000      0.0000    718.6980      7.2597     62.4949
   233.7500      0.0000    723.2834      7.2529     59.3603
   234.0000      0.0000    724.9153      7.3421     56.5991
   234.2500      0.0000    725.2788      7.5203     55.3633
