~Version Information
VERS.                      2.0: CWLS Log ASCII Standard - VERSION 2.0
WRAP.                       NO: One line per depth step
~Well Information Block
STRT.FT               -10.0000: 
STOP.FT              1935.0000: 
STEP.FT                 0.2500: 
NULL.                -999.2500: 
COMP.          Pioneer Natural Resources: COMPANY
WELL.           Willys 32-8 Tr: WELL
FLD.           Purgatorie River: FIELD
LOC.           1843' FNL & 2355' FEL--: LOCATION
CNTY.               Las Animas: COUNTY
SRVC.          Patterson Wireline: SERVICE COMPANY
DATE.          Wed Feb 15 13:29:41 2006: LOG DATE
UWI.           05 071 08688 00: UNIQUE WELL ID
STAT.                       CO: STATE
~Curve Information Block
DEPT.FT            0 000 00 00: Depth
CCL.                          : Casing Collar Locator
TT3.usec                      : CBL 3' Travel Time
AMP3.mV                       : CBL 3' Amplitude
GR.GAPI                       : Gamma Ray
~Parameter Information Block
~A  Depth       CCL         TT3         AMP3         GR     
# ...
  1397.0000      0.0000    524.0311     11.9382    118.8044
  1397.2500      0.0000    486.8904     12.1491    119.4196
  1397.5000      0.0000    457.2566     12.3292    118.1226
  1397.7500      0.0000    434.6257     12.4511    116.1237
  1398.0000      0.0000    419.0672     12.5132    114.1129
  1398.2500      0.0000    410.3007     12.5337    111.8248
  1398.5000      0.0000    407.2959     12.5332    108.9245
  1398.7500      0.0000    410.6766     12.5226    105.8108
  1399.0000      0.0000    424.1851     12.5017    103.4338
  1399.2500      0.0000    450.4051     12.4617    102.4664
  1399.5000      0.0000    483.1376     12.3928    102.7858
  1399.7500      0.0000    506.3845     12.2967    103.7252
  1400.0000      0.0000    505.5966     12.1934    104.6689
  1400.2500      0.0000    480.9810     12.1157    105.3820
  1400.5000      0.0000    447.1624     12.0954    106.1043
  1400.7500      0.0000    419.9662     12.1467    107.4388
  1401.0000      0.0000    405.8271     12.2565    109.7580
  1401.2500      0.0000    402.3137     12.3820    112.5191
  1401.5000      0.0000    404.7211     12.4618    114.5115
  1401.7500      0.0000    411.9012     12.4373    115.0550
  1402.0000      0.0000    427.4653     12.2892    114.6199
  1402.2500      0.0000    454.4246     12.0619    114.0883
  1402.5000      0.0000    487.3354     11.8284    113.7867
  1402.7500      0.0000    512.0726     11.6089    113.4070
  1403.0000      0.0000    515.9025     11.3608    112.4627
  1403.2500      0.0000    497.3187     11.0770    110.5902
  1403.5000      0.0000    465.9804     10.8433    107.7035
  1403.7500      0.0000    434.8307     10.7520    104.1013
  1404.0000      0.0000    412.3454     10.8019    100.4958
  1404.2500      0.0000    399.9676     10.9221     97.8474
  1404.5000      0.0000    394.6942     11.0647     96.9174
  1404.7500      0.0000    393.3595     11.2621     97.8618
  1405.0000      0.0000    395.5128     11.6055    100.3718
  1405.2500      0.0000    403.2723     12.1323    104.0922
  1405.5000      0.0000    417.3932     12.7014    108.5931
  1405.7500      0.0000    432.4371     13.0451    112.9861
  1406.0000      0.0000    438.1028     13.0292    115.9369
  1406.2500      0.0000    428.5681     12.8032    116.3368
  1406.5000      0.0000    409.1272     12.6214    114.0492
  1406.7500      0.0000    390.8942     12.5862    110.0988
  1407.0000      0.0000    380.3237     12.6302    106.1474
  1407.2500      0.0000    375.8340     12.6604    103.5716
  1407.5000      0.0000    372.5623     12.6428    102.8432
  1407.7500      0.0000    367.8783     12.5886    103.6352
  1408.0000      0.0000    363.1534     12.5156    105.2723
  1408.2500      0.0000    362.5868     12.4285    107.0504
  1408.5000      0.0000    371.0636     12.3185    108.5802
  1408.7500      0.0000    391.9533     12.1812    110.0311
  1409.0000      0.0000    424.8430     12.0384    111.7757
  1409.2500      0.0000    463.7777     11.9434    113.8684
  1409.5000      0.0000    498.4091     11.9526    116.1245
  1409.7500      0.0000    519.9595     12.0803    118.3717
  1410.0000      0.0000    528.3895     12.2806    120.2947
  1410.2500      0.0000    531.6310     12.4841    121.4026
  1410.5000      0.0000    534.5492     12.6537    121.3320
  1410.7500      0.0000    530.7010     12.7985    119.9661
  1411.0000      0.0000    510.0916     12.9362    117.5506
  1411.2500      0.0000    474.4641     13.0539    115.0010
  1411.5000      0.0000    439.3818     13.1149    113.5384
  1411.7500      0.0000    420.2796     13.0948    113.3978
  1412.0000      0.0000    420.7466     13.0038    113.0901
  1412.2500      0.0000    435.4835     12.8680    110.5005
  1412.5000      0.0000    460.4434     12.6973    104.9456
  1412.7500      0.0000    496.5834     12.4795     98.0209
  1413.0000      0.0000    544.1836     12.2100     92.3429
  1413.2500      0.0000    596.7303     11.9198     89.6768
  1413.5000      0.0000    642.8385     11.6637     90.4276
  1413.7500      0.0000    673.9003     11.4812     94.4787
  1414.0000      0.0000    688.8292     11.3719    101.4940
  1414.2500      0.0000    692.4058     11.3088    110.1195
  1414.5000      0.0000    690.7721     11.2657    117.9944
  1414.7500      0.0000    688.2094     11.2308    123.6357
  1415.0000      0.0000    686.4576     11.2011    127.8789
  1415.2500      0.0000    685.6390     11.1705    132.4454
  1415.5000      0.0000    685.3934     11.1274    137.3123
  1415.7500      0.0000    685.4304     11.0651    140.5255
  1416.0000      0.0000    685.5619     10.9911    140.5891
  1416.2500      0.0000    685.6082     10.9256    138.0690
  1416.5000      0.0000    685.1666     10.8899    134.6352
  1416.7500      0.0000    683.0540     10.8965    131.2443
  1417.0000      0.0000    676.4283     10.9474    127.7817
  1417.2500      0.0000    660.7714     11.0324    124.1931
  1417.5000      0.0000    632.7021     11.1296    121.2567
  1417.7500      0.0000    595.4879     11.2127    119.9120
  1418.0000      0.0000    561.9062     11.2680    120.0792
  1418.2500      0.0000    548.1729     11.3042    120.5602
  1418.5000      0.0000    561.5466     11.3442    120.2364
  1418.7500      0.0000    593.4771     11.4080    119.0833
  1419.0000      0.0000    625.5568     11.5047    117.7184
  1419.2500      0.0000    642.0508     11.6373    116.2455
  1419.5000      0.0000    638.3140     11.8106    114.2381
  1419.7500      0.0000    621.5472     12.0278    112.0734
  1420.0000      0.0000    605.1374     12.2774    111.4809
  1420.2500      0.0000    598.7634     12.5290    113.9210
  1420.5000      0.0000    600.8011     12.7488    118.7269
  1420.7500      0.0000    600.7249     12.9195    123.7818
  1421.0000      0.0000    588.7941     13.0408    127.9613
  1421.2500      0.0000    562.8286     13.1128    131.6929
  1421.5000      0.0000    528.3433     13.1226    134.8525
  1421.7500      0.0000    495.1919     13.0493    135.6246
  1422.0000      0.0000    473.1925     12.8795    132.4648
  1422.2500      0.0000    468.3240     12.6192    126.4701
  1422.5000      0.0000    481.2752     12.2968    121.0356
  1422.7500      0.0000    508.3234     11.9587    119.3280
  1423.0000      0.0000    543.5958     11.6588    122.1492
  1423.2500      0.0000    581.4929     11.4390    127.8620
  1423.5000      0.0000    617.3784     11.3155    134.0272
  1423.7500      0.0000    647.0406     11.2791    138.8131
  1424.0000      0.0000    667.5001     11.3078    140.8764
  1424.2500      0.0000    678.7439     11.3749    138.8957
  1424.5000      0.0000    683.4698     11.4516    132.4357
  1424.7500      0.0000    684.9633     11.5111    123.3240
  1425.0000      0.0000    685.5157     11.5354    115.1762
  1425.2500      0.0000    686.3279     11.5204    110.9401
  1425.5000      0.0000    688.0421     11.4766    111.0779
  1425.7500      0.0000    690.8562     11.4225    114.0286
  1426.0000      0.0000    694.1804     11.3748    117.6961
  1426.2500      0.0000    696.5799     11.3414    120.2567
  1426.5000      0.0000    696.8110     11.3239    120.2199
  1426.7500      0.0000    695.1857     11.3255    116.6834
  1427.0000      0.0000    693.6486     11.3535    110.0418
  1427.2500      0.0000    694.2335     11.4098    102.3038
  1427.5000      0.0000    697.2210     11.4833     96.1856
  1427.7500      0.0000    700.2195     11.5533     93.5361
  1428.0000      0.0000    698.1790     11.6056     94.5136
  1428.2500      0.0000    684.2414     11.6422     97.9058
  1428.5000      0.0000    652.4559     11.6785    101.8490
  1428.7500      0.0000    602.8119     11.7304    104.5105
  1429.0000      0.0000    544.8059     11.8036    104.9282
  1429.2500      0.0000    493.7791     11.8912    103.7653
  1429.5000      0.0000    461.1935     11.9799    102.9846
  1429.7500      0.0000    448.2214     12.0555    104.2194
  1430.0000      0.0000    448.3584     12.1049    107.3884
  1430.2500      0.0000    453.9711     12.1187    111.0887
