~Version Information
VERS.                      2.0: CWLS Log ASCII Standard - VERSION 2.0
WRAP.                       NO: One line per depth step
~Well Information Block
STRT.FT               505.0000: 
STOP.FT               772.0000: 
STEP.FT                 0.2500: 
NULL.                -999.2500: 
COMP.          Pioneer Natural Resources: COMPANY
WELL.                Zed 11-23: WELL
FLD.           Purgatoire River: FIELD
LOC.           641' FNL & 952' FWL: LOCATION
CNTY.               Las Animas: COUNTY
SRVC.                Patterson: SERVICE COMPANY
DATE.          Sun Feb 26 18:39:19 2006: LOG DATE
UWI.           05 071 08702 00: UNIQUE WELL ID
STAT.                 Colorado: STATE
~Curve Information Block
DEPT.FT            0 000 00 00: Depth
SN.Ohm-m                      : IEL Short Normal
SP.mV                         : IEL Spontaneous Potential
DIR.Ohm-m                     : IEL Induction Resistivity
GR.GAPI                       : Gamma Ray
~Parameter Information Block
~A  Depth        SN          SP         DIR          GR     
# ...
   672.5000     20.3391     60.5347     20.6249     78.3015
   672.7500     20.3894     60.2485     20.6243     77.0411
   673.0000     20.3416     59.9536     20.6110     76.7443
   673.2500     20.2504     59.7013     20.5727     77.5222
   673.5000     20.2262     59.5275     20.4896     79.1276
   673.7500     20.3054     59.4398     20.3520     79.9656
   674.0000     20.3977     59.4153     20.1722     80.7679
   674.2500     20.3753     59.4136     19.9819     81.3031
   674.5000     20.1928     59.3985     19.8168     82.6749
   674.7500     19.9705     59.3536     19.7033     84.0202
   675.0000     19.8943     59.2811     19.6538     86.0261
   675.2500     19.9732     59.1879     19.6674     86.7509
   675.5000     20.0251     59.0761     19.7294     86.3762
   675.7500     19.9369     58.9480     19.8144     85.3777
   676.0000     19.7968     58.8175     19.8942     83.7121
   676.2500     19.7568     58.7105     19.9484     83.0090
   676.5000     19.8706     58.6500     19.9663     82.9534
   676.7500     20.0671     58.6416     19.9423     83.4917
   677.0000     20.2046     58.6746     19.8747     84.8263
   677.2500     20.2024     58.7329     19.7712     85.9230
   677.5000     20.1442     58.7987     19.6551     87.5511
   677.7500     20.1749     58.8473     19.5616     88.3171
   678.0000     20.3307     58.8493     19.5248     88.6188
   678.2500     20.5415     58.7907     19.5644     88.3004
   678.5000     20.7434     58.6920     19.6819     87.3181
   678.7500     20.9246     58.6073     19.8661     86.4703
   679.0000     21.0951     58.6001     20.1009     85.1309
   679.2500     21.2654     58.7182     20.3711     84.2553
   679.5000     21.4444     58.9770     20.6594     82.8824
   679.7500     21.6253     59.3516     20.9444     81.8966
   680.0000     21.7789     59.7763     21.2060     80.4650
   680.2500     21.9110     60.1608     21.4387     79.5863
   680.5000     22.1194     60.4237     21.6621     78.1630
   680.7500     22.5196     60.5257     21.9154     76.9732
   681.0000     23.0886     60.4802     22.2365     74.7124
   681.2500     23.6562     60.3374     22.6415     72.9597
   681.5000     24.1034     60.1550     23.1176     70.3280
   681.7500     24.4791     59.9788     23.6384     68.8189
   682.0000     24.8815     59.8395     24.1902     67.0574
   682.2500     25.3307     59.7575     24.7879     66.1620
   682.5000     25.7479     59.7403     25.4642     65.3536
   682.7500     26.0215     59.7720     26.2366     65.3994
   683.0000     26.1669     59.8120     27.0770     66.5372
   683.2500     26.3472     59.8146     27.9107     67.7574
   683.5000     26.6901     59.7606     28.6452     69.3009
   683.7500     27.2020     59.6757     29.2132     69.6164
   684.0000     27.8106     59.6207     29.5907     68.9366
   684.2500     28.3635     59.6568     29.7829     68.1344
   684.5000     28.6991     59.8068     29.7970     67.2748
   684.7500     28.8433     60.0367     29.6368     67.2763
   685.0000     28.9592     60.2742     29.3193     68.3941
   685.2500     29.0750     60.4555     28.8874     69.7622
   685.5000     29.0585     60.5642     28.3975     71.9943
   685.7500     28.7944     60.6255     27.8970     73.0583
   686.0000     28.2861     60.6682     27.4165     73.5947
   686.2500     27.6487     60.7003     26.9809     73.4427
   686.5000     27.0242     60.7217     26.6170     73.1195
   686.7500     26.5250     60.7455     26.3432     73.0991
   687.0000     26.1940     60.7937     26.1495     73.4626
   687.2500     25.9490     60.8722     25.9900     74.0109
   687.5000     25.6547     60.9603     25.7995     75.5057
   687.7500     25.2571     61.0343     25.5281     77.0413
   688.0000     24.8061     61.0977     25.1697     79.9138
   688.2500     24.3943     61.1853     24.7607     81.7332
   688.5000     24.0650     61.3408     24.3549     83.1798
   688.7500     23.7871     61.5902     23.9987     82.8767
   689.0000     23.5802     61.9303     23.7250     80.9904
   689.2500     23.5565     62.3319     23.5559     79.5636
   689.5000     23.7445     62.7500     23.5001     78.2209
   689.7500     23.9959     63.1351     23.5400     77.9371
   690.0000     24.1046     63.4454     23.6235     78.0845
   690.2500     23.9580     63.6585     23.6710     78.4235
   690.5000     23.6220     63.7753     23.6082     79.2132
   690.7500     23.2753     63.8144     23.4060     79.8623
   691.0000     23.0339     63.8054     23.0970     80.8436
   691.2500     22.9000     63.7823     22.7467     81.3874
   691.5000     22.8283     63.7720     22.4057     81.8691
   691.7500     22.7497     63.7839     22.0846     81.8858
   692.0000     22.6110     63.8117     21.7696     81.3014
   692.2500     22.4405     63.8400     21.4591     80.4789
   692.5000     22.2747     63.8526     21.1825     79.0068
   692.7500     22.0803     63.8393     20.9826     78.4559
   693.0000     21.8515     63.7998     20.8804     79.4858
   693.2500     21.6538     63.7390     20.8582     81.8649
   693.5000     21.5428     63.6594     20.8759     87.9095
   693.7500     21.5110     63.5630     20.9020     93.1564
   694.0000     21.4926     63.4586     20.9293    101.9262
   694.2500     21.4309     63.3633     20.9662    107.8972
   694.5000     21.3226     63.2934     21.0223    116.4242
   694.7500     21.1809     63.2570     21.1026    121.5884
   695.0000     21.0391     63.2597     21.2109    128.1009
   695.2500     20.9884     63.3146     21.3507    131.0424
   695.5000     21.1012     63.4423     21.5260    132.1340
   695.7500     21.3491     63.6554     21.7416    130.5870
   696.0000     21.6485     63.9418     22.0037    126.5729
   696.2500     21.9264     64.2632     22.3155    123.9910
   696.5000     22.1545     64.5722     22.6728    120.6061
   696.7500     22.3819     64.8358     23.0693    117.8335
   697.0000     22.6929     65.0515     23.5079    111.6403
   697.2500     23.0986     65.2405     24.0084    106.3781
   697.5000     23.5518     65.4220     24.5987     98.5339
   697.7500     24.0545     65.5952     25.2922     94.4072
   698.0000     24.6152     65.7443     26.0604     90.7397
   698.2500     25.1505     65.8579     26.8202     89.7796
   698.5000     25.5729     65.9385     27.4552     89.4555
   698.7500     25.8987     65.9985     27.8714     89.4363
   699.0000     26.1684     66.0501     28.0543     89.7887
   699.2500     26.3674     66.0998     28.0756     90.7249
   699.5000     26.4944     66.1468     28.0458     93.2987
   699.7500     26.6350     66.1838     28.0528     95.2152
   700.0000     26.8946     66.1970     28.1210     97.1950
   700.2500     27.2583     66.1694     28.2037     97.6137
   700.5000     27.5673     66.0937     28.2131     96.9888
   700.7500     27.6610     65.9895     28.0774     95.9757
   701.0000     27.4897     65.9030     27.7882     94.1960
   701.2500     27.1155     65.8770     27.4013     93.1740
   701.5000     26.7010     65.9112     26.9962     92.0126
   701.7500     26.4121     65.9504     26.6335     91.4654
   702.0000     26.2629     65.9216     26.3377     91.4393
   702.2500     26.1228     65.7931     26.1026     92.3022
   702.5000     25.8784     65.5995     25.9071     94.5289
   702.7500     25.5381     65.4023     25.7273     95.7714
   703.0000     25.1859     65.2309     25.5419     96.0890
   703.2500     24.8664     65.0724     25.3319     95.3829
   703.5000     24.5398     64.9110     25.0846     94.1406
   703.7500     24.1713     64.7510     24.7994     93.7758
   704.0000     23.8410     64.5997     24.4875     93.8643
   704.2500     23.6747     64.4485     24.1618     93.7795
   704.5000     23.6523     64.2844     23.8294     92.5494
   704.7500     23.6082     64.1126     23.4931     91.0631
   705.0000     23.4410     63.9586     23.1624     89.0297
   705.2500     23.1742     63.8477     22.8622     88.5988
   705.5000     22.8298     63.7899     22.6272     89.6583
   705.7500     22.4325     63.7833     22.4811     90.9295
