~Version Information
VERS.                      2.0: CWLS Log ASCII Standard - VERSION 2.0
WRAP.                       NO: One line per depth step
~Well Information Block
STRT.FT                 0.0000: 
STOP.FT              1147.5000: 
STEP.FT                 0.2500: 
NULL.                -999.2500: 
COMP.          Pioneer Natural Resources: COMPANY
WELL.          Tin Barn 14-20 TR: WELL
FLD.           Purgatorie River: FIELD
LOC.           925 FSL & 1151 FWL: LOCATION
PROV.                 Colorado: PROVINCE
CNTY.               Las Animas: COUNTRY
SRVC.                Patterson: SERVICE COMPANY
DATE.          Wed Jan 18 12:02:25 2006: LOG DATE
UWI.                          : UNIQUE WELL ID
~Curve Information Block
DEPT.FT            0 000 00 00: Depth
CCL.                          : Casing Collar Locator
TT3.usec                      : CBL 3' Travel Time
AMP3.mV                       : CBL 3' Amplitude
GR.GAPI                       : Gamma Ray
~Parameter Information Block
~A  Depth       CCL         TT3         AMP3         GR     
# ...
   301.5000      0.0000    678.4870     14.0426     85.5248
   301.7500      0.0000    675.7416     13.8884     90.2660
   302.0000      0.0000    685.9011     13.8136     93.4830
   302.2500      0.0000    701.2268     13.7770     95.4273
   302.5000      0.0000    710.7750     13.7050     96.9060
   302.7500      0.0000    711.2429     13.5900     98.2658
   303.0000      0.0000    707.5639     13.4899     99.0945
   303.2500      0.0000    705.3397     13.4498     98.8007
   303.5000      0.0000    705.9343     13.4558     97.2224
   303.7500      0.0000    706.5490     13.4611     94.6888
   304.0000      0.0000    702.8539     13.4279     91.8366
   304.2500      0.0000    694.5954     13.3648     89.5894
   304.5000      0.0000    686.7704     13.3306     88.9998
   304.7500      0.0000    683.8217     13.3671     90.6393
   305.0000      0.0000    686.9290     13.4366     93.9761
   305.2500      0.0000    694.8504     13.4538     97.3637
   305.5000      0.0000    703.3548     13.3831     98.8093
   305.7500      0.0000    708.2047     13.2853     97.1391
   306.0000      0.0000    710.6785     13.2414     92.8856
   306.2500      0.0000    714.3133     13.2531     88.1227
   306.5000      0.0000    717.9550     13.2673     84.9221
   306.7500      0.0000    718.0204     13.2581     83.5883
   307.0000      0.0000    714.7053     13.2367     82.7088
   307.2500      0.0000    712.3038     13.2323     81.1137
   307.5000      0.0000    712.9753     13.2900     79.2235
   307.7500      0.0000    712.6327     13.4289     78.0929
   308.0000      0.0000    706.7922     13.6016     77.7489
   308.2500      0.0000    698.0291     13.7453     77.1803
   308.5000      0.0000    693.8751     13.8637     75.7429
   308.7500      0.0000    698.4518     14.0088     73.9173
   309.0000      0.0000    708.4186     14.1934     72.4908
   309.2500      0.0000    717.2933     14.3773     71.4306
   309.5000      0.0000    721.9456     14.5281     70.1945
   309.7500      0.0000    723.4358     14.6353     69.0624
   310.0000      0.0000    723.7137     14.6863     69.3575
   310.2500      0.0000    723.7520     14.6954     71.9243
   310.5000      0.0000    723.7622     14.7259     75.8598
   310.7500      0.0000    723.7564     14.8181     79.2000
   311.0000      0.0000    723.7767     14.9276     80.6838
   311.2500      0.0000    723.8901     14.9823     80.5651
   311.5000      0.0000    724.1139     14.9768     79.9333
   311.7500      0.0000    724.3838     14.9879     79.7310
   312.0000      0.0000    724.6330     15.0803     80.3587
   312.2500      0.0000    724.8172     15.2145     81.5773
   312.5000      0.0000    724.8995     15.2960     82.5437
   312.7500      0.0000    724.9153     15.2921     82.3348
   313.0000      0.0000    724.9299     15.2407     80.7591
   313.2500      0.0000    724.9346     15.1666     78.6616
   313.5000      0.0000    724.9008     15.0701     77.4742
   313.7500      0.0000    724.8406     14.9946     78.5314
   314.0000      0.0000    724.7511     14.9928     82.3824
   314.2500      0.0000    724.5887     15.0257     88.1203
   314.5000      0.0000    724.3326     15.0021     93.5292
   314.7500      0.0000    724.0424     14.8941     96.6288
   315.0000      0.0000    723.8319     14.7537     97.2285
   315.2500      0.0000    723.7871     14.6416     96.6159
   315.5000      0.0000    723.9016     14.5784     95.8262
   315.7500      0.0000    724.0862     14.5621     94.7596
   316.0000      0.0000    724.2510     14.5941     93.0828
   316.2500      0.0000    724.3542     14.6632     91.4086
   316.5000      0.0000    724.4138     14.7317     91.0495
   316.7500      0.0000    724.4773     14.7608     92.6992
   317.0000      0.0000    724.5667     14.7385     95.6349
   317.2500      0.0000    724.6965     14.6778     98.1427
   317.5000      0.0000    724.8688     14.6097     98.7982
   317.7500      0.0000    725.0170     14.5775     97.5596
   318.0000      0.0000    725.0533     14.5987     95.6445
   318.2500      0.0000    724.9565     14.6440     94.3285
   318.5000      0.0000    724.7873     14.6694     93.7404
   318.7500      0.0000    724.6427     14.6550     92.6649
   319.0000      0.0000    724.5778     14.6245     89.7729
   319.2500      0.0000    724.5905     14.6143     85.3235
   319.5000      0.0000    724.6702     14.6320     81.2097
   319.7500      0.0000    724.7896     14.6688     78.9975
   320.0000      0.0000    724.8792     14.7224     78.4347
   320.2500      0.0000    724.8984     14.7954     78.2084
   320.5000      0.0000    724.8961     14.9047     77.5942
   320.7500      0.0000    724.9297     15.0748     76.9963
   321.0000      0.0000    724.9681     15.2953     77.1480
   321.2500      0.0000    724.9183     15.5101     78.0461
   321.5000      0.0000    724.4835     15.6425     78.8236
   321.7500      0.0000    722.3627     15.5813     78.5798
   322.0000      0.0000    715.2761     15.1425     77.0210
   322.2500      0.0000    699.8890     14.2073     74.3301
   322.5000      0.0000    679.2022     13.0327     71.0077
   322.7500      0.0000    663.5848     12.1115     67.9975
   323.0000      0.0000    659.7051     11.5820     66.3813
   323.2500      0.0000    666.9156     11.2818     66.4162
   323.5000      0.0000    685.4338     11.1895     67.0468
   323.7500      0.0000    709.0380     11.2841     66.8339
   324.0000      0.0000    718.3467     11.4235     65.4089
   324.2500     -2.0000    706.4960     11.5390     63.7685
   324.5000     -2.0000    697.6142     11.6611     63.1888
   324.7500      0.0000    712.9250     11.8474     64.1978
   325.0000      0.0000    730.9135     12.2761     66.5549
   325.2500      0.0000    711.4456     13.3464     69.7482
   325.5000      0.0000    656.8968     15.1753     73.1968
   325.7500      0.0000    620.2427     16.8833     76.1573
   326.0000      0.0000    636.1107     17.4332     77.8807
   326.2500      0.0000    678.6428     17.0053     78.1511
   326.5000      0.0000    709.4785     16.4019     77.5998
   326.7500      0.0000    721.3312     15.9655     77.2429
   327.0000      0.0000    724.0897     15.6644     77.7198
   327.2500      0.0000    724.6495     15.4258     79.0690
   327.5000      0.0000    724.9433     15.2059     81.0289
   327.7500      0.0000    725.1826     15.0047     83.2382
   328.0000      0.0000    725.3291     14.8602     85.2203
   328.2500      0.0000    725.3834     14.7949     86.4550
   328.5000      0.0000    725.3928     14.7782     86.6134
   328.7500      0.0000    725.3682     14.7624     85.7806
   329.0000      0.0000    725.1169     14.7347     84.4231
   329.2500      0.0000    723.9465     14.7123     82.9784
   329.5000      0.0000    720.8884     14.7030     81.4577
   329.7500      0.0000    716.5729     14.6872     79.5305
   330.0000      0.0000    714.3604     14.6360     76.9116
   330.2500      0.0000    716.5107     14.5567     73.5734
   330.5000      0.0000    720.7233     14.4965     69.7266
   330.7500      0.0000    723.7087     14.4797     65.7509
   331.0000      0.0000    724.9144     14.4858     62.1675
   331.2500      0.0000    725.2772     14.4996     59.6311
   331.5000      0.0000    725.3979     14.5224     58.8461
   331.7500      0.0000    725.4272     14.5365     60.2558
   332.0000      0.0000    725.3972     14.5192     63.6825
   332.2500      0.0000    725.3273     14.4913     68.3814
   332.5000      0.0000    725.2460     14.4901     73.4636
   332.7500      0.0000    725.2094     14.4968     78.1392
   333.0000      0.0000    725.2379     14.4631     81.5879
   333.2500      0.0000    725.2759     14.4043     82.9538
   333.5000      0.0000    725.3002     14.3848     81.8603
   333.7500      0.0000    725.3832     14.4339     78.9649
   334.0000      0.0000    725.5468     14.5357     75.7876
   334.2500      0.0000    725.6584     14.6533     73.8567
   334.5000      0.0000    725.5998     14.7280     73.7715
   334.7500      0.0000    725.4473     14.7242     74.7001
