~Version Information
VERS.                      2.0: CWLS Log ASCII Standard - VERSION 2.0
WRAP.                       NO: One line per depth step
~Well Information Block
STRT.FT               460.0000: 
STOP.FT              2824.0000: 
STEP.FT                 0.2500: 
NULL.                -999.2500: 
COMP.          Pioneer Natural Resources: COMPANY
WELL.           Dolzanie 34-12: WELL
FLD.           Purgatoire River: FIELD
LOC.           1001' FSL & 1750' FEL--: LOCATION
PROV.                 Colorado: PROVINCE
CNTY.               Las Animas: COUNTRY
SRVC.                Patterson: SERVICE COMPANY
DATE.          Wed Jul 20 07:51:58 2005: LOG DATE
UWI.           05 071 08439 00: UNIQUE WELL ID
~Curve Information Block
DEPT.FT            0 000 00 00: Depth
DIR.Ohm-m                     : IEL Induction Resistivity
SN.Ohm-m                      : IEL Short Normal
SP.mV                         : IEL Spontaneous Potential
GR.GAPI                       : Gamma Ray
~Parameter Information Block
~A  Depth       DIR          SN          SP          GR     
# ...
  2168.5000     13.8109     14.6942      3.5015    115.5148
  2168.7500     13.7945     14.7860      3.4868    115.9053
  2169.0000     13.7123     14.7827      3.5380    115.5118
  2169.2500     13.5698     14.7064      3.6322    114.6875
  2169.5000     13.3793     14.5964      3.7491    113.7112
  2169.7500     13.1590     14.4929      3.8743    113.6664
  2170.0000     12.9291     14.4248      4.0014    114.4734
  2170.2500     12.7093     14.4027      4.1323    115.3938
  2170.5000     12.5169     14.4141      4.2771    116.9524
  2170.7500     12.3641     14.4239      4.4515    117.7953
  2171.0000     12.2555     14.3790      4.6740    118.3664
  2171.2500     12.1845     14.2182      4.9619    118.4049
  2171.5000     12.1324     13.8878      5.3272    118.6111
  2171.7500     12.0749     13.3632      5.7739    119.0582
  2172.0000     11.9934     12.6717      6.2957    119.9048
  2172.2500     11.8859     11.9026      6.8763    120.3374
  2172.5000     11.7678     11.1913      7.4910    120.8293
  2172.7500     11.6621     10.6776      8.1101    121.3193
  2173.0000     11.5874     10.4605      8.7032    122.6990
  2173.2500     11.5503     10.5673      9.2435    124.0086
  2173.5000     11.5464     10.9488      9.7115    125.9100
  2173.7500     11.5649     11.5029     10.0982    126.5897
  2174.0000     11.5919     12.1123     10.4055    126.1518
  2174.2500     11.6129     12.6742     10.6461    125.0770
  2174.5000     11.6145     13.1095     10.8404    123.4640
  2174.7500     11.5892     13.3695     11.0134    123.0870
  2175.0000     11.5392     13.4420     11.1902    123.9456
  2175.2500     11.4754     13.3520     11.3920    125.2711
  2175.5000     11.4108     13.1493     11.6333    127.9478
  2175.7500     11.3524     12.8917     11.9192    129.9096
  2176.0000     11.2985     12.6322     12.2457    132.3131
  2176.2500     11.2416     12.4061     12.6002    133.0514
  2176.5000     11.1734     12.2221     12.9640    132.5595
  2176.7500     11.0894     12.0688     13.3151    131.3553
  2177.0000     10.9899     11.9335     13.6318    128.8059
  2177.2500     10.8790     11.8201     13.8950    127.0807
  2177.5000     10.7643     11.7465     14.0909    125.7425
  2177.7500     10.6559     11.7272     14.2114    126.4781
  2178.0000     10.5662     11.7555     14.2539    130.2091
  2178.2500     10.5064     11.8037     14.2200    133.4269
  2178.5000     10.4830     11.8402     14.1134    136.4728
  2178.7500     10.4945     11.8480     13.9382    136.0978
  2179.0000     10.5330     11.8300     13.6974    132.1640
  2179.2500     10.5895     11.8007     13.3924    128.6247
  2179.5000     10.6578     11.7731     13.0230    124.6234
  2179.7500     10.7356     11.7522     12.5885    123.8062
  2180.0000     10.8203     11.7385     12.0880    125.5800
  2180.2500     10.9073     11.7362     11.5223    128.2675
  2180.5000     10.9912     11.7560     10.8937    133.1587
  2180.7500     11.0695     11.8119     10.2071    136.1175
  2181.0000     11.1452     11.9123      9.4695    139.0633
  2181.2500     11.2256     12.0556      8.6902    139.8913
  2181.5000     11.3197     12.2312      7.8802    139.7310
  2181.7500     11.4349     12.4240      7.0514    138.8959
  2182.0000     11.5750     12.6189      6.2165    136.7013
  2182.2500     11.7400     12.8052      5.3878    134.6087
  2182.5000     11.9268     12.9807      4.5775    130.6224
  2182.7500     12.1335     13.1504      3.7973    127.7062
  2183.0000     12.3597     13.3224      3.0587    123.8129
  2183.2500     12.6060     13.5018      2.3727    121.8686
  2183.5000     12.8700     13.6875      1.7497    119.6760
  2183.7500     13.1444     13.8717      1.1994    118.3027
  2184.0000     13.4164     14.0441      0.7297    116.2198
  2184.2500     13.6700     14.1968      0.3460    115.1244
  2184.5000     13.8883     14.3281      0.0508    114.2381
  2184.7500     14.0558     14.4436     -0.1572    113.8254
  2185.0000     14.1622     14.5526     -0.2834    112.5655
  2185.2500     14.2058     14.6594     -0.3372    111.1992
  2185.5000     14.1945     14.7584     -0.3318    109.2956
  2185.7500     14.1419     14.8363     -0.2829    108.8877
  2186.0000     14.0601     14.8792     -0.2080    110.2296
  2186.2500     13.9563     14.8734     -0.1243    112.2701
  2186.5000     13.8355     14.8058     -0.0474    116.3916
  2186.7500     13.7075     14.6690      0.0102    119.5398
  2187.0000     13.5899     14.4692      0.0396    124.2721
  2187.2500     13.5039     14.2254      0.0359    126.7718
  2187.5000     13.4650     13.9632     -0.0030    128.1904
  2187.7500     13.4743     13.7109     -0.0768    127.3129
  2188.0000     13.5183     13.5035     -0.1846    124.2721
  2188.2500     13.5766     13.3849     -0.3252    122.1502
  2188.5000     13.6347     13.4041     -0.4972    120.2224
  2188.7500     13.6922     13.6015     -0.6992    120.0129
  2189.0000     13.7599     13.9885     -0.9291    120.9896
  2189.2500     13.8491     14.5284     -1.1832    122.2432
  2189.5000     13.9619     15.1333     -1.4559    124.7356
  2189.7500     14.0904     15.6884     -1.7396    126.5289
  2190.0000     14.2211     16.0928     -2.0252    128.6290
  2190.2500     14.3417     16.2922     -2.3022    129.3343
  2190.5000     14.4443     16.2848     -2.5600    129.5583
  2190.7500     14.5256     16.1069     -2.7886    129.4458
  2191.0000     14.5849     15.8128     -2.9793    128.9745
  2191.2500     14.6232     15.4651     -3.1250    128.2451
  2191.5000     14.6414     15.1283     -3.2212    126.1362
  2191.7500     14.6382     14.8596     -3.2660    124.0093
  2192.0000     14.6095     14.6949     -3.2610    120.2446
  2192.2500     14.5487     14.6382     -3.2116    117.9760
  2192.5000     14.4490     14.6625     -3.1279    116.1547
  2192.7500     14.3051     14.7202     -3.0241    116.5001
  2193.0000     14.1163     14.7573     -2.9178    119.3673
  2193.2500     13.8880     14.7282     -2.8293    122.1544
  2193.5000     13.6329     14.6112     -2.7787    125.8499
  2193.7500     13.3689     14.4175     -2.7853    127.4006
  2194.0000     13.1150     14.1835     -2.8653    128.8812
  2194.2500     12.8877     13.9504     -3.0313    129.9044
  2194.5000     12.6984     13.7458     -3.2923    131.6252
  2194.7500     12.5522     13.5806     -3.6539    132.5094
  2195.0000     12.4487     13.4536     -4.1190    133.1443
  2195.2500     12.3836     13.3601     -4.6886    133.4577
  2195.5000     12.3504     13.2990     -5.3616    134.6538
  2195.7500     12.3425     13.2742     -6.1346    136.1516
  2196.0000     12.3564     13.2905     -7.0011    139.0738
  2196.2500     12.3937     13.3494     -7.9504    141.0726
  2196.5000     12.4635     13.4515     -8.9668    143.6660
  2196.7500     12.5809     13.5998    -10.0279    145.0115
  2197.0000     12.7626     13.7990    -11.1044    146.2811
  2197.2500     13.0219     14.0548    -12.1601    146.4014
  2197.5000     13.3660     14.3717    -13.1525    144.9985
  2197.7500     13.7963     14.7464    -14.0357    142.9611
  2198.0000     14.3108     15.1591    -14.7652    139.1720
  2198.2500     14.9042     15.5724    -15.3031    137.1486
  2198.5000     15.5658     15.9418    -15.6248    135.9745
  2198.7500     16.2779     16.2361    -15.7240    136.0027
  2199.0000     17.0158     16.4600    -15.6153    134.8288
  2199.2500     17.7512     16.6662    -15.3331    131.6943
  2199.5000     18.4576     16.9426    -14.9274    122.2838
  2199.7500     19.1132     17.3732    -14.4571    113.4743
  2200.0000     19.6994     17.9886    -13.9823     99.5074
  2200.2500     20.2000     18.7379    -13.5575     91.9521
  2200.5000     20.6045     19.5079    -13.2270     85.9321
  2200.7500     20.9150     20.1815    -13.0224     85.5745
  2201.0000     21.1484     20.6944    -12.9619     88.5892
  2201.2500     21.3310     21.0509    -13.0509     91.5386
  2201.5000     21.4923     21.3015    -13.2836     96.0204
  2201.7500     21.6646     21.5103    -13.6444     99.0531
