~Version Information
VERS.                      2.0: CWLS Log ASCII Standard - VERSION 2.0
WRAP.                       NO: One line per depth step
~Well Information Block
STRT.FT               240.0000: 
STOP.FT              1252.5000: 
STEP.FT                 0.2500: 
NULL.                -999.2500: 
COMP.          Pioneer Natural Resources: COMPANY
WELL.             Margaux 11-1: WELL
FLD.           Purgatoire River: FIELD
LOC.           1154' FNL & 472' FWL: LOCATION
PROV.                 Colorado: PROVINCE
CNTY.               Las Animas: COUNTRY
SRVC.                Patterson: SERVICE COMPANY
DATE.          Mon Dec 19 04:21:59 2005: LOG DATE
UWI.           05 071 08639 00: UNIQUE WELL ID
~Curve Information Block
DEPT.FT            0 000 00 00: Depth
SN.Ohm-m                      : IEL Short Normal
SP.mV                         : IEL Spontaneous Potential
DIR.Ohm-m                     : IEL Induction Resistivity
GR.GAPI                       : Gamma Ray
~Parameter Information Block
~A  Depth        SN          SP         DIR          GR     
# ...
   709.0000     22.4836     -8.5375     25.0627    106.3241
   709.2500     22.6963     -8.5505     24.7347     99.9091
   709.5000     23.1648     -8.5599     24.4734     89.8363
   709.7500     23.7768     -8.5657     24.3422     84.2997
   710.0000     24.4411     -8.5656     24.3858     79.0705
   710.2500     25.0171     -8.5544     24.6152     77.5571
   710.5000     25.4223     -8.5256     24.9993     76.9088
   710.7500     25.7126     -8.4756     25.4665     76.4990
   711.0000     25.9365     -8.4063     25.9202     74.7371
   711.2500     26.0392     -8.3249     26.2709     72.8103
   711.5000     25.9999     -8.2409     26.4653     69.7333
   711.7500     25.8738     -8.1650     26.4858     68.2835
   712.0000     25.7216     -8.1069     26.3273     67.9536
   712.2500     25.5799     -8.0711     25.9864     69.1070
   712.5000     25.4052     -8.0526     25.4820     72.3593
   712.7500     25.1317     -8.0370     24.8722     75.0421
   713.0000     24.7908     -8.0044     24.2358     79.5209
   713.2500     24.3675     -7.9374     23.6320     83.1317
   713.5000     23.6914     -7.8310     23.0771     90.2622
   713.7500     22.7320     -7.6967     22.5540     96.1907
   714.0000     21.7638     -7.5596     22.0403    105.8837
   714.2500     21.0530     -7.4474     21.5281    112.0108
   714.5000     20.6071     -7.3789     21.0235    119.3885
   714.7500     20.2822     -7.3554     20.5321    122.6592
   715.0000     19.8957     -7.3599     20.0492    125.1044
   715.2500     19.3089     -7.3655     19.5623    125.6029
   715.5000     18.6160     -7.3500     19.0645    125.9468
   715.7500     18.1036     -7.3056     18.5646    126.3426
   716.0000     17.9210     -7.2377     18.0861    126.9142
   716.2500     17.9448     -7.1583     17.6569    127.0253
   716.5000     17.9588     -7.0794     17.2976    127.2689
   716.7500     17.8332     -7.0091     17.0148    128.0935
   717.0000     17.5263     -6.9480     16.8012    130.6129
   717.2500     17.0394     -6.8894     16.6417    132.6513
   717.5000     16.4709     -6.8263     16.5212    135.1521
   717.7500     16.0242     -6.7619     16.4313    136.1516
   718.0000     15.8653     -6.7144     16.3729    136.6356
   718.2500     15.9994     -6.7089     16.3544    136.3388
   718.5000     16.3123     -6.7625     16.3879    135.1596
   718.7500     16.6863     -6.8731     16.4869    134.0791
   719.0000     17.0408     -7.0176     16.6655    132.3137
   719.2500     17.2997     -7.1586     16.9381    131.1018
   719.5000     17.4165     -7.2572     17.3158    129.0547
   719.7500     17.4713     -7.2889     17.7982    127.2564
   720.0000     17.6308     -7.2553     18.3666    123.3252
   720.2500     17.9939     -7.1852     18.9850    119.6287
   720.5000     18.5769     -7.1202     19.6181    112.2382
   720.7500     19.3997     -7.0899     20.2561    106.1597
   721.0000     20.4963     -7.0964     20.9237     96.1887
   721.2500     21.8288     -7.1198     21.6632     89.8459
   721.5000     23.2307     -7.1368     22.5071     82.1794
   721.7500     24.4956     -7.1313     23.4639     78.7699
   722.0000     25.5504     -7.0933     24.5226     76.4999
   722.2500     26.4705     -7.0133     25.6591     76.7852
   722.5000     27.3159     -6.8827     26.8398     79.0445
   722.7500     28.0605     -6.7027     28.0222     80.8430
   723.0000     28.6746     -6.4920     29.1601     82.1378
   723.2500     29.2216     -6.2818     30.2115     81.2456
   723.5000     29.8259     -6.1012     31.1478     76.9909
   723.7500     30.5257     -5.9664     31.9607     72.8062
   724.0000     31.2431     -5.8786     32.6672     66.2412
   724.2500     31.9725     -5.8316     33.3073     62.5635
   724.5000     32.8731     -5.8188     33.9405     58.7688
   724.7500     34.0271     -5.8347     34.6384     57.2200
   725.0000     35.2604     -5.8722     35.4732     55.4197
   725.2500     36.3552     -5.9204     36.4944     53.9666
   725.5000     37.3165     -5.9654     37.7027     50.9398
   725.7500     38.3232     -5.9949     39.0390     48.5529
   726.0000     39.5304     -6.0039     40.4044     45.2951
   726.2500     40.9764     -5.9988     41.7112     43.8206
   726.5000     42.5624     -5.9922     42.9338     42.8566
   726.7500     44.1225     -5.9960     44.1204     42.7895
   727.0000     45.5422     -6.0199     45.3517     42.9751
   727.2500     46.7390     -6.0731     46.6766     43.0938
   727.5000     47.6509     -6.1613     48.0790     43.2085
   727.7500     48.3250     -6.2794     49.4965     43.3412
   728.0000     48.8654     -6.4087     50.8754     43.9125
   728.2500     49.2864     -6.5257     52.2077     44.6008
   728.5000     49.5262     -6.6120     53.5056     45.8287
   728.7500     49.5871     -6.6579     54.7133     46.5490
   729.0000     49.5742     -6.6612     55.6379     47.2873
   729.2500     49.5415     -6.6278     56.0078     47.5442
   729.5000     49.4394     -6.5738     55.6817     47.6645
   729.7500     49.2771     -6.5230     54.8253     47.7167
   730.0000     49.1250     -6.4967     53.8360     48.0823
   730.2500     49.0125     -6.5040     53.0764     48.5592
   730.5000     48.9403     -6.5377     52.6689     49.3248
   730.7500     48.8417     -6.5800     52.4753     49.6987
   731.0000     48.5568     -6.6097     52.2361     50.1843
   731.2500     47.9966     -6.6097     51.7653     50.6949
   731.5000     47.2680     -6.5729     51.0632     51.9306
   731.7500     46.5443     -6.5039     50.2529     52.9428
   732.0000     45.8634     -6.4143     49.4343     54.3255
   732.2500     45.1172     -6.3173     48.6121     54.9679
   732.5000     44.2099     -6.2252     47.7607     55.3697
   732.7500     43.1785     -6.1453     46.9255     55.2011
   733.0000     42.1614     -6.0744     46.2247     54.1968
   733.2500     41.2528     -5.9972     45.7306     53.1752
   733.5000     40.3696     -5.8966     45.3416     52.0062
   733.7500     39.3162     -5.7669     44.7824     52.0968
   734.0000     38.0536     -5.6169     43.7867     53.8214
   734.2500     36.8172     -5.4600     42.3299     55.5479
   734.5000     35.8384     -5.3046     40.6643     57.8187
   734.7500     35.1364     -5.1519     39.1228     58.7683
   735.0000     34.6253     -4.9999     37.9111     59.5212
   735.2500     34.1891     -4.8483     37.0496     59.8300
   735.5000     33.7120     -4.7020     36.4263     60.2544
   735.7500     33.1838     -4.5736     35.8826     60.5871
   736.0000     32.6983     -4.4827     35.2840     61.4408
   736.2500     32.2900     -4.4499     34.5596     62.5145
   736.5000     31.8699     -4.4859     33.7010     65.2463
   736.7500     31.3719     -4.5831     32.7315     67.7830
   737.0000     30.8372     -4.7152     31.6732     72.1851
   737.2500     30.2753     -4.8455     30.5363     75.2789
   737.5000     29.6008     -4.9391     29.3349     80.4115
   737.7500     28.7945     -4.9738     28.1040     84.6453
   738.0000     27.9538     -4.9482     26.9022     92.8299
   738.2500     27.1151     -4.8820     25.7966     99.4294
   738.5000     26.1898     -4.8083     24.8436    110.3928
   738.7500     25.1489     -4.7578     24.0749    117.9979
   739.0000     24.1096     -4.7426     23.4945    128.8857
   739.2500     23.1387     -4.7489     23.0815    134.7372
   739.5000     22.2139     -4.7436     22.7955    138.8527
   739.7500     21.4269     -4.6906     22.5832    137.3293
   740.0000     20.9329     -4.5661     22.3914    128.8555
   740.2500     20.7085     -4.3671     22.1842    120.6726
   740.5000     20.5501     -4.1097     21.9550    108.5249
   740.7500     20.3599     -3.8244     21.7250    102.4883
   741.0000     20.3095     -3.5478     21.5350     98.2521
   741.2500     20.6208     -3.3131     21.4366     98.5717
   741.5000     21.2857     -3.1398     21.4834    101.9906
   741.7500     22.0704     -3.0276     21.7181    104.5249
   742.0000     22.7339     -2.9585     22.1534    105.9788
   742.2500     23.1843     -2.9087     22.7502    104.7778
