~Version Information
VERS.                      2.0: CWLS Log ASCII Standard - VERSION 2.0
WRAP.                       NO: One line per depth step
~Well Information Block
STRT.FT                 0.0000: 
STOP.FT              1538.0000: 
STEP.FT                 0.2500: 
NULL.                -999.2500: 
COMP.          Pioneer Natural Resources: COMPANY
WELL.           Butch 33-10 TR: WELL
FLD.           Purgatorie River: FIELD
LOC.           2309' FSL & 1337' FEL: LOCATION
PROV.                 Colorado: PROVINCE
CNTY.               Las Animas: COUNTRY
SRVC.                Patterson: SERVICE COMPANY
DATE.          Thu Jan 19 12:40:27 2006: LOG DATE
UWI.                          : UNIQUE WELL ID
~Curve Information Block
DEPT.FT            0 000 00 00: Depth
CCL.                          : Casing Collar Locator
TT3.usec                      : CBL 3' Travel Time
AMP3.mV                       : CBL 3' Amplitude
GR.GAPI                       : Gamma Ray
~Parameter Information Block
~A  Depth       CCL         TT3         AMP3         GR     
# ...
   100.5000      0.0000    304.2379     20.5781     97.5345
   100.7500      0.0000    304.3393     20.3693     98.0192
   101.0000      0.0000    304.3560     20.2525     96.4294
   101.2500      0.0000    304.3419     20.1546     92.9377
   101.5000      0.0000    304.3449     20.0771     88.9992
   101.7500      0.0000    304.3541     20.0699     86.2896
   102.0000      0.0000    304.3632     20.1052     85.6338
   102.2500      0.0000    304.4161     20.0905     86.7045
   102.5000      0.0000    304.5215     20.0140     88.3098
   102.7500      0.0000    304.6196     19.9526     89.0418
   103.0000      0.0000    304.6837     19.9058     88.0442
   103.2500      0.0000    304.7504     19.7940     85.4593
   103.5000      0.0000    304.8329     19.6354     82.2877
   103.7500      0.0000    304.8886     19.5365     79.8166
   104.0000      0.0000    304.8860     19.5146     78.9579
   104.2500      0.0000    304.8398     19.4885     79.7236
   104.5000      0.0000    304.7613     19.4274     81.1168
   104.7500      0.0000    304.6629     19.3942     81.7298
   105.0000      0.0000    304.6039     19.4293     80.8357
   105.2500      0.0000    304.6267     19.4818     79.0903
   105.5000      0.0000    304.6877     19.4942     78.0322
   105.7500      0.0000    304.7320     19.4792     78.7805
   106.0000      0.0000    304.7693     19.4776     81.2836
   106.2500      0.0000    304.8325     19.4773     84.6552
   106.5000      0.0000    304.9162     19.4229     87.9413
   106.7500      0.0000    304.9780     19.3201     90.6342
   107.0000      0.0000    304.9738     19.2506     92.8463
   107.2500      0.0000    304.8889     19.2667     95.1637
   107.5000      0.0000    304.7571     19.3538     98.0947
   107.7500      0.0000    304.6492     19.4745    101.4339
   108.0000      0.0000    304.6165     19.6058    104.3677
   108.2500      0.0000    304.6346     19.7617    106.3560
   108.5000      0.0000    304.6275     19.9450    107.5251
   108.7500      0.0000    304.5954     20.0839    107.9573
   109.0000      0.0000    304.9003     20.1035    107.0786
   109.2500      0.0000    307.6747     19.9977    104.2616
   109.5000      0.0000    320.6244     19.7027     99.9994
   109.7500      0.0000    357.4865     18.9732     96.1435
   110.0000      0.0000    420.8930     17.6837     94.7388
   110.2500      0.0000    484.3377     16.3617     96.3483
   110.5000      0.0000    523.1494     15.7671     99.3020
   110.7500      0.0000    554.2111     15.6772    100.7224
   111.0000      0.0000    600.5541     15.2714     98.7217
   111.2500      0.0000    652.7863     14.5351     94.0033
   111.5000      0.0000    695.8201     13.9774     89.5362
   111.7500     -2.0000    727.0437     13.7550     88.2977
   112.0000      2.0000    744.1080     13.7392     90.7186
   112.2500      0.0000    738.9590     13.8002     94.3651
   112.5000      0.0000    699.0121     13.8598     96.3383
   112.7500      0.0000    616.9305     13.9193     95.6901
   113.0000      0.0000    512.2357     14.2266     93.4915
   113.2500      0.0000    428.0996     15.0879     91.3482
   113.5000      0.0000    387.8957     16.2221     90.4494
   113.7500      0.0000    373.0688     17.1541     91.3849
   114.0000      0.0000    355.7083     18.0969     93.7317
   114.2500      0.0000    332.3685     19.2743     95.7172
   114.5000      0.0000    314.5282     20.2792     95.2430
   114.7500      0.0000    306.4227     20.7443     91.8846
   115.0000      0.0000    304.1720     20.7555     87.5629
   115.2500      0.0000    303.8984     20.5706     84.7780
   115.5000      0.0000    304.0562     20.3624     84.3491
   115.7500      0.0000    304.2624     20.1856     85.2009
   116.0000      0.0000    304.4093     20.0530     86.0658
   116.2500      0.0000    304.4550     19.9911     86.7753
   116.5000      0.0000    304.4213     20.0166     87.8549
   116.7500      0.0000    304.3543     20.1029     89.4508
   117.0000      0.0000    304.2584     20.2148     90.9783
   117.2500      0.0000    304.1145     20.3473     91.5908
   117.5000      0.0000    303.9538     20.4689     90.8858
   117.7500      0.0000    303.8676     20.4925     89.1689
   118.0000      0.0000    303.9167     20.3675     86.9540
   118.2500      0.0000    304.0634     20.1536     84.3656
   118.5000      0.0000    304.2298     19.9540     81.3533
   118.7500      0.0000    304.3817     19.7965     78.3443
   119.0000      0.0000    304.5337     19.6329     76.1881
   119.2500      0.0000    304.6954     19.4508     75.4347
   119.5000      0.0000    304.8311     19.3094     75.9270
   119.7500      0.0000    304.9033     19.2299     77.0148
   120.0000      0.0000    304.9771     19.1331     77.9832
   120.2500      0.0000    305.4824     18.9389     78.3103
   120.5000      0.0000    308.8185     18.6821     77.5381
   120.7500      0.0000    323.9051     18.4830     75.0323
   121.0000      0.0000    367.4412     18.4033     70.4163
   121.2500      0.0000    442.9701     18.4020     64.4356
   121.5000      0.0000    509.7354     18.4638     58.8714
   121.7500      0.0000    509.6809     18.6543     55.1960
   122.0000      0.0000    442.8372     18.9897     53.4846
   122.2500      0.0000    367.3178     19.3498     52.7326
   122.5000      0.0000    323.9057     19.5839     52.0285
   122.7500      0.0000    309.0003     19.6625     51.3354
   123.0000      0.0000    305.7741     19.6778     51.2475
   123.2500      0.0000    305.2415     19.7156     52.2986
   123.5000      0.0000    305.0857     19.7827     54.6999
   123.7500      0.0000    305.0241     19.8392     58.4742
   124.0000      0.0000    305.0632     19.8472     63.4016
   124.2500      0.0000    305.1704     19.8064     68.8823
   124.5000      0.0000    305.2574     19.7493     74.1662
   124.7500      0.0000    305.2885     19.6681     78.7713
   125.0000      0.0000    305.3224     19.5015     82.6369
   125.2500      0.0000    305.4132     19.2426     85.9860
   125.5000      0.0000    305.5352     18.9909     89.0844
   125.7500      0.0000    305.6248     18.8516     91.9809
   126.0000      0.0000    305.6573     18.8282     94.4369
   126.2500      0.0000    305.6659     18.8350     96.1755
   126.5000      0.0000    305.6840     18.8002     97.1252
   126.7500      0.0000    305.7046     18.7307     97.3268
   127.0000      0.0000    305.7147     18.6885     96.7762
   127.2500      0.0000    305.7312     18.7314     95.5721
   127.5000      0.0000    305.9324     18.8477     94.1776
   127.7500      0.0000    306.9894     18.9366     93.2827
   128.0000      0.0000    309.8722     18.8961     93.1370
   128.2500      0.0000    314.0322     18.7412     93.0771
   128.5000      0.0000    316.4356     18.6056     92.0467
   128.7500      0.0000    315.5924     18.5919     89.6359
   129.0000      0.0000    314.9735     18.6608     86.3485
   129.2500      0.0000    319.1935     18.7320     82.9964
   129.5000      0.0000    332.3400     18.8159     80.3137
   129.7500      0.0000    361.0138     18.9544     78.9776
   130.0000      0.0000    400.6484     19.1288     79.1976
   130.2500      0.0000    420.0533     19.3116     80.1220
   130.5000      0.0000    396.2979     19.5184     80.2870
   130.7500      0.0000    351.9368     19.7652     78.9890
   131.0000      0.0000    320.6588     20.0101     76.9262
   131.2500      0.0000    308.5233     20.1523     75.3645
   131.5000      0.0000    305.7255     20.1242     74.9502
   131.7500      0.0000    305.3886     19.9943     75.3869
   132.0000      0.0000    305.4770     19.9202     75.9599
   132.2500      0.0000    305.9749     19.9822     76.1276
   132.5000      0.0000    309.1669     20.1199     75.6369
   132.7500      0.0000    323.9682     20.2155     74.1772
   133.0000      0.0000    367.0952     20.1804     71.2095
   133.2500      0.0000    442.1834     20.0047     66.5248
   133.5000      0.0000    508.9967     19.7643     61.0362
   133.7500      0.0000    511.1377     19.5410     56.7009
