~Version Information
VERS.                      2.0: CWLS Log ASCII Standard - VERSION 2.0
WRAP.                       NO: One line per depth step
~Well Information Block
STRT.FT               686.2000: 
STOP.FT              1252.7000: 
STEP.FT                 0.1000: 
NULL.                -999.2500: 
COMP.          Pioneer Natural Resources: COMPANY
WELL.          Rock Island 44-24 Tr: WELL
FLD.           Purgatoire River: FIELD
LOC.           814' FSL & 761' FEL--: LOCATION
CNTY.               Las Animas: COUNTY
SRVC.                Patterson: SERVICE COMPANY
DATE.          Thu Apr 20 08:34:45 2006: LOG DATE
UWI.           05 071 08680 00: UNIQUE WELL ID
STAT.                 Colorado: STATE
~Curve Information Block
DEPT.FT            0 000 00 00: Depth
DCAL.in                       : CDL Caliper
RHOB.g/cc                     : CDL Bulk Density
RHOC.g/cc                     : CDL Density Correction
DPOR.pu                       : CDL Density Porosity
GR.GAPI                       : Gamma Ray
~Parameter Information Block
~A  Depth       DCAL        RHOB        RHOC        DPOR         GR     
# ...
  1011.0000      7.9338      2.6070      0.0713      2.6034    103.7765
  1011.1000      7.9338      2.6093      0.0724      2.4669    102.4047
  1011.2000      7.9338      2.6193      0.1122      1.8603    100.7830
  1011.3000      7.9338      2.6258      0.0973      1.4686     97.0611
  1011.4000      7.9338      2.6231      0.1036      1.6288     95.7003
  1011.5000      7.9318      2.6139      0.0411      2.1866     98.6601
  1011.6000      7.9318      2.6152      0.0029      2.1091    101.8642
  1011.7000      7.9318      2.6361      0.0745      0.8422    103.6910
  1011.8000      7.9298      2.6667      0.0510     -1.0130    105.3269
  1011.9000      7.9298      2.6975      0.0550     -2.8780    107.6853
  1012.0000      7.9224      2.7157      0.0894     -3.9848    111.1233
  1012.1000      7.9224      2.7133      0.0645     -3.8335    111.6243
  1012.2000      7.9224      2.7044      0.0515     -3.2975    105.4033
  1012.3000      7.9111      2.7051      0.0649     -3.3370     97.0234
  1012.4000      7.9111      2.7104      0.0574     -3.6629     92.4757
  1012.5000      7.9060      2.7090      0.0447     -3.5762     91.2582
  1012.6000      7.9060      2.6980      0.0506     -2.9083     90.9829
  1012.7000      7.9060      2.6801      0.0297     -1.8272     90.6195
  1012.8000      7.9050      2.6636      0.0213     -0.8249     89.8019
  1012.9000      7.9050      2.6633      0.0052     -0.8045     88.4588
  1013.0000      7.9039      2.6777      0.0534     -1.6780     89.6220
  1013.1000      7.9039      2.6816      0.0716     -1.9122     95.4314
  1013.2000      7.9039      2.6603      0.0407     -0.6242    100.0366
  1013.3000      7.9033      2.6263      0.0248      1.4370     99.0917
  1013.4000      7.9033      2.5967      0.0335      3.2296     94.8340
  1013.5000      7.9018      2.5785      0.0060      4.3307     90.3997
  1013.6000      7.9018      2.5754      0.0035      4.5235     88.7325
  1013.7000      7.9018      2.5840      0.0678      4.0022     91.3991
  1013.8000      7.9026      2.5962      0.0210      3.2586     96.3990
  1013.9000      7.9026      2.6079      0.0687      2.5516    100.3892
  1014.0000      7.9080      2.6160      0.0608      2.0600    100.6779
  1014.1000      7.9080      2.6254      0.0519      1.4884     96.5576
  1014.2000      7.9080      2.6428      0.0644      0.4342     91.3055
  1014.3000      7.9157      2.6565      0.1059     -0.3962     90.6171
  1014.4000      7.9157      2.6491      0.0903      0.0550     92.8826
  1014.5000      7.9231      2.6268      0.0302      1.4068     90.7282
  1014.6000      7.9231      2.6058      0.0526      2.6817     84.6808
  1014.7000      7.9231      2.5887      0.0362      3.7127     82.2887
  1014.8000      7.9220      2.5756      0.0337      4.5069     86.2672
  1014.9000      7.9220      2.5710      0.0197      4.7867     92.0820
  1015.0000      7.9118      2.5725      0.0660      4.6953     92.6717
  1015.1000      7.9118      2.5738      0.0459      4.6200     85.2537
  1015.2000      7.9118      2.5809      0.0275      4.1872     77.0611
  1015.3000      7.9069      2.6031      0.0684      2.8454     76.1014
  1015.4000      7.9069      2.6325      0.1020      1.0608     80.6168
  1015.5000      7.9129      2.6574      0.0236     -0.4470     85.7718
  1015.6000      7.9129      2.6700      0.1236     -1.2130     90.0801
  1015.7000      7.9129      2.6625      0.1043     -0.7597     93.4565
  1015.8000      7.9230      2.6480      0.0613      0.1205     94.7883
  1015.9000      7.9230      2.6457      0.0794      0.2595     94.1096
  1016.0000      7.9285      2.6499      0.0620      0.0048     93.7207
  1016.1000      7.9285      2.6452      0.0805      0.2922     94.1372
  1016.2000      7.9285      2.6344      0.0461      0.9448     94.2127
  1016.3000      7.9292      2.6317      0.0353      1.1064     94.1143
  1016.4000      7.9292      2.6369      0.0585      0.7955     95.3766
  1016.5000      7.9269      2.6371      0.0602      0.7809     98.3310
  1016.6000      7.9269      2.6273      0.0543      1.3743    102.8307
  1016.7000      7.9269      2.6097      0.0331      2.4416    108.5836
  1016.8000      7.9215      2.5883      0.0426      3.7380    112.2842
  1016.9000      7.9215      2.5701      0.0147      4.8437    112.1929
  1017.0000      7.9138      2.5637      0.0208      5.2310    111.6235
  1017.1000      7.9138      2.5714      0.0355      4.7660    111.1115
  1017.2000      7.9138      2.5811      0.0571      4.1740    107.3196
  1017.3000      7.9090      2.5830      0.0283      4.0608    101.3790
  1017.4000      7.9090      2.5881      0.0195      3.7530     95.7117
  1017.5000      7.9086      2.5960      0.0967      3.2698     90.2739
  1017.6000      7.9086      2.5860      0.0401      3.8805     85.0317
  1017.7000      7.9086      2.5637      0.0200      5.2306     80.9052
  1017.8000      7.9118      2.5528      0.0467      5.8921     78.7006
  1017.9000      7.9118      2.5568      0.0675      5.6465     78.5328
  1018.0000      7.9172      2.5690      0.0516      4.9068     77.1587
  1018.1000      7.9172      2.5856      0.0526      3.9022     72.7982
  1018.2000      7.9172      2.5993      0.0597      3.0703     70.5754
  1018.3000      7.9214      2.6000      0.0620      3.0322     72.3063
  1018.4000      7.9214      2.5857      0.0333      3.8984     73.2850
  1018.5000      7.9227      2.5684      0.0068      4.9452     72.4289
  1018.6000      7.9227      2.5576      0.0098      5.6004     74.0197
  1018.7000      7.9227      2.5499      0.0245      6.0653     78.5094
  1018.8000      7.9243      2.5479      0.0190      6.1897     81.5645
  1018.9000      7.9243      2.5610      0.0348      5.3967     80.1589
  1019.0000      7.9302      2.5842      0.0110      3.9887     75.3986
  1019.1000      7.9302      2.5980      0.0573      3.1496     72.5134
  1019.2000      7.9302      2.5874      0.0374      3.7958     72.8232
  1019.3000      7.9359      2.5586      0.0291      5.5389     72.5622
  1019.4000      7.9359      2.5366      0.0096      6.8707     71.6527
  1019.5000      7.9369      2.5404     -0.0047      6.6405     71.3081
  1019.6000      7.9369      2.5639      0.0192      5.2169     71.8563
  1019.7000      7.9369      2.5791      0.0962      4.2987     73.8454
  1019.8000      7.9336      2.5681      0.0477      4.9636     74.5532
  1019.9000      7.9336      2.5456      0.0479      6.3302     72.6745
  1020.0000      7.9277      2.5292      0.0314      7.3234     71.7328
  1020.1000      7.9277      2.5171      0.0464      8.0545     72.4956
  1020.2000      7.9277      2.5054      0.0292      8.7651     72.4994
  1020.3000      7.9217      2.5027      0.0580      8.9261     71.1325
  1020.4000      7.9217      2.5176      0.0390      8.0262     69.4632
  1020.5000      7.9189      2.5454      0.0792      6.3398     68.2038
  1020.6000      7.9189      2.5662      0.0902      5.0795     66.5238
  1020.7000      7.9189      2.5626      0.0877      5.2991     63.5807
  1020.8000      7.9204      2.5402      0.0602      6.6565     60.4205
  1020.9000      7.9204      2.5158      0.0506      8.1318     58.9493
  1021.0000      7.9253      2.5000      0.0673      9.0889     57.3003
  1021.1000      7.9253      2.4969      0.0569      9.2768     53.2236
  1021.2000      7.9253      2.5096      0.0509      8.5061     50.0027
  1021.3000      7.9328      2.5300      0.0981      7.2709     49.6772
  1021.4000      7.9328      2.5434      0.0646      6.4632     49.9339
  1021.5000      7.9365      2.5521      0.0387      5.9339     47.6129
  1021.6000      7.9365      2.5657      0.0668      5.1075     42.0214
  1021.7000      7.9365      2.5772      0.0814      4.4117     36.5113
  1021.8000      7.9358      2.5711      0.0845      4.7817     34.5441
  1021.9000      7.9358      2.5481      0.0503      6.1773     34.9419
  1022.0000      7.9359      2.5259      0.0477      7.5199     35.7080
  1022.1000      7.9359      2.5125      0.0533      8.3347     37.6370
