~Version Information
VERS.                      2.0: CWLS Log ASCII Standard - VERSION 2.0
WRAP.                       NO: One line per depth step
~Well Information Block
STRT.FT               -15.7500: 
STOP.FT              1862.5000: 
STEP.FT                 0.2500: 
NULL.                -999.2500: 
COMP.          XTO Energy Inc.: COMPANY
WELL.          Golden Eagle 19-11: WELL
FLD.           Purgatorie River: FIELD
LOC.           2351' FSL &1926' WL--: LOCATION
CNTY.               Las Animas: COUNTY
SRVC.          Patterson Wireline: SERVICE COMPANY
DATE.          Fri Mar 24 16:29:29 2006: LOG DATE
UWI.           05 071 08696 00: UNIQUE WELL ID
STAT.                       CO: STATE
~Curve Information Block
DEPT.FT            0 000 00 00: Depth
CCL.                          : Casing Collar Locator
TT3.usec                      : CBL 3' Travel Time
AMP3.mV                       : CBL 3' Amplitude
GR.GAPI                       : Gamma Ray
~Parameter Information Block
~A  Depth       CCL         TT3         AMP3         GR     
   -15.7500   -999.2500   -999.2500   -999.2500     93.5654
   -15.5000   -999.2500   -999.2500   -999.2500     92.2195
   -15.2500   -999.2500   -999.2500   -999.2500     89.9572
   -15.0000   -999.2500   -999.2500   -999.2500     86.1867
   -14.7500   -999.2500   -999.2500   -999.2500     81.2456
   -14.5000   -999.2500   -999.2500   -999.2500     76.6444
   -14.2500   -999.2500   -999.2500   -999.2500     74.3403
   -14.0000   -999.2500   -999.2500   -999.2500     75.7054
   -13.7500   -999.2500   -999.2500   -999.2500     80.5652
   -13.5000   -999.2500   -999.2500   -999.2500     86.9369
   -13.2500   -999.2500   -999.2500   -999.2500     92.0539
   -13.0000   -999.2500   -999.2500   -999.2500     94.1343
   -12.7500   -999.2500   -999.2500   -999.2500     93.4901
   -12.5000   -999.2500   -999.2500   -999.2500     92.1005
   -12.2500   -999.2500   -999.2500   -999.2500     91.9356
   -12.0000   -999.2500   -999.2500   -999.2500     93.3717
   -11.7500   -999.2500   -999.2500   -999.2500     95.1145
   -11.5000   -999.2500   -999.2500   -999.2500     95.4817
   -11.2500   -999.2500   -999.2500   -999.2500     93.6642
   -11.0000   -999.2500   1161.0000      2.1034     90.3157
   -10.7500   -999.2500   1161.0000      2.1072     87.3350
   -10.5000   -999.2500   1161.0000      2.1159     86.4883
   -10.2500   -999.2500   1161.0000      2.1268     87.6669
   -10.0000   -999.2500   1161.0000      2.1370     88.8009
    -9.7500   -999.2500   1161.0000      2.1436     87.9943
    -9.5000   -999.2500   1161.0000      2.1452     85.5589
    -9.2500   -999.2500   1161.0000      2.1421     83.4457
    -9.0000   -999.2500   1161.0000      2.1353     82.7337
    -8.7500   -999.2500   1161.0000      2.1256     82.3229
    -8.5000   -999.2500   1161.0000      2.1137     80.3808
    -8.2500   -999.2500   1161.0000      2.1018     76.5081
    -8.0000   -999.2500   1161.0000      2.0934     71.9701
    -7.7500   -999.2500   1161.0000      2.0910     68.1531
    -7.5000   -999.2500   1161.0000      2.0946     65.2782
    -7.2500   -999.2500   1161.0000      2.1025     62.4673
    -7.0000   -999.2500   1161.0000      2.1124     58.6613
    -6.7500   -999.2500   1161.0000      2.1226     53.3498
    -6.5000   -999.2500   1161.0000      2.1310     46.6194
    -6.2500   -999.2500   1161.0000      2.1348     38.9234
    -6.0000   -999.2500   1161.0000      2.1324     31.0715
    -5.7500   -999.2500   1161.0000      2.1244     24.2015
    -5.5000      2.0000   1161.0000      2.1134     19.2044
    -5.2500      2.0000   1161.0000      2.1026     16.0239
    -5.0000     -2.0000   1161.0000      2.0952     13.8005
    -4.7500      0.0000   1161.0000      2.0940     11.7944
    -4.5000      2.0000   1161.0000      2.0991     10.0286
    -4.2500      0.0000   1161.0000      2.1056      9.1361
    -4.0000      0.0000   1161.0000      2.1072      9.8322
    -3.7500      2.0000   1161.0000      2.1027     12.4692
    -3.5000      0.0000   1161.0000      2.0980     16.7325
    -3.2500     -2.0000   1161.0000      2.1004     21.6881
    -3.0000     -2.0000   1161.0000      2.1108     26.4725
    -2.7500      0.0000   1161.0000      2.1228     31.1121
    -2.5000      2.0000   1161.0000      2.1287     36.3606
    -2.2500     -2.0000   1161.0000      2.1265     42.5273
    -2.0000      2.0000   1161.0000      2.1212     48.8706
    -1.7500      0.0000   1161.0000      2.1197     54.4774
    -1.5000      2.0000   1161.0000      2.1250     59.3596
    -1.2500      0.0000   1161.0000      2.1346     64.2639
    -1.0000      0.0000   1161.0000      2.1437     69.5218
    -0.7500      0.0000   1161.0000      2.1486     74.3569
    -0.5000      0.0000   1161.0000      2.1482     77.1750
    -0.2500      0.0000   1161.0000      2.1382     71.1758
     0.0000      0.0000   1161.0000      2.1322     62.5267
     0.2500      0.0000   1161.0000      2.1273     52.4594
     0.5000      0.0000   1161.0000      2.1249     43.0421
     0.7500      0.0000   1161.0000      2.1247     35.7080
     1.0000      0.0000   1161.0000      2.1244     31.3628
     1.2500      0.0000   1161.0000      2.1215     30.4188
     1.5000      0.0000   1161.0000      2.1152     32.5479
     1.7500      0.0000   1161.0000      2.1077     36.7557
     2.0000      0.0000   1161.0000      2.1021     41.8547
     2.2500      0.0000   1161.0000      2.1001     46.8039
     2.5000      0.0000   1161.0000      2.1029     50.7778
     2.7500      0.0000   1160.9430      2.1146     53.3249
     3.0000      0.0000   1160.5692      2.1558     54.6456
     3.2500      0.0000   1158.6669      2.3074     55.4871
     3.5000      0.0000   1151.1243      2.8044     56.4431
     3.7500      0.0000   1127.8171      4.1329     57.3700
     4.0000      0.0000   1071.6736      6.9687     57.6789
     4.2500      0.0000    966.2170     11.8064     57.0860
     4.5000      0.0000    811.6953     18.4581     55.9086
     4.7500      0.0000    634.9690     25.9481     54.8382
     5.0000      0.0000    477.0630     33.0626     54.6763
     5.2500      0.0000    366.6664     39.0691     56.1481
     5.5000      0.0000    306.0855     43.9163     59.4986
     5.7500      0.0000    279.7934     47.8727     63.9929
     6.0000      0.0000    270.5746     51.1419     68.1067
     6.2500      0.0000    267.7880     53.8076     70.6045
     6.5000      0.0000    266.9212     55.9666     71.2570
     6.7500      0.0000    266.5535     57.7848     70.3430
     7.0000      0.0000    266.3296     59.4362     67.9262
     7.2500      0.0000    266.1463     61.0412     64.0845
     7.5000      0.0000    265.9823     62.6612     59.5827
     7.7500      0.0000    265.8340     64.3097     55.7647
     8.0000      0.0000    265.7061     65.9413     53.6928
     8.2500      0.0000    265.6044     67.4483     53.5915
     8.5000      0.0000    265.5302     68.7095     55.0049
     8.7500      0.0000    265.4795     69.6585     57.0051
     9.0000      0.0000    265.4442     70.3110     58.2497
     9.2500      0.0000    265.4157     70.7432     57.4255
     9.5000      0.0000    265.3865     71.0613     54.1014
     9.7500      0.0000    265.3524     71.3680     49.1927
    10.0000      0.0000    265.3141     71.7294     44.5687
    10.2500      0.0000    265.2765     72.1654     42.1252
    10.5000      0.0000    265.2447     72.6702     42.7799
    10.7500      0.0000    265.2212     73.2213     45.7418
    11.0000      0.0000    265.2047     73.7685     48.8207
    11.2500      0.0000    265.1920     74.2500     50.2061
    11.5000      0.0000    265.1796     74.6456     50.1686
    11.7500      0.0000    265.1639     74.9998     50.5754
    12.0000      0.0000    265.1408     75.3801     52.6941
    12.2500      0.0000    265.1081     75.8157     55.8134
    12.5000      0.0000    265.0686     76.2839     58.0527
    12.7500      0.0000    265.0301     76.7424     58.1903
    13.0000      0.0000    265.0011     77.1604     56.5067
    13.2500      0.0000    264.9860     77.5178     54.1075
    13.5000      0.0000    264.9834     77.7988     51.9262
    13.7500      0.0000    264.9869     78.0047     50.5803
    14.0000      0.0000    264.9887     78.1716     50.8278
    14.2500      0.0000    264.9821     78.3597     53.5036
    14.5000      0.0000    264.9647     78.6096     58.7567
    14.7500      0.0000    264.9393     78.9022     65.6006
    15.0000      0.0000    264.9126     79.1711     72.4352
    15.2500      0.0000    264.8918     79.3641     78.0088
    15.5000      0.0000    264.8808     79.4885     81.8989
    15.7500      0.0000    264.8784     79.5986     84.2909
    16.0000      0.0000    264.8803     79.7478     85.6446
    16.2500      0.0000    264.8819     79.9509     86.5726
    16.5000      0.0000    264.8815     80.1777     87.5522
    16.7500      0.0000    264.8804     80.3739     88.4709
    17.0000      0.0000    264.8811     80.4915     88.6706
    17.2500      0.0000    264.8851     80.5203     87.6923
    17.5000      0.0000    264.8934     80.4979     85.8961
