~Version Information
VERS.                      2.0: CWLS Log ASCII Standard - VERSION 2.0
WRAP.                       NO: One line per depth step
~Well Information Block
STRT.FT               197.7500: 
STOP.FT              1631.0000: 
STEP.FT                 0.2500: 
NULL.                -999.2500: 
COMP.          Petrogulf Corporation: COMPANY
WELL.             State 16-44R: WELL
FLD.           Purgatoire River: FIELD
LOC.           632' FSL & 223' FEL--: LOCATION
PROV.                 Colorado: PROVINCE
CNTY.               Las Animas: COUNTRY
SRVC.                Patterson: SERVICE COMPANY
DATE.          Fri Oct 21 11:31:17 2005: LOG DATE
UWI.           05 071 08457 00: UNIQUE WELL ID
~Curve Information Block
DEPT.FT            0 000 00 00: Depth
SP.mV                         : DIL Spontaneous Potential
RILD.Ohm-m                    : DIL Deep Resistivity
RILM.Ohm-m                    : DIL Medium Resistivity
RLL3.Ohm-m                    : DIL Shallow Resistivity
GR.GAPI                       : Gamma Ray
~Parameter Information Block
~A  Depth        SP         RILD        RILM        RLL3         GR     
# ...
  1149.7500    101.4905     13.8721     13.8417     12.4365    125.8635
  1150.0000    101.2753     14.0431     14.2662     13.2478    122.0412
  1150.2500    101.1072     14.1509     14.8386     14.8169    117.4461
  1150.5000    101.0400     14.1999     15.5109     16.9024    110.6577
  1150.7500    101.0610     14.2125     16.2348     19.5726    107.3428
  1151.0000    101.1370     14.2193     16.9586     22.8804    104.1398
  1151.2500    101.2546     14.2471     17.6214     26.5656    102.4728
  1151.5000    101.4293     14.3086     18.1589     29.9253     99.9548
  1151.7500    101.6864     14.3972     18.5246     31.9531     98.6491
  1152.0000    102.0325     14.4877     18.7130     31.7930     98.7277
  1152.2500    102.4432     14.5445     18.7624     29.3240    100.6196
  1152.5000    102.8799     14.5322     18.7289     25.4441    105.3276
  1152.7500    103.3163     14.4246     18.6507     21.6781    108.5203
  1153.0000    103.7512     14.2078     18.5229     19.2627    111.8729
  1153.2500    104.2009     13.8792     18.2969     18.4257    113.0954
  1153.5000    104.6848     13.4474     17.9037     18.4728    114.2115
  1153.7500    105.2128     12.9345     17.2917     18.5281    114.8856
  1154.0000    105.7757     12.3748     16.4566     18.1699    115.9479
  1154.2500    106.3412     11.8082     15.4477     17.4372    116.6570
  1154.5000    106.8663     11.2697     14.3493     16.4384    118.1457
  1154.7500    107.3229     10.7818     13.2523     15.1457    120.1402
  1155.0000    107.7097     10.3529     12.2326     13.5420    125.9822
  1155.2500    108.0355      9.9802     11.3401     11.7949    131.8257
  1155.5000    108.2975      9.6550     10.5987     10.1983    141.6192
  1155.7500    108.4794      9.3659     10.0106      8.9913    147.1860
  1156.0000    108.5690      9.1018      9.5616      8.2702    152.1519
  1156.2500    108.5717      8.8546      9.2270      8.0281    152.9195
  1156.5000    108.5187      8.6218      8.9757      8.2102    150.6931
  1156.7500    108.4635      8.4079      8.7754      8.7047    147.5755
  1157.0000    108.4608      8.2232      8.5986      9.3065    142.2601
  1157.2500    108.5304      8.0806      8.4297      9.7489    139.6462
  1157.5000    108.6406      7.9928      8.2680      9.8205    138.9593
  1157.7500    108.7318      7.9696      8.1275      9.4759    140.8604
  1158.0000    108.7574      8.0160      8.0315      8.8495    145.8590
  1158.2500    108.6995      8.1315      8.0063      8.1809    149.3090
  1158.5000    108.5561      8.3091      8.0755      7.7291    152.8749
  1158.7500    108.3291      8.5353      8.2572      7.7228    153.6669
  1159.0000    108.0267      8.7909      8.5628      8.3363    151.8925
  1159.2500    107.6719      9.0529      8.9941      9.6462    148.3098
  1159.5000    107.3032      9.2977      9.5409     11.5464    139.2834
  1159.7500    106.9616      9.5053     10.1770     13.6981    131.8688
  1160.0000    106.6763      9.6620     10.8594     15.6586    121.7870
  1160.2500    106.4657      9.7621     11.5311     17.1781    117.1628
  1160.5000    106.3476      9.8069     12.1269     18.3698    113.6161
  1160.7500    106.3362      9.8036     12.5796     19.4893    112.9004
  1161.0000    106.4234      9.7609     12.8258     20.5090    113.6348
  1161.2500    106.5748      9.6859     12.8207     20.9710    115.4347
  1161.5000    106.7522      9.5811     12.5591     20.3139    120.4795
  1161.7500    106.9366      9.4461     12.0873     18.3648    125.3176
  1162.0000    107.1260      9.2804     11.4880     15.5473    133.8374
  1162.2500    107.3154      9.0862     10.8484     12.6401    139.4987
  1162.5000    107.4827      8.8692     10.2332     10.3181    146.7331
  1162.7500    107.5879      8.6370      9.6772      8.8483    150.5038
  1163.0000    107.5864      8.3976      9.1921      8.1059    154.9225
  1163.2500    107.4526      8.1585      8.7773      7.7912    157.1806
  1163.5000    107.1946      7.9267      8.4280      7.6452    159.2129
  1163.7500    106.8534      7.7094      8.1395      7.5494    159.4920
  1164.0000    106.4856      7.5140      7.9078      7.5066    158.8423
  1164.2500    106.1393      7.3477      7.7295      7.5612    158.4412
  1164.5000    105.8339      7.2165      7.6008      7.7259    158.9466
  1164.7500    105.5578      7.1240      7.5167      7.9592    160.0693
  1165.0000    105.2833      7.0711      7.4708      8.1953    161.9021
  1165.2500    104.9903      7.0563      7.4554      8.3913    162.2586
  1165.5000    104.6876      7.0773      7.4631      8.5419    160.1928
  1165.7500    104.4159      7.1324      7.4888      8.6551    157.0484
  1166.0000    104.2205      7.2213      7.5311      8.7326    151.0734
  1166.2500    104.1120      7.3449      7.5920      8.7787    147.4984
  1166.5000    104.0602      7.5043      7.6761      8.8098    144.4326
  1166.7500    104.0260      7.6991      7.7899      8.8347    144.1454
  1167.0000    103.9894      7.9275      7.9427      8.8364    145.2904
  1167.2500    103.9383      8.1851      8.1463      8.8048    146.0443
  1167.5000    103.8429      8.4657      8.4151      8.8074    145.6178
  1167.7500    103.6550      8.7618      8.7640      9.0365    143.7615
  1168.0000    103.3392      9.0657      9.2066      9.7735    138.2119
  1168.2500    102.9012      9.3714      9.7522     11.2714    132.8320
  1168.5000    102.3885      9.6741     10.4009     13.6035    123.5100
  1168.7500    101.8717      9.9701     11.1383     16.5586    117.4849
  1169.0000    101.4245     10.2541     11.9318     19.6508    109.9155
  1169.2500    101.1060     10.5178     12.7328     22.2620    105.9933
  1169.5000    100.9425     10.7485     13.4853     23.8715    101.6254
  1169.7500    100.9194     10.9302     14.1333     24.2920     99.7010
  1170.0000    100.9945     11.0468     14.6212     23.8074     98.4507
  1170.2500    101.1235     11.0869     14.8895     23.0763     98.7046
  1170.5000    101.2816     11.0476     14.8814     22.7111    100.4578
  1170.7500    101.4707     10.9351     14.5668     22.7364    102.5006
  1171.0000    101.7078     10.7608     13.9690     22.4614    107.3062
  1171.2500    102.0003     10.5380     13.1691     21.0640    111.9366
  1171.5000    102.3276     10.2804     12.2797     18.3829    120.8477
  1171.7500    102.6429     10.0027     11.4076     15.0865    127.6307
  1172.0000    102.8907      9.7202     10.6293     12.1017    137.9599
  1172.2500    103.0271      9.4475      9.9854      9.9839    144.2012
  1172.5000    103.0377      9.1964      9.4870      8.7798    151.3423
  1172.7500    102.9501      8.9760      9.1264      8.2761    154.1571
  1173.0000    102.8302      8.7950      8.8856      8.2536    155.4688
  1173.2500    102.7595      8.6628      8.7436      8.5555    154.8326
  1173.5000    102.8013      8.5887      8.6826      9.0249    152.6837
  1173.7500    102.9736      8.5802      8.6931      9.4674    151.0799
  1174.0000    103.2493      8.6404      8.7778      9.7646    149.0211
  1174.2500    103.5798      8.7683      8.9507     10.1011    147.4747
  1174.5000    103.9271      8.9595      9.2323     11.0863    142.6069
  1174.7500    104.2840      9.2093      9.6407     13.5322    136.2825
  1175.0000    104.6708      9.5140     10.1825     17.8671    122.1238
  1175.2500    105.1087      9.8728     10.8458     23.5340    111.1367
  1175.5000    105.5917     10.2861     11.5978     28.9664     95.8591
  1175.7500    106.0867     10.7546     12.3922     32.3968     87.9946
  1176.0000    106.5570     11.2777     13.1843     32.9279     80.9020
  1176.2500    106.9795     11.8516     13.9471     30.9713     79.3263
  1176.5000    107.3420     12.4684     14.6784     27.8048     80.4544
  1176.7500    107.6323     13.1131     15.3930     24.7700     82.1783
  1177.0000    107.8325     13.7625     16.1077     22.6899     83.7910
  1177.2500    107.9262     14.3855     16.8263     21.7190     83.3694
  1177.5000    107.9135     14.9466     17.5340     21.5379     80.5602
