~Version Information
 VERS.                                  2.0 : CWLS LAS VERSION
 WRAP.                                   NO : WRAPING MODE
 SWARE .                 MController 2.5.0J : SOFTWARE VERSION
~Well Information
 WELL.                     Galloway 32-13Tr : WELL
 COMP.    Pioneer Natural Resources USA Inc : COMPANY
 FLD.                      Purgatoire River : FIELD
 LOC.                  SW/NE SEC13 32S R66W : LOCATION
 DATE.                             11/12/05 : DATE(S) LOGGED
 SRVC.       Blanco Geological Services LLC : SERVICE COMPANY
 STAT.                             Colorado : STATE
 CNTY.                           Las Animas : COUNTY
 CTRY.                                  USA : COUNTRY
 API.                       05-071-08608-00 : API NUMBER
 STRT.FT                             530.00 : START DEPTH
 STOP.FT                            1619.00 : STOP DEPTH
 STEP.FT                               1.00 : DEPTH INCREMENT
 NULL.                                -9999 : NULL VALUE
~Curve information
 DEPTH.FT                                   :
 ROP.MIN/FT                                 :
 GAS.UNITS                                  :
~ASCII Log data
# ...
       930.0         0.30         62.4 
       931.0         0.27         47.8 
       932.0         0.27         43.9 
       933.0         0.37         35.1 
       934.0         0.33         25.8 
       935.0         0.53         23.1 
       936.0         0.40         17.6 
       937.0         0.37         17.5 
       938.0         0.35         14.9 
       939.0         0.33         12.1 
       940.0         0.37         11.7 
       941.0         0.37         11.9 
       942.0         0.40         12.2 
       943.0         0.43         12.2 
       944.0         0.47         13.1 
       945.0         0.47         12.4 
       946.0         0.48         12.3 
       947.0         0.47         13.9 
       948.0         0.50         14.1 
       949.0         0.47         14.3 
       950.0         0.23         13.5 
       951.0         0.20         14.0 
       952.0         0.30         13.8 
       953.0         0.27         13.5 
       954.0         0.23         12.9 
       955.0         0.37         12.0 
       956.0         1.72         44.5 
       957.0         0.33         44.1 
       958.0         0.20         45.7 
       959.0         0.30         44.1 
       960.0         0.30         34.2 
       961.0         0.20         33.7 
       962.0         0.30         29.0 
       963.0         0.25         22.7 
       964.0         0.23         20.8 
       965.0         0.23         18.3 
       966.0         0.30         18.8 
       967.0         0.23         16.8 
       968.0         0.37         14.5 
       969.0         0.47         13.8 
       970.0         0.33         13.4 
       971.0         0.33         12.7 
       972.0         0.23         13.8 
       973.0         0.27         13.2 
       974.0         0.32         12.7 
       975.0         0.27         13.7 
       976.0         0.17         13.7 
       977.0         0.23         13.0 
       978.0         0.23         13.0 
       979.0         0.27         13.5 
       980.0         0.17         15.9 
       981.0         0.13         15.9 
       982.0         0.27         14.9 
       983.0         0.27         14.1 
       984.0         0.30         13.8 
       985.0         0.27         14.5 
       986.0         1.25         65.0 
       987.0         0.70         75.1 
       988.0         0.37         69.3 
       989.0         0.30         59.1 
       990.0         0.20         45.8 
       991.0         0.23         38.0 
       992.0         0.33         36.0 
       993.0         0.40         29.5 
       994.0         0.42         24.6 
       995.0         0.33         21.4 
       996.0         0.33         16.9 
       997.0         0.20         14.1 
       998.0         0.30         15.0 
       999.0         0.33         14.2 
      1000.0         0.30         15.3 
      1001.0         0.30         14.9 
      1002.0         0.27         13.8 
      1003.0         0.30         13.5 
      1004.0         0.30         13.6 
      1005.0         0.32         13.0 
      1006.0         0.30         13.9 
      1007.0         0.30         14.0 
      1008.0         0.33         13.1 
      1009.0         0.30         13.2 
      1010.0         0.40         13.4 
      1011.0         0.27         13.2 
      1012.0         0.30         14.2 
      1013.0         0.33         13.9 
      1014.0         0.33         13.1 
      1015.0         0.33         13.1 
      1016.0         2.15         85.6 
      1017.0         0.50         63.6 
      1018.0         0.43         51.8 
      1019.0         0.30         44.0 
      1020.0         0.32         38.5 
      1021.0         0.30         29.2 
      1022.0         0.23         22.1 
      1023.0         0.27         21.1 
      1024.0         0.27         18.9 
      1025.0         0.23         18.7 
      1026.0         0.27         18.4 
      1027.0         0.23         17.2 
      1028.0         0.37         17.3 
      1029.0         0.67         14.6 
      1030.0         0.55         14.2 
      1031.0         0.47         13.7 
      1032.0         0.53         13.8 
      1033.0         0.57         14.2 
      1034.0         0.57         14.6 
      1035.0         0.63         14.4 
      1036.0         0.58         13.1 
      1037.0         0.23         13.5 
      1038.0         0.27         14.3 
      1039.0         0.20         14.3 
      1040.0         0.17         16.4 
      1041.0         0.13         17.4 
      1042.0         0.20         17.4 
      1043.0         0.30         17.3 
      1044.0         0.23         15.7 
      1045.0         0.27         15.5 
      1046.0         1.05         56.8 
      1047.0         0.60         81.2 
      1048.0         0.37         63.2 
      1049.0         0.20         55.6 
      1050.0         0.37         48.7 
      1051.0         0.27         40.7 
      1052.0         0.23         36.9 
      1053.0         0.27         35.8 
      1054.0         0.27         30.6 
      1055.0         0.23         27.8 
      1056.0         0.30         27.4 
      1057.0         0.25         26.2 
      1058.0         0.23         25.8 
      1059.0         0.23         26.5 
      1060.0         0.23         25.5 
      1061.0         0.30         25.2 
      1062.0         0.30         23.9 
      1063.0         0.23         23.9 
      1064.0         0.17         24.0 
      1065.0         0.17         23.3 
      1066.0         0.17         21.8 
      1067.0         0.17         22.3 
      1068.0         0.17         22.3 
      1069.0         0.23         21.1 
      1070.0         0.23         21.3 
      1071.0         0.17         20.7 
      1072.0         0.23         20.0 
      1073.0         0.25         19.9 
      1074.0         0.23         19.9 
      1075.0         0.23         20.2 
      1076.0         2.17        152.0 
      1077.0         0.47        145.0 
      1078.0         0.38        102.6 
      1079.0         0.40         75.9 
      1080.0         0.37         59.8 
      1081.0         0.33         48.9 
      1082.0         0.30         41.1 
      1083.0         0.27         34.9 
      1084.0         0.30         29.9 
      1085.0         0.23         27.7 
      1086.0         0.27         27.2 
      1087.0         0.23         27.8 
      1088.0         0.23         28.2 
      1089.0         0.25         28.4 
      1090.0         0.20         28.4 
      1091.0         0.20         30.6 
      1092.0         0.23         32.6 
      1093.0         0.33         31.7 
      1094.0         0.27         28.4 
      1095.0         0.27         29.6 
      1096.0         0.27         32.1 
      1097.0         0.30         31.5 
      1098.0         0.27         29.5 
      1099.0         0.23         28.8 
      1100.0         0.23         30.0 
      1101.0         0.23         30.6 
      1102.0         0.13         31.4 
      1103.0         0.28         32.5 
      1104.0         0.27         33.2 
      1105.0         0.23         33.2 
      1106.0         3.45        272.1 
      1107.0         0.63         68.2 
      1108.0         0.53         60.7 
      1109.0         0.53         38.2 
      1110.0         0.33         32.2 
      1111.0         0.33         28.6 
      1112.0         0.38         28.5 
      1113.0         0.30         28.3 
      1114.0         0.23         26.0 
      1115.0         0.27         26.8 
      1116.0         0.23         26.9 
      1117.0         0.27         30.0 
      1118.0         0.30         31.5 
      1119.0         0.30         32.3 
      1120.0         0.30         33.6 
      1121.0         0.27         33.3 
      1122.0         0.37         32.7 
      1123.0         0.45         33.0 
      1124.0         0.33         31.3 
      1125.0         0.33         29.4 
      1126.0         0.33         30.6 
      1127.0         0.33         30.4 
      1128.0         0.37         30.7 
      1129.0         0.30         31.0 
