~Version Information
VERS.                      2.0: CWLS Log ASCII Standard - VERSION 2.0
WRAP.                       NO: One line per depth step
~Well Information Block
STRT.FT               550.0000: 
STOP.FT              1664.0000: 
STEP.FT                 0.2500: 
NULL.                -999.2500: 
COMP.          Pioneer Natural Resources: COMPANY
WELL.          Stock Canyon 34-33: WELL
FLD.           Purgatorie River: FIELD
LOC.           980' FSL & 2191' FEL: LOCATION
PROV.                 Colorado: PROVINCE
CNTY.               Las Animas: COUNTRY
SRVC.                Patterson: SERVICE COMPANY
DATE.          Mon Dec 05 09:58:03 2005: LOG DATE
UWI.                          : UNIQUE WELL ID
~Curve Information Block
DEPT.FT            0 000 00 00: Depth
SN.Ohm-m                      : IEL Short Normal
SP.mV                         : IEL Spontaneous Potential
DIR.Ohm-m                     : IEL Induction Resistivity
GR.GAPI                       : Gamma Ray
~Parameter Information Block
~A  Depth        SN          SP         DIR          GR     
# ...
   684.0000   2000.0000   2000.0000     11.2817    111.9669
   684.2500   2000.0000   2000.0000     11.5533    111.3911
   684.5000   2000.0000   2000.0000     11.8585    107.5638
   684.7500   2000.0000   2000.0000     12.1751    103.5581
   685.0000   2000.0000   2000.0000     12.4837     97.1348
   685.2500   2000.0000   2000.0000     12.7734     93.8001
   685.5000   2000.0000   2000.0000     13.0407     92.0092
   685.7500   2000.0000   2000.0000     13.2886     93.2750
   686.0000   2000.0000   2000.0000     13.5289     97.5928
   686.2500   2000.0000   2000.0000     13.7831    100.7548
   686.5000   2000.0000   2000.0000     14.0709    104.3832
   686.7500   2000.0000   2000.0000     14.3894    105.9831
   687.0000   2000.0000   2000.0000     14.6999    107.3068
   687.2500   2000.0000   2000.0000     14.9387    107.0662
   687.5000   2000.0000   2000.0000     15.0515    104.0612
   687.7500   2000.0000   2000.0000     15.0265    100.3811
   688.0000   2000.0000   2000.0000     14.8963     93.8450
   688.2500   2000.0000   2000.0000     14.7119     89.8231
   688.5000   2000.0000   2000.0000     14.5120     85.2263
   688.7500   2000.0000   2000.0000     14.3094     83.2638
   689.0000   2000.0000   2000.0000     14.0960     82.0407
   689.2500   2000.0000   2000.0000     13.8605     82.3094
   689.5000   2000.0000   2000.0000     13.6021     83.8385
   689.7500   2000.0000   2000.0000     13.3307     85.3472
   690.0000   2000.0000   2000.0000     13.0586     88.6949
   690.2500   2000.0000   2000.0000     12.7940     92.1857
   690.5000   2000.0000   2000.0000     12.5432     99.5592
   690.7500   2000.0000   2000.0000     12.3159    105.2956
   691.0000   2000.0000   2000.0000     12.1275    113.6722
   691.2500   2000.0000   2000.0000     11.9969    118.5496
   691.5000   2000.0000   2000.0000     11.9419    124.0315
   691.7500   2000.0000   2000.0000     11.9730    125.7715
   692.0000   2000.0000   2000.0000     12.0878    124.8993
   692.2500   2000.0000   2000.0000     12.2676    122.9185
   692.5000   2000.0000   2000.0000     12.4792    121.3312
   692.7500   2000.0000   2000.0000     12.6844    122.9276
   693.0000   2000.0000   2000.0000     12.8545    129.4944
   693.2500   2000.0000   2000.0000     12.9812    135.0795
   693.5000   2000.0000   2000.0000     13.0764    141.2684
   693.7500   2000.0000   2000.0000     13.1600    141.8324
   694.0000   2000.0000   2000.0000     13.2479    135.3272
   694.2500   2000.0000   2000.0000     13.3459    126.2450
   694.5000   2000.0000   2000.0000     13.4537    108.5667
   694.7500   2000.0000   2000.0000     13.5694     97.1990
   695.0000   2000.0000   2000.0000     13.6870     86.1049
   695.2500   2000.0000   2000.0000     13.7856     84.3337
   695.5000   2000.0000   2000.0000     13.8263     89.4526
   695.7500   2000.0000   2000.0000     13.7675     96.1628
   696.0000   2000.0000   2000.0000     13.5929    107.0985
   696.2500   2000.0000   2000.0000     13.3250    112.9939
   696.5000   2000.0000   2000.0000     13.0143    118.2909
   696.7500   2000.0000   2000.0000     12.7135    119.8685
   697.0000   2000.0000   2000.0000     12.4628    121.1023
   697.2500   2000.0000   2000.0000     12.2868    122.1295
   697.5000   2000.0000   2000.0000     12.1974    124.8572
   697.7500   2000.0000   2000.0000     12.1946    127.5478
   698.0000   2000.0000   2000.0000     12.2645    132.4812
   698.2500   2000.0000   2000.0000     12.3815    135.8459
   698.5000   2000.0000   2000.0000     12.5146    139.5616
   698.7500   2000.0000   2000.0000     12.6390    140.1868
   699.0000   2000.0000   2000.0000     12.7459    137.5877
   699.2500   2000.0000   2000.0000     12.8475    134.0309
   699.5000   2000.0000   2000.0000     12.9735    127.9629
   699.7500   2000.0000   2000.0000     13.1592    124.4044
   700.0000   2000.0000   2000.0000     13.4292    120.0199
   700.2500   2000.0000   2000.0000     13.7853    117.0191
   700.5000   2000.0000   2000.0000     14.2051    110.7135
   700.7500   2000.0000   2000.0000     14.6520    104.8566
   701.0000   2000.0000   2000.0000     15.0914     94.7875
   701.2500   2000.0000   2000.0000     15.5038     88.7877
   701.5000   2000.0000   2000.0000     15.8850     83.2216
   701.7500   2000.0000   2000.0000     16.2311     82.2413
   702.0000   2000.0000   2000.0000     16.5200     84.2076
   702.2500   2000.0000   2000.0000     16.7113     87.1008
   702.5000   2000.0000   2000.0000     16.7712     92.5472
   702.7500   2000.0000   2000.0000     16.7033     96.2906
   703.0000   2000.0000   2000.0000     16.5526    101.5202
   703.2500   2000.0000   2000.0000     16.3780    104.7783
   703.5000   2000.0000   2000.0000     16.2209    109.6685
   703.7500   2000.0000   2000.0000     16.0929    113.0106
   704.0000   2000.0000   2000.0000     15.9815    117.7529
   704.2500   2000.0000   2000.0000     15.8635    120.3599
   704.5000   2000.0000   2000.0000     15.7164    123.1964
   704.7500   2000.0000   2000.0000     15.5254    124.5235
   705.0000   2000.0000   2000.0000     15.2850    125.8288
   705.2500   2000.0000   2000.0000     14.9966    126.1501
   705.5000   2000.0000   2000.0000     14.6654    125.8324
   705.7500   2000.0000   2000.0000     14.2995    125.4538
   706.0000   2000.0000   2000.0000     13.9102    125.4696
   706.2500   2000.0000   2000.0000     13.5122    126.0092
   706.5000   2000.0000   2000.0000     13.1243    126.8299
   706.7500   2000.0000   2000.0000     12.7683    126.6608
   707.0000   2000.0000   2000.0000     12.4658    124.8264
   707.2500   2000.0000   2000.0000     12.2315    122.9772
   707.5000   2000.0000   2000.0000     12.0665    120.7561
   707.7500   2000.0000   2000.0000     11.9584    120.5140
   708.0000   2000.0000   2000.0000     11.8891    122.8126
   708.2500   2000.0000   2000.0000     11.8460    125.7827
   708.5000   2000.0000   2000.0000     11.8309    130.2856
   708.7500   2000.0000   2000.0000     11.8603    131.9194
   709.0000   2000.0000   2000.0000     11.9586    131.6102
   709.2500   2000.0000   2000.0000     12.1470    130.4643
   709.5000   2000.0000   2000.0000     12.4343    129.5942
   709.7500   2000.0000   2000.0000     12.8115    130.1105
   710.0000   2000.0000   2000.0000     13.2546    131.5457
   710.2500   2000.0000   2000.0000     13.7307    132.1210
   710.5000   2000.0000   2000.0000     14.2033    132.1602
   710.7500   2000.0000   2000.0000     14.6379    131.9202
   711.0000   2000.0000   2000.0000     15.0152    130.8927
   711.2500   2000.0000   2000.0000     15.3512    129.1428
   711.5000   2000.0000   2000.0000     15.7055    124.6478
   711.7500   2000.0000   2000.0000     16.1609    121.2588
   712.0000   2000.0000   2000.0000     16.7834    117.8568
   712.2500   2000.0000   2000.0000     17.5853    117.6269
   712.5000   2000.0000   2000.0000     18.5125    120.4618
   712.7500   2000.0000   2000.0000     19.4705    123.7154
   713.0000   2000.0000   2000.0000     20.3792    128.2786
   713.2500   2000.0000   2000.0000     21.2159    129.7007
   713.5000   2000.0000   2000.0000     22.0004    128.5394
   713.7500   2000.0000   2000.0000     22.7383    126.2639
   714.0000   2000.0000   2000.0000     23.3845    122.7199
   714.2500   2000.0000   2000.0000     23.8690    121.2138
   714.5000   2000.0000   2000.0000     24.1545    120.6616
   714.7500   2000.0000   2000.0000     24.2611    121.1419
   715.0000   2000.0000   2000.0000     24.2335    122.4101
   715.2500   2000.0000   2000.0000     24.0940    123.2159
   715.5000   2000.0000   2000.0000     23.8349    123.4253
   715.7500   2000.0000   2000.0000     23.4539    122.3000
   716.0000   2000.0000   2000.0000     22.9921    118.7971
   716.2500   2000.0000   2000.0000     22.5317    116.3621
   716.5000   2000.0000   2000.0000     22.1499    115.1347
   716.7500   2000.0000   2000.0000     21.8709    116.7464
   717.0000   2000.0000   2000.0000     21.6523    122.2175
   717.2500   2000.0000   2000.0000     21.4164    126.7094
