~Version Information
VERS.                      2.0: CWLS Log ASCII Standard - VERSION 2.0
WRAP.                       NO: One line per depth step
~Well Information Block
STRT.FT               390.0000: 
STOP.FT              1434.5000: 
STEP.FT                 0.1000: 
NULL.                -999.2500: 
COMP.          Pioneer Natural Resources: COMPANY
WELL.             John K 12-28: WELL
FLD.           Purgatoire River: FIELD
LOC.           1476' FNL & 465' FWL: LOCATION
CNTY.               Las Animas: COUNTY
SRVC.                Patterson: SERVICE COMPANY
DATE.          Mon Apr 10 06:53:47 2006: LOG DATE
UWI.           05 071 08723 00: UNIQUE WELL ID
STAT.                 Colorado: STATE
~Curve Information Block
DEPT.FT            0 000 00 00: Depth
DCAL.in                       : CDL Caliper
RHOB.g/cc                     : CDL Bulk Density
RHOC.g/cc                     : CDL Density Correction
DPOR.pu                       : CDL Density Porosity
GR.GAPI                       : Gamma Ray
NPOR.pu                       : Neutron Porosity
~Parameter Information Block
~A  Depth       DCAL        RHOB        RHOC        DPOR         GR         NPOR    
# ...
  1215.6000      7.8967      2.4661     -0.0205     11.1446    119.3102     25.7621
  1215.7000      7.8967      2.4582      0.0111     11.6222    123.4625     25.4714
  1215.8000      7.8940      2.4630      0.0080     11.3313    126.0918     25.3170
  1215.9000      7.8940      2.4658      0.0766     11.1625    122.0930     25.1609
  1216.0000      7.8847      2.4574      0.0134     11.6723    117.4005     24.9111
  1216.1000      7.8847      2.4478      0.0380     12.2561    116.8839     24.5625
  1216.2000      7.8847      2.4405      0.0573     12.6954    116.5921     24.1809
  1216.3000      7.8700      2.4344      0.0443     13.0651    114.0649     24.0534
  1216.4000      7.8700      2.4325      0.0428     13.1813    113.8123     24.1656
  1216.5000      7.8647      2.4352      0.0870     13.0209    117.1649     24.0087
  1216.6000      7.8647      2.4390      0.1075     12.7859    120.3141     23.7496
  1216.7000      7.8647      2.4435      0.1065     12.5142    120.2657     24.1059
  1216.8000      7.8771      2.4508      0.0930     12.0725    118.5338     24.9689
  1216.9000      7.8771      2.4548      0.1128     11.8300    118.5594     25.9084
  1217.0000      7.8956      2.4459      0.0793     12.3721    119.7526     26.9398
  1217.1000      7.8956      2.4299      0.0869     13.3384    120.7386     27.4727
  1217.2000      7.8956      2.4156      0.1173     14.2086    123.3585     26.8919
  1217.3000      7.9048      2.4028      0.1132     14.9832    128.4888     25.7681
  1217.4000      7.9048      2.3997      0.0473     15.1690    128.8698     24.9260
  1217.5000      7.9028      2.4135      0.1084     14.3311    124.1178     24.3465
  1217.6000      7.9028      2.4323      0.1176     13.1960    124.2626     23.5589
  1217.7000      7.9028      2.4455      0.1303     12.3934    129.6929     22.9858
  1217.8000      7.8904      2.4612      0.1485     11.4398    132.5430     22.9121
  1217.9000      7.8904      2.4904      0.1506      9.6747    131.3050     22.8183
  1218.0000      7.8824      2.5217      0.2489      7.7730    130.5636     22.4467
  1218.1000      7.8824      2.5226      0.2125      7.7240    133.7713     21.7259
  1218.2000      7.8824      2.4770      0.1806     10.4831    137.9895     21.0325
  1218.3000      7.8943      2.4059      0.1306     14.7924    138.6447     21.2199
  1218.4000      7.8943      2.3432      0.0466     18.5931    137.5710     22.4682
  1218.5000      7.9074      2.3011      0.0695     21.1485    135.2706     23.6522
  1218.6000      7.9074      2.2709      0.0300     22.9744    129.3519     23.9091
  1218.7000      7.9074      2.2570     -0.0234     23.8157    122.6443     23.8374
  1218.8000      7.9109      2.2717      0.0138     22.9254    117.6627     24.2493
  1218.9000      7.9109      2.3086      0.0744     20.6938    115.7981     25.1000
  1219.0000      7.9099      2.3496      0.0837     18.2036    120.1902     26.0082
  1219.1000      7.9099      2.3822      0.1013     16.2332    128.4281     26.7116
  1219.2000      7.9099      2.4061      0.0880     14.7844    133.3745     26.9497
  1219.3000      7.9085      2.4313      0.1213     13.2519    131.3146     26.8749
  1219.4000      7.9085      2.4592      0.0898     11.5610    127.2274     26.8722
  1219.5000      7.9080      2.4813      0.1034     10.2235    127.6050     26.7795
  1219.6000      7.9080      2.4976      0.0570      9.2352    131.8599     26.4249
  1219.7000      7.9080      2.5144      0.0714      8.2189    134.5193     26.1047
  1219.8000      7.9070      2.5222      0.0730      7.7485    132.1803     25.8239
  1219.9000      7.9070      2.5149      0.0488      8.1891    128.2876     25.6542
  1220.0000      7.9060      2.5098      0.0523      8.4949    127.4253     25.9098
  1220.1000      7.9060      2.5115      0.1018      8.3929    130.3889     26.2464
  1220.2000      7.9060      2.5044      0.1195      8.8251    135.1170     26.3587
  1220.3000      7.9060      2.4871      0.0906      9.8716    138.6081     26.3584
  1220.4000      7.9060      2.4702      0.0778     10.8971    139.8009     26.1571
  1220.5000      7.9054      2.4523      0.0737     11.9805    138.5292     25.5975
  1220.6000      7.9054      2.4277      0.0297     13.4724    134.7045     24.8375
  1220.7000      7.9054      2.4078     -0.0114     14.6817    130.1856     24.4636
  1220.8000      7.9047      2.4064      0.0380     14.7635    127.4082     24.7953
  1220.9000      7.9047      2.4146      0.0797     14.2685    127.4523     25.3775
  1221.0000      7.9049      2.4245      0.0482     13.6683    130.3805     25.6716
  1221.1000      7.9049      2.4479      0.0924     12.2496    133.5468     25.5483
  1221.2000      7.9049      2.4813      0.1735     10.2227    134.3807     25.1468
  1221.3000      7.9054      2.5023      0.1562      8.9496    135.4862     24.4801
  1221.4000      7.9054      2.5035      0.1139      8.8817    136.8272     23.5444
  1221.5000      7.9052      2.4970      0.1147      9.2735    132.1288     22.8117
  1221.6000      7.9052      2.4915      0.0810      9.6077    126.6306     22.8447
  1221.7000      7.9052      2.4829      0.0998     10.1249    128.1997     23.4069
  1221.8000      7.9043      2.4711      0.0799     10.8417    131.5202     23.6513
  1221.9000      7.9043      2.4650      0.0789     11.2138    130.6366     23.3190
  1222.0000      7.9032      2.4684      0.0754     11.0061    127.8290     22.9667
  1222.1000      7.9032      2.4822      0.0746     10.1702    127.5098     23.2899
  1222.2000      7.9032      2.5106      0.0746      8.4482    129.6644     24.2049
  1222.3000      7.9018      2.5395      0.1502      6.6975    131.9811     25.0196
  1222.4000      7.9018      2.5419      0.1379      6.5485    132.4503     25.1944
  1222.5000      7.9010      2.5198      0.0985      7.8899    132.1551     25.0648
  1222.6000      7.9010      2.4978      0.0807      9.2220    133.4486     25.3457
  1222.7000      7.9010      2.4888      0.0497      9.7674    134.5241     25.6872
  1222.8000      7.9014      2.4868      0.0436      9.8902    134.0685     25.4177
  1222.9000      7.9014      2.4832      0.0359     10.1072    135.2850     25.1424
  1223.0000      7.9004      2.4805      0.0329     10.2741    139.0000     25.5124
  1223.1000      7.9004      2.4838      0.0338     10.0742    141.3341     26.0491
  1223.2000      7.9004      2.4922      0.0374      9.5620    140.8605     26.2699
  1223.3000      7.8981      2.5065      0.0094      8.6972    140.3472     26.6676
  1223.4000      7.8981      2.5207      0.0759      7.8365    141.3672     27.6375
  1223.5000      7.8965      2.5164      0.0517      8.0992    143.6747     28.3921
  1223.6000      7.8965      2.4948      0.0332      9.4045    145.5171     28.5162
  1223.7000      7.8965      2.4761      0.0015     10.5398    143.6750     28.3608
  1223.8000      7.8942      2.4668      0.0223     11.1028    139.0876     27.8169
  1223.9000      7.8942      2.4635     -0.0036     11.3028    134.8298     27.1596
  1224.0000      7.8902      2.4680      0.0305     11.0328    131.4839     26.8901
  1224.1000      7.8902      2.4807      0.0267     10.2622    128.2042     26.9154
  1224.2000      7.8902      2.4986      0.0359      9.1783    124.2307     26.8267
  1224.3000      7.8848      2.5159      0.0458      8.1274    122.1989     26.3529
  1224.4000      7.8848      2.5247      0.0400      7.5951    121.7445     25.7645
  1224.5000      7.8751      2.5217      0.0511      7.7752    117.3209     25.6493
  1224.6000      7.8751      2.5193     -0.0085      7.9205    109.1173     26.2210
  1224.7000      7.8751      2.5258      0.1224      7.5295    103.3102     26.4865
  1224.8000      7.8618      2.5264      0.1049      7.4910    102.6217     25.8507
  1224.9000      7.8618      2.5168      0.0667      8.0734    105.1395     25.3018
  1225.0000      7.8541      2.5026      0.1044      8.9314    109.0197     25.0903
  1225.1000      7.8541      2.4847      0.0608     10.0153    113.0865     24.7821
