~Version Information
VERS.                      2.0: CWLS Log ASCII Standard - VERSION 2.0
WRAP.                       NO: One line per depth step
~Well Information Block
STRT.FT               410.0000: 
STOP.FT              1253.0000: 
STEP.FT                 0.1000: 
NULL.                -999.2500: 
COMP.          Petrogulf Corporation: COMPANY
WELL.           Parsons 15-23R: WELL
FLD.           Purgatorie River: FIELD
LOC.           2244' FSL & 1932' FWL: LOCATION
PROV.                 Colorado: PROVINCE
CNTY.               Las Animas: COUNTRY
SRVC.                Patterson: SERVICE COMPANY
DATE.          Mon Sep 12 10:28:25 2005: LOG DATE
UWI.                          : UNIQUE WELL ID
~Curve Information Block
DEPT.FT            0 000 00 00: Depth
DCAL.in                       : CDL Caliper
RHOB.g/cc                     : CDL Bulk Density
RHOC.g/cc                     : CDL Density Correction
DPOR.pu                       : CDL Density Porosity
GR.GAPI                       : Gamma Ray
NPOR.pu                       : Neutron Porosity
~Parameter Information Block
~A  Depth       DCAL        RHOB        RHOC        DPOR         GR         NPOR    
# ...
  1014.8000      7.9547      2.5764      0.0904      4.4588    152.5026     27.4438
  1014.9000      7.9547      2.5508      0.0835      6.0147    151.5286     27.3767
  1015.0000      7.9681      2.5384      0.0464      6.7623    150.4638     27.3904
  1015.1000      7.9681      2.5466      0.0233      6.2678    150.3925     27.1850
  1015.2000      7.9681      2.5578      0.1019      5.5883    150.5352     26.5795
  1015.3000      7.9471      2.5497      0.0709      6.0803    146.3059     25.8655
  1015.4000      7.9471      2.5373      0.0249      6.8308    138.4912     25.4509
  1015.5000      7.9238      2.5459      0.0321      6.3081    134.3832     25.1494
  1015.6000      7.9238      2.5624      0.1241      5.3119    136.0815     24.5227
  1015.7000      7.9238      2.5651      0.1090      5.1448    137.7868     23.8234
  1015.8000      7.8519      2.5709      0.0707      4.7911    137.8358     23.5898
  1015.9000      7.8519      2.6080      0.1153      2.5478    137.9882     23.8881
  1016.0000      7.8138      2.6715      0.1173     -1.3032    137.1141     24.2839
  1016.1000      7.8138      2.7359      0.1546     -5.2064    134.9859     24.3439
  1016.2000      7.8138      2.7879      0.1468     -8.3580    134.1788     24.1304
  1016.3000      7.8197      2.8320      0.2230    -11.0279    136.0098     23.8877
  1016.4000      7.8197      2.8666      0.2351    -13.1265    138.4487     23.8290
  1016.5000      7.7887      2.8774      0.2884    -13.7842    139.9289     24.0841
  1016.6000      7.7887      2.8539      0.1935    -12.3603    140.9163     24.5916
  1016.7000      7.7887      2.8047      0.1276     -9.3781    141.8156     25.2766
  1016.8000      7.7885      2.7447      0.0696     -5.7395    144.6744     25.7571
  1016.9000      7.7885      2.6814     -0.0047     -1.9025    152.3679     25.7642
  1017.0000      7.8798      2.6255     -0.0452      1.4833    162.3516     25.6813
  1017.1000      7.8798      2.5875      0.0235      3.7849    168.7293     25.8722
  1017.2000      7.8798      2.5635      0.0607      5.2423    170.3068     26.2665
  1017.3000      7.9609      2.5501      0.0413      6.0533    171.7473     26.5382
  1017.4000      7.9609      2.5430      0.1270      6.4874    175.4930     26.4781
  1017.5000      8.0326      2.5263      0.0731      7.4942    179.1335     26.6070
  1017.6000      8.0326      2.5017      0.0055      8.9877    184.1606     27.3690
  1017.7000      8.0326      2.4878      0.0483      9.8292    192.0762     28.2681
  1017.8000      8.1491      2.4909      0.0654      9.6408    196.8633     28.7994
  1017.9000      8.1491      2.4973      0.0829      9.2539    195.8685     29.1151
  1018.0000      8.1609      2.4893      0.0743      9.7374    193.5994     29.2731
  1018.1000      8.1609      2.4696      0.0191     10.9352    192.3234     29.0496
  1018.2000      8.1609      2.4548      0.0609     11.8278    190.7880     28.4235
  1018.3000      8.0229      2.4505      0.0520     12.0886    187.1357     27.7446
  1018.4000      8.0229      2.4554      0.0808     11.7936    181.5956     27.4946
  1018.5000      8.0841      2.4752      0.0583     10.5940    176.7603     27.8485
  1018.6000      8.0841      2.5157      0.1233      8.1391    172.8927     28.4630
  1018.7000      8.0841      2.5667      0.1748      5.0458    171.0988     28.8222
  1018.8000      8.1056      2.6112      0.2000      2.3532    173.4858     28.8169
  1018.9000      8.1056      2.6456      0.2033      0.2648    179.1311     28.7703
  1019.0000      8.0142      2.6719      0.2214     -1.3290    185.7616     28.7949
  1019.1000      8.0142      2.6858      0.2047     -2.1676    188.1749     28.5178
  1019.2000      8.0142      2.6840      0.1770     -2.0603    184.0549     27.8544
  1019.3000      7.9556      2.6710      0.1130     -1.2718    178.5042     27.4164
  1019.4000      7.9556      2.6529      0.1419     -0.1787    173.6612     27.5665
  1019.5000      7.9632      2.6253      0.0891      1.4975    168.1962     27.9556
  1019.6000      7.9632      2.5870      0.0460      3.8197    162.5456     28.2491
  1019.7000      7.9632      2.5549      0.0202      5.7659    157.3397     28.2157
  1019.8000      7.9641      2.5453      0.0389      6.3434    153.3935     27.6019
  1019.9000      7.9641      2.5507      0.0998      6.0180    153.6186     26.7242
  1020.0000      7.9684      2.5553      0.0730      5.7371    156.1252     26.2217
  1020.1000      7.9684      2.5680      0.0463      4.9694    155.5076     26.2155
  1020.2000      7.9684      2.6009      0.1033      2.9737    152.8711     26.3862
  1020.3000      7.9471      2.6383      0.1574      0.7105    151.5391     26.3987
  1020.4000      7.9471      2.6568      0.1855     -0.4103    152.6933     26.0808
  1020.5000      7.9159      2.6549      0.1473     -0.2991    155.5069     25.7714
  1020.6000      7.9159      2.6447      0.1313      0.3191    158.1731     25.8507
  1020.7000      7.9159      2.6337      0.1091      0.9874    159.7503     25.9991
  1020.8000      7.8408      2.6301      0.0942      1.2052    159.7085     25.8402
  1020.9000      7.8408      2.6407      0.1081      0.5613    156.9743     25.5584
  1021.0000      7.8359      2.6527      0.1665     -0.1666    152.6009     25.3993
  1021.1000      7.8359      2.6465      0.1339      0.2130    152.8629     25.2525
  1021.2000      7.8359      2.6228      0.0976      1.6509    158.1092     24.9989
  1021.3000      7.8295      2.5928      0.0803      3.4683    161.4879     24.7950
  1021.4000      7.8295      2.5645      0.0316      5.1830    163.0101     24.6490
  1021.5000      7.8444      2.5438      0.0468      6.4394    166.3297     24.5271
  1021.6000      7.8444      2.5335      0.0298      7.0592    172.3085     24.7494
  1021.7000      7.8444      2.5371      0.0293      6.8409    181.1218     25.4308
  1021.8000      7.9123      2.5463      0.0776      6.2851    191.2824     26.1416
  1021.9000      7.9123      2.5426      0.0622      6.5095    198.3456     26.6320
  1022.0000      7.9324      2.5270      0.0298      7.4518    199.1635     26.9697
  1022.1000      7.9324      2.5185      0.0363      7.9688    195.4958     27.1381
  1022.2000      7.9324      2.5286      0.0552      7.3602    192.3223     27.3234
  1022.3000      7.9255      2.5540      0.1010      5.8202    192.8741     27.7482
  1022.4000      7.9255      2.5830      0.0949      4.0636    196.4229     28.1904
  1022.5000      7.9171      2.6061      0.1162      2.6584    199.4365     28.4019
  1022.6000      7.9171      2.6188      0.1767      1.8925    201.7314     28.4780
  1022.7000      7.9171      2.6139      0.1753      2.1881    204.8202     28.5684
  1022.8000      7.8752      2.5926      0.1573      3.4764    205.4028     28.6684
  1022.9000      7.8752      2.5716      0.1178      4.7536    201.2045     28.7263
  1023.0000      7.8529      2.5603      0.1158      5.4347    194.1828     28.6833
  1023.1000      7.8529      2.5512      0.0932      5.9866    188.1238     28.4282
  1023.2000      7.8529      2.5418      0.0611      6.5564    185.6369     27.9535
  1023.3000      7.9090      2.5471      0.0251      6.2338    185.2981     27.4591
  1023.4000      7.9090      2.5703      0.0997      4.8301    184.6553     27.1786
  1023.5000      7.9342      2.5898      0.0835      3.6475    185.7943     27.0309
  1023.6000      7.9342      2.5945      0.0504      3.3660    189.7470     27.0187
  1023.7000      7.9342      2.5846      0.1023      3.9621    192.1322     27.2454
  1023.8000      7.9291      2.5607      0.0632      5.4094    193.3892     27.4958
  1023.9000      7.9291      2.5364      0.0283      6.8854    196.6384     27.6254
  1024.0000      7.9312      2.5276      0.0452      7.4200    199.2449     27.6604
  1024.1000      7.9312      2.5319      0.0399      7.1583    198.4046     27.6488
  1024.2000      7.9312      2.5437      0.0615      6.4454    196.0503     27.6803
  1024.3000      7.9180      2.5594      0.0891      5.4926    193.1448     27.6792
