~Version Information
VERS.                      2.0: CWLS Log ASCII Standard - VERSION 2.0
WRAP.                       NO: One line per depth step
~Well Information Block
STRT.FT               650.0000: 
STOP.FT              2053.7000: 
STEP.FT                 0.1000: 
NULL.                -999.2500: 
COMP.          Pioneer Natural Resources: COMPANY
WELL.           Alabaster 11-8: WELL
FLD.           Purgatoire River: FIELD
LOC.           1249' FNL & 215' FWL--: LOCATION
PROV.                 Colorado: PROVINCE
CNTY.               Las Animas: COUNTRY
SRVC.                Patterson: SERVICE COMPANY
DATE.          Thu Jan 19 09:16:54 2006: LOG DATE
UWI.           05 071 08642 00: UNIQUE WELL ID
~Curve Information Block
DEPT.FT            0 000 00 00: Depth
DCAL.in                       : CDL Caliper
RHOB.g/cc                     : CDL Bulk Density
RHOC.g/cc                     : CDL Density Correction
DPOR.pu                       : CDL Density Porosity
NPOR.pu                       : Neutron Porosity
GR.GAPI                       : Gamma Ray
~Parameter Information Block
~A  Depth       DCAL        RHOB        RHOC        DPOR        NPOR         GR     
# ...
  1926.8000      7.8904      2.4775      0.0700     10.4554     20.6684    143.0934
  1926.9000      7.8904      2.4607      0.0182     11.4709     20.7765    148.4130
  1927.0000      7.8909      2.4438      0.0179     12.4991     20.6556    146.2868
  1927.1000      7.8909      2.4359      0.0156     12.9730     20.3332    141.6392
  1927.2000      7.8909      2.4355      0.0281     13.0004     19.8983    134.1286
  1927.3000      7.8914      2.4380      0.0116     12.8505     19.5716    125.0546
  1927.4000      7.8914      2.4396      0.0676     12.7534     19.7628    121.8771
  1927.5000      7.8923      2.4389      0.0214     12.7910     20.5135    127.2223
  1927.6000      7.8923      2.4451      0.0561     12.4191     21.3073    130.6605
  1927.7000      7.8923      2.4603      0.0226     11.4945     21.7606    121.8716
  1927.8000      7.8909      2.4709      0.0352     10.8553     21.9796    105.4676
  1927.9000      7.8909      2.4665      0.0279     11.1223     22.2256     93.9118
  1928.0000      7.8898      2.4565      0.0249     11.7301     22.5265     95.5167
  1928.1000      7.8898      2.4595      0.0082     11.5454     22.6707    107.8128
  1928.2000      7.8898      2.4787      0.0250     10.3800     22.4600    123.8955
  1928.3000      7.8931      2.4935      0.0759      9.4821     21.8960    136.6663
  1928.4000      7.8931      2.4864      0.0436      9.9162     21.3426    140.2580
  1928.5000      7.8986      2.4659      0.0320     11.1605     21.1105    135.6989
  1928.6000      7.8986      2.4445      0.0250     12.4525     21.2524    129.4546
  1928.7000      7.8986      2.4239      0.0293     13.7038     21.6492    124.4185
  1928.8000      7.9021      2.4050      0.0485     14.8487     21.8265    118.1502
  1928.9000      7.9021      2.3911      0.0107     15.6893     21.5947    113.0288
  1929.0000      7.9044      2.3888     -0.0029     15.8327     21.2233    113.8689
  1929.1000      7.9044      2.3984      0.0094     15.2514     20.7267    116.3298
  1929.2000      7.9044      2.4099      0.0227     14.5495     20.0616    116.0440
  1929.3000      7.9058      2.4199      0.0222     13.9465     19.4696    116.6395
  1929.4000      7.9058      2.4266      0.0594     13.5377     19.3613    119.9793
  1929.5000      7.9041      2.4235      0.0460     13.7282     19.7405    122.3634
  1929.6000      7.9041      2.4142      0.0361     14.2908     20.2540    121.5877
  1929.7000      7.9041      2.4123      0.0042     14.4052     20.7596    120.4083
  1929.8000      7.9002      2.4209      0.0247     13.8864     21.1164    122.6090
  1929.9000      7.9002      2.4244      0.0702     13.6726     21.2077    128.5847
  1930.0000      7.8978      2.4173      0.0330     14.1003     21.0639    132.7708
  1930.1000      7.8978      2.4140      0.0533     14.3058     20.7406    129.9389
  1930.2000      7.8978      2.4167      0.0535     14.1402     20.5537    121.8945
  1930.3000      7.8974      2.4185      0.0201     14.0276     20.7545    113.8917
  1930.4000      7.8974      2.4167      0.0426     14.1392     21.1643    112.8762
  1930.5000      7.8960      2.4070      0.0493     14.7284     21.6095    118.1928
  1930.6000      7.8960      2.3942     -0.0084     15.5002     21.9194    117.6714
  1930.7000      7.8960      2.3903     -0.0109     15.7413     21.6533    109.5987
  1930.8000      7.8933      2.3935      0.0200     15.5478     20.7063    103.1177
  1930.9000      7.8933      2.3963     -0.0140     15.3777     19.8292     99.0690
  1931.0000      7.8915      2.3959      0.0254     15.4025     19.6117     95.9262
  1931.1000      7.8915      2.3970     -0.0042     15.3337     19.7766     95.9238
  1931.2000      7.8915      2.4094      0.0353     14.5822     19.8787    101.2775
  1931.3000      7.8912      2.4267      0.0602     13.5329     19.8456    111.6525
  1931.4000      7.8912      2.4358      0.0510     12.9831     19.6887    121.5792
  1931.5000      7.8898      2.4394      0.0255     12.7628     19.6215    123.2379
  1931.6000      7.8898      2.4449      0.0592     12.4282     19.9203    118.8845
  1931.7000      7.8898      2.4542      0.0418     11.8664     20.5005    118.7010
  1931.8000      7.8879      2.4693      0.0316     10.9500     21.1994    123.4209
  1931.9000      7.8879      2.4860      0.0422      9.9406     21.8898    128.1877
  1932.0000      7.8885      2.4964      0.0534      9.3068     22.0892    132.8195
  1932.1000      7.8885      2.5030      0.0322      8.9089     21.8292    137.2071
  1932.2000      7.8885      2.5087      0.0575      8.5661     21.8186    141.5764
  1932.3000      7.8919      2.5082      0.0373      8.5939     22.2825    145.5889
  1932.4000      7.8919      2.5022      0.0167      8.9558     23.0482    150.3026
  1932.5000      7.8944      2.4963      0.0224      9.3164     24.0047    157.5094
  1932.6000      7.8944      2.4917      0.0486      9.5940     24.8302    162.5668
  1932.7000      7.8944      2.4895      0.0253      9.7266     24.9961    161.4786
  1932.8000      7.8948      2.4926      0.0363      9.5388     24.4228    155.8256
  1932.9000      7.8948      2.4991      0.0360      9.1435     23.8495    146.9788
  1933.0000      7.8935      2.5028      0.0567      8.9197     23.7257    138.4594
  1933.1000      7.8935      2.4979      0.0377      9.2161     23.5041    133.9725
  1933.2000      7.8935      2.4856      0.0605      9.9636     22.8801    130.4623
  1933.3000      7.8913      2.4735      0.0270     10.6943     22.3531    123.6426
  1933.4000      7.8913      2.4599      0.0857     11.5223     22.1407    114.9885
  1933.5000      7.8905      2.4371      0.0288     12.9033     21.9487    108.1238
  1933.6000      7.8905      2.4163     -0.0018     14.1623     21.6935    108.1243
  1933.7000      7.8905      2.4120     -0.0107     14.4262     21.5101    116.6970
  1933.8000      7.8896      2.4200      0.0206     13.9388     21.4317    124.1385
  1933.9000      7.8896      2.4342      0.0118     13.0784     21.3062    123.3209
  1934.0000      7.8891      2.4540      0.0480     11.8815     21.2355    119.6229
  1934.1000      7.8891      2.4709      0.0965     10.8552     21.5023    118.3028
  1934.2000      7.8891      2.4761      0.0845     10.5373     22.0362    121.4154
  1934.3000      7.8907      2.4735      0.0898     10.6992     22.6602    131.2571
  1934.4000      7.8907      2.4710      0.0754     10.8461     23.0748    146.0487
  1934.5000      7.8896      2.4770      0.0595     10.4858     23.1318    160.3905
  1934.6000      7.8896      2.4874      0.1059      9.8529     23.2832    168.6629
  1934.7000      7.8896      2.4856      0.0911      9.9644     23.8353    170.5165
  1934.8000      7.8863      2.4721      0.0347     10.7791     24.3742    167.7844
  1934.9000      7.8863      2.4594      0.0406     11.5503     24.4628    160.2603
  1935.0000      7.8861      2.4483      0.0398     12.2250     24.1978    152.9023
  1935.1000      7.8861      2.4407     -0.0136     12.6876     23.9596    150.0602
  1935.2000      7.8861      2.4414      0.0489     12.6454     23.9645    149.0111
  1935.3000      7.8883      2.4464      0.0280     12.3419     24.1264    148.8547
  1935.4000      7.8883      2.4525      0.0478     11.9719     24.2629    152.6913
  1935.5000      7.8886      2.4596      0.0522     11.5386     24.1246    159.5049
  1935.6000      7.8886      2.4661      0.0625     11.1480     23.6184    161.9786
  1935.7000      7.8886      2.4718     -0.0151     10.7979     23.0934    155.7814
  1935.8000      7.8880      2.4741      0.0484     10.6623     22.7995    146.9149
  1935.9000      7.8880      2.4692      0.0234     10.9566     22.5292    143.2417
  1936.0000      7.8902      2.4652      0.0563     11.2009     22.1477    144.0827
  1936.1000      7.8902      2.4655      0.0486     11.1823     21.7914    145.5715
  1936.2000      7.8902      2.4665      0.0362     11.1233     21.5518    143.8584
  1936.3000      7.8912      2.4654      0.0472     11.1872     21.5972    136.4505
