~Version Information
VERS.                      2.0: CWLS Log ASCII Standard - VERSION 2.0
WRAP.                       NO: One line per depth step
~Well Information Block
STRT.FT               580.0000: 
STOP.FT              1029.0000: 
STEP.FT                 0.1000: 
NULL.                -999.2500: 
COMP.          Pioneer Natural Resources: COMPANY
WELL.             Quartz 13-22: WELL
FLD.           Purgatoire River: FIELD
LOC.           1933' FSL & 675' FWL: LOCATION
PROV.                 Colorado: PROVINCE
CNTY.               Las Animas: COUNTRY
SRVC.                Patterson: SERVICE COMPANY
DATE.          Fri Dec 16 10:30:09 2005: LOG DATE
UWI.           05 071 08638 00: UNIQUE WELL ID
~Curve Information Block
DEPT.FT            0 000 00 00: Depth
DCAL.in                       : CDL Caliper
RHOB.g/cc                     : CDL Bulk Density
RHOC.g/cc                     : CDL Density Correction
DPOR.pu                       : CDL Density Porosity
GR.GAPI                       : Gamma Ray
NPOR.pu                       : Neutron Porosity
~Parameter Information Block
~A  Depth       DCAL        RHOB        RHOC        DPOR         GR         NPOR    
# ...
   839.2000      8.1740      1.5868      0.1648     64.4362     67.5551     17.2933
   839.3000      8.1392      1.6966      0.1985     57.7846     76.2421     18.6240
   839.4000      8.1392      1.8181      0.2206     50.4198     80.4447     19.8868
   839.5000      8.2396      1.9381      0.2331     43.1428     85.2086     21.3578
   839.6000      8.2396      2.0506      0.2517     36.3269     95.6161     22.8473
   839.7000      8.2396      2.1571      0.2771     29.8736    108.8691     23.7121
   839.8000      8.3323      2.2618      0.2329     23.5285    119.7232     23.8179
   839.9000      8.3323      2.3562      0.2509     17.8082    126.8941     23.9734
   840.0000      8.3466      2.4154      0.1961     14.2201    132.7716     24.5756
   840.1000      8.3466      2.4278      0.1145     13.4651    138.8330     24.9848
   840.2000      8.3466      2.4189      0.0211     14.0077    141.8107     24.9912
   840.3000      8.0828      2.4211      0.0588     13.8725    136.3019     25.0418
   840.4000      8.0828      2.4369      0.0869     12.9128    124.8383     25.0483
   840.5000      8.0141      2.4520      0.0788     12.0001    117.8549     24.8490
   840.6000      8.0141      2.4540      0.0986     11.8776    119.5353     24.7898
   840.7000      8.0141      2.4415      0.0453     12.6367    124.0875     25.1121
   840.8000      8.0013      2.4276      0.0362     13.4765    124.6690     25.5865
   840.9000      8.0013      2.4263      0.0427     13.5568    119.9943     25.7521
   841.0000      7.9893      2.4428      0.0653     12.5553    113.5326     25.4614
   841.1000      7.9893      2.4697      0.1149     10.9303    107.6020     25.1543
   841.2000      7.9893      2.4892      0.1091      9.7436    102.1699     25.3252
   841.3000      7.9933      2.4966      0.0867      9.2949    100.0749     25.8101
   841.4000      7.9933      2.5065      0.0651      8.6953    101.0743     26.1809
   841.5000      7.9632      2.5278      0.1209      7.4056     99.9843     26.3509
   841.6000      7.9632      2.5514      0.0797      5.9763     94.5828     26.3969
   841.7000      7.9632      2.5708      0.0484      4.7976     87.0413     26.2573
   841.8000      7.9339      2.5843      0.0862      3.9821     81.7299     25.6774
   841.9000      7.9339      2.5865      0.1105      3.8502     79.3556     24.7240
   842.0000      7.9195      2.5797      0.0538      4.2586     78.0848     23.9175
   842.1000      7.9195      2.5726      0.0795      4.6884     79.1847     23.5508
   842.2000      7.9195      2.5603      0.0558      5.4369     82.1412     23.5009
   842.3000      7.9029      2.5414     -0.0144      6.5834     82.5504     23.6127
   842.4000      7.9029      2.5315      0.0070      7.1822     79.9239     23.7900
   842.5000      7.8980      2.5414      0.0254      6.5799     76.2116     23.9182
   842.6000      7.8980      2.5667      0.0785      5.0471     71.8224     23.7829
   842.7000      7.8980      2.5965      0.1220      3.2434     69.3154     23.3379
   842.8000      7.9106      2.6221      0.1732      1.6920     67.6093     22.9867
   842.9000      7.9106      2.6323      0.2002      1.0720     64.7576     22.9976
   843.0000      7.9068      2.6240      0.1134      1.5737     65.5101     23.0889
   843.1000      7.9068      2.6079      0.1626      2.5521     71.8666     23.2246
   843.2000      7.9068      2.5936      0.1358      3.4160     79.2651     23.4741
   843.3000      7.8940      2.5902      0.1015      3.6264     85.3788     23.3945
   843.4000      7.8940      2.5984      0.1082      3.1248     90.8382     22.7930
   843.5000      7.9055      2.6106      0.0637      2.3905     96.0053     22.3884
   843.6000      7.9055      2.6156      0.1206      2.0842    100.4814     22.7656
   843.7000      7.9055      2.6003      0.0601      3.0135    103.3635     23.3022
   843.8000      7.8958      2.5695      0.0178      4.8809    105.9574     23.1007
   843.9000      7.8958      2.5401      0.0023      6.6605    109.2037     22.2091
   844.0000      7.8829      2.5200     -0.0106      7.8794    111.2854     21.2047
   844.1000      7.8829      2.5117      0.0055      8.3837    111.3903     20.5492
   844.2000      7.8829      2.5163      0.0106      8.1038    109.6303     20.4139
   844.3000      7.9141      2.5264      0.0315      7.4899    105.1907     20.7792
   844.4000      7.9141      2.5256      0.0676      7.5369    100.8008     21.6589
   844.5000      7.9176      2.5029      0.0736      8.9178     98.8944     22.7040
   844.6000      7.9176      2.4721     -0.0362     10.7789     99.4736     23.3380
   844.7000      7.9176      2.4592     -0.0111     11.5662    104.9894     23.5058
   844.8000      7.9637      2.4570      0.0164     11.6971    115.0142     23.4574
   844.9000      7.9637      2.4483      0.0052     12.2241    124.5477     23.3735
   845.0000      7.9911      2.4445      0.0025     12.4520    131.3020     23.4209
   845.1000      7.9911      2.4539      0.0403     11.8846    134.8520     23.6573
   845.2000      7.9911      2.4669      0.0539     11.0986    136.1724     23.9764
   845.3000      8.0036      2.4800      0.0681     10.3028    137.8802     24.1972
   845.4000      8.0036      2.4945      0.0682      9.4229    138.8374     24.3943
   845.5000      7.9994      2.5079      0.0929      8.6110    137.1890     24.3740
   845.6000      7.9994      2.5149      0.1062      8.1878    134.8244     23.9273
   845.7000      7.9994      2.5174      0.0519      8.0365    132.0685     23.6704
   845.8000      7.9916      2.5180      0.0826      7.9985    127.9664     24.1203
   845.9000      7.9916      2.5103      0.0639      8.4691    124.8169     24.8366
   846.0000      7.9570      2.5002      0.0183      9.0776    123.6544     25.0792
   846.1000      7.9570      2.5013      0.0395      9.0138    122.6360     24.8132
   846.2000      7.9570      2.5068      0.0338      8.6792    118.7868     24.4392
   846.3000      7.9556      2.4918      0.0351      9.5872    113.5895     23.9647
   846.4000      7.9556      2.4331      0.0591     13.1453    115.3048     23.2944
   846.5000      7.9538      2.3360     -0.0341     19.0333    124.2883     22.4325
   846.6000      7.9538      2.2298     -0.0652     25.4664    128.7925     21.5038
   846.7000      7.9538      2.1347     -0.0981     31.2329    122.7094     20.7115
   846.8000      7.9690      2.0555     -0.1180     36.0276    108.7053     20.1094
   846.9000      7.9690      1.9890     -0.1493     40.0578     93.1016     19.6855
   847.0000      7.9795      1.9295     -0.1474     43.6649     87.5183     19.3956
   847.1000      7.9795      1.8760     -0.1236     46.9117     92.4427     19.1451
   847.2000      7.9795      1.8348     -0.1419     49.4072     91.1810     18.7847
   847.3000      7.9909      1.8167     -0.0497     50.5049     77.2823     18.2938
   847.4000      7.9909      1.8164      0.0350     50.5228     63.6365     17.9924
   847.5000      7.9934      1.8135      0.0531     50.6983     60.7164     18.1396
   847.6000      7.9934      1.7990      0.0098     51.5787     65.3681     18.5168
   847.7000      7.9934      1.7801      0.0054     52.7195     71.1682     18.7499
   847.8000      7.9777      1.7695     -0.0031     53.3660     75.3561     18.9126
   847.9000      7.9777      1.7837      0.0067     52.5042     74.7518     19.3406
   848.0000      7.9761      1.8316      0.0754     49.6015     70.4431     19.8506
   848.1000      7.9761      1.8949      0.0772     45.7638     68.0858     20.1005
   848.2000      7.9761      1.9451      0.1049     42.7216     69.8593     20.1327
   848.3000      8.0048      1.9784      0.0642     40.7060     73.8130     20.2146
   848.4000      8.0048      2.0193      0.0386     38.2264     77.9975     20.6956
   848.5000      8.0127      2.0869      0.0726     34.1260     83.3634     21.4926
   848.6000      8.0127      2.1646      0.1608     29.4172     88.8892     22.2700
   848.7000      8.0127      2.2199      0.1125     26.0691     90.2918     22.9153
