~Version Information
VERS.                      2.0: CWLS Log ASCII Standard - VERSION 2.0
WRAP.                       NO: One line per depth step
~Well Information Block
STRT.FT                -5.5000: 
STOP.FT              2262.7500: 
STEP.FT                 0.2500: 
NULL.                -999.2500: 
COMP.          Pioneer Natural Resources: COMPANY
WELL.             Baa Baa 34-1: WELL
FLD.           Purgatorie River: FIELD
LOC.           617' FSL & 2289' FEL------: LOCATION
STAT.                       CO: State
CNTY.               Las Animas: COUNTY
CTRY. USA : Country
SECT. 1 : Section
TOWN. 33S : Township
RANG. 67W : Range
SRVC.          Patterson Wireline: SERVICE COMPANY
DATE.          Mon Sep 12 14:08:52 2005: LOG DATE
API.           05 071 08502 00: UNIQUE WELL ID
~Curve Information Block
DEPT.FT            0 000 00 00: Depth
LTEN.lb                       : Surface Line Tension
CCL.                          : Casing Collar Locator
TT3.usec                      : CBL 3' Travel Time
AMP3.mV                       : CBL 3' Amplitude
GR.GAPI                       : Gamma Ray
~Parameter Information Block
~A  Depth       LTEN        CCL         TT3         AMP3         GR     
# ...
  1646.5000  -4537.1924      0.0000    671.2338      3.5233    131.0065
  1646.7500  -4539.8569      0.0000    667.6367      3.5183    135.4130
  1647.0000  -4535.8604      0.0000    668.2663      3.5125    139.4822
  1647.2500  -4538.5244      0.0000    673.7891      3.5062    140.8575
  1647.5000  -4533.1958      0.0000    684.1981      3.4972    137.9634
  1647.7500  -4533.1958      0.0000    698.1681      3.4804    131.4357
  1648.0000  -4537.1924      0.0000    713.0078      3.4526    123.5920
  1648.2500  -4538.5244      0.0000    725.9806      3.4185    116.7485
  1648.5000  -4531.8638      0.0000    735.5624      3.3906    112.2171
  1648.7500  -4535.8604      0.0000    740.7751      3.3815    110.3461
  1649.0000  -4537.1924      0.0000    739.8561      3.3928    110.5505
  1649.2500  -4535.8604      0.0000    731.4499      3.4141    111.2398
  1649.5000  -4534.5283      0.0000    717.7372      3.4329    110.6766
  1649.7500  -4534.5283      0.0000    704.8242      3.4439    108.4509
  1650.0000  -4535.8604      0.0000    698.6948      3.4497    105.7721
  1650.2500  -4534.5283      0.0000    700.7299      3.4554    104.1163
  1650.5000  -4538.5244      0.0000    707.1051      3.4658    103.8508
  1650.7500  -4531.8638      0.0000    712.1799      3.4857    104.1971
  1651.0000  -4537.1924      0.0000    712.7954      3.5206    104.3634
  1651.2500  -4534.5283      0.0000    709.9407      3.5709    104.6355
  1651.5000  -4535.8604      0.0000    706.3802      3.6255    106.2298
  1651.7500  -4534.5283      0.0000    703.2930      3.6636    110.0415
  1652.0000  -4533.1958      0.0000    700.0739      3.6690    115.6574
  1652.2500  -4533.1958      0.0000    696.7000      3.6442    121.4423
  1652.5000  -4539.8569      0.0000    694.5999      3.6072    125.3049
  1652.7500  -4534.5283      0.0000    695.0063      3.5708    125.8687
  1653.0000  -4534.5283      0.0000    697.2203      3.5311    123.8473
  1653.2500  -4535.8604      0.0000    698.7125      3.4851    122.1793
  1653.5000  -4533.1958      0.0000    697.0372      3.4607    123.7804
  1653.7500  -4538.5244      0.0000    692.6544      3.5079    128.8407
  1654.0000  -4537.1924      0.0000    689.9338      3.6374    134.6923
  1654.2500  -4534.5283      0.0000    693.4684      3.7854    138.1561
  1654.5000  -4534.5283      0.0000    702.5586      3.8707    137.8142
  1654.7500  -4539.8569      0.0000    711.3046      3.8734    134.5066
  1655.0000  -4533.1958      0.0000    715.1921      3.8323    130.1972
  1655.2500  -4530.5317      0.0000    715.6765      3.7878    126.3065
  1655.5000  -4535.8604      0.0000    716.9326      3.7560    122.8735
  1655.7500  -4537.1924      0.0000    719.8200      3.7397    119.2363
  1656.0000  -4535.8604      0.0000    720.9651      3.7387    115.3934
  1656.2500  -4533.1958      0.0000    717.2079      3.7512    112.5100
  1656.5000  -4539.8569      0.0000    709.4196      3.7773    112.0888
  1656.7500  -4535.8604      0.0000    701.6774      3.8131    114.7435
  1657.0000  -4534.5283      0.0000    697.3817      3.8406    119.6788
  1657.2500  -4534.5283      0.0000    696.8114      3.8349    125.1743
  1657.5000  -4533.1958      0.0000    698.0745      3.7857    129.6950
  1657.7500  -4530.5317      0.0000    699.4147      3.7063    132.8072
  1658.0000  -4535.8604      0.0000    700.2345      3.6197    135.0833
  1658.2500  -4534.5283      0.0000    700.6843      3.5403    137.0602
  1658.5000  -4535.8604      0.0000    700.9913      3.4709    138.4241
  1658.7500  -4538.5244      0.0000    701.2247      3.4117    138.4937
  1659.0000  -4533.1958      0.0000    701.3576      3.3672    137.3979
  1659.2500  -4535.8604      0.0000    701.4238      3.3422    136.2002
  1659.5000  -4534.5283      0.0000    701.6412      3.3349    135.6880
  1659.7500  -4538.5244      0.0000    702.4647      3.3365    135.5685
  1660.0000  -4538.5244      0.0000    704.4862      3.3373    135.1083
  1660.2500  -4538.5244      0.0000    708.0134      3.3296    134.0736
  1660.5000  -4531.8638      0.0000    712.4963      3.3096    132.8225
  1660.7500  -4533.1958      0.0000    716.4735      3.2792    131.9180
  1661.0000  -4530.5317      0.0000    718.4180      3.2454    131.8643
  1661.2500  -4537.1924      0.0000    717.7350      3.2162    132.8479
  1661.5000  -4537.1924      0.0000    714.9376      3.1965    134.4449
  1661.7500  -4533.1958      0.0000    711.1266      3.1868    135.6782
  1662.0000  -4537.1924      0.0000    707.4659      3.1830    135.6667
  1662.2500  -4534.5283      0.0000    704.8444      3.1813    134.2763
  1662.5000  -4531.8638      0.0000    703.6835      3.1817    131.8287
  1662.7500  -4531.8638      0.0000    703.8666      3.1875    128.3243
  1663.0000  -4531.8638      0.0000    704.5890      3.1987    123.7104
  1663.2500  -4533.1958      0.0000    704.2932      3.2097    119.0216
  1663.5000  -4537.1924      0.0000    701.4893      3.2160    116.2617
  1663.7500  -4531.8638      0.0000    696.4125      3.2211    116.6421
  1664.0000  -4531.8638      0.0000    691.5845      3.2317    119.4282
  1664.2500  -4534.5283      0.0000    689.8671      3.2466    122.7795
  1664.5000  -4539.8569      0.0000    691.8859      3.2577    125.3734
  1664.7500  -4530.5317      0.0000    695.7949      3.2637    127.1786
  1665.0000  -4531.8638      0.0000    699.3143      3.2758    128.9199
  1665.2500  -4533.1958      0.0000    701.3921      3.3049    130.8429
  1665.5000  -4535.8604      0.0000    702.0623      3.3446    132.2625
  1665.7500  -4531.8638      0.0000    701.4122      3.3734    132.5611
  1666.0000  -4533.1958      0.0000    699.0480      3.3694    131.9947
  1666.2500  -4531.8638      0.0000    694.5449      3.3263    130.9243
  1666.5000  -4538.5244      0.0000    688.4808      3.2592    128.9448
  1666.7500  -4534.5283      0.0000    682.9498      3.1980    125.5496
  1667.0000  -4537.1924      0.0000    680.5449      3.1691    121.2556
  1667.2500  -4533.1958      0.0000    682.3257      3.1822    117.6198
  1667.5000  -4534.5283      0.0000    686.7720      3.2295    116.3116
  1667.7500  -4533.1958      0.0000    690.9857      3.2961    118.1224
  1668.0000  -4541.1890      0.0000    693.0482      3.3673    122.3848
  1668.2500  -4531.8638      0.0000    693.2949      3.4286    127.1602
  1668.5000  -4538.5244      0.0000    693.4841      3.4648    130.3299
  1668.7500  -4531.8638      0.0000    694.9151      3.4650    131.0034
  1669.0000  -4531.8638      0.0000    697.4492      3.4313    130.0662
  1669.2500  -4533.1958      0.0000    700.1536      3.3793    129.2112
  1669.5000  -4541.1890      0.0000    702.4274      3.3300    129.3906
  1669.7500  -4538.5244      0.0000    704.2234      3.2976    130.3219
  1670.0000  -4537.1924      0.0000    705.3271      3.2826    131.4055
  1670.2500  -4535.8604      0.0000    704.7643      3.2740    132.7436
  1670.5000  -4535.8604      0.0000    701.4306      3.2581    135.0178
  1670.7500  -4535.8604      0.0000    695.6597      3.2298    138.5417
  1671.0000  -4535.8604      0.0000    689.7064      3.1952    142.6732
  1671.2500  -4538.5244      0.0000    685.9227      3.1655    146.1365
  1671.5000  -4533.1958      0.0000    684.5734      3.1476    147.7664
  1671.7500  -4534.5283      0.0000    684.0387      3.1412    146.9969
  1672.0000  -4538.5244      0.0000    682.9322      3.1440    144.0350
  1672.2500  -4534.5283      0.0000    681.4212      3.1546    140.0124
  1672.5000  -4538.5244      0.0000    680.5597      3.1699    136.6842
  1672.7500  -4539.8569      0.0000    680.7307      3.1815    135.1440
  1673.0000  -4534.5283      0.0000    680.9551      3.1809    134.6830
  1673.2500  -4537.1924      0.0000    680.0374      3.1676    133.5800
  1673.5000  -4538.5244      0.0000    678.3745      3.1493    131.2464
  1673.7500  -4533.1958      0.0000    677.9214      3.1347    128.9479
  1674.0000  -4534.5283      0.0000    679.9517      3.1293    127.9406
  1674.2500  -4533.1958      0.0000    683.3344      3.1377    127.4290
