~Version Information
VERS.                      2.0: CWLS Log ASCII Standard - VERSION 2.0
WRAP.                       NO: One line per depth step
~Well Information Block
STRT.FT               264.2500: 
STOP.FT              1134.7500: 
STEP.FT                 0.2500: 
NULL.                -999.2500: 
COMP.          Pioneer Natural Resources: COMPANY
WELL.          Black Cat 13-32 Tr: WELL
FLD.           Purgatoire River: FIELD
LOC.           1679' FSL & 1150' FWL--: LOCATION
CNTY.               Las Animas: COUNTY
SRVC.                Patterson: SERVICE COMPANY
DATE.          Tue Mar 07 10:58:06 2006: LOG DATE
UWI.           05 071 08721 00: UNIQUE WELL ID
STAT.                 Colorado: STATE
~Curve Information Block
DEPT.FT            0 000 00 00: Depth
SN.Ohm-m                      : IEL Short Normal
SP.mV                         : IEL Spontaneous Potential
DIR.Ohm-m                     : IEL Induction Resistivity
GR.GAPI                       : Gamma Ray
~Parameter Information Block
~A  Depth        SN          SP         DIR          GR     
# ...
   465.2500    594.4247   -377.7472     52.1852     62.3114
   465.5000    590.8634   -358.6495     52.8687     64.7779
   465.7500    581.4297   -342.7417     53.4284     66.4824
   466.0000    560.8574   -331.2110     53.9036     68.2695
   466.2500    524.7587   -324.8937     54.3438     68.4902
   466.5000    475.0033   -324.1128     54.8203     67.1817
   466.7500    423.1314   -328.6184     55.4113     65.4805
   467.0000    385.6508   -337.6530     56.1594     62.3858
   467.2500    372.9899   -350.1179     57.0287     60.3403
   467.5000    382.8320   -364.7820     57.8993     57.8521
   467.7500    404.8060   -380.4590     58.6054     56.8193
   468.0000    430.4675   -396.1106     58.9999     56.3347
   468.2500    457.8600   -410.8545     59.0144     56.5870
   468.5000    488.0607   -423.9273     58.6805     57.3706
   468.7500    519.7286   -434.6479     58.1076     57.8875
   469.0000    548.2020   -442.4306     57.4420     58.3889
   469.2500    569.2997   -446.8589     56.8320     58.5490
   469.5000    582.3895   -447.7926     56.4075     58.6939
   469.7500    589.4312   -445.4633     56.2563     58.8253
   470.0000    592.5822   -440.5156     56.3898     59.1752
   470.2500    593.2378   -433.9551     56.7155     59.4748
   470.5000    592.3730   -427.0210     57.0555     59.7283
   470.7500    590.7535   -420.9968     57.2278     59.6062
   471.0000    588.6171   -417.0013     57.1426     59.1507
   471.2500    585.4259   -415.8074     56.8300     58.9795
   471.5000    579.9758   -417.7298     56.3723     59.2269
   471.7500    570.9493   -422.6090     55.8256     59.5485
   472.0000    558.1131   -429.8887     55.2105     59.6404
   472.2500    544.0397   -438.7719     54.5575     59.2300
   472.5000    534.1818   -448.4070     53.9393     58.1250
   472.7500    533.5645   -458.0428     53.4529     57.4226
   473.0000    542.6680   -467.1180     53.1782     57.0414
   473.2500    556.6414   -475.2694     53.1416     57.4809
   473.5000    568.0983   -482.2594     53.2929     59.4776
   473.7500    571.2022   -487.8856     53.5052     61.7940
   474.0000    565.2607   -491.9125     53.6165     66.3994
   474.2500    555.9287   -494.0522     53.5015     69.5619
   474.5000    551.7234   -494.0007     53.1324     72.8926
   474.7500    557.2149   -491.5205     52.5851     73.5031
   475.0000    569.5229   -486.5331     51.9977     71.9358
   475.2500    582.0477   -479.1941     51.5147     69.8341
   475.5000    590.4531   -469.9340     51.2450     66.6471
   475.7500    594.5063   -459.4590     51.2492     65.2637
   476.0000    595.9385   -448.7102     51.5584     64.6898
   476.2500    596.2131   -438.7833     52.1954     64.9146
   476.5000    595.8482   -430.8205     53.1671     64.9650
   476.7500    594.6138   -425.8708     54.4223     64.3010
   477.0000    592.0105   -424.7471     55.8223     62.3129
   477.2500    588.0521   -427.8976     57.1676     60.7517
   477.5000    583.8545   -435.3176     58.2820     58.6584
   477.7500    581.0322   -446.5296     59.0873     57.4588
   478.0000    580.1016   -460.6391     59.6111     55.7379
   478.2500    580.0917   -476.4654     59.9356     54.6287
   478.5000    580.2415   -492.7266     60.1376     53.3314
   478.7500    581.2490   -508.2281     60.2586     52.9631
   479.0000    584.0648   -522.0236     60.3009     53.3302
   479.2500    588.2014   -533.5099     60.2418     54.0277
   479.5000    592.0914   -542.4391     60.0493     55.2653
   479.7500    594.6476   -548.8632     59.6982     56.0670
   480.0000    595.8741   -553.0362     59.1922     57.3729
   480.2500    596.3130   -555.3075     58.5921     58.4634
   480.5000    596.4323   -556.0325     58.0268     60.3749
   480.7500    596.4570   -555.5135     57.6551     61.5584
   481.0000    596.4615   -553.9708     57.5895     62.6522
   481.2500    596.4615   -551.5374     57.8381     62.8325
   481.5000    596.4615   -548.2642     58.3081     62.6381
   481.7500    596.4615   -544.1343     58.8583     62.5390
   482.0000    596.4615   -539.0675     59.3574     62.8347
   482.2500    596.4615   -532.9250     59.7128     63.3723
   482.5000    596.4615   -525.5125     59.8729     64.5735
   482.7500    596.4615   -516.5825     59.8197     65.4565
   483.0000    596.4615   -505.8360     59.5619     66.3311
   483.2500    596.4615   -492.9453     59.1341     66.3596
   483.5000    596.4615   -477.5968     58.5999     65.9779
   483.7500    596.4615   -459.5534     58.0510     66.0052
   484.0000    596.4615   -438.7366     57.5839     66.6517
   484.2500    596.4539   -415.3140     57.2543     66.8566
   484.5000    596.3886   -389.7675     57.0419     65.7154
   484.7500    596.0292   -362.9245     56.8611     64.1077
   485.0000    594.4749   -335.9273     56.6284     61.9089
   485.2500    589.1525   -310.1416     56.3407     61.5205
   485.5000    574.6788   -287.0212     56.0936     63.1599
   485.7500    543.3442   -267.9617     56.0152     65.3763
   486.0000    489.3526   -254.1772     56.1595     69.0021
   486.2500    415.6443   -246.6190     56.4358     70.7113
   486.5000    337.1552   -245.9315     56.6333     71.0409
   486.7500    274.8110   -252.4217     56.5339     69.5874
   487.0000    242.7105   -266.0155     56.0309     65.6757
   487.2500    238.9671   -286.1968     55.1403     62.8202
   487.5000    250.0079   -311.9552     53.9233     59.6775
   487.7500    266.2388   -341.7958     52.4375     58.8426
   488.0000    292.5507   -373.8492     50.7673     59.5433
   488.2500    339.8678   -406.0897     49.0532     61.0187
   488.5000    407.4779   -436.6203     47.4435     64.1389
   488.7500    478.9247   -463.9440     46.0074     66.6470
   489.0000    535.6428   -487.1456     44.6950     70.9926
   489.2500    570.3173   -505.9331     43.3749     74.1001
   489.5000    587.0392   -520.5468     41.9142     78.3897
   489.7500    593.5656   -531.5784     40.2442     80.7137
   490.0000    595.6904   -539.7665     38.3766     83.6943
   490.2500    596.2852   -545.8270     36.3753     85.9464
   490.5000    596.4285   -550.3500     34.3176     90.9173
   490.7500    596.4407   -553.7642     32.2732     95.7087
   491.0000    596.3506   -556.3546     30.3044    104.7788
   491.2500    595.8953   -558.3010     28.4736    111.2869
   491.5000    594.1553   -559.7150     26.8423    120.1201
   491.7500    588.8986   -560.6668     25.4603    124.7952
   492.0000    576.3657   -561.1978     24.3542    129.9005
   492.2500    552.7967   -561.3226     23.5261    132.2731
   492.5000    517.9652   -561.0282     22.9623    134.4125
   492.7500    477.8435   -560.2793     22.6425    134.5406
   493.0000    442.6217   -559.0264     22.5401    131.7478
   493.2500    420.5494   -557.2227     22.6156    127.5401
   493.5000    412.5815   -554.8411     22.8142    118.3397
   493.7500    411.4374   -551.8899     23.0738    111.3003
   494.0000    405.2812   -548.4221     23.3415    101.3575
   494.2500    385.3371   -544.5403     23.5830     96.0851
   494.5000    354.5914   -540.3901     23.7794     91.5258
   494.7500    330.0678   -536.1458     23.9151     91.2931
   495.0000    332.9124   -531.9868     23.9706     95.1918
   495.2500    371.9778   -528.0689     23.9262     99.8430
   495.5000    435.7992   -524.4958     23.7739    107.7944
   495.7500    501.2801   -521.2960     23.5257    112.7247
   496.0000    550.2590   -518.4044     23.2119    118.7743
   496.2500    578.2200   -515.6534     22.8685    121.7999
   496.5000    590.6374   -512.7773     22.5232    124.7027
   496.7500    594.9650   -509.4260     22.1873    125.5046
   497.0000    596.1554   -505.1936     21.8574    125.2846
   497.2500    596.4142   -499.6683     21.5252    124.5949
   497.5000    596.4330   -492.4909     21.1896    123.5420
   497.7500    596.2713   -483.4298     20.8617    123.1049
   498.0000    595.4254   -472.4368     20.5608    122.8551
   498.2500    592.0552   -459.6925     20.3047    122.8795
   498.5000    581.5939   -445.6056     20.1015    123.3776
