~Version Information
VERS.                      2.0: CWLS Log ASCII Standard - VERSION 2.0
WRAP.                       NO: One line per depth step
~Well Information Block
STRT.FT                15.0000: 
STOP.FT              1532.0000: 
STEP.FT                 0.2500: 
NULL.                -999.2500: 
COMP.          Pioneer Natural Resources: COMPANY
WELL.           Bobsy 34-11 Tr: WELL
FLD.           Purgatoire River: FIELD
LOC.           514' FSL & 1784' FEL: LOCATION
PROV.                 Colorado: PROVINCE
CNTY.               Las Animas: COUNTRY
SRVC.                Patterson: SERVICE COMPANY
DATE.          Fri Jul 22 12:22:14 2005: LOG DATE
UWI.           05 071 08438 00: UNIQUE WELL ID
~Curve Information Block
DEPT.FT            0 000 00 00: Depth
GR.GAPI                       : Gamma Ray
CCL.                          : Casing Collar Locator
TT3.usec                      : CBL 3' Travel Time
AMP3.mV                       : CBL 3' Amplitude
~Parameter Information Block
~A  Depth        GR         CCL         TT3         AMP3    
# ...
   417.0000     92.4204      0.0000    697.0409     12.8112
   417.2500     91.2197      0.0000    696.9135     12.8637
   417.5000     89.1188      0.0000    696.7215     12.9114
   417.7500     87.5556      0.0000    696.5483     12.9651
   418.0000     87.8418      0.0000    696.4665     13.0308
   418.2500     90.4099      0.0000    696.5238     13.0998
   418.5000     94.6037      0.0000    696.7446     13.1559
   418.7500     99.1878      0.0000    697.1047     13.1911
   419.0000    103.0337      0.0000    697.5051     13.2098
   419.2500    105.4048      0.0000    697.8015     13.2166
   419.5000    106.1255      0.0000    697.8771     13.2081
   419.7500    105.9437      0.0000    697.7040     13.1805
   420.0000    106.4556      0.0000    697.3497     13.1419
   420.2500    109.0168      0.0000    696.9251     13.1115
   420.5000    113.4340      0.0000    696.5187     13.1059
   420.7500    117.8078      0.0000    696.1693     13.1282
   421.0000    119.8171      0.0000    695.8873     13.1717
   421.2500    118.4306      0.0000    695.6822     13.2286
   421.5000    114.6087      0.0000    695.5671     13.2919
   421.7500    110.4102      0.0000    695.5577     13.3536
   422.0000    107.4043      0.0000    695.6745     13.4072
   422.2500    105.8002      0.0000    695.9322     13.4522
   422.5000    104.8272      0.0000    696.3107     13.4927
   422.7500    103.7288      0.0000    696.7440     13.5350
   423.0000    102.2868      0.0000    697.1549     13.5859
   423.2500    100.4651      0.0000    697.5021     13.6539
   423.5000     97.9419      0.0000    697.7822     13.7448
   423.7500     94.3363      0.0000    697.9890     13.8550
   424.0000     89.8544      0.0000    698.0847     13.9664
   424.2500     85.3772      0.0000    698.0204     14.0528
   424.5000     81.7995      0.0000    697.7822     14.0933
   424.7500     79.3970      0.0000    697.4174     14.0858
   425.0000     77.8295      0.0000    697.0212     14.0482
   425.2500     76.6666      0.0000    696.6931     14.0089
   425.5000     75.8399      0.0000    696.4916     13.9936
   425.7500     75.5355      0.0000    696.4136     14.0148
   426.0000     75.7750      0.0000    696.4070     14.0710
   426.2500     76.3606      0.0000    696.4060     14.1529
   426.5000     77.1060      0.0000    696.3726     14.2495
   426.7500     77.7289      0.0000    696.3186     14.3464
   427.0000     77.6052      0.0000    696.2870     14.4230
   427.2500     76.1729      0.0000    696.3099     14.4603
   427.5000     73.6828      0.0000    696.3892     14.4565
   427.7500     71.0638      0.0000    696.5027     14.4304
   428.0000     68.8600      0.0000    696.6172     14.4083
   428.2500     66.7015      0.0000    696.6979     14.4113
   428.5000     64.1104      0.0000    696.7200     14.4500
   428.7500     61.4946      0.0000    696.6743     14.5208
   429.0000     59.9754      0.0000    696.5632     14.6022
   429.2500     60.3347      0.0000    696.3937     14.6625
   429.5000     62.3281      0.0000    696.1786     14.6805
   429.7500     64.8694      0.0000    695.9453     14.6593
   430.0000     66.6857      0.0000    695.7363     14.6179
   430.2500     66.9809      0.0000    695.5939     14.5702
   430.5000     65.8025      0.0000    695.5408     14.5138
   430.7500     63.9298      0.0000    695.5772     14.4399
   431.0000     62.3506      0.0000    695.6957     14.3514
   431.2500     61.6658      0.0000    695.8914     14.2655
   431.5000     61.8008      0.0000    696.1502     14.1986
   431.7500     62.1882      0.0000    696.4247     14.1531
   432.0000     62.2556      0.0000    696.6312     14.1216
   432.2500     61.8101      0.0000    696.6876     14.1021
   432.5000     61.0482      0.0000    696.5681     14.1013
   432.7500     60.3600      0.0000    696.3170     14.1216
   433.0000     60.2210      0.0000    696.0087     14.1487
   433.2500     61.1296      0.0000    695.7068     14.1577
   433.5000     63.3747      0.0000    695.4617     14.1335
   433.7500     66.7278      0.0000    695.3138     14.0840
   434.0000     70.3729      0.0000    695.2734     14.0321
   434.2500     73.2721      0.0000    695.3039     13.9944
   434.5000     74.7060      0.0000    695.3458     13.9663
   434.7500     74.4494      0.0000    695.3603     13.9278
   435.0000     72.4864      0.0000    695.3467     13.8655
   435.2500     68.8912      0.0000    695.3245     13.7870
   435.5000     64.1914      0.0000    695.3074     13.7132
   435.7500     59.5620      0.0000    695.2931     13.6583
   436.0000     56.3208      0.0000    695.2719     13.6197
   436.2500     55.2163      0.0000    695.2448     13.5901
   436.5000     56.1499      0.0000    695.2285     13.5693
   436.7500     58.3244      0.0000    695.2400     13.5587
   437.0000     60.6544      0.0000    695.2788     13.5468
   437.2500     62.3052      0.0000    695.3256     13.5148
   437.5000     62.9797      0.0000    695.3607     13.4574
   437.7500     62.8742      0.0000    695.3862     13.3926
   438.0000     62.6126      0.0000    695.4272     13.3440
   438.2500     63.0707      0.0000    695.5040     13.3193
   438.5000     64.8661      0.0000    695.6012     13.3084
   438.7500     67.9702      0.0000    695.6719     13.2993
   439.0000     71.9084      0.0000    695.6865     13.2938
   439.2500     76.1722      0.0000    695.6797     13.3085
   439.5000     80.2082      0.0000    695.7792     13.3592
   439.7500     83.1568      0.0000    696.3278     13.4392
   440.0000     84.0254      0.0000    698.2175     13.5173
   440.2500     82.3402      0.0000    703.2618     13.5586
   440.5000     78.5649      0.0000    713.9189     13.5515
   440.7500     73.7618      0.0000    731.7391     13.5164
   441.0000     68.8352      0.0000    755.2991     13.4886
   441.2500     64.2131      0.0000    779.7982     13.4883
   441.5000     60.2713      0.0000    799.4017     13.5027
   441.7500     57.8229      0.0000    810.2891     13.4974
   442.0000     58.0165      0.0000    811.6237     13.4471
   442.2500     61.7219      0.0000    804.6411     13.3545
   442.5000     68.8516      0.0000    791.3693     13.2401
   442.7500     78.1533      0.0000    773.9529     13.1050
   443.0000     87.7815      0.0000    755.7498     12.8894
   443.2500     96.2169      0.0000    744.5258     12.4843
   443.5000    102.7137      0.0000    752.0828     11.8351
   443.7500    107.1235      0.0000    785.2805     11.0492
   444.0000    109.5625      0.0000    836.6451     10.3535
   444.2500    110.3020      0.0000    887.8920      9.9165
   444.5000    109.8270      0.0000    923.4073      9.7338
   444.7500    108.7996      2.1803    937.9780      9.6865
   445.0000    107.8245      3.0000    933.8197      9.6750
   445.2500    107.1231      0.0000    916.0439      9.7106
   445.5000    106.3562      0.0000    891.2698      9.9251
   445.7500    104.8842      0.0000    865.0273     10.4781
   446.0000    102.4090      0.0000    838.5995     11.3825
   446.2500     99.4873      0.0000    811.8785     12.4154
   446.5000     97.4063      0.0000    789.4953     13.2722
   446.7500     97.4104      0.0000    779.4967     13.8053
   447.0000     99.7871      0.0000    784.6052     14.0677
   447.2500    103.4999      0.0000    798.6368     14.1740
   447.5000    106.7394      0.0000    812.6091     14.2004
   447.7500    108.0174      0.0000    821.8439     14.1898
   448.0000    106.8802      0.0000    826.9702     14.1747
   448.2500    103.6924      0.0000    831.2875     14.1740
   448.5000     99.0380      0.0000    839.0030     14.1853
   448.7500     93.6947      0.0000    854.6531     14.1944
   449.0000     88.9941      0.0000    881.5142     14.1912
   449.2500     86.4712      0.0000    918.5197     14.1771
   449.5000     86.7395      0.0000    958.3938     14.1562
   449.7500     89.0078      0.0000    989.7371     14.1248
   450.0000     91.9364      0.0000   1002.0983     14.0737
   450.2500     94.6525      0.0000    990.7266     14.0009
