~Version Information
VERS.                      2.0: CWLS Log ASCII Standard - VERSION 2.0
WRAP.                       NO: One line per depth step
~Well Information Block
STRT.FT               380.0000: 
STOP.FT              1887.5000: 
STEP.FT                 0.1000: 
NULL.                -999.2500: 
COMP.          Pioneer Natural Resources: COMPANY
WELL.          Cortina 23-25 Tr: WELL
FLD.           Purgatoire River: FIELD
LOC.           2521' FSL & 2345' FWL: LOCATION
STAT.                 Colorado: State
CNTY.               Las Animas: COUNTY
CTRY. USA : Country
SECT. 25 : Section
TOWN. 32S : Township
RANG. 67W : Range
SRVC.                Patterson: SERVICE COMPANY
DATE.          Mon Sep 26 06:09:01 2005: LOG DATE
API.           05 071 08534 00: UNIQUE WELL ID
~Curve Information Block
DEPT.FT            0 000 00 00: Depth
DCAL.in                       : CDL Caliper
RHOB.g/cc                     : CDL Bulk Density
RHOC.g/cc                     : CDL Density Correction
DPOR.pu                       : CDL Density Porosity
GR.GAPI                       : Gamma Ray
NPOR.pu                       : Neutron Porosity
~Parameter Information Block
~A  Depth       DCAL        RHOB        RHOC        DPOR         GR         NPOR    
# ...
  1676.0000      8.0064      2.2653      0.1247     23.3171     99.8978     31.9332
  1676.1000      8.0108      2.3849      0.2321     16.0687     95.0714     31.8286
  1676.2000      8.0125      2.4654      0.2387     11.1878     93.0220     30.6964
  1676.3000      8.0119      2.4953      0.0965      9.3761     94.4463     28.8801
  1676.4000      8.0093      2.5156      0.1189      8.1454     97.2693     27.3295
  1676.5000      8.0050      2.5424      0.1040      6.5191     98.5782     26.7683
  1676.6000      7.9993      2.5593      0.1012      5.4993     97.0277     26.7020
  1676.7000      7.9926      2.5603      0.0788      5.4392     96.7222     26.3143
  1676.8000      7.9851      2.5552      0.0747      5.7472    101.3453     25.6226
  1676.9000      7.9771      2.5551      0.0404      5.7485    107.0458     24.8820
  1677.0000      7.9690      2.5667      0.0639      5.0469    111.2827     24.4766
  1677.1000      7.9608      2.5824      0.1002      4.0940    116.3800     24.9202
  1677.2000      7.9528      2.5901      0.0736      3.6324    117.9778     25.7074
  1677.3000      7.9450      2.5894      0.0678      3.6708    109.6949     25.5900
  1677.4000      7.9377      2.5795      0.0814      4.2700     97.2450     24.6696
  1677.5000      7.9310      2.5610      0.0439      5.3951     92.1844     24.1840
  1677.6000      7.9252      2.5450      0.0348      6.3663     97.0737     24.5665
  1677.7000      7.9206      2.5290      0.0782      7.3356    104.9011     25.3493
  1677.8000      7.9173      2.5069     -0.0018      8.6755    109.5684     25.7184
  1677.9000      7.9155      2.4989     -0.0546      9.1547    111.5005     25.6746
  1678.0000      7.9153      2.5184      0.0030      7.9752    112.5626     25.5583
  1678.1000      7.9163      2.5430      0.0539      6.4866    113.0971     25.2936
  1678.2000      7.9184      2.5546      0.0174      5.7832    114.4322     25.2575
  1678.3000      7.9212      2.5656      0.0826      5.1132    115.4651     25.3855
  1678.4000      7.9242      2.5926      0.0292      3.4815    114.7534     24.9518
  1678.5000      7.9269      2.6240      0.1266      1.5767    114.7802     23.9776
  1678.6000      7.9291      2.6257      0.0673      1.4722    113.3631     23.3998
  1678.7000      7.9304      2.5942      0.0551      3.3814    107.5414     23.7738
  1678.8000      7.9308      2.5634      0.0532      5.2465    103.7804     24.5361
  1678.9000      7.9303      2.5575      0.0199      5.6063    107.6754     24.6254
  1679.0000      7.9290      2.5615      0.0976      5.3666    114.5708     24.2137
  1679.1000      7.9270      2.5535      0.0520      5.8460    119.6708     24.3390
  1679.2000      7.9246      2.5439      0.0391      6.4274    123.4373     24.7202
  1679.3000      7.9220      2.5468      0.0705      6.2547    124.9614     24.7543
  1679.4000      7.9194      2.5514      0.0457      5.9729    124.9742     24.8779
  1679.5000      7.9170      2.5456      0.0329      6.3296    124.9581     25.0702
  1679.6000      7.9151      2.5355      0.0271      6.9412    121.4023     24.8496
  1679.7000      7.9135      2.5374     -0.0057      6.8237    111.5651     24.5432
  1679.8000      7.9123      2.5571      0.0131      5.6305    102.8130     24.7079
  1679.9000      7.9113      2.5823      0.0476      4.1030    104.7716     25.4415
  1680.0000      7.9103      2.5987      0.0715      3.1077    113.8717     26.2187
  1680.1000      7.9093      2.6017      0.0616      2.9249    119.2038     26.3464
  1680.2000      7.9080      2.5975      0.0494      3.1794    117.8176     25.8652
  1680.3000      7.9064      2.5954      0.0444      3.3072    114.7320     25.2001
  1680.4000      7.9044      2.5940      0.0457      3.3945    115.7353     24.7104
  1680.5000      7.9022      2.5871      0.0062      3.8125    121.0755     24.6968
  1680.6000      7.8999      2.5763      0.0421      4.4666    123.7898     24.9974
  1680.7000      7.8977      2.5594      0.0652      5.4935    120.9538     25.0189
  1680.8000      7.8960      2.5371     -0.0129      6.8442    117.8919     24.8832
  1680.9000      7.8948      2.5209      0.0384      7.8223    116.9521     25.0528
  1681.0000      7.8944      2.5131      0.0247      8.2998    113.4203     25.7470
  1681.1000      7.8947      2.5123     -0.0407      8.3447    109.0312     26.9717
  1681.2000      7.8957      2.5251      0.0026      7.5675    110.5378     27.8264
  1681.3000      7.8974      2.5494      0.0423      6.0987    114.5544     27.3690
  1681.4000      7.8995      2.5728      0.0227      4.6774    113.8618     26.3348
  1681.5000      7.9019      2.5846      0.0924      3.9661    110.9683     25.7570
  1681.6000      7.9048      2.5794      0.0523      4.2810    111.4713     25.3058
  1681.7000      7.9080      2.5592      0.0427      5.5037    113.6485     24.6237
  1681.8000      7.9119      2.5334      0.0359      7.0690    114.2573     23.9440
  1681.9000      7.9167      2.5178      0.0262      8.0133    112.0839     23.4395
  1682.0000      7.9227      2.5193      0.0214      7.9225    106.8145     23.3397
  1682.1000      7.9301      2.5307      0.0437      7.2274    101.4470     23.8065
  1682.2000      7.9391      2.5453     -0.0081      6.3438     98.8474     24.2654
  1682.3000      7.9496      2.5593      0.0457      5.4959    101.9270     24.1249
  1682.4000      7.9613      2.5622      0.0555      5.3190    110.7204     23.8661
  1682.5000      7.9738      2.5498      0.0835      6.0719    117.0693     23.7719
  1682.6000      7.9863      2.5356      0.0496      6.9315    114.2902     23.5329
  1682.7000      7.9979      2.5408      0.0585      6.6181    107.5419     23.3795
  1682.8000      8.0080      2.5699      0.1302      4.8532    105.5270     23.6749
  1682.9000      8.0156      2.6072      0.1828      2.5955    107.4288     24.1399
  1683.0000      8.0203      2.6363      0.1964      0.8298    109.0822     24.1689
  1683.1000      8.0216      2.6488      0.1843      0.0725    109.9958     23.5259
  1683.2000      8.0194      2.6481      0.1695      0.1156    109.8753     22.4085
  1683.3000      8.0139      2.6436      0.1165      0.3900    109.0225     21.2977
  1683.4000      8.0056      2.6321      0.1436      1.0830    104.8803     20.3774
  1683.5000      7.9952      2.6118      0.0701      2.3140     98.1663     19.5220
  1683.6000      7.9833      2.5983      0.0284      3.1304     93.5823     19.0462
  1683.7000      7.9711      2.5954      0.0808      3.3083     89.3568     19.1744
  1683.8000      7.9593      2.5857      0.0774      3.8989     84.8607     19.4497
  1683.9000      7.9489      2.5640      0.0448      5.2112     84.1318     19.4417
  1684.0000      7.9405      2.5372      0.0393      6.8347     85.8356     19.3515
  1684.1000      7.9347      2.5074      0.0161      8.6447     85.4314     19.4088
  1684.2000      7.9319      2.4833      0.0151     10.1013     81.8132     19.5663
  1684.3000      7.9320      2.4777      0.0084     10.4429     77.5196     19.9021
  1684.4000      7.9349      2.4864      0.0189      9.9159     76.8617     20.3433
  1684.5000      7.9401      2.4971      0.0119      9.2681     81.0349     20.1816
  1684.6000      7.9469      2.5083      0.0594      8.5855     85.7702     19.2505
  1684.7000      7.9545      2.5233      0.0418      7.6807     86.6904     18.5861
  1684.8000      7.9619      2.5424      0.0673      6.5192     83.3201     19.0782
  1684.9000      7.9684      2.5620      0.1262      5.3347     77.8483     20.1369
  1685.0000      7.9732      2.5791      0.1264      4.2954     73.1829     20.7471
  1685.1000      7.9758      2.5961      0.1407      3.2643     70.7854     20.7281
  1685.2000      7.9760      2.6104      0.1263      2.3994     71.1475     20.3351
  1685.3000      7.9739      2.6135      0.1282      2.2120     74.9662     19.7081
  1685.4000      7.9699      2.5941      0.1411      3.3894     83.2603     19.0810
  1685.5000      7.9647      2.5478      0.0876      6.1959     91.7061     19.0019
