~Version Information
VERS.                      2.0: CWLS Log ASCII Standard - VERSION 2.0
WRAP.                       NO: One line per depth step
~Well Information Block
STRT.FT               262.8000: 
STOP.FT              1134.7000: 
STEP.FT                 0.1000: 
NULL.                -999.2500: 
COMP.          Pioneer Natural Resources: COMPANY
WELL.          Black Cat 13-32 Tr: WELL
FLD.           Purgatoire River: FIELD
LOC.           1679' FSL & 1150' FWL--: LOCATION
CNTY.               Las Animas: COUNTY
SRVC.                Patterson: SERVICE COMPANY
DATE.          Tue Mar 07 12:42:54 2006: LOG DATE
UWI.           05 071 08721 00: UNIQUE WELL ID
STAT.                 Colorado: STATE
~Curve Information Block
DEPT.FT            0 000 00 00: Depth
DCAL.in                       : CDL Caliper
RHOB.g/cc                     : CDL Bulk Density
RHOC.g/cc                     : CDL Density Correction
DPOR.pu                       : CDL Density Porosity
GR.GAPI                       : Gamma Ray
~Parameter Information Block
~A  Depth       DCAL        RHOB        RHOC        DPOR         GR     
# ...
   610.0000      7.8999      2.4928      0.0503      9.5271    138.6055
   610.1000      7.8999      2.4761      0.0165     10.5410    135.4066
   610.2000      7.8999      2.4506     -0.0047     12.0824    137.3613
   610.3000      7.9011      2.4309      0.0034     13.2785    142.6749
   610.4000      7.9011      2.4213     -0.0083     13.8601    144.1110
   610.5000      7.9007      2.4228     -0.0127     13.7716    139.4831
   610.6000      7.9007      2.4384      0.0191     12.8233    133.4048
   610.7000      7.9007      2.4632      0.0307     11.3218    131.1044
   610.8000      7.8989      2.4831      0.0646     10.1166    130.8827
   610.9000      7.8989      2.4868      0.0741      9.8911    125.9211
   611.0000      7.8943      2.4757      0.0111     10.5635    117.0808
   611.1000      7.8943      2.4647      0.0253     11.2290    113.3789
   611.2000      7.8943      2.4713      0.0448     10.8311    118.8066
   611.3000      7.8863      2.4963      0.0856      9.3159    126.7289
   611.4000      7.8863      2.5171      0.1611      8.0551    127.9364
   611.5000      7.8787      2.5163      0.0986      8.1056    122.7700
   611.6000      7.8787      2.5049      0.0691      8.7914    117.1933
   611.7000      7.8787      2.4996      0.0517      9.1178    115.8054
   611.8000      7.8799      2.5027      0.0972      8.9258    118.2424
   611.9000      7.8799      2.5124      0.0722      8.3403    121.1281
   612.0000      7.8877      2.5255      0.0686      7.5466    124.7565
   612.1000      7.8877      2.5357      0.0487      6.9261    129.1970
   612.2000      7.8877      2.5391      0.0342      6.7201    130.8440
   612.3000      7.8919      2.5368      0.0471      6.8631    128.9100
   612.4000      7.8919      2.5352      0.0253      6.9549    128.6167
   612.5000      7.8915      2.5404      0.0432      6.6451    130.5637
   612.6000      7.8915      2.5534      0.0110      5.8542    127.6043
   612.7000      7.8915      2.5750      0.0307      4.5447    120.3553
   612.8000      7.8908      2.6010      0.0443      2.9684    117.0253
   612.9000      7.8908      2.6288      0.0476      1.2856    120.2799
   613.0000      7.8917      2.6564      0.0736     -0.3906    124.7761
   613.1000      7.8917      2.6735      0.0833     -1.4229    124.7789
   613.2000      7.8917      2.6739      0.0701     -1.4507    124.6471
   613.3000      7.8944      2.6615      0.0511     -0.6956    129.4250
   613.4000      7.8944      2.6395      0.0388      0.6386    133.4933
   613.5000      7.8971      2.6178     -0.0105      1.9495    132.5121
   613.6000      7.8971      2.6134     -0.0319      2.2159    126.9561
   613.7000      7.8971      2.6306     -0.0076      1.1777    117.6086
   613.8000      7.9004      2.6491      0.0017      0.0516    108.9565
   613.9000      7.9004      2.6467     -0.0202      0.2001    103.2537
   614.0000      7.9024      2.6283     -0.0198      1.3147     98.4860
   614.1000      7.9024      2.6108     -0.0067      2.3764     97.0433
   614.2000      7.9024      2.5990      0.0038      3.0920    101.9503
   614.3000      7.9016      2.5915      0.0112      3.5477    107.8752
   614.4000      7.9016      2.5851      0.0233      3.9304    108.4906
   614.5000      7.9023      2.5804     -0.0334      4.2166    106.6224
   614.6000      7.9023      2.5781      0.0343      4.3569    104.9806
   614.7000      7.9023      2.5668      0.0239      5.0399    101.3379
   614.8000      7.9048      2.5442      0.0420      6.4098     98.0335
   614.9000      7.9048      2.5249     -0.0147      7.5819     99.8508
   615.0000      7.9060      2.5177     -0.0319      8.0197    104.7577
   615.1000      7.9060      2.5214     -0.0254      7.7946    107.3355
   615.2000      7.9060      2.5311      0.0004      7.2037    107.5501
   615.3000      7.9057      2.5417      0.0175      6.5606    109.8603
   615.4000      7.9057      2.5523      0.0057      5.9184    113.1437
   615.5000      7.9037      2.5525      0.0543      5.9117    112.5672
   615.6000      7.9037      2.5356     -0.0009      6.9328    111.5434
   615.7000      7.9037      2.5283     -0.0141      7.3772    115.3964
   615.8000      7.9010      2.5452      0.0553      6.3526    119.6630
   615.9000      7.9010      2.5575      0.0303      5.6090    120.4584
   616.0000      7.9014      2.5463      0.0010      6.2836    118.8960
   616.1000      7.9014      2.5358     -0.0152      6.9211    115.8063
   616.2000      7.9014      2.5533      0.0408      5.8606    116.9818
   616.3000      7.9068      2.5872      0.0687      3.8050    126.5237
   616.4000      7.9068      2.6074      0.0560      2.5835    135.3331
   616.5000      7.9124      2.6039      0.0403      2.7924    132.8916
   616.6000      7.9124      2.5914      0.0237      3.5519    123.0645
   616.7000      7.9124      2.5826      0.0621      4.0858    115.3741
   616.8000      7.9133      2.5701      0.0531      4.8412    114.0904
   616.9000      7.9133      2.5562     -0.0429      5.6825    118.6086
   617.0000      7.9094      2.5524      0.0240      5.9178    125.8851
   617.1000      7.9094      2.5539      0.0097      5.8252    132.5537
   617.2000      7.9094      2.5627      0.0155      5.2926    134.6581
   617.3000      7.9041      2.5893      0.0236      3.6792    129.9926
   617.4000      7.9041      2.6247      0.0670      1.5330    123.7375
   617.5000      7.9011      2.6398      0.0752      0.6197    122.4029
   617.6000      7.9011      2.6216      0.0663      1.7221    126.6908
   617.7000      7.9011      2.5908      0.0104      3.5866    133.4904
   617.8000      7.9010      2.5720      0.0256      4.7276    137.1239
   617.9000      7.9010      2.5698      0.0201      4.8606    137.2325
   618.0000      7.9010      2.5737      0.0600      4.6232    137.9378
   618.1000      7.9010      2.5688      0.0110      4.9207    136.8025
   618.2000      7.9010      2.5517     -0.0042      5.9586    130.7750
   618.3000      7.8979      2.5319      0.0037      7.1557    124.5815
   618.4000      7.8979      2.5243      0.0072      7.6184    122.9124
   618.5000      7.8935      2.5281      0.0242      7.3884    126.1092
   618.6000      7.8935      2.5255      0.0188      7.5439    131.5012
   618.7000      7.8935      2.5135      0.0229      8.2715    137.4195
   618.8000      7.8904      2.5015      0.0243      9.0023    143.6497
   618.9000      7.8904      2.4880      0.0159      9.8198    145.7229
   619.0000      7.8911      2.4662     -0.0062     11.1398    140.3370
   619.1000      7.8911      2.4437     -0.0359     12.5029    135.5123
   619.2000      7.8911      2.4359     -0.0109     12.9786    137.5804
   619.3000      7.8930      2.4426      0.0338     12.5699    142.2375
   619.4000      7.8930      2.4499      0.0483     12.1247    143.8180
   619.5000      7.8938      2.4482      0.0620     12.2299    142.6087
   619.6000      7.8938      2.4419      0.0402     12.6125    142.8463
   619.7000      7.8938      2.4379      0.0668     12.8563    143.4913
   619.8000      7.8936      2.4379      0.0580     12.8539    140.0328
   619.9000      7.8936      2.4452      0.0329     12.4131    135.0242
   620.0000      7.8969      2.4539      0.0673     11.8832    134.2121
   620.1000      7.8969      2.4585      0.0320     11.6054    135.0898
   620.2000      7.8969      2.4682      0.0464     11.0170    131.1572
   620.3000      7.9046      2.4812      0.0541     10.2309    124.6382
   620.4000      7.9046      2.4834      0.0395     10.0975    122.9212
   620.5000      7.9119      2.4835     -0.0077     10.0892    128.8712
   620.6000      7.9119      2.5019      0.0324      8.9730    136.5452
   620.7000      7.9119      2.5341      0.0609      7.0242    140.3280
   620.8000      7.9165      2.5651      0.0555      5.1437    140.6099
   620.9000      7.9165      2.5885      0.1068      3.7300    138.9149
   621.0000      7.9198      2.5981      0.0877      3.1450    139.5142
   621.1000      7.9198      2.5898      0.1093      3.6501    146.0439
