~Version Information
VERS.                      2.0: CWLS Log ASCII Standard - VERSION 2.0
WRAP.                       NO: One line per depth step
~Well Information Block
STRT.FT                -8.7500: 
STOP.FT              1525.0000: 
STEP.FT                 0.2500: 
NULL.                -999.2500: 
COMP.          Pioneer Natural Resources: COMPANY
WELL.          Grand Prix 13-12 Tr: WELL
FLD.           Purgatorie River: FIELD
LOC.           2595' FSL & 1277' FWL--: LOCATION
CNTY.               Las Animas: COUNTY
SRVC.          Patterson Wireline: SERVICE COMPANY
DATE.          Thu Apr 13 10:28:30 2006: LOG DATE
UWI.           05 071 08711 00: UNIQUE WELL ID
STAT.                       CO: STATE
~Curve Information Block
DEPT.FT            0 000 00 00: Depth
CCL.                          : Casing Collar Locator
TT3.usec                      : CBL 3' Travel Time
AMP3.mV                       : CBL 3' Amplitude
GR.GAPI                       : Gamma Ray
~Parameter Information Block
~A  Depth       CCL         TT3         AMP3         GR     
# ...
   292.7500      0.0000    719.2670      5.3008    102.3449
   293.0000      0.0000    715.6254      5.3502     99.8501
   293.2500      0.0000    711.1716      5.3936     98.5490
   293.5000      0.0000    708.1220      5.4237     99.3287
   293.7500      0.0000    708.7112      5.4412    102.2456
   294.0000      0.0000    713.3237      5.4509    106.2907
   294.2500      0.0000    719.7404      5.4565    110.0307
   294.5000      0.0000    723.9872      5.4593    112.3976
   294.7500      0.0000    723.0471      5.4628    112.9448
   295.0000      0.0000    717.2873      5.4744    111.8526
   295.2500      0.0000    709.8562      5.5016    109.9976
   295.5000      0.0000    703.7119      5.5469    108.5873
   295.7500      0.0000    699.5538      5.6038    108.4270
   296.0000      0.0000    696.0092      5.6584    109.6902
   296.2500      0.0000    691.1576      5.6928    112.2884
   296.5000      0.0000    684.5024      5.6955    115.8997
   296.7500      0.0000    678.3946      5.6700    119.3063
   297.0000      0.0000    677.1160      5.6333    120.1824
   297.2500      0.0000    683.3821      5.6025    116.5653
   297.5000      0.0000    695.5753      5.5829    109.0187
   297.7500      0.0000    708.6862      5.5664    100.7836
   298.0000      0.0000    717.7411      5.5407     95.1855
   298.2500      0.0000    720.5726      5.4973     92.9764
   298.5000      0.0000    718.4480      5.4386     92.5433
   298.7500      0.0000    714.9862      5.3759     92.4934
   299.0000      0.0000    714.2800      5.3198     93.2073
   299.2500      0.0000    718.7370      5.2704     95.6183
   299.5000      0.0000    727.2312      5.2205     99.4557
   299.7500      0.0000    735.1396      5.1684    103.4996
   300.0000      0.0000    737.3222      5.1231    106.9075
   300.2500      0.0000    732.1589      5.0954    109.5032
   300.5000      0.0000    722.7756      5.0846    111.1117
   300.7500      0.0000    714.3671      5.0772    111.3067
   301.0000      0.0000    710.5148      5.0591    109.8988
   301.2500      0.0000    711.3818      5.0284    107.4191
   301.5000      0.0000    714.2076      4.9971    104.8860
   301.7500      0.0000    715.3880      4.9813    102.9643
   302.0000      0.0000    713.0755      4.9905    101.6077
   302.2500      0.0000    708.2924      5.0208    100.7321
   302.5000      0.0000    703.4777      5.0557    100.8347
   302.7500      0.0000    700.2719      5.0752    102.5256
   303.0000      0.0000    698.8121      5.0689    105.6560
   303.2500      0.0000    698.4709      5.0406    109.2193
   303.5000      0.0000    698.6518      5.0013    112.0275
   303.7500      0.0000    699.0651      4.9598    113.5317
   304.0000      0.0000    699.7894      4.9211    114.1751
   304.2500      0.0000    701.3771      4.8881    114.8573
   304.5000      0.0000    704.7894      4.8631    116.0787
   304.7500      0.0000    710.6848      4.8495    117.9213
   305.0000      0.0000    718.1737      4.8511    120.5996
   305.2500      0.0000    724.5466      4.8674    124.2466
   305.5000      0.0000    727.3551      4.8900    127.9809
   305.7500      0.0000    727.1750      4.9050    129.9398
   306.0000      0.0000    727.2006      4.9009    128.8703
   306.2500      0.0000    729.2819      4.8747    125.4591
   306.5000      0.0000    731.2677      4.8330    121.6182
   306.7500      0.0000    729.3644      4.7885    118.4537
   307.0000      0.0000    722.5626      4.7515    115.2517
   307.2500      0.0000    713.6322      4.7239    110.6363
   307.5000      0.0000    706.1343      4.6996    104.3860
   307.7500      0.0000    701.5825      4.6739     97.6034
   308.0000      0.0000    699.3253      4.6501     91.2896
   308.2500      0.0000    697.9149      4.6364     85.5842
   308.5000      0.0000    696.0754      4.6352     80.6564
   308.7500      0.0000    693.0762      4.6362     77.6708
   309.0000      0.0000    689.3638      4.6232     78.0988
   309.2500      0.0000    687.2532      4.5881     81.9791
   309.5000      0.0000    690.0687      4.5367     87.2111
   309.7500      0.0000    699.4444      4.4780     90.7723
   310.0000      0.0000    713.8116      4.4146     90.6838
   310.2500      0.0000    730.3188      4.3528     87.0355
   310.5000      0.0000    747.5884      4.3117     81.5903
   310.7500      0.0000    765.7435      4.3063     76.7159
   311.0000      2.0000    784.7020      4.3282     74.3632
   311.2500      0.0000    802.9457      4.3588     75.3145
   311.5000      0.0000    816.6201      4.4022     78.8042
   311.7500      0.0000    819.5854      4.5026     82.8621
   312.0000      0.0000    807.0237      4.7207     85.5470
   312.2500      0.0000    781.0992      5.0647     86.1638
   312.5000      0.0000    751.4451      5.4297     85.3056
   312.7500      0.0000    727.9276      5.6441     84.1124
   313.0000      0.0000    713.7481      5.6130     83.8508
   313.2500      0.0000    706.1904      5.3968     85.5548
   313.5000      0.0000    701.7655      5.1303     89.0984
   313.7500      0.0000    698.9632      4.9042     92.8146
   314.0000      0.0000    697.6744      4.7425     94.8803
   314.2500      0.0000    698.2681      4.6478     95.1504
   314.5000      0.0000    701.3784      4.6228     95.1214
   314.7500      0.0000    707.2735      4.6593     96.0342
   315.0000      0.0000    714.8867      4.7305     97.6270
   315.2500      0.0000    721.9391      4.8040     99.0454
   315.5000      0.0000    726.5563      4.8555    100.2135
   315.7500      0.0000    728.8116      4.8736    101.6225
   316.0000      0.0000    730.7177      4.8566    103.3241
   316.2500      0.0000    734.2138      4.8083    104.8633
   316.5000      0.0000    738.4800      4.7360    105.9401
   316.7500      0.0000    739.7396      4.6531    106.5318
   317.0000      0.0000    734.7681      4.5799    106.4220
   317.2500      0.0000    724.4061      4.5365    105.1786
   317.5000      0.0000    712.9550      4.5313    102.8652
   317.7500      0.0000    704.5387      4.5554    100.4032
   318.0000      0.0000    700.8107      4.5914     98.6664
   318.2500      0.0000    701.4191      4.6266     97.3374
   318.5000      0.0000    705.1352      4.6586     95.2871
   318.7500      0.0000    710.1850      4.6889     92.2303
   319.0000      0.0000    714.4721      4.7161     89.4348
   319.2500      0.0000    716.3014      4.7382     88.3552
   319.5000      0.0000    715.0033      4.7580     88.9641
   319.7500      0.0000    711.1024      4.7839     90.0005
   320.0000      0.0000    706.1136      4.8227     90.5294
   320.2500      0.0000    701.7457      4.8744     90.7349
   320.5000      0.0000    698.8916      4.9351     91.4733
   320.7500      0.0000    697.4026      5.0018     93.5397
   321.0000      0.0000    696.6970      5.0729     97.0901
   321.2500      0.0000    696.3438      5.1432    101.2498
   321.5000      0.0000    696.1807      5.2034    104.3990
   321.7500      0.0000    696.1590      5.2468    105.3368
   322.0000      0.0000    696.2324      5.2784    104.1753
   322.2500      0.0000    696.3390      5.3159    101.8927
   322.5000      0.0000    696.4675      5.3815     99.2501
   322.7500      0.0000    696.7371      5.4884     96.6624
   323.0000      0.0000    697.5467      5.6315     94.8822
   323.2500      0.0000    699.7796      5.7912     94.7967
   323.5000      0.0000    704.6736      5.9461     96.2307
   323.7500      0.0000    712.7548      6.0842     97.7094
   324.0000      0.0000    722.2455      6.2043     97.7706
   324.2500      0.0000    728.9913      6.3106     96.1137
   324.5000      0.0000    729.2556      6.4038     93.3627
   324.7500      0.0000    723.0359      6.4785     90.1436
   325.0000      0.0000    714.0950      6.5266     86.7004
   325.2500      0.0000    706.8275      6.5401     83.3814
   325.5000      0.0000    703.7857      6.5140     81.0660
   325.7500      0.0000    705.7020      6.4494     80.7801
   326.0000      0.0000    712.1416      6.3561     83.1412
