~Version Information
VERS.                      2.0: CWLS Log ASCII Standard - VERSION 2.0
WRAP.                       NO: One line per depth step
~Well Information Block
STRT.FT               545.0000: 
STOP.FT              2200.7000: 
STEP.FT                 0.1000: 
NULL.                -999.2500: 
COMP.          Pioneer Natural Resources: COMPANY
WELL.               Erin 21-15: WELL
FLD.           Purgatoire River: FIELD
LOC.           1217' FNL & 2284' FWL--: LOCATION
CNTY.               Las Animas: COUNTY
SRVC.                Patterson: SERVICE COMPANY
DATE.          Thu Mar 02 09:55:43 2006: LOG DATE
UWI.           05 071 08713 00: UNIQUE WELL ID
STAT.                 Colorado: STATE
~Curve Information Block
DEPT.FT            0 000 00 00: Depth
DCAL.in                       : CDL Caliper
RHOB.g/cc                     : CDL Bulk Density
RHOC.g/cc                     : CDL Density Correction
DPOR.pu                       : CDL Density Porosity
NPOR.pu                       : Neutron Porosity
GR.GAPI                       : Gamma Ray
~Parameter Information Block
~A  Depth       DCAL        RHOB        RHOC        DPOR        NPOR         GR     
# ...
   871.4000      8.0428      2.4576     -0.0125     11.6628     27.7252    126.1088
   871.5000      8.0445      2.4256     -0.0427     13.5988     27.9017    133.1723
   871.6000      8.0445      2.4093     -0.0025     14.5904     28.7053    133.1443
   871.7000      8.0445      2.4146     -0.0310     14.2676     29.6370    129.6632
   871.8000      8.0488      2.4395      0.0552     12.7576     30.1163    126.0126
   871.9000      8.0488      2.4686      0.0891     10.9961     30.2304    122.7919
   872.0000      8.0650      2.4862      0.0752      9.9272     30.3643    122.0837
   872.1000      8.0650      2.4897      0.0924      9.7167     30.3715    123.5729
   872.2000      8.0650      2.4862      0.0503      9.9288     29.9338    123.5416
   872.3000      8.0824      2.4820      0.0831     10.1829     29.3791    121.6183
   872.4000      8.0824      2.4738      0.0649     10.6787     29.0751    122.0277
   872.5000      8.0803      2.4653      0.0231     11.1935     28.8234    127.0855
   872.6000      8.0803      2.4634      0.0459     11.3121     28.6777    131.6301
   872.7000      8.0803      2.4674      0.0281     11.0678     28.9438    133.0002
   872.8000      8.0684      2.4765      0.0425     10.5153     29.3661    132.4068
   872.9000      8.0684      2.4774      0.0638     10.4605     29.6655    129.4217
   873.0000      8.0588      2.4528      0.0250     11.9508     29.9753    126.7120
   873.1000      8.0588      2.4101      0.0213     14.5422     30.1483    127.3511
   873.2000      8.0588      2.3713     -0.0032     16.8894     30.0167    130.6142
   873.3000      8.0506      2.3465     -0.0066     18.3932     29.8414    131.9003
   873.4000      8.0506      2.3324      0.0091     19.2479     29.7895    127.2341
   873.5000      8.0423      2.3243      0.0120     19.7424     29.9378    120.1921
   873.6000      8.0423      2.3176      0.0163     20.1428     30.3401    118.4468
   873.7000      8.0423      2.3092      0.0090     20.6527     30.8014    123.7443
   873.8000      8.0389      2.3020      0.0270     21.0916     31.0546    132.4380
   873.9000      8.0389      2.3013      0.0455     21.1325     31.0070    141.3953
   874.0000      8.0368      2.3077      0.0196     20.7470     30.8004    145.3737
   874.1000      8.0368      2.3190      0.0571     20.0602     30.8463    142.9482
   874.2000      8.0368      2.3298      0.0828     19.4052     31.2462    142.7175
   874.3000      8.0325      2.3316      0.0639     19.2951     31.5844    145.2425
   874.4000      8.0325      2.3197      0.0448     20.0191     31.5210    145.0780
   874.5000      8.0266      2.3031     -0.0132     21.0232     31.1811    143.8743
   874.6000      8.0266      2.3017      0.0052     21.1077     30.9577    142.5223
   874.7000      8.0266      2.3139      0.0455     20.3689     31.0720    140.2802
   874.8000      8.0187      2.3131      0.0809     20.4189     31.3008    140.0733
   874.9000      8.0187      2.2891      0.0082     21.8706     31.2185    141.6357
   875.0000      8.0126      2.2628     -0.0163     23.4671     30.8924    139.6868
   875.1000      8.0126      2.2520     -0.0277     24.1201     30.8612    134.5212
   875.2000      8.0126      2.2501      0.0232     24.2380     31.2366    134.8783
   875.3000      8.0091      2.2335     -0.0060     25.2452     31.6235    145.4820
   875.4000      8.0091      2.1887     -0.0320     27.9593     31.7368    156.8950
   875.5000      8.0058      2.1267     -0.0285     31.7173     31.4858    156.3142
   875.6000      8.0058      2.0756     -0.0936     34.8113     30.9286    145.9633
   875.7000      8.0058      2.0586     -0.0465     35.8403     30.3043    136.4225
   875.8000      8.0036      2.0734     -0.0178     34.9461     29.7069    130.3793
   875.9000      8.0036      2.1022     -0.0131     33.1993     29.1448    121.8228
   876.0000      8.0033      2.1335      0.0026     31.3055     28.6320    110.1855
   876.1000      8.0033      2.1730      0.0085     28.9069     28.2088    105.3856
   876.2000      8.0033      2.2313      0.1224     25.3728     27.8595    108.8879
   876.3000      8.0031      2.3073      0.1446     20.7705     27.3820    109.6709
   876.4000      8.0031      2.3944      0.2054     15.4901     26.7233    108.1730
   876.5000      8.0046      2.4778      0.2364     10.4337     26.1261    114.4965
   876.6000      8.0046      2.5329      0.2055      7.0950     25.6621    125.3440
   876.7000      8.0046      2.5483      0.1219      6.1619     25.2181    130.6626
   876.8000      8.0059      2.5360      0.0635      6.9096     24.7826    131.4775
   876.9000      8.0059      2.5151      0.0101      8.1755     24.4045    131.0988
   877.0000      8.0043      2.5036      0.0289      8.8742     24.2209    128.0460
   877.1000      8.0043      2.5073      0.0347      8.6482     24.3376    125.1490
   877.2000      8.0043      2.5171      0.0399      8.0544     24.7706    123.9926
   877.3000      8.0023      2.5282      0.0357      7.3840     25.2876    120.6878
   877.4000      8.0023      2.5454      0.0254      6.3367     25.4472    118.7775
   877.5000      8.0017      2.5665      0.0447      5.0593     25.2856    122.1428
   877.6000      8.0017      2.5796      0.0391      4.2647     25.2497    125.7817
   877.7000      8.0017      2.5795      0.0592      4.2720     25.2790    124.9498
   877.8000      8.0034      2.5725      0.0175      4.6994     25.3202    121.2268
   877.9000      8.0034      2.5701      0.0168      4.8404     25.6930    118.6974
   878.0000      8.0057      2.5851      0.0059      3.9330     26.1272    116.7803
   878.1000      8.0057      2.6201      0.0398      1.8137     26.1790    117.2481
   878.2000      8.0057      2.6559      0.0581     -0.3559     25.9646    123.5359
   878.3000      8.0053      2.6703      0.0894     -1.2279     25.7729    128.7939
   878.4000      8.0053      2.6666      0.0520     -1.0059     25.7177    126.9690
   878.5000      8.0050      2.6671      0.0402     -1.0370     25.6814    123.5492
   878.6000      8.0050      2.6769      0.0902     -1.6306     25.4848    123.5476
   878.7000      8.0050      2.6789      0.0816     -1.7512     24.9853    125.7592
   878.8000      8.0069      2.6626      0.0716     -0.7645     23.9120    128.6916
   878.9000      8.0069      2.6344      0.0145      0.9433     22.7472    131.1519
   879.0000      8.0088      2.6110      0.0134      2.3625     22.5294    131.4701
   879.1000      8.0088      2.6095      0.0142      2.4568     22.9862    129.7872
   879.2000      8.0088      2.6354      0.0159      0.8856     23.3664    126.0478
   879.3000      8.0108      2.6691      0.0924     -1.1594     23.6143    119.6835
   879.4000      8.0108      2.6820      0.0548     -1.9369     24.0943    112.5080
   879.5000      8.0115      2.6785      0.0307     -1.7292     24.9533    106.0006
   879.6000      8.0115      2.6722      0.0680     -1.3429     25.4737    100.2634
   879.7000      8.0115      2.6553      0.0475     -0.3220     25.1711     97.3618
   879.8000      8.0104      2.6266     -0.0035      1.4158     24.7148     99.6632
   879.9000      8.0104      2.5932     -0.0099      3.4400     24.5668    104.2722
   880.0000      8.0104      2.5637     -0.0428      5.2304     24.2970    106.0032
   880.1000      8.0104      2.5421     -0.0008      6.5418     23.8362    104.9322
   880.2000      8.0104      2.5234     -0.0147      7.6723     23.8200    106.2746
   880.3000      8.0118      2.5151     -0.0714      8.1785     24.4227    112.9200
   880.4000      8.0118      2.5274     -0.0402      7.4293     24.9226    117.9597
   880.5000      8.0111      2.5520     -0.0447      5.9383     24.8321    115.6906
   880.6000      8.0111      2.5748      0.0054      4.5598     24.4538    110.4788
   880.7000      8.0111      2.5833      0.0399      4.0412     24.1200    107.7489
   880.8000      8.0085      2.5765      0.0316      4.4548     24.1063    107.2456
   880.9000      8.0085      2.5707      0.0247      4.8077     24.3632    105.9881
