~Version Information
 VERS.                                  2.0 : CWLS LAS VERSION
 WRAP.                                   NO : WRAPING MODE
 SWARE .                 MController 2.5.0N : SOFTWARE VERSION
~Well Information
 WELL.                       GAMMA 13-03 TR : WELL
 COMP.    PIONEER NATURAL RESOURCES USA INC : COMPANY
 FLD.                      PURGATOIRE RIVER : FIELD
 LOC.                 NW/SW SEC 3 T33S R67W : LOCATION
 DATE.                          09/18-19/05 : DATE(S) LOGGED
 SRVC.       BLANCO GEOLOGICAL SERVICES LLC : SERVICE COMPANY
 STAT.                             COLORADO : STATE
 CNTY.                           LAS ANIMAS : COUNTY
 CTRY.                                  USA : COUNTRY
 API.                       05-071-08524-00 : API NUMBER
 STRT.FT                             446.00 : START DEPTH
 STOP.FT                            1371.00 : STOP DEPTH
 STEP.FT                               1.00 : DEPTH INCREMENT
 NULL.                                -9999 : NULL VALUE
~Curve information
 DEPTH.FT                                   :
 ROP.MIN/FT                                 :
 GAS.UNITS                                  :
~ASCII Log data
# ...
      1046.0         0.50         10.4 
      1047.0         0.30          8.1 
      1048.0         0.33          7.9 
      1049.0         0.40          7.6 
      1050.0         0.50          7.2 
      1051.0         0.48          6.8 
      1052.0         0.27          6.8 
      1053.0         0.23          6.4 
      1054.0         0.30          6.6 
      1055.0         0.27          6.2 
      1056.0         0.23          6.3 
      1057.0         0.20          6.4 
      1058.0         0.20          6.8 
      1059.0         0.17          7.8 
      1060.0         0.17          8.4 
      1061.0         0.23          8.7 
      1062.0         0.23          8.6 
      1063.0         0.20          8.4 
      1064.0         0.18          8.0 
      1065.0         0.20          7.8 
      1066.0         0.17          7.6 
      1067.0         0.17          7.3 
      1068.0         0.13          7.3 
      1069.0         0.17          7.2 
      1070.0         0.13          7.6 
      1071.0         0.20          7.1 
      1072.0         3.88         10.0 
      1073.0         0.40         13.9 
      1074.0         0.30         13.9 
      1075.0         0.35         11.9 
      1076.0         0.33          9.6 
      1077.0         0.23          8.9 
      1078.0         0.27          8.5 
      1079.0         0.33          8.1 
      1080.0         0.40          7.9 
      1081.0         0.27          7.8 
      1082.0         0.27          7.8 
      1083.0         0.20          7.4 
      1084.0         0.27          7.2 
      1085.0         0.27          7.2 
      1086.0         0.27          7.1 
      1087.0         0.28          7.3 
      1088.0         0.30          7.2 
      1089.0         0.23          7.5 
      1090.0         0.27          7.4 
      1091.0         0.23          7.4 
      1092.0         0.27          7.3 
      1093.0         0.33          7.3 
      1094.0         0.30          7.0 
      1095.0         0.30          7.0 
      1096.0         0.27          7.2 
      1097.0         0.20          7.1 
      1098.0         0.20          6.8 
      1099.0         0.22          6.8 
      1100.0         0.20          7.0 
      1101.0         0.20          6.9 
      1102.0         4.95         14.9 
      1103.0         0.47          7.9 
      1104.0         0.20          7.9 
      1105.0         0.20          8.5 
      1106.0         0.22         10.4 
      1107.0         0.27         12.2 
      1108.0         0.33         13.8 
      1109.0         0.27         14.9 
      1110.0         0.27         15.0 
      1111.0         0.27         13.9 
      1112.0         0.27         12.5 
      1113.0         0.30         10.5 
      1114.0         0.27          9.0 
      1115.0         0.27          8.3 
      1116.0         0.27          7.9 
      1117.0         0.28          7.6 
      1118.0         0.23          7.3 
      1119.0         0.27          7.5 
      1120.0         0.30          7.5 
      1121.0         0.37          7.4 
      1122.0         0.33          7.2 
      1123.0         0.27          7.3 
      1124.0         0.23          7.5 
      1125.0         0.27          7.4 
      1126.0         0.27          7.7 
      1127.0         0.33          7.4 
      1128.0         0.28          7.0 
      1129.0         0.30          7.1 
      1130.0         0.23          8.0 
      1131.0         0.27          8.8 
      1132.0         5.77         14.7 
      1133.0         0.40          7.5 
      1134.0         0.40          7.7 
      1135.0         0.30          7.9 
      1136.0         0.27          8.0 
      1137.0         0.30          8.2 
      1138.0         0.27          9.1 
      1139.0         0.27         11.6 
      1140.0         0.23         15.1 
      1141.0         0.23         15.6 
      1142.0         0.20         15.7 
      1143.0         0.22         15.1 
      1144.0         0.17         13.9 
      1145.0         0.20         14.4 
      1146.0         0.20         17.6 
      1147.0         0.23         20.4 
      1148.0         0.20         21.6 
      1149.0         0.23         21.5 
      1150.0         0.27         20.7 
      1151.0         0.23         18.7 
      1152.0         0.23         16.6 
      1153.0         0.33         15.2 
      1154.0         0.23         13.5 
      1155.0         0.20         12.6 
      1156.0         0.23         12.1 
      1157.0         0.22         11.6 
      1158.0         0.27         11.1 
      1159.0         0.23         10.7 
      1160.0         0.27         10.3 
      1161.0         0.30          9.5 
      1162.0         5.02         22.9 
      1163.0         0.45         11.8 
      1164.0         0.27          9.4 
      1165.0         0.37          9.1 
      1166.0         0.33          9.4 
      1167.0         0.27         10.3 
      1168.0         0.27         10.8 
      1169.0         0.30         11.1 
      1170.0         0.30         10.8 
      1171.0         0.30          9.6 
      1172.0         0.27          9.0 
      1173.0         0.28          8.7 
      1174.0         0.30          8.4 
      1175.0         0.27          8.8 
      1176.0         0.30          8.7 
      1177.0         0.30          8.6 
      1178.0         0.30          8.8 
      1179.0         0.27          8.9 
      1180.0         0.27          9.1 
      1181.0         0.27          8.6 
      1182.0         0.27          8.8 
      1183.0         0.27          8.8 
      1184.0         0.28          8.7 
      1185.0         0.27          8.8 
      1186.0         0.30          8.3 
      1187.0         0.27          8.4 
      1188.0         0.30          8.8 
      1189.0         0.27          8.7 
      1190.0         0.27          8.6 
      1191.0         0.30          8.5 
      1192.0         4.83         20.3 
      1193.0         0.27         15.2 
      1194.0         0.27         11.8 
      1195.0         0.27         10.0 
      1196.0         0.30          9.1 
      1197.0         0.30          9.7 
      1198.0         0.37          9.9 
      1199.0         0.40          9.4 
      1200.0         0.37          9.1 
      1201.0         0.35          8.9 
      1202.0         0.37          8.4 
      1203.0         0.40          8.1 
      1204.0         0.43          8.0 
      1205.0         0.40          8.1 
      1206.0         0.37          8.3 
      1207.0         0.37          8.2 
      1208.0         0.37          8.4 
      1209.0         0.48          8.3 
      1210.0         0.50          8.4 
      1211.0         0.53          8.1 
      1212.0         0.50          8.1 
      1213.0         0.50          8.4 
      1214.0         0.47          8.3 
      1215.0         0.50          8.5 
      1216.0         0.52          8.4 
      1217.0         0.47          8.1 
      1218.0         0.60          8.2 
      1219.0         0.33          8.3 
      1220.0         0.33          8.4 
      1221.0         0.33          8.6 
      1222.0         5.53         21.4 
      1223.0         0.27          9.2 
      1224.0         0.27          8.1 
      1225.0         0.27          7.9 
      1226.0         0.27          8.1 
      1227.0         0.30          9.5 
      1228.0         0.32         10.4 
      1229.0         0.30         10.1 
      1230.0         0.33          9.6 
      1231.0         0.30          8.4 
      1232.0         0.37          7.9 
      1233.0         0.37          7.8 
      1234.0         0.30          7.7 
      1235.0         0.30          7.8 
      1236.0         0.30          8.0 
      1237.0         0.32          8.0 
      1238.0         0.33          8.2 
      1239.0         0.33          7.9 
      1240.0         0.37          8.4 
      1241.0         0.43          8.3 
      1242.0         0.43          9.1 
      1243.0         0.43          9.3 
      1244.0         0.47          9.1 
      1245.0         0.68          8.8 
