~Version Information
 VERS.                                  2.0 : CWLS LAS VERSION
 WRAP.                                   NO : WRAPING MODE
 SWARE .                 MController 2.5.0J : SOFTWARE VERSION
~Well Information
 WELL.                       Cooper 11-13Tr : WELL
 COMP.    Pioneer Natural Resources USA Inc : COMPANY
 FLD.                      Purgatoire River : FIELD
 LOC.                 NW/NW SEC13 T32S R67W : LOCATION
 DATE.                             09/24/05 : DATE(S) LOGGED
 SRVC.       Blanco Geological Services LLC : SERVICE COMPANY
 STAT.                             Colorado : STATE
 CNTY.                           Las Animas : COUNTY
 CTRY.                                  USA : COUNTRY
 API.                       05-071-08525-00 : API NUMBER
 STRT.FT                             327.00 : START DEPTH
 STOP.FT                            1876.00 : STOP DEPTH
 STEP.FT                               1.00 : DEPTH INCREMENT
 NULL.                                -9999 : NULL VALUE
~Curve information
 DEPTH.FT                                   :
 ROP.MIN/FT                                 :
 GAS.UNITS                                  :
~ASCII Log data
# ...
       927.0         0.27          6.7 
       928.0         0.27          6.8 
       929.0         0.27          6.8 
       930.0         0.27          6.6 
       931.0         0.27          6.4 
       932.0         0.27          5.9 
       933.0         0.27          6.2 
       934.0         0.27          6.2 
       935.0         0.27          6.1 
       936.0         0.10          6.1 
       937.0         0.25          6.4 
       938.0         0.17          6.7 
       939.0         0.23          6.2 
       940.0         0.23          6.3 
       941.0         0.20          6.7 
       942.0         0.20          6.1 
       943.0         0.23          6.3 
       944.0         0.20          6.2 
       945.0         0.23          6.1 
       946.0         0.23          6.4 
       947.0         0.20          6.4 
       948.0         0.23          6.4 
       949.0         0.20          6.3 
       950.0         0.20          6.4 
       951.0         0.23          6.7 
       952.0         0.20          7.1 
       953.0         0.28          7.1 
       954.0         0.27          7.3 
       955.0         0.30          7.5 
       956.0         1.30          7.8 
       957.0         0.33          7.7 
       958.0         0.27          7.1 
       959.0         0.27          7.2 
       960.0         0.23          7.1 
       961.0         0.25          6.9 
       962.0         0.27          6.5 
       963.0         0.30          6.3 
       964.0         0.27          6.8 
       965.0         0.20          6.3 
       966.0         0.23          6.6 
       967.0         0.20          6.6 
       968.0         0.23          6.7 
       969.0         0.23          6.3 
       970.0         0.27          6.4 
       971.0         0.20          6.9 
       972.0         0.23          6.8 
       973.0         0.27          6.6 
       974.0         0.28          6.6 
       975.0         0.27          6.5 
       976.0         0.27          7.1 
       977.0         0.37          6.8 
       978.0         0.40          6.8 
       979.0         0.20          6.8 
       980.0         0.23          6.9 
       981.0         0.17          6.6 
       982.0         0.17          6.8 
       983.0         0.17          6.8 
       984.0         0.20          6.9 
       985.0         0.37          7.4 
       986.0         2.12          8.5 
       987.0         0.30          7.8 
       988.0         0.30          8.1 
       989.0         0.27          8.4 
       990.0         0.20          7.4 
       991.0         0.23          7.5 
       992.0         0.23          7.2 
       993.0         0.28          7.0 
       994.0         0.27          7.1 
       995.0         0.23          6.8 
       996.0         0.23          6.8 
       997.0         0.17          6.9 
       998.0         0.20          7.2 
       999.0         0.23          7.1 
      1000.0         0.20          6.9 
      1001.0         0.23          7.6 
      1002.0         0.23          7.4 
      1003.0         0.20          7.4 
      1004.0         0.23          7.8 
      1005.0         0.20          7.2 
      1006.0         0.27          7.2 
      1007.0         0.27          7.2 
      1008.0         0.32          7.4 
      1009.0         0.23          7.4 
      1010.0         0.23          7.5 
      1011.0         0.23          7.1 
      1012.0         0.23          7.0 
      1013.0         0.50          7.5 
      1014.0         0.30          7.6 
      1015.0         0.37          8.4 
      1016.0         1.05          9.0 
      1017.0         0.30          8.1 
      1018.0         0.27          7.9 
      1019.0         0.23          7.7 
      1020.0         0.20          7.9 
      1021.0         0.20          8.0 
      1022.0         0.20          8.1 
      1023.0         0.20          8.5 
      1024.0         0.23          8.6 
      1025.0         0.17          8.1 
      1026.0         0.20          7.9 
      1027.0         0.20          8.2 
      1028.0         0.23          8.2 
      1029.0         0.23          8.5 
      1030.0         0.20          9.3 
      1031.0         0.17          9.1 
      1032.0         0.22          9.2 
      1033.0         0.20          9.5 
      1034.0         0.17          9.6 
      1035.0         0.20          9.2 
      1036.0         0.23          9.3 
      1037.0         0.20          9.2 
      1038.0         0.20          9.2 
      1039.0         0.20          9.4 
      1040.0         0.20          9.3 
      1041.0         0.20          8.6 
      1042.0         0.20          8.6 
      1043.0         0.23          9.6 
      1044.0         0.17          9.2 
      1045.0         0.53          9.2 
      1046.0         1.12         25.7 
      1047.0         0.23         43.4 
      1048.0         0.17         45.9 
      1049.0         0.17         38.8 
      1050.0         0.23         34.0 
      1051.0         0.23         23.6 
      1052.0         0.27         17.4 
      1053.0         0.20         14.3 
      1054.0         0.27         12.9 
      1055.0         0.20         10.8 
      1056.0         0.23         10.0 
      1057.0         0.23          9.6 
      1058.0         0.28          9.2 
      1059.0         0.27          8.9 
      1060.0         0.17          8.9 
      1061.0         0.17          8.6 
      1062.0         0.17          8.4 
      1063.0         0.20          7.7 
      1064.0         0.17          7.6 
      1065.0         0.17          7.8 
      1066.0         0.13          7.8 
      1067.0         0.17          7.8 
      1068.0         0.13          7.8 
      1069.0         0.17          9.4 
      1070.0         0.17          9.9 
      1071.0         0.17          7.7 
      1072.0         0.17          7.6 
      1073.0         0.27          7.2 
      1074.0         0.30          7.5 
      1075.0         0.22          7.6 
      1076.0         1.97          9.7 
      1077.0         0.30          9.7 
      1078.0         0.37          9.5 
      1079.0         0.27          9.4 
      1080.0         0.45          9.2 
      1081.0         0.27          8.9 
      1082.0         0.23          9.4 
      1083.0         0.17          9.3 
      1084.0         0.20          9.2 
      1085.0         0.17          9.9 
      1086.0         0.17          9.7 
      1087.0         0.17          9.7 
      1088.0         0.20         10.4 
      1089.0         0.20          9.5 
      1090.0         0.27         10.3 
      1091.0         0.30          9.5 
      1092.0         0.30          8.9 
      1093.0         0.27          8.6 
      1094.0         0.30          9.3 
      1095.0         0.32          9.3 
      1096.0         0.33          9.7 
      1097.0         0.33          9.8 
      1098.0         0.33          9.7 
      1099.0         0.37          9.4 
      1100.0         0.33         10.4 
      1101.0         0.23          9.6 
      1102.0         0.23         10.4 
      1103.0         0.23          9.8 
      1104.0         0.23         10.2 
      1105.0         0.47         10.7 
      1106.0         1.72         12.2 
      1107.0         0.30          9.5 
      1108.0         0.40          9.2 
      1109.0         0.30          9.4 
      1110.0         0.23          9.7 
      1111.0         0.17         10.2 
      1112.0         0.35         10.9 
      1113.0         0.27         11.0 
      1114.0         0.27         11.0 
      1115.0         0.23         10.8 
      1116.0         0.23         11.3 
      1117.0         0.20         10.9 
      1118.0         0.17         10.0 
      1119.0         0.23         10.3 
      1120.0         0.20         10.5 
      1121.0         0.17         10.5 
      1122.0         0.17         10.9 
      1123.0         0.13         10.7 
      1124.0         0.30         10.6 
      1125.0         0.30         11.0 
      1126.0         0.23         11.8 
