~Version Information
VERS.                      2.0: CWLS Log ASCII Standard - VERSION 2.0
WRAP.                       NO: One line per depth step
~Well Information Block
STRT.FT               360.0000: 
STOP.FT              2475.0000: 
STEP.FT                 0.1000: 
NULL.                -999.2500: 
COMP.          Pioneer Natural Resources: COMPANY
WELL.          Hellzonfire 32-31: WELL
FLD.           Purgatoire River: FIELD
LOC.           1993' FNL & 2265' FEL: LOCATION
STAT.                 Colorado: State
CNTY.               Las Animas: COUNTY
CTRY. USA : Country
SECT. 31 : Section
TOWN. 32S : Township
RANG. 66W : Range
SRVC.                Patterson: SERVICE COMPANY
DATE.          Fri Sep 02 07:26:13 2005: LOG DATE
API.           05 071 08483 00: UNIQUE WELL ID
~Curve Information Block
DEPT.FT            0 000 00 00: Depth
DCAL.in                       : CDL Caliper
RHOB.g/cc                     : CDL Bulk Density
RHOC.g/cc                     : CDL Density Correction
DPOR.pu                       : CDL Density Porosity
GR.GAPI                       : Gamma Ray
NPOR.pu                       : Neutron Porosity
~Parameter Information Block
~A  Depth       DCAL        RHOB        RHOC        DPOR         GR         NPOR    
# ...
  1483.2000      8.0181      2.5740      0.0780      4.6064    153.4307     21.3728
  1483.3000      8.0705      2.5925      0.1244      3.4821    155.9814     20.2949
  1483.4000      8.0705      2.5930      0.0572      3.4574    155.4789     19.3148
  1483.5000      8.0711      2.5776      0.0784      4.3900    155.2572     19.8722
  1483.6000      8.0711      2.5563      0.0427      5.6776    154.7619     20.8703
  1483.7000      8.0711      2.5370     -0.0003      6.8456    152.4709     20.7067
  1483.8000      8.0576      2.5312      0.0183      7.1998    148.5254     19.6172
  1483.9000      8.0576      2.5481      0.0135      6.1738    145.1376     19.1290
  1484.0000      8.0632      2.5774      0.0399      4.4021    144.3213     19.8599
  1484.1000      8.0632      2.5886      0.0590      3.7189    146.6748     21.0339
  1484.2000      8.0632      2.5733      0.0249      4.6477    150.2170     22.0940
  1484.3000      8.0673      2.5598      0.0098      5.4680    149.4188     22.5475
  1484.4000      8.0673      2.5642      0.0608      5.1986    142.7082     22.2587
  1484.5000      8.0850      2.5747      0.0585      4.5614    134.6686     22.0464
  1484.6000      8.0850      2.5829      0.0883      4.0686    126.2918     22.5176
  1484.7000      8.0850      2.5879      0.0819      3.7660    117.0573     22.8881
  1484.8000      8.0708      2.5889      0.0911      3.7023    111.5874     22.5570
  1484.9000      8.0708      2.5957      0.0115      3.2900    110.5898     22.1158
  1485.0000      8.2159      2.6139      0.0638      2.1868    110.1405     22.5108
  1485.1000      8.2159      2.6246      0.1159      1.5374    111.8745     23.3756
  1485.2000      8.2159      2.6166      0.0794      2.0213    115.8450     23.7156
  1485.3000      8.1659      2.6053      0.1128      2.7086    118.3412     23.4881
  1485.4000      8.1659      2.6008      0.0311      2.9848    121.2810     23.3180
  1485.5000      8.1604      2.5870      0.0430      3.8206    123.9254     23.4712
  1485.6000      8.1604      2.5473      0.0127      6.2216    122.3611     23.7007
  1485.7000      8.1604      2.5037     -0.0178      8.8688    118.9022     23.7520
  1485.8000      8.1785      2.4826      0.0429     10.1478    120.2004     23.5462
  1485.9000      8.1785      2.4758      0.0360     10.5573    129.7308     23.3233
  1486.0000      8.1417      2.4722     -0.0213     10.7734    139.5478     23.6765
  1486.1000      8.1417      2.4812      0.0017     10.2313    142.7894     24.4962
  1486.2000      8.1417      2.5069      0.0793      8.6749    144.7731     24.8494
  1486.3000      8.1550      2.5373      0.0432      6.8280    147.9842     24.6186
  1486.4000      8.1550      2.5550      0.0939      5.7553    148.8092     24.7111
  1486.5000      8.1335      2.5567      0.0442      5.6559    149.8302     25.3362
  1486.6000      8.1335      2.5642      0.0113      5.1970    154.4593     25.7469
  1486.7000      8.1335      2.5789      0.1178      4.3075    160.5630     25.4042
  1486.8000      8.1334      2.5777      0.0709      4.3810    164.6273     24.5695
  1486.9000      8.1334      2.5652      0.0783      5.1372    163.5860     23.9231
  1487.0000      8.1373      2.5541      0.0783      5.8116    157.4325     23.7908
  1487.1000      8.1373      2.5371      0.0967      6.8453    149.7121     23.7892
  1487.2000      8.1373      2.5146      0.0343      8.2048    145.4117     23.7428
  1487.3000      8.1388      2.5045      0.0792      8.8168    143.5827     24.0150
  1487.4000      8.1388      2.5142      0.0844      8.2314    137.5348     24.7040
  1487.5000      8.1358      2.5367      0.1129      6.8684    126.1143     25.2961
  1487.6000      8.1358      2.5593      0.1440      5.4967    116.7259     25.0866
  1487.7000      8.1358      2.5675      0.1501      4.9998    114.8399     24.2319
  1487.8000      8.1286      2.5600      0.1347      5.4552    119.5969     23.6670
  1487.9000      8.1286      2.5506      0.1051      6.0219    127.1212     23.7531
  1488.0000      8.1154      2.5485      0.1204      6.1545    130.5169     23.8877
  1488.1000      8.1154      2.5510      0.0763      6.0007    125.2035     23.6048
  1488.2000      8.1154      2.5532      0.0699      5.8686    115.7312     23.1407
  1488.3000      8.0739      2.5530      0.0926      5.8770    110.5769     23.1647
  1488.4000      8.0739      2.5522      0.0572      5.9248    109.2043     23.7261
  1488.5000      8.1048      2.5489      0.0835      6.1269    105.4072     23.9180
  1488.6000      8.1048      2.5417      0.0535      6.5630    101.7429     23.2512
  1488.7000      8.1048      2.5413      0.0210      6.5867    102.6096     22.6407
  1488.8000      8.0807      2.5543      0.0830      5.7981    103.9358     23.1349
  1488.9000      8.0807      2.5706      0.0781      4.8111    101.1868     23.9034
  1489.0000      8.1567      2.5776      0.1101      4.3903     96.8860     23.7603
  1489.1000      8.1567      2.5684      0.0751      4.9443     91.1665     22.9142
  1489.2000      8.1567      2.5427      0.0501      6.5057     82.7311     22.1693
  1489.3000      8.1993      2.5131     -0.0092      8.2962     76.7830     21.8319
  1489.4000      8.1993      2.4985      0.0303      9.1846     77.2224     21.5154
  1489.5000      8.2263      2.5006     -0.0332      9.0540     78.8611     20.9818
  1489.6000      8.2263      2.5028      0.0571      8.9189     76.5405     20.7897
  1489.7000      8.2263      2.4979     -0.0163      9.2174     74.3418     21.4384
  1489.8000      8.2351      2.5026     -0.0007      8.9357     77.4747     22.3239
  1489.9000      8.2351      2.5179      0.0383      8.0042     81.2360     22.5544
  1490.0000      8.2446      2.5200      0.0395      7.8818     80.0854     21.9916
  1490.1000      8.2446      2.5047      0.0065      8.8091     76.5420     21.5041
  1490.2000      8.2446      2.4960     -0.0229      9.3334     73.7690     21.6010
  1490.3000      8.2312      2.4952      0.0759      9.3843     72.6159     21.7011
  1490.4000      8.2312      2.4777      0.0058     10.4426     72.8927     21.5863
  1490.5000      8.2173      2.4501      0.0587     12.1141     71.2294     21.3641
  1490.6000      8.2173      2.4366      0.0465     12.9342     67.9986     21.1954
  1490.7000      8.2173      2.4362      0.0461     12.9575     66.1041     21.2519
  1490.8000      8.2247      2.4354      0.0027     13.0046     65.3599     21.3043
  1490.9000      8.2247      2.4388     -0.0378     12.8016     65.5841     21.1999
  1491.0000      8.2381      2.4573     -0.0305     11.6791     65.2389     20.9801
  1491.1000      8.2381      2.4826      0.0477     10.1441     62.9936     20.8102
  1491.2000      8.2381      2.5005      0.0307      9.0624     59.1770     21.0366
  1491.3000      8.2328      2.5056      0.0622      8.7536     54.6273     21.4027
  1491.4000      8.2328      2.4954      0.0528      9.3727     53.5297     21.3853
  1491.5000      8.1917      2.4819      0.0006     10.1884     55.6807     21.0719
  1491.6000      8.1917      2.4829      0.0361     10.1294     55.9297     20.8105
  1491.7000      8.1917      2.4921      0.0008      9.5701     55.4118     20.9175
  1491.8000      8.1657      2.4974      0.0378      9.2473     57.4386     21.1788
  1491.9000      8.1657      2.4986      0.0366      9.1752     59.1715     21.0448
  1492.0000      8.1632      2.4977      0.0031      9.2333     58.0879     20.6033
  1492.1000      8.1632      2.4999     -0.0042      9.0998     56.3918     20.0374
  1492.2000      8.1632      2.5073      0.0155      8.6507     54.9063     18.9248
  1492.3000      8.1540      2.5103      0.0110      8.4665     52.3537     17.0996
  1492.4000      8.1540      2.5007      0.0407      9.0493     49.6642     15.6150
  1492.5000      8.1634      2.4733      0.0610     10.7089     49.1099     15.5235
  1492.6000      8.1634      2.4316     -0.0188     13.2388     51.9886     16.3771
  1492.7000      8.1634      2.3957     -0.0495     15.4106     56.8022     17.3855
