~Version Information
VERS.                      2.0: CWLS Log ASCII Standard - VERSION 2.0
WRAP.                       NO: One line per depth step
~Well Information Block
STRT.FT               742.7000: 
STOP.FT              1614.5000: 
STEP.FT                 0.1000: 
NULL.                -999.2500: 
COMP.          Pioneer Natural Resources: COMPANY
WELL.           Kermit 32-7 Tr: WELL
FLD.           Purgatoire River: FIELD
LOC.           2009' FNL & 2196' FEL: LOCATION
PROV.                 Colorado: PROVINCE
CNTY.               Las Animas: COUNTRY
SRVC.                Patterson: SERVICE COMPANY
DATE.          Mon Jan 16 13:19:56 2006: LOG DATE
UWI.           05 071 08664 00: UNIQUE WELL ID
~Curve Information Block
DEPT.FT            0 000 00 00: Depth
DCAL.in                       : CDL Caliper
RHOB.g/cc                     : CDL Bulk Density
RHOC.g/cc                     : CDL Density Correction
DPOR.pu                       : CDL Density Porosity
GR.GAPI                       : Gamma Ray
~Parameter Information Block
~A  Depth       DCAL        RHOB        RHOC        DPOR         GR     
# ...
  1549.1000      7.8338      2.5868      0.0351      3.8296     98.6168
  1549.2000      7.8338      2.5813      0.0118      4.1664     96.3110
  1549.3000      7.8401      2.5777      0.0307      4.3828     93.4248
  1549.4000      7.8401      2.5747      0.0078      4.5627     95.9999
  1549.5000      7.8489      2.5796      0.0370      4.2695    105.5164
  1549.6000      7.8489      2.5973      0.0533      3.1924    111.7253
  1549.7000      7.8489      2.6248      0.1048      1.5287    107.8254
  1549.8000      7.8644      2.6537      0.1039     -0.2217    102.0068
  1549.9000      7.8644      2.6755      0.1123     -1.5475    101.4883
  1550.0000      7.8285      2.6791      0.1322     -1.7618    105.2747
  1550.1000      7.8285      2.6549      0.0915     -0.2994    110.7674
  1550.2000      7.8285      2.6183      0.0323      1.9206    113.5273
  1550.3000      7.8008      2.5965      0.0557      3.2444    111.6615
  1550.4000      7.8008      2.5953      0.0462      3.3173    108.9094
  1550.5000      7.8207      2.5977      0.0960      3.1674    110.7261
  1550.6000      7.8207      2.5891      0.0584      3.6890    119.2891
  1550.7000      7.8207      2.5795      0.0589      4.2713    130.0729
  1550.8000      7.8161      2.5814      0.0626      4.1563    138.0987
  1550.9000      7.8161      2.5849      0.1170      3.9428    142.7020
  1551.0000      7.8934      2.5815      0.1114      4.1486    143.8409
  1551.1000      7.8934      2.5799      0.0254      4.2499    143.2861
  1551.2000      7.8934      2.5808      0.1187      4.1936    143.0456
  1551.3000      7.9007      2.5781      0.0803      4.3587    141.6967
  1551.4000      7.9007      2.5875      0.0141      3.7870    138.7587
  1551.5000      7.8858      2.6087      0.1318      2.5027    136.6330
  1551.6000      7.8858      2.6123      0.1111      2.2873    134.8910
  1551.7000      7.8858      2.6024      0.0422      2.8850    133.9588
  1551.8000      7.8686      2.6036      0.0926      2.8117    139.2696
  1551.9000      7.8686      2.6183      0.1037      1.9202    148.8962
  1552.0000      7.8533      2.6413      0.0885      0.5293    154.9550
  1552.1000      7.8533      2.6643      0.1443     -0.8663    155.8327
  1552.2000      7.8533      2.6720      0.1613     -1.3314    153.7966
  1552.3000      7.8484      2.6627      0.1159     -0.7709    152.0403
  1552.4000      7.8484      2.6520      0.1121     -0.1219    150.8212
  1552.5000      7.8568      2.6438      0.1525      0.3758    147.4508
  1552.6000      7.8568      2.6331      0.0470      1.0266    142.0035
  1552.7000      7.8568      2.6287      0.0683      1.2890    137.5867
  1552.8000      7.8556      2.6324      0.1023      1.0670    135.5779
  1552.9000      7.8556      2.6250      0.1313      1.5134    133.5542
  1553.0000      7.8713      2.5988      0.0102      3.1005    130.3263
  1553.1000      7.8713      2.5714      0.0877      4.7618    126.6350
  1553.2000      7.8713      2.5637     -0.0067      5.2330    122.5435
  1553.3000      7.8477      2.5854      0.0215      3.9122    119.4743
  1553.4000      7.8477      2.6136      0.0828      2.2047    119.1021
  1553.5000      7.8669      2.6128      0.0430      2.2567    122.2347
  1553.6000      7.8669      2.5956      0.0093      3.2981    129.3783
  1553.7000      7.8669      2.5971      0.0528      3.2061    135.3275
  1553.8000      7.8842      2.6116      0.0716      2.3300    137.6480
  1553.9000      7.8842      2.6083      0.0921      2.5265    141.0054
  1554.0000      7.8836      2.5817     -0.0065      4.1389    147.2664
  1554.1000      7.8836      2.5522      0.0111      5.9303    149.8685
  1554.2000      7.8836      2.5371      0.0037      6.8395    144.4772
  1554.3000      7.8521      2.5446     -0.0521      6.3907    137.8202
  1554.4000      7.8521      2.5677     -0.0037      4.9880    134.9296
  1554.5000      7.8534      2.5820     -0.0250      4.1238    136.9039
  1554.6000      7.8534      2.5734      0.0086      4.6445    144.8922
  1554.7000      7.8534      2.5536      0.0573      5.8415    151.5359
  1554.8000      7.8885      2.5377      0.0938      6.8084    150.6014
  1554.9000      7.8885      2.5326      0.0471      7.1127    150.5864
  1555.0000      7.8955      2.5433      0.0779      6.4696    158.6914
  1555.1000      7.8955      2.5645      0.0843      5.1840    164.9649
  1555.2000      7.8955      2.5817      0.0773      4.1420    159.8156
  1555.3000      7.9013      2.5805      0.1146      4.2095    151.6834
  1555.4000      7.9013      2.5611      0.0758      5.3892    148.7726
  1555.5000      7.8502      2.5381      0.0313      6.7820    147.3655
  1555.6000      7.8502      2.5194      0.0123      7.9157    142.3882
  1555.7000      7.8502      2.5059      0.0126      8.7311    136.2705
  1555.8000      7.8898      2.5053     -0.0087      8.7671    136.5012
  1555.9000      7.8898      2.5178      0.0646      8.0126    144.6330
  1556.0000      7.8773      2.5286      0.0399      7.3569    155.2797
  1556.1000      7.8773      2.5332      0.0663      7.0817    158.9379
  1556.2000      7.8773      2.5379      0.0959      6.7913    154.5104
  1556.3000      7.8843      2.5430      0.0655      6.4843    152.0658
  1556.4000      7.8843      2.5355      0.1274      6.9417    154.3837
  1556.5000      7.8946      2.5047      0.0961      8.8084    154.8831
  1556.6000      7.8946      2.4680     -0.0147     11.0278    154.1582
  1556.7000      7.8946      2.4612     -0.0114     11.4419    160.0341
  1556.8000      7.8756      2.4934      0.0389      9.4882    166.7339
  1556.9000      7.8756      2.5405      0.0626      6.6389    161.2945
  1557.0000      7.9149      2.5879      0.0761      3.7648    148.2164
  1557.1000      7.9149      2.6373      0.1199      0.7714    141.1130
  1557.2000      7.9149      2.6773      0.1251     -1.6565    143.6002
  1557.3000      7.9263      2.6960      0.0861     -2.7867    149.6279
  1557.4000      7.9263      2.6968      0.1463     -2.8376    154.9108
  1557.5000      7.9350      2.6866      0.0870     -2.2181    158.6337
  1557.6000      7.9350      2.6642      0.1227     -0.8605    157.8465
  1557.7000      7.9350      2.6243      0.0439      1.5547    149.0548
  1557.8000      7.8827      2.5819     -0.0175      4.1252    137.5357
  1557.9000      7.8827      2.5504      0.0489      6.0336    134.7568
  1558.0000      7.8712      2.5215      0.0184      7.7856    141.6657
  1558.1000      7.8712      2.5009      0.0064      9.0356    148.0655
  1558.2000      7.8712      2.4985      0.0132      9.1824    147.2203
  1558.3000      7.8628      2.5053      0.0423      8.7675    142.4872
  1558.4000      7.8628      2.5174      0.0240      8.0347    142.2843
  1558.5000      7.8592      2.5459      0.0373      6.3112    149.9494
  1558.6000      7.8592      2.5916      0.0812      3.5396    161.4972
  1558.7000      7.8592      2.6366      0.1132      0.8115    170.6335
  1558.8000      7.8684      2.6638      0.1438     -0.8380    171.7818
  1558.9000      7.8684      2.6606      0.1618     -0.6439    167.2207
  1559.0000      7.8962      2.6213      0.1172      1.7403    164.0780
  1559.1000      7.8962      2.5643      0.0447      5.1967    162.4268
  1559.2000      7.8962      2.5294      0.0159      7.3114    162.8571
  1559.3000      7.9556      2.5378      0.0149      6.7972    164.3833
  1559.4000      7.9556      2.5668      0.0281      5.0416    160.5893
  1559.5000      7.9449      2.5798      0.0292      4.2560    152.9347
  1559.6000      7.9449      2.5630      0.0425      5.2700    146.1382
  1559.7000      7.9449      2.5246      0.0309      7.6007    144.5062
  1559.8000      7.8712      2.4794      0.0297     10.3422    150.5120
  1559.9000      7.8712      2.4448      0.0340     12.4364    156.7848
  1560.0000      7.8803      2.4321      0.0384     13.2053    155.7871
  1560.1000      7.8803      2.4386      0.0602     12.8143    153.0793
  1560.2000      7.8803      2.4580      0.0202     11.6355    156.9364
