~Version Information
VERS.                      2.0: CWLS Log ASCII Standard - VERSION 2.0
WRAP.                       NO: One line per depth step
~Well Information Block
STRT.FT                -7.2500: 
STOP.FT              1196.2500: 
STEP.FT                 0.2500: 
NULL.                -999.2500: 
COMP.          Pioneer Natural Resources: COMPANY
WELL.             Mahalo 12-20: WELL
FLD.           Purgatorie River: FIELD
LOC.           1689' FNL & 479' FWL--: LOCATION
CNTY.               Las Animas: COUNTY
SRVC.          Patterson Wireline: SERVICE COMPANY
DATE.          Tue Mar 14 15:40:32 2006: LOG DATE
UWI.           05 071 08700 00: UNIQUE WELL ID
STAT.                       CO: STATE
~Curve Information Block
DEPT.FT            0 000 00 00: Depth
CCL.                          : Casing Collar Locator
TT3.usec                      : CBL 3' Travel Time
AMP3.mV                       : CBL 3' Amplitude
GR.GAPI                       : Gamma Ray
~Parameter Information Block
~A  Depth       CCL         TT3         AMP3         GR     
# ...
   997.7500      0.0000    741.9460      6.5571     95.2084
   998.0000      0.0000    743.2639      6.5795     98.8839
   998.2500      0.0000    747.3075      6.6156    101.4142
   998.5000      0.0000    752.0723      6.6649    102.2514
   998.7500      0.0000    754.0089      6.7190    100.5508
   999.0000      0.0000    751.3015      6.7638     96.0301
   999.2500      0.0000    745.8597      6.7891     89.6425
   999.5000      0.0000    741.4443      6.7974     83.1174
   999.7500      0.0000    740.1507      6.8002     77.9154
  1000.0000      0.0000    741.3231      6.8047     74.7469
  1000.2500      0.0000    743.2482      6.8022     73.7822
  1000.5000      0.0000    745.0445      6.7741     74.6371
  1000.7500      0.0000    747.1753      6.7126     75.9938
  1001.0000      0.0000    750.6331      6.6322     76.0070
  1001.2500      0.0000    755.9307      6.5582     73.7465
  1001.5000      0.0000    763.1863      6.5062     70.1364
  1001.7500      0.0000    772.5903      6.4765     67.1614
  1002.0000      0.0000    783.6020      6.4650     66.1269
  1002.2500      0.0000    793.5706      6.4720     66.8530
  1002.5000      0.0000    798.3651      6.4986     68.5598
  1002.7500      0.0000    795.6155      6.5437     71.0503
  1003.0000      0.0000    787.3541      6.6065     74.5222
  1003.2500      0.0000    778.6720      6.6878     78.5160
  1003.5000      0.0000    773.2750      6.7856     81.7802
  1003.7500      0.0000    770.4319      6.8916     83.3088
  1004.0000      0.0000    766.4232      6.9879     83.1550
  1004.2500      0.0000    758.7551      7.0470     82.1197
  1004.5000      0.0000    748.5819      7.0452     80.8127
  1004.7500      0.0000    739.4462      6.9834     79.1745
  1005.0000      0.0000    734.8127      6.8906     77.0064
  1005.2500      0.0000    736.6688      6.8009     74.8391
  1005.5000      0.0000    744.5646      6.7326     73.8156
  1005.7500      0.0000    755.1974      6.6877     74.5704
  1006.0000      0.0000    764.5506      6.6602     76.6398
  1006.2500      0.0000    771.1685      6.6400     79.1086
  1006.5000      0.0000    775.9460      6.6193     81.4552
  1006.7500      0.0000    778.7009      6.6003     83.5773
  1007.0000      0.0000    777.2952      6.5906     85.2890
  1007.2500      0.0000    770.9007      6.5881     86.1813
  1007.5000      0.0000    762.2738      6.5789     86.0522
  1007.7500      0.0000    755.8896      6.5490     85.2425
  1008.0000      0.0000    755.0891      6.4920     84.3001
  1008.2500      0.0000    761.0023      6.4062     83.2997
  1008.5000      0.0000    771.6370      6.2937     81.7999
  1008.7500      0.0000    780.7484      6.1636     79.8066
  1009.0000      0.0000    780.5198      6.0303     78.5407
  1009.2500      0.0000    768.3378      5.9061     79.6297
  1009.5000      0.0000    749.9669      5.7943     83.3223
  1009.7500      0.0000    734.3281      5.6894     87.8700
  1010.0000      0.0000    726.3398      5.5866     90.8633
  1010.2500      0.0000    725.5964      5.4991     91.0142
  1010.5000      0.0000    729.6425      5.4653     88.7546
  1010.7500      0.0000    736.4859      5.5284     85.6363
  1011.0000      0.0000    744.8150      5.6993     83.2692
  1011.2500      0.0000    753.3427      5.9401     82.3686
  1011.5000      0.0000    760.4269      6.1919     82.4706
  1011.7500      0.0000    764.4433      6.4199     82.4015
  1012.0000      0.0000    764.6479      6.6282     80.9791
  1012.2500      0.0000    761.2819      6.8371     77.7305
  1012.5000      0.0000    755.0927      7.0563     73.5722
  1012.7500      0.0000    747.5093      7.2794     70.5995
  1013.0000      0.0000    740.7617      7.4913     70.5103
  1013.2500      0.0000    736.3459      7.6742     72.9974
  1013.5000      0.0000    733.4155      7.8140     75.8680
  1013.7500      0.0000    729.6962      7.9036     76.8609
  1014.0000      0.0000    723.9541      7.9342     75.3374
  1014.2500      0.0000    716.9937      7.8875     72.2995
  1014.5000      0.0000    710.6618      7.7516     69.1775
  1014.7500      0.0000    706.4595      7.5491     66.8267
  1015.0000      0.0000    704.9614      7.3362     65.1751
  1015.2500      0.0000    705.9556      7.1684     63.5284
  1015.5000      0.0000    708.6923      7.0693     61.6517
  1015.7500      0.0000    712.0807      7.0300     60.6328
  1016.0000      0.0000    715.3820      7.0280     62.1556
  1016.2500      0.0000    719.1453      7.0445     66.8099
  1016.5000      0.0000    724.8525      7.0697     73.2170
  1016.7500      0.0000    732.8677      7.1006     78.5411
  1017.0000      0.0000    741.2339      7.1360     80.0412
  1017.2500      0.0000    747.3201      7.1764     77.1060
  1017.5000      0.0000    750.4053      7.2248     72.1679
  1017.7500      0.0000    751.9764      7.2845     69.0568
  1018.0000      0.0000    753.7010      7.3527     70.0798
  1018.2500      0.0000    755.6526      7.4196     74.5734
  1018.5000      0.0000    756.5272      7.4750     79.8141
  1018.7500      0.0000    755.2534      7.5131     83.0984
  1019.0000      0.0000    752.0341      7.5339     83.5056
  1019.2500      0.0000    747.8656      7.5420     82.2799
  1019.5000      0.0000    743.6754      7.5442     81.4529
  1019.7500      0.0000    740.2292      7.5464     81.8791
  1020.0000      0.0000    738.1790      7.5509     82.7407
  1020.2500      0.0000    737.5319      7.5603     82.8789
  1020.5000      0.0000    737.4672      7.5800     82.0886
  1020.7500      0.0000    737.1734      7.6168     81.0240
  1021.0000      0.0000    736.3400      7.6721     80.3366
  1021.2500      0.0000    734.2747      7.7375     80.0228
  1021.5000      0.0000    729.2921      7.8001     79.2658
  1021.7500      0.0000    720.1888      7.8514     76.9772
  1022.0000      0.0000    708.4266      7.8925     72.7142
  1022.2500      0.0000    697.9687      7.9291     67.0652
  1022.5000      0.0000    692.3655      7.9635     61.3649
  1022.7500      0.0000    692.1180      7.9920     57.1902
  1023.0000      0.0000    694.9457      8.0101     55.5925
  1023.2500      0.0000    698.0334      8.0151     56.3839
  1023.5000      0.0000    699.5212      8.0050     58.5831
  1023.7500      0.0000    698.2142      7.9739     61.7578
  1024.0000      0.0000    692.9330      7.9129     66.1242
  1024.2500      0.0000    683.2087      7.8209     71.0469
  1024.5000      0.0000    670.8126      7.7231     74.5764
  1024.7500      0.0000    659.6364      7.6756     75.2225
  1025.0000      0.0000    653.1263      7.7215     73.5261
  1025.2500      0.0000    652.2478      7.8250     71.2426
  1025.5000      0.0000    656.2298      7.8815     69.4246
  1025.7500      0.0000    664.0446      7.8244     67.8291
  1026.0000      0.0000    674.3431      7.6874     65.8807
  1026.2500      0.0000    685.1520      7.5352     63.6996
  1026.5000      2.0000    694.9374      7.3746     62.1112
  1026.7500     -2.0000    703.7844      7.1724     61.7489
  1027.0000      0.0000    712.6310      6.9209     62.3911
  1027.2500      0.0000    721.4059      6.6499     63.3212
  1027.5000      0.0000    728.9884      6.3965     64.1043
  1027.7500      0.0000    735.1042      6.1801     64.9067
  1028.0000      0.0000    740.8188      5.9899     66.3434
  1028.2500      0.0000    746.5276      5.7935     68.8363
  1028.5000      0.0000    750.8598      5.5837     71.6173
  1028.7500      0.0000    752.4301      5.4064     72.7633
  1029.0000      0.0000    751.6288      5.3179     70.7994
  1029.2500      0.0000    750.0449      5.3272     65.9027
  1029.5000      0.0000    748.8885      5.4002     59.3059
  1029.7500      0.0000    748.4470      5.5021     52.1866
  1030.0000      0.0000    748.5649      5.6196     45.3934
  1030.2500      0.0000    749.2000      5.7499     39.8323
  1030.5000      0.0000    750.6196      5.8875     36.7830
  1030.7500      0.0000    753.2965      6.0231     37.4980
  1031.0000      0.0000    757.5308      6.1490     42.2229
