~Version Information
VERS.                      2.0: CWLS Log ASCII Standard - VERSION 2.0
WRAP.                       NO: One line per depth step
~Well Information Block
STRT.FT               330.0000: 
STOP.FT              1923.5000: 
STEP.FT                 0.1000: 
NULL.                -999.2500: 
COMP.          Pioneer Natural Resources: COMPANY
WELL.          State Wildlife 32-16 Tr: WELL
FLD.           Purgatoire River: FIELD
LOC.           1838' FNL & 1850' FEL: LOCATION
STAT.                 Colorado: State
CNTY.               Las Animas: COUNTY
CTRY. USA : Country
SECT. 16 : Section
TOWN. 32S : Township
RANG. 66W : Range
SRVC.                Patterson: SERVICE COMPANY
DATE.          Mon Nov 14 07:20:48 2005: LOG DATE
API.           05 071 08568 00: UNIQUE WELL ID
~Curve Information Block
DEPT.FT            0 000 00 00: Depth
DCAL.in                       : CDL Caliper
RHOB.g/cc                     : CDL Bulk Density
RHOC.g/cc                     : CDL Density Correction
DPOR.pu                       : CDL Density Porosity
GR.GAPI                       : Gamma Ray
NPOR.pu                       : Neutron Porosity
~Parameter Information Block
~A  Depth       DCAL        RHOB        RHOC        DPOR         GR         NPOR    
   330.0000      4.7855      0.7956     -0.2026    112.3894    115.2275     24.1377
   330.1000      4.7855      0.8735     -0.1286    107.6637    112.8612     23.4540
   330.2000      4.7855      0.9468     -0.0881    103.2241    109.5538     22.1057
   330.3000      4.7958      1.0175     -0.0201     98.9369    111.3130     20.6347
   330.4000      4.7958      1.0912      0.0555     94.4742    113.9427     19.9742
   330.5000      4.8011      1.1645      0.1230     90.0316    114.2968     20.0849
   330.6000      4.8011      1.2281      0.1820     86.1756    116.3575     20.3171
   330.7000      4.8011      1.2766      0.2344     83.2339    121.3454     20.5105
   330.8000      4.7923      1.3085      0.2555     81.3042    122.4393     21.0352
   330.9000      4.7923      1.3231      0.2689     80.4172    118.9585     21.7176
   331.0000      4.7990      1.3261      0.2479     80.2369    119.2806     21.8080
   331.1000      4.7990      1.3284      0.2515     80.1000    125.3971     21.4117
   331.2000      4.7990      1.3390      0.2376     79.4531    129.1104     20.9338
   331.3000      4.7839      1.3629      0.2550     78.0080    128.8257     20.5405
   331.4000      4.7839      1.3961      0.3098     75.9923    128.3843     21.2290
   331.5000      4.7909      1.4320      0.3022     73.8189    127.7233     22.7141
   331.6000      4.7909      1.4745      0.2493     71.2441    125.5405     23.2439
   331.7000      4.7909      1.5254      0.3396     68.1588    120.9420     22.6731
   331.8000      4.8010      1.5679      0.3349     65.5800    116.4010     21.2515
   331.9000      4.8010      1.5861      0.3639     64.4772    116.2292     19.0170
   332.0000      4.7981      1.5809      0.3483     64.7949    118.4689     17.6158
   332.1000      4.7981      1.5641      0.3878     65.8100    118.4894     18.3525
   332.2000      4.7981      1.5506      0.3901     66.6295    118.2320     20.1177
   332.3000      4.7926      1.5602      0.3918     66.0505    120.1194     21.0868
   332.4000      4.7926      1.6108      0.4129     62.9838    121.9345     21.2642
   332.5000      4.7977      1.6999      0.4545     57.5835    121.1856     21.9462
   332.6000      4.7977      1.7990      0.5036     51.5751    120.6838     23.5735
   332.7000      4.7977      1.8747      0.4812     46.9871    122.9352     24.6587
   332.8000      4.7843      1.9160      0.4485     44.4828    126.8716     24.2694
   332.9000      4.7843      1.9343      0.4404     43.3758    132.6193     23.4080
   333.0000      4.7921      1.9402      0.4447     43.0158    139.4838     22.9203
   333.1000      4.7921      1.9291      0.4945     43.6926    141.5189     22.9036
   333.2000      4.7921      1.8882      0.5224     46.1672    133.3890     22.9836
   333.3000      4.8050      1.8197      0.5017     50.3194    123.9882     22.7321
   333.4000      4.8050      1.7413      0.4789     55.0706    124.2103     22.4598
   333.5000      4.8180      1.6727      0.4214     59.2315    127.1849     22.7384
   333.6000      4.8180      1.6374      0.3916     61.3669    126.0210     23.6804
   333.7000      4.8180      1.6621      0.4074     59.8754    125.2507     24.4827
   333.8000      4.8090      1.7632      0.4337     53.7437    124.7185     24.4339
   333.9000      4.8090      1.9414      0.5167     42.9428    123.9374     24.0621
   334.0000      4.7940      2.1765      0.5588     28.6982    126.6574     24.0727
   334.1000      4.7940      2.4279      0.6446     13.4605    130.6328     24.3163
   334.2000      4.7940      2.6531      0.7088     -0.1870    130.7457     23.8452
   334.3000      4.7816      2.8316      0.7588    -11.0054    127.0413     22.5539
   334.4000      4.7816      2.9585      0.7656    -18.6992    120.9713     21.4833
   334.5000      4.8039      3.0105      0.8459    -21.8461    117.3680     21.1555
   334.6000      4.8039      2.9565      0.7329    -18.5749    122.4016     21.1683
   334.7000      4.8039      2.8111      0.5139     -9.7628    130.8101     21.0929
   334.8000      4.8232      2.6337      0.2686      0.9849    133.0586     20.9273
   334.9000      4.8232      2.4836      0.0725     10.0874    128.5725     20.8019
   335.0000      4.8253      2.3792     -0.0639     16.4132    118.9952     20.6631
   335.1000      4.8253      2.2971     -0.0844     21.3892    107.6890     20.3669
   335.2000      4.8253      2.2202     -0.2412     26.0478    101.5037     20.0323
   335.3000      4.8400      2.1672     -0.2851     29.2613    100.1418     19.4434
   335.4000      4.8400      2.1453     -0.2338     30.5857    100.0625     18.8107
   335.5000      4.8304      2.1370     -0.3294     31.0897    101.6894     19.1536
   335.6000      4.8304      2.1283     -0.2337     31.6179    104.6463     20.3031
   335.7000      4.8304      2.1164     -0.3394     32.3382    103.3770     20.6741
   335.8000      4.8327      2.1064     -0.3131     32.9469     96.2047     19.6649
   335.9000      4.8327      2.0980     -0.3126     33.4564     93.1950     18.3135
   336.0000      4.8336      2.0971     -0.3417     33.5065     99.0478     17.4444
   336.1000      4.8336      2.1109     -0.3305     32.6743    105.1358     17.3007
   336.2000      4.8336      2.1249     -0.2548     31.8257    105.1392     17.8513
   336.3000      4.8262      2.1205     -0.2894     32.0905    102.1132     18.6606
   336.4000      4.8262      2.1034     -0.2898     33.1270    100.5755     19.3765
   336.5000      4.8285      2.0919     -0.2991     33.8248    100.6907     19.8352
   336.6000      4.8285      2.0948     -0.3149     33.6480     98.1933     19.8949
   336.7000      4.8285      2.1108     -0.3489     32.6768     92.0099     19.5299
   336.8000      4.8275      2.1303     -0.2743     31.4990     87.4509     18.9868
   336.9000      4.8275      2.1379     -0.2660     31.0337     86.2209     18.6188
   337.0000      4.8362      2.1260     -0.2400     31.7559     87.6287     18.5238
   337.1000      4.8362      2.0956     -0.2672     33.6004     94.0470     18.2163
   337.2000      4.8362      2.0607     -0.3348     35.7125    102.8715     17.4876
   337.3000      4.8350      2.0446     -0.3389     36.6934    106.3613     17.1339
   337.4000      4.8350      2.0591     -0.3075     35.8097    103.8018     17.7048
   337.5000      4.8370      2.0950     -0.2986     33.6374    101.6926     18.7300
   337.6000      4.8370      2.1228     -0.2345     31.9523    102.3073     19.7252
   337.7000      4.8370      2.1152     -0.2585     32.4130    101.5679     20.2377
   337.8000      4.8378      2.0767     -0.3271     34.7441     98.1676     19.7880
   337.9000      4.8378      2.0357     -0.3744     37.2298     95.8068     18.8059
   338.0000      4.8413      2.0110     -0.3465     38.7272     98.1903     18.5630
   338.1000      4.8413      1.9976     -0.3986     39.5385    105.4052     19.6719
   338.2000      4.8413      1.9792     -0.3523     40.6574    115.2491     20.9115
   338.3000      4.8380      1.9486     -0.3597     42.5069    125.3726     21.1813
   338.4000      4.8380      1.9220     -0.4231     44.1231    131.6924     20.7975
   338.5000      4.8282      1.9114     -0.3915     44.7662    129.7511     20.1302
   338.6000      4.8282      1.9043     -0.4020     45.1911    121.5105     19.5716
   338.7000      4.8282      1.9011     -0.4511     45.3854    116.3077     19.7197
   338.8000      4.8379      1.9294     -0.4433     43.6715    113.9630     20.7341
   338.9000      4.8379      1.9919     -0.3515     39.8859    108.1669     21.7556
   339.0000      4.8374      2.0458     -0.3125     36.6196    102.0053     22.1039
   339.1000      4.8374      2.0652     -0.3509     35.4450    100.8586     22.2897
   339.2000      4.8374      2.0678     -0.3430     35.2876    105.4454     22.5564
   339.3000      4.8359      2.0723     -0.3249     35.0139    111.2916     22.7122
   339.4000      4.8359      2.0843     -0.3413     34.2830    113.9046     22.3960
   339.5000      4.8338      2.1022     -0.2798     33.2016    114.4948     21.5830
