~Version Information
VERS.                      2.0: CWLS Log ASCII Standard - VERSION 2.0
WRAP.                       NO: One line per depth step
~Well Information Block
STRT.FT               390.0000: 
STOP.FT               825.0000: 
STEP.FT                 0.1000: 
NULL.                -999.2500: 
COMP.          Pioneer Natural Resources: COMPANY
WELL.             Veedol 34-28: WELL
FLD.           Purgatoire River: FIELD
LOC.           357' FSL & 2520' FEL: LOCATION
PROV.                 Colorado: PROVINCE
CNTY.               Las Animas: COUNTRY
SRVC.                Patterson: SERVICE COMPANY
DATE.          Thu Dec 22 14:38:20 2005: LOG DATE
UWI.           05 071 08628 00: UNIQUE WELL ID
~Curve Information Block
DEPT.FT            0 000 00 00: Depth
DCAL.in                       : CDL Caliper
RHOB.g/cc                     : CDL Bulk Density
RHOC.g/cc                     : CDL Density Correction
DPOR.pu                       : CDL Density Porosity
GR.GAPI                       : Gamma Ray
NPOR.pu                       : Neutron Porosity
~Parameter Information Block
~A  Depth       DCAL        RHOB        RHOC        DPOR         GR         NPOR    
# ...
   639.6000      7.8842      2.7359      0.0571     -5.2090     57.4991     28.2841
   639.7000      7.8842      2.7209      0.0310     -4.2977     59.0664     28.9269
   639.8000      7.8838      2.7125     -0.0194     -3.7901     58.1107     28.9873
   639.9000      7.8838      2.6894     -0.0409     -2.3903     54.5848     27.9484
   640.0000      7.8840      2.6571     -0.1760     -0.4286     53.2001     26.5695
   640.1000      7.8840      2.6361     -0.0794      0.8444     54.8852     25.7146
   640.2000      7.8840      2.6226     -0.0063      1.6594     56.3853     25.3309
   640.3000      7.8843      2.6128      0.0154      2.2565     55.6824     24.7953
   640.4000      7.8843      2.6120      0.0453      2.3027     53.8686     23.5983
   640.5000      7.8844      2.6163      0.0494      2.0423     51.9174     22.1241
   640.6000      7.8844      2.6168      0.0619      2.0148     49.6666     21.2936
   640.7000      7.8844      2.6075      0.0655      2.5768     47.8617     21.4432
   640.8000      7.8846      2.5832      0.0698      4.0461     48.0753     21.9280
   640.9000      7.8846      2.5415      0.0391      6.5764     51.8339     22.1947
   641.0000      7.8850      2.4954      0.0098      9.3713     58.1125     22.4129
   641.1000      7.8850      2.4737     -0.0569     10.6847     63.4706     22.9458
   641.2000      7.8850      2.4953     -0.0186      9.3755     64.7113     23.8976
   641.3000      7.8854      2.5487      0.0473      6.1391     62.9194     24.7632
   641.4000      7.8854      2.6141      0.0512      2.1780     62.8107     24.7950
   641.5000      7.8858      2.6832      0.1205     -2.0135     63.3195     23.9876
   641.6000      7.8858      2.7481      0.1492     -5.9474     59.4878     23.2630
   641.7000      7.8858      2.7924      0.2215     -8.6302     52.8088     23.1143
   641.8000      7.8854      2.8000      0.1970     -9.0921     48.9962     23.0117
   641.9000      7.8854      2.7776      0.1636     -7.7338     50.4802     22.5373
   642.0000      7.8844      2.7423      0.1311     -5.5965     56.4445     22.0586
   642.1000      7.8844      2.7031      0.0902     -3.2188     65.0381     22.2278
   642.2000      7.8844      2.6670      0.0164     -1.0300     71.7581     22.8978
   642.3000      7.8834      2.6417      0.0031      0.5010     72.8281     23.2834
   642.4000      7.8834      2.6306     -0.0280      1.1771     69.5841     22.9515
   642.5000      7.8834      2.6310      0.0260      1.1509     64.1845     22.3197
   642.6000      7.8834      2.6341      0.0460      0.9628     57.5622     21.9208
   642.7000      7.8834      2.6295      0.0810      1.2405     52.3527     21.5357
   642.8000      7.8846      2.6148      0.0779      2.1340     51.8434     20.7454
   642.9000      7.8846      2.5967      0.0824      3.2321     54.2492     19.9765
   643.0000      7.8850      2.5793      0.0710      4.2878     56.7571     19.8980
   643.1000      7.8850      2.5623      0.0518      5.3157     59.5922     20.1142
   643.2000      7.8850      2.5490      0.0023      6.1185     60.0815     20.0318
   643.3000      7.8846      2.5449      0.0050      6.3705     55.3471     19.6842
   643.4000      7.8846      2.5425      0.0297      6.5122     48.6589     19.1906
   643.5000      7.8848      2.5335      0.0072      7.0631     44.4891     18.6117
   643.6000      7.8848      2.5298     -0.0158      7.2823     43.2183     17.9361
   643.7000      7.8848      2.5413      0.0217      6.5894     43.3195     17.4450
   643.8000      7.8854      2.5557     -0.0026      5.7128     45.3286     17.5910
   643.9000      7.8854      2.5598      0.0395      5.4668     48.6354     18.1625
   644.0000      7.8857      2.5500      0.0331      6.0603     49.9874     18.5490
   644.1000      7.8857      2.5362      0.0052      6.8986     48.2452     18.5080
   644.2000      7.8857      2.5331      0.0085      7.0865     45.5807     18.3896
   644.3000      7.8855      2.5403      0.0266      6.6509     43.7088     18.2900
   644.4000      7.8855      2.5512      0.0089      5.9853     42.2882     18.0825
   644.5000      7.8841      2.5696      0.0381      4.8716     41.3266     17.8332
   644.6000      7.8841      2.5942      0.0629      3.3802     43.4466     17.4186
   644.7000      7.8841      2.6099      0.0984      2.4290     49.4624     16.8013
   644.8000      7.8829      2.6051      0.0426      2.7240     54.6617     16.4741
   644.9000      7.8829      2.5867      0.0399      3.8365     54.9343     16.7032
   645.0000      7.8832      2.5687      0.0420      4.9262     52.6573     16.9662
   645.1000      7.8832      2.5563      0.0263      5.6787     51.0462     17.0114
   645.2000      7.8832      2.5453      0.0545      6.3456     50.9555     17.3200
   645.3000      7.8842      2.5361      0.0251      6.9031     51.9179     18.0121
   645.4000      7.8842      2.5390      0.0120      6.7254     51.5017     18.6370
   645.5000      7.8854      2.5544      0.0680      5.7967     48.9066     19.1757
   645.6000      7.8854      2.5707      0.0471      4.8088     47.0435     19.6828
   645.7000      7.8854      2.5819      0.0258      4.1285     47.1211     19.7264
   645.8000      7.8853      2.5851      0.0803      3.9321     46.5863     19.2731
   645.9000      7.8853      2.5811      0.0483      4.1743     45.2588     18.6476
   646.0000      7.8849      2.5740      0.0752      4.6086     45.4922     18.1685
   646.1000      7.8849      2.5640      0.0354      5.2130     46.3624     18.1471
   646.2000      7.8849      2.5542      0.0262      5.8033     46.3700     18.3626
   646.3000      7.8848      2.5477      0.0185      6.1983     47.1096     18.2134
   646.4000      7.8848      2.5471      0.0183      6.2342     49.8562     17.6773
   646.5000      7.8841      2.5564      0.0597      5.6734     51.2018     17.2507
   646.6000      7.8841      2.5664      0.0724      5.0659     47.8155     17.1640
   646.7000      7.8841      2.5631      0.0411      5.2688     41.9927     17.4327
   646.8000      7.8834      2.5507      0.0150      6.0204     38.4952     17.6925
   646.9000      7.8834      2.5451      0.0198      6.3548     39.5473     17.2675
   647.0000      7.8838      2.5490      0.0165      6.1214     43.3622     16.3304
   647.1000      7.8838      2.5516      0.0579      5.9665     44.5825     15.7318
   647.2000      7.8838      2.5475      0.0276      6.2125     40.4741     15.5482
   647.3000      7.8841      2.5453      0.0450      6.3450     36.3266     15.2983
   647.4000      7.8841      2.5569      0.0309      5.6442     37.5362     15.2268
   647.5000      7.8842      2.5720      0.0914      4.7250     41.4315     15.8791
   647.6000      7.8842      2.5705      0.0567      4.8157     42.4075     16.8127
   647.7000      7.8842      2.5584      0.0336      5.5523     40.2534     17.1138
   647.8000      7.8846      2.5503      0.0567      6.0394     39.7891     16.8346
   647.9000      7.8846      2.5494      0.0258      6.0969     42.5300     16.4554
   648.0000      7.8846      2.5548      0.0434      5.7673     43.4952     16.1735
   648.1000      7.8846      2.5620      0.0497      5.3328     39.6942     16.4020
   648.2000      7.8846      2.5714      0.0243      4.7623     35.7922     17.3069
   648.3000      7.8842      2.5818      0.0900      4.1330     36.4425     18.2021
   648.4000      7.8842      2.5806      0.0529      4.2058     39.9296     18.4574
   648.5000      7.8840      2.5679      0.0292      4.9763     41.9353     18.0975
   648.6000      7.8840      2.5552      0.0119      5.7463     41.0514     17.3699
   648.7000      7.8840      2.5485     -0.0127      6.1526     39.4959     16.7514
   648.8000      7.8842      2.5436      0.0394      6.4508     39.1541     16.6560
   648.9000      7.8842      2.5363     -0.0192      6.8921     40.8380     16.9250
   649.0000      7.8847      2.5350      0.0177      6.9695     44.6452     17.0599
   649.1000      7.8847      2.5449      0.0176      6.3702     47.2624     16.8422
