~Version Information
VERS.                      2.0: CWLS Log ASCII Standard - VERSION 2.0
WRAP.                       NO: One line per depth step
~Well Information Block
STRT.FT                 0.5000: 
STOP.FT              2166.0000: 
STEP.FT                 0.2500: 
NULL.                -999.2500: 
COMP.          Pioneer Natural Resources: COMPANY
WELL.          Bear Cub Federal 11-23: WELL
FLD.           Purgatoire River: FIELD
LOC.           1225' FNL & 1268 ' FWL--: LOCATION
CNTY.               Las Animas: COUNTY
SRVC.                Patterson: SERVICE COMPANY
DATE.          Mon Jul 17 10:21:31 2006: LOG DATE
UWI.           05 071 08509 00: UNIQUE WELL ID
STAT.                 Colorado: STATE
~Curve Information Block
DEPT.FT            0 000 00 00: Depth
CCL.                          : Casing Collar Locator
TT3.usec                      : CBL 3' Travel Time
AMP3.mV                       : CBL 3' Amplitude
GR.GAPI                       : Gamma Ray
~Parameter Information Block
~A  Depth       CCL         TT3         AMP3         GR     
# ...
   704.0000      0.0000    563.1043      6.7780    130.3266
   704.2500      0.0000    550.3391      6.5641    128.8254
   704.5000      0.0000    540.3293      6.3959    127.5593
   704.7500      0.0000    539.1397      6.3813    128.5506
   705.0000      0.0000    544.4947      6.4316    132.4710
   705.2500      0.0000    553.7917      6.4531    135.6188
   705.5000      0.0000    579.5038      6.3834    139.9060
   705.7500      0.0000    604.8376      6.2508    142.3734
   706.0000      0.0000    650.5784      5.9540    144.8892
   706.2500      0.0000    681.3521      5.7356    144.7077
   706.5000      0.0000    718.7475      5.4603    139.7580
   706.7500      0.0000    733.5335      5.3437    133.1706
   707.0000      0.0000    738.6821      5.2837    120.3837
   707.2500      0.0000    734.2003      5.3112    112.0811
   707.5000      0.0000    725.6888      5.4175    103.5911
   707.7500      0.0000    723.3254      5.4973    101.6445
   708.0000      0.0000    726.7600      5.5588    103.7226
   708.2500      0.0000    732.6957      5.5310    107.1396
   708.5000      0.0000    743.9965      5.3928    112.5567
   708.7500      0.0000    750.6393      5.2716    114.8933
   709.0000      0.0000    754.8281      5.1182    115.1664
   709.2500      0.0000    752.8369      5.0606    113.5717
   709.5000      0.0000    745.5411      5.0464    110.8238
   709.7500      0.0000    740.7739      5.0746    110.2207
   710.0000      0.0000    737.3632      5.1498    112.2864
   710.2500      0.0000    738.0577      5.2104    115.2525
   710.5000      0.0000    743.0121      5.3060    120.3214
   710.7500      0.0000    748.8594      5.3703    123.0949
   711.0000      0.0000    761.5532      5.4600    125.6477
   711.2500      0.0000    771.7291      5.5065    126.4651
   711.5000      0.0000    785.7554      5.5459    126.4336
   711.7500      0.0000    791.7292      5.5562    124.9677
   712.0000      0.0000    792.3955      5.5696    119.8288
   712.2500      0.0000    786.2957      5.5873    115.4659
   712.5000      0.0000    767.8146      5.6227    111.6422
   712.7500      0.0000    751.6313      5.6328    112.9660
   713.0000      0.0000    728.5480      5.5777    120.8748
   713.2500      0.0000    717.6685      5.4745    128.1738
   713.5000      0.0000    710.1559      5.2397    137.4614
   713.7500      0.0000    709.5048      5.0709    140.4482
   714.0000      0.0000    710.3957      4.8707    139.7933
   714.2500      0.0000    710.0592      4.7886    137.6006
   714.5000      0.0000    707.8840      4.7266    134.9546
   714.7500      0.0000    707.5322      4.7100    134.2411
   715.0000      0.0000    713.7770      4.7051    133.3998
   715.2500      0.0000    723.3622      4.7079    132.0807
   715.5000      0.0000    740.5707      4.7065    129.1693
   715.7500      0.0000    748.3864      4.6966    127.5338
   716.0000      0.0000    748.2094      4.6785    126.9759
   716.2500      0.0000    741.0008      4.6804    128.2677
   716.5000      0.0000    727.3906      4.7246    132.6982
   716.7500      0.0000    721.2820      4.7757    136.8278
   717.0000      0.0000    719.4386      4.8409    143.0873
   717.2500      0.0000    721.0426      4.8479    146.1404
   717.5000      0.0000    721.8167      4.7853    147.9031
   717.7500      0.0000    719.3985      4.7090    147.4985
   718.0000      0.0000    713.0327      4.5884    146.2454
   718.2500      0.0000    709.4594      4.5259    145.7789
   718.5000      0.0000    708.8431      4.4712    145.5527
   718.7500      0.0000    712.8959      4.4592    145.0963
   719.0000      0.0000    726.1013      4.4819    142.9698
   719.2500      0.0000    738.0007      4.5320    140.2319
   719.5000      0.0000    753.4865      4.6558    133.7673
   719.7500      0.0000    757.4807      4.7471    128.0737
   720.0000      0.0000    751.0929      4.8448    119.2102
   720.2500      0.0000    741.8643      4.8726    114.7910
   720.5000      0.0000    730.8725      4.8889    113.0299
   720.7500      0.0000    729.8290      4.9127    115.6667
   721.0000      0.0000    737.3033      4.9986    123.7989
   721.2500      0.0000    744.2743      5.0870    129.8172
   721.5000      0.0000    750.3027      5.2374    135.5600
   721.7500      0.0000    749.8309      5.3294    135.8841
   722.0000      0.0000    745.5516      5.4281    132.0725
   722.2500      0.0000    743.4099      5.4600    128.5210
   722.5000      0.0000    743.5577      5.4612    124.4019
   722.7500      0.0000    744.4891      5.4443    122.6758
   723.0000      0.0000    742.6014      5.4273    120.1431
   723.2500      0.0000    737.4320      5.4404    118.0011
   723.5000      0.0000    724.3839      5.5125    115.6273
   723.7500      0.0000    714.1665      5.5987    116.0114
   724.0000      0.0000    700.9333      5.7884    119.8164
   724.2500      0.0000    695.5408      5.9522    123.0643
   724.5000      0.0000    694.2428      6.2165    126.3689
   724.7500      0.0000    698.0794      6.3618    127.3149
   725.0000      0.0000    710.6811      6.4541    128.4057
   725.2500      0.0000    722.8318      6.4049    129.6583
   725.5000      0.0000    742.5408      6.1687    131.9397
   725.7500      0.0000    753.1336      5.9408    132.9553
   726.0000      0.0000    761.3452      5.6276    132.8533
   726.2500      0.0000    762.2158      5.5311    131.6070
   726.5000      0.0000    759.6815      5.6426    128.1256
   726.7500      0.0000    756.3905      5.8701    125.1356
   727.0000     -2.0000    749.7697      6.3424    121.4124
   727.2500     -2.0000    745.5568      6.6856    120.8280
   727.5000      0.0000    741.9301      7.1834    124.2880
   727.7500      0.0000    740.6896      7.4993    129.2346
   728.0000      0.0000    737.1456      7.9589    138.5876
   728.2500      0.0000    733.5071      8.2343    144.6754
   728.5000      0.0000    731.0897      8.5206    151.5088
   728.7500      0.0000    734.3001      8.6113    153.6454
   729.0000      0.0000    744.9614      8.6726    152.7077
   729.2500      0.0000    752.6283      8.7168    149.8516
   729.5000      0.0000    761.2791      8.8078    144.1093
   729.7500      0.0000    765.2659      8.8781    140.3849
   730.0000      0.0000    769.5095      9.0282    136.2658
   730.2500      0.0000    770.9780      9.1902    135.0241
   730.5000      0.0000    771.0040      9.5345    135.8614
   730.7500      0.0000    770.4908      9.7967    137.9189
   731.0000      0.0000    771.1593     10.1640    141.5257
   731.2500      0.0000    772.7538     10.3729    142.9097
   731.5000      0.0000    773.1790     10.6529    141.6881
   731.7500      0.0000    768.1324     10.8389    138.6521
   732.0000      0.0000    747.2418     11.1296    133.3168
   732.2500      0.0000    725.3489     11.3149    131.6628
   732.5000      0.0000    689.1055     11.5314    134.2446
   732.7500      0.0000    667.8579     11.6186    138.1195
   733.0000      0.0000    642.5302     11.6799    142.9387
   733.2500      0.0000    627.5321     11.6990    144.1388
   733.5000      0.0000    601.4462     11.7363    143.5954
   733.7500      0.0000    577.6046     11.7972    142.5703
   734.0000      0.0000    526.7521     12.0288    140.8484
   734.2500      0.0000    483.9121     12.3399    139.7918
   734.5000      0.0000    418.0457     13.1242    138.4589
   734.7500      0.0000    381.4339     13.8605    137.3964
   735.0000      0.0000    344.9721     15.1484    134.6630
   735.2500      0.0000    333.3464     15.9537    132.1433
   735.5000      0.0000    335.1140     16.6909    129.0698
   735.7500      0.0000    350.4396     16.6817    128.8762
   736.0000      0.0000    395.2597     15.8344    132.3956
   736.2500      0.0000    436.4910     14.8317    136.6004
   736.5000      0.0000    505.6904     13.0710    143.5704
   736.7500      0.0000    552.5472     11.9827    148.0284
   737.0000      0.0000    621.7702     10.7837    154.8765
   737.2500      0.0000    665.7720     10.3197    159.8014
