~Version Information
VERS.                      2.0: CWLS Log ASCII Standard - VERSION 2.0
WRAP.                       NO: One line per depth step
~Well Information Block
STRT.FT                -5.5000: 
STOP.FT              2262.7500: 
STEP.FT                 0.2500: 
NULL.                -999.2500: 
COMP.          Pioneer Natural Resources: COMPANY
WELL.             Baa Baa 34-1: WELL
FLD.           Purgatorie River: FIELD
LOC.           617' FSL & 2289' FEL------: LOCATION
STAT.                       CO: State
CNTY.               Las Animas: COUNTY
CTRY. USA : Country
SECT. 1 : Section
TOWN. 33S : Township
RANG. 67W : Range
SRVC.          Patterson Wireline: SERVICE COMPANY
DATE.          Mon Sep 12 14:08:52 2005: LOG DATE
API.           05 071 08502 00: UNIQUE WELL ID
~Curve Information Block
DEPT.FT            0 000 00 00: Depth
LTEN.lb                       : Surface Line Tension
CCL.                          : Casing Collar Locator
TT3.usec                      : CBL 3' Travel Time
AMP3.mV                       : CBL 3' Amplitude
GR.GAPI                       : Gamma Ray
~Parameter Information Block
~A  Depth       LTEN        CCL         TT3         AMP3         GR     
# ...
   582.5000  -4531.8638      0.0000    899.9317      8.2008     82.1897
   582.7500  -4533.1958      0.0000    911.6780      8.1619     83.6733
   583.0000  -4534.5283      0.0000    937.6481      8.1114     88.8680
   583.2500  -4529.1997      0.0000    958.3776      8.0491     96.7562
   583.5000  -4538.5244      0.0000    957.3267      7.9806    105.0733
   583.7500  -4535.8604      0.0000    932.8721      7.9188    111.6570
   584.0000  -4533.1958      0.0000    897.4762      7.8738    115.9483
   584.2500  -4534.5283      0.0000    865.4301      7.8465    118.9988
   584.5000  -4534.5283      0.0000    843.4394      7.8288    122.1772
   584.7500  -4530.5317      0.0000    831.3123      7.8095    125.9790
   585.0000  -4533.1958      0.0000    826.6772      7.7783    129.8671
   585.2500  -4537.1924      0.0000    827.2999      7.7319    133.2734
   585.5000  -4538.5244      0.0000    831.1390      7.6766    136.5335
   585.7500  -4537.1924      0.0000    836.2542      7.6235    139.9241
   586.0000  -4538.5244      0.0000    841.0217      7.5780    141.8266
   586.2500  -4535.8604      0.0000    844.4664      7.5306    139.5511
   586.5000  -4537.1924      0.0000    846.4422      7.4615    132.6359
   586.7500  -4533.1958      0.0000    847.3724      7.3576    123.8618
   587.0000  -4534.5283      0.0000    847.7628      7.2236    116.3067
   587.2500  -4539.8569      0.0000    847.8755      7.0786    110.7059
   587.5000  -4534.5283      0.0000    847.6770      6.9409    106.0853
   587.7500  -4537.1924      0.0000    846.9003      6.8196    101.4626
   588.0000  -4535.8604      0.0000    845.2271      6.7190     96.4108
   588.2500  -4533.1958      0.0000    842.7301      6.6453     91.2220
   588.5000  -4535.8604      0.0000    840.2874      6.6067     87.1905
   588.7500  -4533.1958      0.0000    839.2373      6.6088     86.0780
   589.0000  -4537.1924      0.0000    840.2374      6.6523     88.6814
   589.2500  -4535.8604      0.0000    842.5698      6.7314     93.8769
   589.5000  -4535.8604      0.0000    844.7334      6.8327     99.1944
   589.7500  -4533.1958      0.0000    845.4006      6.9396    102.6797
   590.0000  -4534.5283      0.0000    843.6669      7.0419    104.4739
   590.2500  -4535.8604      0.0000    839.0058      7.1384    106.3250
   590.5000  -4534.5283      0.0000    831.6960      7.2301    109.3722
   590.7500  -4538.5244      0.0000    823.2253      7.3132    112.9485
   591.0000  -4534.5283      0.0000    815.6922      7.3797    115.8660
   591.2500  -4539.8569      0.0000    810.5206      7.4222    118.2015
   591.5000  -4535.8604      0.0000    807.8541      7.4362    121.0550
   591.7500  -4535.8604      0.0000    807.1146      7.4209    124.8376
   592.0000  -4533.1958      0.0000    807.9485      7.3794    128.4909
   592.2500  -4535.8604      0.0000    810.6204      7.3187    130.3442
   592.5000  -4534.5283      0.0000    815.5427      7.2504    129.4036
   592.7500  -4533.1958      0.0000    822.2845      7.1870    126.1362
   593.0000  -4529.1997      0.0000    829.1335      7.1366    122.5073
   593.2500  -4533.1958      0.0000    834.1417      7.1062    120.9766
   593.5000  -4530.5317      0.0000    836.8419      7.1061    122.8007
   593.7500  -4537.1924      0.0000    838.5408      7.1446    127.1184
   594.0000  -4534.5283      0.0000    840.7123      7.2175    131.6837
   594.2500  -4539.8569      0.0000    843.5187      7.3078    134.3027
   594.5000  -4535.8604      0.0000    846.0862      7.3980    133.7727
   594.7500  -4533.1958      0.0000    847.6561      7.4803    130.3539
   595.0000  -4531.8638      0.0000    848.0214      7.5548    125.7902
   595.2500  -4538.5244      0.0000    847.0735      7.6194    122.3185
   595.5000  -4538.5244      0.0000    844.3419      7.6637    121.0673
   595.7500  -4534.5283      0.0000    839.2122      7.6752    121.4196
   596.0000  -4535.8604      0.0000    831.7500      7.6523    121.8664
   596.2500  -4534.5283      0.0000    823.2460      7.6087    121.3339
   596.5000  -4538.5244      0.0000    815.6816      7.5648    119.8140
   596.7500  -4537.1924      0.0000    810.5279      7.5371    118.2042
   597.0000  -4534.5283      0.0000    808.1531      7.5359    117.6469
   597.2500  -4535.8604      0.0000    808.1544      7.5655    118.4617
   597.5000  -4534.5283      0.0000    809.7234      7.6238    119.4217
   597.7500  -4538.5244      0.0000    811.6353      7.7016    118.6661
   598.0000  -4533.1958      0.0000    812.6178      7.7860    115.7297
   598.2500  -4534.5283      0.0000    812.4359      7.8638    112.2032
   598.5000  -4531.8638      0.0000    812.4083      7.9245    110.1061
   598.7500  -4534.5283      0.0000    814.1496      7.9639    110.1367
   599.0000  -4537.1924      0.0000    817.5752      7.9839    111.5666
   599.2500  -4539.8569      0.0000    820.5325      7.9879    113.1579
   599.5000  -4535.8604      0.0000    820.8430      7.9778    114.0088
   599.7500  -4534.5283      0.0000    818.7228      7.9564    114.1791
   600.0000  -4537.1924      0.0000    816.9041      7.9322    114.8603
   600.2500  -4531.8638      0.0000    818.3087      7.9188    117.5302
   600.5000  -4534.5283      0.0000    823.6567      7.9263    122.4997
   600.7500  -4533.1958      0.0000    831.0258      7.9539    128.3710
   601.0000  -4533.1958      0.0000    837.3004      7.9905    133.0117
   601.2500  -4534.5283      0.0000    840.0410      8.0220    135.0351
   601.5000  -4533.1958      0.0000    838.5659      8.0360    134.4971
   601.7500  -4535.8604      0.0000    834.0378      8.0259    132.4893
   602.0000  -4535.8604      0.0000    828.6892      7.9945    130.0897
   602.2500  -4533.1958      0.0000    824.4484      7.9563    127.5317
   602.5000  -4533.1958      0.0000    821.9199      7.9315    124.3087
   602.7500  -4529.1997      0.0000    820.5995      7.9320    119.9828
   603.0000  -4533.1958      0.0000    819.7502      7.9536    114.7889
   603.2500  -4537.1924      0.0000    819.0585      7.9832    109.5681
   603.5000  -4533.1958      0.0000    819.0741      8.0149    105.2589
   603.7500  -4538.5244      0.0000    821.1829      8.0552    102.2969
   604.0000  -4539.8569      0.0000    826.5463      8.1138    100.1720
   604.2500  -4539.8569      0.0000    834.9699      8.1921     97.5991
   604.5000  -4539.8569      0.0000    845.0574      8.2836     93.3338
   604.7500  -4529.1997      0.0000    855.0311      8.3832     86.9115
   605.0000  -4535.8604      0.0000    863.0044      8.4934     78.7645
   605.2500  -4534.5283      0.0000    867.5970      8.6200     69.8260
   605.5000  -4530.5317      0.0000    869.8552      8.7571     61.0494
   605.7500  -4533.1958      0.0000    874.3381      8.8697     53.2661
   606.0000  -4533.1958      0.0000    886.4366      8.8915     47.2720
   606.2500  -4535.8604      0.0000    906.8796      8.7530     43.5583
   606.5000  -4533.1958      0.0000    929.1348      8.4333     41.7607
   606.7500  -4541.1890      0.0000    944.2502      8.0052     40.6620
   607.0000  -4533.1958      0.0000    949.0643      7.6073     39.1220
   607.2500  -4537.1924      0.0000    948.4130      7.3306     37.0708
   607.5000  -4539.8569      0.0000    949.7274      7.1399     35.5158
   607.7500  -4538.5244      0.0000    957.9625      6.9447     35.4288
   608.0000  -4533.1958      0.0000    974.8682      6.7241     36.5800
   608.2500  -4537.1924      0.0000    999.8185      6.5311     37.7279
   608.5000  -4534.5283      0.0000   1030.2106      6.4036     37.9980
   608.7500  -4533.1958      0.0000   1061.2279      6.3318     37.6427
   609.0000  -4530.5317     -2.0000   1085.6370      6.3024     37.3078
   609.2500  -4535.8604      0.0000   1095.1090      6.3507     37.1733
   609.5000  -4539.8569      0.0000   1082.9493      6.5677     37.2405
   609.7500  -4533.1958      0.0000   1047.4093      7.0248     38.0528
   610.0000  -4541.1890      0.0000    994.7572      7.6509     40.6346
   610.2500  -4534.5283      0.0000    938.4472      8.2140     45.8862
