~Version Information
VERS.                      2.0: CWLS Log ASCII Standard - VERSION 2.0
WRAP.                       NO: One line per depth step
~Well Information Block
STRT.FT                -9.5000: 
STOP.FT              1304.7500: 
STEP.FT                 0.2500: 
NULL.                -999.2500: 
COMP.          Pioneer Natural Resources: COMPANY
WELL.            Hamburg 43-35: WELL
FLD.           Purgatorie River: FIELD
LOC.           2444' FSL & 950' FEL--: LOCATION
PROV.                       CO: PROVINCE
CNTY.               Las Animas: COUNTRY
SRVC.          Patterson Wireline: SERVICE COMPANY
DATE.          Thu Dec 08 14:29:45 2005: LOG DATE
UWI.           08 071 08607 00: UNIQUE WELL ID
~Curve Information Block
DEPT.FT            0 000 00 00: Depth
CCL.                          : Casing Collar Locator
TT3.usec                      : CBL 3' Travel Time
AMP3.mV                       : CBL 3' Amplitude
GR.GAPI                       : Gamma Ray
~Parameter Information Block
~A  Depth       CCL         TT3         AMP3         GR     
# ...
  1263.5000      0.0000    844.6385     11.8135     93.4791
  1263.7500      0.0000    837.3674     11.8237     96.0790
  1264.0000      0.0000    837.9234     11.8604     97.4502
  1264.2500      0.0000    844.0723     11.9080     98.3017
  1264.5000      0.0000    851.0385     11.9705     99.2521
  1264.7500      0.0000    853.4981     12.0509    100.7631
  1265.0000      0.0000    848.7469     12.1351    102.4677
  1265.2500      0.0000    838.3499     12.1929    103.0934
  1265.5000      0.0000    826.1216     12.1982    101.6204
  1265.7500      0.0000    815.1781     12.1584     98.5250
  1266.0000      0.0000    807.0317     12.1203     95.6626
  1266.2500      0.0000    802.0935     12.1317     94.6867
  1266.5000      0.0000    800.1224     12.1939     95.5541
  1266.7500      0.0000    800.6124     12.2637     96.8446
  1267.0000      0.0000    802.9525     12.3035     97.6091
  1267.2500      0.0000    806.2122     12.3150     98.4970
  1267.5000      0.0000    809.3751     12.3188    100.9138
  1267.7500      0.0000    812.0767     12.3179    105.3954
  1268.0000      0.0000    814.5560     12.2975    110.7946
  1268.2500      0.0000    816.7890     12.2485    114.9502
  1268.5000      0.0000    818.1223     12.1796    116.3341
  1268.7500      0.0000    817.6119     12.0955    115.1460
  1269.0000      0.0000    814.7708     11.9647    112.6706
  1269.2500      0.0000    810.9508     11.7181    109.9407
  1269.5000      0.0000    810.9531     11.3042    107.4978
  1269.7500      0.0000    821.8438     10.7523    106.0085
  1270.0000      0.0000    847.6508     10.1746    106.1046
  1270.2500      0.0000    884.3855      9.7025    107.3460
  1270.5000      0.0000    921.9418      9.4121    107.9229
  1270.7500      0.0000    951.7803      9.2877    105.9062
  1271.0000      2.0000    971.8964      9.2502    100.9170
  1271.2500      0.0000    983.8786      9.2290     94.5979
  1271.5000      0.0000    986.6232      9.2115     89.4567
  1271.7500      0.0000    975.0450      9.2486     87.1193
  1272.0000      0.0000    946.3910      9.4307     87.4554
  1272.2500      0.0000    907.2988      9.8289     88.9949
  1272.5000      0.0000    872.6270     10.4039     89.9709
  1272.7500      0.0000    855.4545     10.9765     89.3455
  1273.0000      0.0000    857.2026     11.3395     87.3933
  1273.2500      0.0000    866.8295     11.4117     85.4735
  1273.5000      0.0000    870.4860     11.2682     85.1086
  1273.7500      0.0000    863.8127     11.0454     87.0287
  1274.0000      0.0000    854.7061     10.8440     90.8282
  1274.2500      0.0000    852.6368     10.7006     95.2638
  1274.5000      0.0000    856.8979     10.6074     98.6716
  1274.7500      0.0000    858.0465     10.5446     99.3360
  1275.0000      0.0000    849.8785     10.5008     96.3973
  1275.2500      0.0000    835.9823     10.4740     91.0621
  1275.5000      0.0000    824.0416     10.4633     86.5575
  1275.7500      0.0000    818.2041     10.4679     86.2946
  1276.0000      0.0000    819.1264     10.4889     91.9278
  1276.2500      0.0000    826.9697     10.5265    102.7412
  1276.5000      0.0000    840.3984     10.5733    115.9809
  1276.7500      0.0000    854.8910     10.6143    127.5764
  1277.0000      0.0000    865.4054     10.6379    133.6329
  1277.2500      0.0000    869.4518     10.6448    132.4062
  1277.5000      0.0000    866.5303     10.6364    125.2460
  1277.7500      0.0000    857.4931     10.6023    115.4341
  1278.0000      0.0000    845.7210     10.5298    106.0621
  1278.2500      0.0000    836.9732     10.4303     99.0827
  1278.5000      0.0000    837.0034     10.3414     95.8344
  1278.7500      0.0000    848.9249     10.2974     97.1534
  1279.0000      0.0000    870.9542     10.3007    102.3025
  1279.2500      0.0000    896.1316     10.3237    108.3377
  1279.5000      0.0000    916.3206     10.3353    111.3110
  1279.7500      0.0000    927.4906     10.3252    108.5585
  1280.0000      0.0000    929.8992     10.3077    100.3210
  1280.2500      0.0000    924.1491     10.3022     89.5459
  1280.5000      0.0000    911.1525     10.3132     80.1529
  1280.7500      0.0000    896.7579     10.3307     75.0189
  1281.0000      0.0000    891.4916     10.3486     74.6960
  1281.2500      0.0000    901.7149     10.3747     77.3109
  1281.5000      0.0000    922.1431     10.4235     80.0033
  1281.7500      0.0000    939.1235     10.5025     81.1963
  1282.0000      0.0000    941.1567     10.6089     81.4504
  1282.2500      0.0000    927.1234     10.7349     81.9414
  1282.5000      0.0000    906.4495     10.8729     82.8286
  1282.7500      0.0000    891.6431     11.0156     83.6003
  1283.0000      0.0000    888.9464     11.1547     84.2473
  1283.2500      0.0000    895.2292     11.2793     85.2152
  1283.5000      0.0000    902.8438     11.3774     86.5140
  1283.7500      0.0000    905.8665     11.4397     87.6196
  1284.0000      0.0000    902.3805     11.4647     88.0748
  1284.2500      0.0000    894.4745     11.4583     87.8142
  1284.5000      0.0000    888.3425     11.4280     87.2912
  1284.7500      0.0000    892.0890     11.3752     87.5358
  1285.0000      0.0000    909.6205     11.2946     89.4477
  1285.2500      0.0000    935.8184     11.1825     92.5333
  1285.5000      0.0000    958.8708     11.0453     94.8082
  1285.7500      0.0000    967.6157     10.8985     94.5822
  1286.0000      0.0000    957.1603     10.7585     92.2577
  1286.2500      0.0000    930.3650     10.6397     90.0580
  1286.5000      0.0000    896.1403     10.5523     90.0047
  1286.7500      0.0000    865.0975     10.4950     92.3190
  1287.0000      0.0000    844.2859     10.4542     95.6473
  1287.2500      0.0000    835.1606     10.4208     98.4571
  1287.5000      0.0000    835.5547     10.4021    100.1064
  1287.7500      0.0000    842.0169     10.4102    100.8984
  1288.0000      0.0000    850.4597     10.4464    101.5264
  1288.2500      0.0000    857.4567     10.5045    102.5653
  1288.5000      0.0000    863.0450     10.5781    104.1720
  1288.7500      0.0000    870.7412     10.6592    105.9392
  1289.0000      0.0000    882.4418     10.7371    107.1657
  1289.2500      0.0000    894.4582     10.8048    107.5981
  1289.5000      0.0000    901.1633     10.8652    107.9066
  1289.7500      0.0000    901.3973     10.9273    109.1023
  1290.0000      0.0000    897.8533     10.9943    111.1862
  1290.2500      0.0000    891.0330     11.0534    112.0788
  1290.5000      0.0000    878.4154     11.0815    107.8882
  1290.7500      0.0000    860.2843     11.0689     95.1589
  1291.0000      0.0000    842.3403     11.0351     74.0228
  1291.2500      0.0000    830.8188     11.0118     49.2383
  1291.5000      0.0000    827.0377     11.0122     27.3560
  1291.7500      0.0000    827.5759     11.0280     12.4730
  1292.0000      0.0000    828.2375     11.0564      4.6062
  1292.2500      0.0000    827.2156     11.1170      1.3637
  1292.5000      0.0000    825.5689     11.2399      0.3211
  1292.7500      0.0000    825.9186     11.4385      0.0588
  1293.0000      0.0000    831.1561     11.6911      0.0077
  1293.2500      0.0000    843.5284     11.9460   -999.2500
  1293.5000      0.0000    862.9402     12.1516   -999.2500
  1293.7500      0.0000    884.8891     12.2883   -999.2500
  1294.0000      0.0000    901.3852     12.3657   -999.2500
  1294.2500      0.0000    906.1415     12.3911   -999.2500
  1294.5000      0.0000    899.1144     12.3549   -999.2500
  1294.7500      0.0000    885.1267     12.2481   -999.2500
  1295.0000      0.0000    868.9965     12.0822   -999.2500
  1295.2500      0.0000    852.6101     11.8784   -999.2500
  1295.5000      0.0000    833.9561     11.6237   -999.2500
  1295.7500      0.0000    804.7085     11.2184   -999.2500
  1296.0000      0.0000    748.6685     10.4667   -999.2500
  1296.2500      0.0000    648.7919      9.1776   -999.2500
  1296.5000      0.0000    503.5991      7.3599   -999.2500
  1296.7500      0.0000    337.7212      5.3281   -999.2500
