~Version Information
VERS.                      2.0: CWLS Log ASCII Standard - VERSION 2.0
WRAP.                       NO: One line per depth step
~Well Information Block
STRT.FT               262.8000: 
STOP.FT              1134.7000: 
STEP.FT                 0.1000: 
NULL.                -999.2500: 
COMP.          Pioneer Natural Resources: COMPANY
WELL.          Black Cat 13-32 Tr: WELL
FLD.           Purgatoire River: FIELD
LOC.           1679' FSL & 1150' FWL--: LOCATION
CNTY.               Las Animas: COUNTY
SRVC.                Patterson: SERVICE COMPANY
DATE.          Tue Mar 07 12:42:54 2006: LOG DATE
UWI.           05 071 08721 00: UNIQUE WELL ID
STAT.                 Colorado: STATE
~Curve Information Block
DEPT.FT            0 000 00 00: Depth
DCAL.in                       : CDL Caliper
RHOB.g/cc                     : CDL Bulk Density
RHOC.g/cc                     : CDL Density Correction
DPOR.pu                       : CDL Density Porosity
GR.GAPI                       : Gamma Ray
~Parameter Information Block
~A  Depth       DCAL        RHOB        RHOC        DPOR         GR     
# ...
   330.0000      7.9773      2.5521     -0.0140      5.9327     98.3003
   330.1000      7.9773      2.5722     -0.0123      4.7141     98.2798
   330.2000      7.9773      2.5826      0.0024      4.0835    100.6043
   330.3000      7.9708      2.5890     -0.0189      3.6964    104.5436
   330.4000      7.9708      2.6028      0.0297      2.8613    109.2850
   330.5000      7.9587      2.6172      0.0409      1.9891    112.0065
   330.6000      7.9587      2.6189      0.0562      1.8870    111.4714
   330.7000      7.9587      2.6038      0.0560      2.7992    110.7431
   330.8000      7.9507      2.5814      0.0282      4.1555    110.5993
   330.9000      7.9507      2.5652      0.0226      5.1371    107.5821
   331.0000      7.9492      2.5564     -0.0110      5.6706    101.1587
   331.1000      7.9492      2.5485      0.0116      6.1506     95.3849
   331.2000      7.9492      2.5472     -0.0543      6.2318     94.0670
   331.3000      7.9490      2.5562      0.0454      5.6820     98.1820
   331.4000      7.9490      2.5562      0.0076      5.6849    103.9663
   331.5000      7.9474      2.5418     -0.0052      6.5579    106.7198
   331.6000      7.9474      2.5312     -0.0048      7.2024    107.2358
   331.7000      7.9474      2.5337     -0.0376      7.0456    109.2241
   331.8000      7.9465      2.5370      0.0186      6.8475    113.0166
   331.9000      7.9465      2.5220      0.0309      7.7574    116.5384
   332.0000      7.9483      2.5001     -0.0550      9.0842    119.0242
   332.1000      7.9483      2.5002     -0.0202      9.0788    120.3732
   332.2000      7.9483      2.5207     -0.0065      7.8373    119.9397
   332.3000      7.9487      2.5377      0.0449      6.8078    119.4836
   332.4000      7.9487      2.5458      0.0185      6.3179    120.1810
   332.5000      7.9441      2.5559      0.0009      5.7005    120.2533
   332.6000      7.9441      2.5665      0.0611      5.0582    118.0161
   332.7000      7.9441      2.5680      0.0829      4.9701    114.0063
   332.8000      7.9359      2.5634      0.0540      5.2492    110.9013
   332.9000      7.9359      2.5610      0.0388      5.3957    110.7841
   333.0000      7.9274      2.5607      0.0728      5.4100    112.3645
   333.1000      7.9274      2.5565      0.0620      5.6666    113.2514
   333.2000      7.9274      2.5506      0.0443      6.0255    114.9424
   333.3000      7.9231      2.5507      0.0600      6.0188    119.0403
   333.4000      7.9231      2.5534      0.0425      5.8537    121.7352
   333.5000      7.9212      2.5519      0.0829      5.9443    119.5543
   333.6000      7.9212      2.5494      0.0395      6.0959    114.7425
   333.7000      7.9212      2.5454      0.0865      6.3408    113.5125
   333.8000      7.9203      2.5311      0.0575      7.2042    119.6965
   333.9000      7.9203      2.5221      0.0038      7.7521    127.5874
   334.0000      7.9220      2.5329      0.0449      7.0990    129.6527
   334.1000      7.9220      2.5456      0.0443      6.3296    127.8926
   334.2000      7.9220      2.5541      0.0016      5.8141    126.0424
   334.3000      7.9238      2.5664      0.0477      5.0661    122.9987
   334.4000      7.9238      2.5696      0.0653      4.8733    118.8169
   334.5000      7.9252      2.5622      0.0198      5.3197    115.3336
   334.6000      7.9252      2.5758      0.0323      4.4957    113.8105
   334.7000      7.9252      2.6222      0.0647      1.6868    113.6653
   334.8000      7.9254      2.6686      0.1092     -1.1267    111.6654
   334.9000      7.9254      2.6749      0.0792     -1.5109    104.9406
   335.0000      7.9245      2.6438      0.0537      0.3733     95.3691
   335.1000      7.9245      2.6153      0.0112      2.1055     88.7482
   335.2000      7.9245      2.6075      0.0657      2.5755     87.8047
   335.3000      7.9235      2.6133      0.0024      2.2228     88.4751
   335.4000      7.9235      2.6256      0.0812      1.4758     87.8204
   335.5000      7.9227      2.6301      0.0656      1.2036     86.5214
   335.6000      7.9227      2.6190      0.0660      1.8764     84.5357
   335.7000      7.9227      2.6006      0.0207      2.9920     80.3040
   335.8000      7.9226      2.5811      0.0368      4.1781     75.1289
   335.9000      7.9226      2.5560      0.0312      5.6982     73.8401
   336.0000      7.9227      2.5260     -0.0248      7.5165     77.9691
   336.1000      7.9227      2.5060     -0.0234      8.7250     82.6146
   336.2000      7.9227      2.5058      0.0065      8.7416     83.1387
   336.3000      7.9233      2.5053      0.0501      8.7706     81.5389
   336.4000      7.9233      2.4813      0.0319     10.2246     82.5318
   336.5000      7.9219      2.4471      0.0068     12.2949     84.9438
   336.6000      7.9219      2.4312      0.0290     13.2610     85.5945
   336.7000      7.9219      2.4379      0.1009     12.8558     88.1915
   336.8000      7.9153      2.4527      0.1163     11.9574     94.5412
   336.9000      7.9153      2.4679      0.1296     11.0335    101.2000
   337.0000      7.9073      2.4911      0.1111      9.6288    106.6139
   337.1000      7.9073      2.5290      0.1660      7.3339    110.1964
   337.2000      7.9073      2.5619      0.1904      5.3403    112.7799
   337.3000      7.9054      2.5619      0.1889      5.3415    113.4978
   337.4000      7.9054      2.5334      0.1165      7.0651    109.8281
   337.5000      7.9103      2.5071      0.0729      8.6616    104.8300
   337.6000      7.9103      2.5054      0.0498      8.7606    104.2624
   337.7000      7.9103      2.5284      0.1003      7.3726    107.2764
   337.8000      7.9230      2.5598      0.0774      5.4688    110.1147
   337.9000      7.9230      2.5779      0.1157      4.3724    114.3500
   338.0000      7.9385      2.5684      0.0472      4.9482    120.0219
   338.1000      7.9385      2.5487      0.0086      6.1395    122.0954
   338.2000      7.9385      2.5444      0.0246      6.3971    120.8701
   338.3000      7.9463      2.5513      0.0618      5.9794    118.8996
   338.4000      7.9463      2.5577      0.0044      5.5962    113.7416
   338.5000      7.9461      2.5679      0.0451      4.9778    106.9470
   338.6000      7.9461      2.5800      0.0567      4.2434    107.0969
   338.7000      7.9461      2.5886      0.0456      3.7220    117.6806
   338.8000      7.9456      2.5925      0.0735      3.4844    129.4825
   338.9000      7.9456      2.5798      0.0769      4.2545    130.6980
   339.0000      7.9463      2.5483      0.0524      6.1651    122.7032
   339.1000      7.9463      2.5188      0.0030      7.9538    115.2661
   339.2000      7.9463      2.5009     -0.0112      9.0363    112.6888
   339.3000      7.9456      2.4829      0.0027     10.1246    112.1640
   339.4000      7.9456      2.4670     -0.0761     11.0915    111.3773
   339.5000      7.9456      2.4664     -0.0279     11.1248    112.9558
   339.6000      7.9456      2.4767     -0.0137     10.5001    116.2767
   339.7000      7.9456      2.4948     -0.0079      9.4065    117.4813
   339.8000      7.9467      2.5193      0.0428      7.9223    116.2442
   339.9000      7.9467      2.5323      0.0416      7.1348    116.2226
   340.0000      7.9482      2.5281      0.0141      7.3888    119.7096
   340.1000      7.9482      2.5224      0.0283      7.7341    124.0437
   340.2000      7.9482      2.5294     -0.0066      7.3063    126.2257
   340.3000      7.9489      2.5504      0.0539      6.0358    125.7698
   340.4000      7.9489      2.5649      0.0418      5.1603    124.3259
   340.5000      7.9473      2.5605      0.0051      5.4269    126.2988
   340.6000      7.9473      2.5566     -0.0015      5.6615    131.4840
   340.7000      7.9473      2.5626      0.0291      5.2946    133.0543
   340.8000      7.9464      2.5636      0.0429      5.2368    129.8657
   340.9000      7.9464      2.5574      0.0389      5.6098    126.5799
   341.0000      7.9484      2.5589      0.0399      5.5208    127.2607
   341.1000      7.9484      2.5777      0.0568      4.3840    132.1889
