~Version Information
VERS.                      2.0: CWLS Log ASCII Standard - VERSION 2.0
WRAP.                       NO: One line per depth step
~Well Information Block
STRT.FT                 0.0000: 
STOP.FT              1981.7500: 
STEP.FT                 0.2500: 
NULL.                -999.2500: 
COMP.          Petrogulf Corporation: COMPANY
WELL.          Collister 17-31R: WELL
FLD.           Purgatorie River: FIELD
LOC.           962' FNL & 1520' FEL: LOCATION
STAT.                 Colorado: State
CNTY.               Las Animas: COUNTY
CTRY. USA : Country
SECT. 17 : Section
TOWN. 33S : Township
RANG. 67W : Range
SRVC.                Patterson: SERVICE COMPANY
DATE.          Fri Jan 06 10:32:29 2006: LOG DATE
API. 05-071-08436                         : UNIQUE WELL ID
~Curve Information Block
DEPT.FT            0 000 00 00: Depth
CCL.                          : Casing Collar Locator
TT3.usec                      : CBL 3' Travel Time
AMP3.mV                       : CBL 3' Amplitude
GR.GAPI                       : Gamma Ray
~Parameter Information Block
~A  Depth       CCL         TT3         AMP3         GR     
# ...
   134.0000      0.0000    611.6533      9.4539     77.3820
   134.2500      0.0000    623.2797      9.4581     78.3069
   134.5000      0.0000    627.9576      9.5181     79.8154
   134.7500      0.0000    627.6499      9.6389     82.2453
   135.0000      0.0000    625.2254      9.7814     85.7043
   135.2500      0.0000    622.3091      9.8873     89.3819
   135.5000      0.0000    616.3975      9.9203     91.6995
   135.7500      0.0000    600.5065      9.9120     91.6830
   136.0000      0.0000    576.3735      9.9005     89.9099
   136.2500      0.0000    563.6445      9.8398     87.8019
   136.5000      0.0000    576.5214      9.6837     86.2834
   136.7500      0.0000    601.7833      9.4994     85.3691
   137.0000      0.0000    619.6783      9.3805     84.7431
   137.2500      0.0000    626.5938      9.3304     84.3458
   137.5000      0.0000    628.0978      9.3028     84.3143
   137.7500      0.0000    627.9036      9.2752     84.4883
   138.0000      0.0000    625.7901      9.2380     84.2663
   138.2500      0.0000    616.5020      9.1714     83.2443
   138.5000      0.0000    588.8754      9.0670     82.0129
   138.7500      0.0000    535.4283      8.9388     81.9974
   139.0000      0.0000    468.7902      8.8038     84.2920
   139.2500      0.0000    415.2934      8.6694     88.7245
   139.5000      0.0000    387.4205      8.5314     94.1264
   139.7500      0.0000    377.5072      8.3878     99.2705
   140.0000      0.0000    374.3732      8.2596    103.3291
   140.2500      0.0000    372.6074      8.1785    105.7572
   140.5000      0.0000    370.3900      8.1534    106.3033
   140.7500      0.0000    366.7741      8.1607    105.3933
   141.0000      0.0000    362.3788      8.1737    104.3551
   141.2500      0.0000    360.2301      8.1875    104.7738
   141.5000      0.0000    362.3141      8.2101    107.0975
   141.7500      0.0000    366.4721      8.2315    109.9449
   142.0000      0.0000    369.6235      8.2103    111.2943
   142.2500      0.0000    371.2490      8.1295    110.4435
   142.5000      0.0000    372.5070      8.0600    108.4845
   142.7500      0.0000    375.0730      8.0927    106.9580
   143.0000      0.0000    381.8989      8.2115    106.4901
   143.2500      0.0000    397.6628      8.2978    106.4393
   143.5000      0.0000    426.5443      8.2609    105.2269
   143.7500      0.0000    467.5031      8.1288    101.3873
   144.0000      0.0000    514.8956      7.9917     95.1091
   144.2500      0.0000    567.2760      7.8994     88.5571
   144.5000      0.0000    622.5430      7.8520     84.1011
   144.7500      0.0000    665.9244      7.8525     82.2809
   145.0000      0.0000    684.8499      7.9200     81.6029
   145.2500      0.0000    684.8922      8.0440     80.0109
   145.5000      0.0000    678.6612      8.1850     76.5411
   145.7500      0.0000    672.0908      8.3390     72.0162
   146.0000      0.0000    665.9520      8.5212     68.3406
   146.2500      0.0000    661.5802      8.6697     66.9132
   146.5000      0.0000    658.2625      8.6514     67.5773
   146.7500      0.0000    651.2527      8.3720     69.0571
   147.0000      0.0000    640.3562      7.8775     70.3164
   147.2500      0.0000    632.6588      7.4020     71.4427
   147.5000      0.0000    631.8790      7.1838     73.3356
   147.7500      0.0000    635.8732      7.1376     76.5277
   148.0000      0.0000    646.0634      6.9979     80.2333
   148.2500      0.0000    665.6978      6.7474     82.7123
   148.5000      0.0000    688.1957      6.5542     82.7642
   148.7500     -2.0000    701.1691      6.4910     80.8521
   149.0000      2.0000    701.7808      6.5093     78.8189
   149.2500      0.0000    698.7996      6.5294     78.6607
   149.5000      0.0000    702.9368      6.5497     81.4407
   149.7500      0.0000    716.3441      6.7313     86.7598
   150.0000      0.0000    729.1652      7.3097     92.7199
   150.2500      0.0000    730.4495      8.2583     96.7618
   150.5000      0.0000    719.6675      9.0989     97.4515
   150.7500      0.0000    699.7875      9.4135     95.6551
   151.0000      0.0000    672.1158      9.3420     93.6757
   151.2500      0.0000    649.0099      9.1983     93.3442
   151.5000      0.0000    645.9106      9.0575     94.9854
   151.7500      0.0000    658.7953      8.8845     97.6640
   152.0000      0.0000    672.0613      8.7024     99.9776
   152.2500      0.0000    678.3431      8.5558    100.7774
   152.5000      0.0000    678.4577      8.4304     99.3920
   152.7500      0.0000    670.9267      8.3081     95.5504
   153.0000      0.0000    647.5599      8.2153     89.6885
   153.2500      0.0000    602.2969      8.1481     83.2469
   153.5000      0.0000    546.0305      8.0697     77.9451
   153.7500      0.0000    501.2567      7.9788     74.7026
   154.0000      0.0000    478.4128      7.9159     73.6477
   154.2500      0.0000    470.5996      7.9410     74.7691
   154.5000      0.0000    468.5213      8.0960     77.8578
   154.7500      0.0000    470.7965      8.3710     81.9723
   155.0000      0.0000    485.3972      8.7052     85.6633
   155.2500      0.0000    521.9272      8.9974     88.0303
   155.5000      0.0000    574.5376      9.1739     89.3849
   155.7500      0.0000    620.9361      9.2549     90.5940
   156.0000      0.0000    645.1224      9.2777     91.8108
   156.2500      0.0000    645.7609      9.2389     92.2878
   156.5000      0.0000    626.9872      9.1543     91.5635
   156.7500      0.0000    599.4497      9.0454     90.2601
   157.0000      0.0000    576.9911      8.8867     89.2698
   157.2500      0.0000    561.3514      8.6607     88.5621
   157.5000      0.0000    545.3537      8.3930     87.3228
   157.7500      0.0000    528.8135      8.1173     85.1725
   158.0000      0.0000    515.8054      7.8672     82.9111
   158.2500      0.0000    504.3951      7.6906     81.9790
   158.5000      0.0000    491.9162      7.6377     83.2067
   158.7500      0.0000    482.7100      7.7177     86.1132
   159.0000      0.0000    482.7010      7.8916     89.3604
   159.2500      0.0000    491.1064      8.1267     91.6339
   159.5000      0.0000    500.2569      8.4135     91.9165
   159.7500      0.0000    504.5797      8.7326     89.4424
   160.0000      0.0000    508.2195      9.0545     84.2795
   160.2500      0.0000    520.4661      9.3580     77.9799
   160.5000      0.0000    548.4243      9.6327     72.8312
   160.7500      0.0000    590.8334      9.8792     70.1011
   161.0000      0.0000    634.0862     10.1224     69.3014
   161.2500      0.0000    663.5097     10.4009     69.1529
   161.5000      0.0000    676.7631     10.7151     68.8643
   161.7500      0.0000    679.3383     11.0164     68.3640
   162.0000      0.0000    672.6724     11.2467     67.6284
   162.2500      0.0000    650.0573     11.3782     66.1849
   162.5000      0.0000    605.8352     11.4374     63.4584
   162.7500      0.0000    550.5616     11.4838     59.5221
   163.0000      0.0000    506.4893     11.5629     55.2598
   163.2500      0.0000    485.0328     11.6809     51.6457
   163.5000      0.0000    482.9601     11.8069     48.9538
   163.7500      0.0000    497.7337     11.8959     46.7831
   164.0000      0.0000    530.3465     11.9251     44.8046
   164.2500      0.0000    572.2397     11.9082     43.2918
   164.5000      0.0000    604.1941     11.8598     42.7855
   164.7500      0.0000    614.7907     11.7790     43.4264
   165.0000      0.0000    605.4417     11.6715     44.9230
   165.2500      0.0000    577.9038     11.5634     46.9686
   165.5000      0.0000    538.2449     11.4712     49.2668
   165.7500      0.0000    503.9175     11.3696     51.3105
   166.0000      0.0000    489.1835     11.2369     52.6639
   166.2500      0.0000    495.9439     11.0956     53.5414
   166.5000      0.0000    518.4302     10.9739     54.7938
   166.7500      0.0000    542.7943     10.8826     57.1625
   167.0000      0.0000    553.2514     10.8363     60.6189
   167.2500      0.0000    549.8947     10.8534     64.4065
