~Version Information
 VERS.                                  2.0 : CWLS LAS VERSION
 WRAP.                                   NO : WRAPING MODE
 SWARE .                 MController 2.5.0N : SOFTWARE VERSION
~Well Information
 WELL.                         Quartz 13-22 : WELL
 COMP.    Pioneer Natural Resouces USA Inc. : COMPANY
 FLD.                      Purgatoire River : FIELD
 LOC.             NW/SW Sec 22 , T34S, R65W : LOCATION
 DATE.                             12/15/05 : DATE(S) LOGGED
 SRVC.       BLANCO Geological Services LLC : SERVICE COMPANY
 STAT.                                   CO : STATE
 CNTY.                           Las Animas : COUNTY
 CTRY.                                  USA : COUNTRY
 API.                          05-071-08638 : API NUMBER
 STRT.FT                             437.00 : START DEPTH
 STOP.FT                            1030.00 : STOP DEPTH
 STEP.FT                               1.00 : DEPTH INCREMENT
 NULL.                                -9999 : NULL VALUE
~Curve information
 DEPTH.FT                                   :
 ROP.MIN/FT                                 :
 GAS.UNITS                                  :
~ASCII Log data
# ...
       837.0         0.27       1122.3 
       838.0         0.27       1217.4 
       839.0         0.20       1476.8 
       840.0         0.20       1531.9 
       841.0         0.33       1511.9 
       842.0         0.43       1491.3 
       843.0         0.47       1429.1 
       844.0         0.45       1198.7 
       845.0         0.33       1121.6 
       846.0         0.33       1006.6 
       847.0         0.27        922.2 
       848.0         0.23        922.2 
       849.0         0.23        967.6 
       850.0         0.23       1025.0 
       851.0         0.23       1043.0 
       852.0         0.27       1085.9 
       853.0         0.30       1060.7 
       854.0         0.30       1036.9 
       855.0         0.32       1030.4 
       856.0         0.23       1046.9 
       857.0         0.27       1115.5 
       858.0         0.50       1013.0 
       859.0         0.30        930.2 
       860.0         0.47        797.8 
       861.0         5.23       5620.1 
       862.0         0.47       1356.6 
       863.0         0.47       1187.1 
       864.0         0.43       1091.7 
       865.0         0.53       1052.7 
       866.0         0.50       1010.5 
       867.0         0.58       1000.5 
       868.0         0.50        981.8 
       869.0         0.53        975.0 
       870.0         0.53        959.9 
       871.0         0.37        942.1 
       872.0         0.43        960.5 
       873.0         0.47        990.2 
       874.0         0.62        995.6 
       875.0         0.60        922.8 
       876.0         0.50        918.6 
       877.0         0.53        959.9 
       878.0         0.63        958.6 
       879.0         0.47        960.8 
       880.0         0.65        956.0 
       881.0         0.57        946.6 
       882.0         0.43        951.5 
       883.0         0.50        980.8 
       884.0         0.43       1010.8 
       885.0         0.53        979.5 
       886.0         0.50        956.3 
       887.0         0.62        971.1 
       888.0         0.73        927.6 
       889.0         0.50        732.3 
       890.0         0.10        748.5 
       891.0         3.75       3539.6 
       892.0         0.53       1431.3 
       893.0         0.50       1271.5 
       894.0         0.55       1088.1 
       895.0         0.57       1010.5 
       896.0         0.53        999.8 
       897.0         0.57        985.6 
       898.0         0.57        968.6 
       899.0         0.57        954.7 
       900.0         0.62        945.7 
       901.0         0.60        936.7 
       902.0         0.60        937.6 
       903.0         0.63        935.7 
       904.0         0.60        937.0 
       905.0         0.62        937.0 
       906.0         0.60        936.3 
       907.0         0.63        930.9 
       908.0         0.60        933.4 
       909.0         0.60        927.0 
       910.0         0.60        928.3 
       911.0         0.65        927.6 
       912.0         0.60        923.4 
       913.0         0.57        924.1 
       914.0         0.57        923.1 
       915.0         0.57        919.9 
       916.0         0.62        912.8 
       917.0         0.60        907.0 
       918.0         0.53        906.4 
       919.0         0.40        854.5 
       920.0         0.27        704.0 
       921.0         5.17       3899.9 
       922.0         0.50       1201.6 
       923.0         0.47       1113.9 
       924.0         0.37       1046.2 
       925.0         0.40       1031.1 
       926.0         0.40        988.2 
       927.0         0.53        963.7 
       928.0         0.48        898.3 
       929.0         0.47        897.0 
       930.0         0.40        904.1 
       931.0         0.40        916.0 
       932.0         0.40        920.9 
       933.0         0.37        918.6 
       934.0         0.40        913.1 
       935.0         0.40        901.5 
       936.0         0.40        903.5 
       937.0         0.42        920.9 
       938.0         0.40        913.1 
       939.0         0.40        899.0 
       940.0         0.43        879.9 
       941.0         0.40        909.9 
       942.0         0.40        910.6 
       943.0         0.40        829.0 
       944.0         0.47        855.8 
       945.0         0.45        856.4 
       946.0         0.40        901.2 
       947.0         0.60        824.2 
       948.0         0.43        666.0 
       949.0         0.53        687.2 
       950.0         0.17        684.6 
       951.0         3.68       3736.8 
       952.0         0.43       1358.8 
       953.0         0.45       1258.0 
       954.0         0.47       1161.6 
       955.0         0.43       1025.6 
       956.0         0.40        937.9 
       957.0         0.40        930.2 
       958.0         0.37        914.4 
       959.0         0.37        913.5 
       960.0         0.33        942.8 
       961.0         0.38        987.9 
       962.0         0.33       1001.8 
       963.0         0.33        942.8 
       964.0         0.37        940.2 
       965.0         0.40        939.6 
       966.0         0.37        901.5 
       967.0         0.37        918.3 
       968.0         0.53        949.9 
       969.0         0.40        956.3 
       970.0         0.42        969.9 
       971.0         0.40        959.2 
       972.0         0.43        972.8 
       973.0         0.43        978.9 
       974.0         0.43        958.9 
       975.0         0.43        957.6 
       976.0         0.47        963.7 
       977.0         0.48        880.3 
       978.0         0.67        739.8 
       979.0         0.67        747.2 
       980.0         0.17        642.1 
       981.0         3.88       4548.0 
       982.0         0.50       1359.5 
       983.0         0.53       1185.8 
       984.0         0.42       1145.2 
       985.0         0.43       1034.6 
       986.0         0.33       1026.2 
       987.0         0.40       1033.3 
       988.0         0.30       1009.8 
       989.0         0.30       1052.4 
       990.0         0.30       1136.1 
       991.0         0.37       1180.0 
       992.0         0.30       1169.3 
       993.0         0.30       1017.5 
       994.0         0.52        914.1 
       995.0         0.70        911.5 
       996.0         0.60        925.4 
       997.0         0.50        937.6 
       998.0         0.53        965.7 
       999.0         0.53        990.5 
      1000.0         0.45       1001.1 
      1001.0         0.50        998.9 
      1002.0         0.50        994.0 
      1003.0         0.47        992.4 
      1004.0         0.47        990.2 
      1005.0         0.50        987.9 
      1006.0         0.52        975.0 
      1007.0         0.53        977.9 
      1008.0         0.93        809.7 
      1009.0         0.53        689.2 
      1010.0         0.37        501.0 
      1011.0         3.95       4586.6 
      1012.0         0.58       1142.9 
      1013.0         0.63       1227.7 
      1014.0         0.43       1170.3 
      1015.0         0.40       1155.5 
      1016.0         0.50        992.1 
      1017.0         0.37        969.5 
      1018.0         0.33        979.8 
      1019.0         0.33        959.9 
      1020.0         0.28        965.0 
      1021.0         0.33        982.7 
      1022.0         0.37        953.4 
      1023.0         0.27        777.8 
      1024.0         0.27        752.0 
      1025.0         0.27        810.7 
      1026.0         0.27        851.9 
      1027.0         0.23        890.3 
      1028.0         0.27        942.8 
      1029.0         0.27        964.4 
      1030.0         0.27       1167.7 
