~Version Information
VERS.                      2.0: CWLS Log ASCII Standard - VERSION 2.0
WRAP.                       NO: One line per depth step
~Well Information Block
STRT.FT               460.0000: 
STOP.FT              2824.0000: 
STEP.FT                 0.2500: 
NULL.                -999.2500: 
COMP.          Pioneer Natural Resources: COMPANY
WELL.           Dolzanie 34-12: WELL
FLD.           Purgatoire River: FIELD
LOC.           1001' FSL & 1750' FEL--: LOCATION
PROV.                 Colorado: PROVINCE
CNTY.               Las Animas: COUNTRY
SRVC.                Patterson: SERVICE COMPANY
DATE.          Wed Jul 20 07:51:58 2005: LOG DATE
UWI.           05 071 08439 00: UNIQUE WELL ID
~Curve Information Block
DEPT.FT            0 000 00 00: Depth
DIR.Ohm-m                     : IEL Induction Resistivity
SN.Ohm-m                      : IEL Short Normal
SP.mV                         : IEL Spontaneous Potential
GR.GAPI                       : Gamma Ray
~Parameter Information Block
~A  Depth       DIR          SN          SP          GR     
# ...
  2805.0000     15.6630     18.1072      8.3106   -999.2500
  2805.2500     15.9501     18.1705      7.6816   -999.2500
  2805.5000     16.2200     18.1118      7.0696   -999.2500
  2805.7500     16.4287     17.9588      6.4986   -999.2500
  2806.0000     16.5497     17.7773      5.9860   -999.2500
  2806.2500     16.5802     17.6392      5.5399   -999.2500
  2806.5000     16.5353     17.5893      5.1573   -999.2500
  2806.7500     16.4353     17.6219      4.8241   -999.2500
  2807.0000     16.2921     17.6832      4.5169   -999.2500
  2807.2500     16.1020     17.6964      4.2057   -999.2500
  2807.5000     15.8501     17.5991      3.8584   -999.2500
  2807.7500     15.5256     17.3740      3.4440   -999.2500
  2808.0000     15.1400     17.0569      2.9357   -999.2500
  2808.2500     14.7343     16.7203      2.3131   -999.2500
  2808.5000     14.3680     16.4418      1.5627   -999.2500
  2808.7500     14.0973     16.2763      0.6771   -999.2500
  2809.0000     13.9560     16.2368     -0.3465   -999.2500
  2809.2500     13.9470     16.2923     -1.5091   -999.2500
  2809.5000     14.0433     16.3845     -2.8123   -999.2500
  2809.7500     14.1973     16.4611     -4.2615   -999.2500
  2810.0000     14.3553     16.4989     -5.8673   -999.2500
  2810.2500     14.4748     16.5039     -7.6464   -999.2500
  2810.5000     14.5339     16.4958     -9.6196   -999.2500
  2810.7500     14.5327     16.4956    -11.8086   -999.2500
  2811.0000     14.5824     16.5149    -14.2292   -999.2500
  2811.2500     14.5094     16.5432    -16.8834   -999.2500
  2811.5000     14.4267     16.5413    -19.7524   -999.2500
  2811.7500     14.3367     16.4533    -22.7909   -999.2500
  2812.0000     14.2268     16.2362    -25.9268   -999.2500
  2812.2500     14.0802     15.8830    -29.0666   -999.2500
  2812.5000     13.8921     15.4263    -32.1075   -999.2500
  2812.7500     13.6799     14.9216    -34.9518   -999.2500
  2813.0000     13.4821     14.4282    -37.5231   -999.2500
  2813.2500     13.3524     13.9949    -39.7765   -999.2500
  2813.5000     13.3634     13.6504    -41.7019   -999.2500
  2813.7500     13.6295     13.3994    -43.3187   -999.2500
  2814.0000     14.3499     13.2304    -44.6626   -999.2500
  2814.2500     15.8812     13.1307    -45.7697   -999.2500
  2814.5000     18.7105     13.0962    -46.6605   -999.2500
  2814.7500     24.5373     13.1242    -47.3295   -999.2500
  2815.0000     36.7633     13.1989    -47.7406   -999.2500
  2815.2500     67.0291     13.2876    -47.8304   -999.2500
  2815.5000    182.9527     13.3542    -47.5154   -999.2500
  2815.7500 100000.0000     13.3754    -46.7049   -999.2500
  2816.0000 100000.0000     13.3436    -45.3143   -999.2500
  2816.2500 100000.0000     13.2593    -43.2785   -999.2500
  2816.5000 100000.0000     13.1258    -40.5644   -999.2500
  2816.7500 100000.0000     12.9519    -37.1821   -999.2500
  2817.0000 100000.0000     12.7586    -33.1933   -999.2500
  2817.2500 100000.0000     12.5808    -28.7167   -999.2500
  2817.5000  74398.5547     12.4556    -23.9274   -999.2500
  2817.7500 100000.0000     12.4009    -19.0471   -999.2500
  2818.0000 100000.0000     12.3982    -14.3245   -999.2500
  2818.2500 100000.0000     12.3861    -10.0054   -999.2500
  2818.5000 100000.0000     12.2549     -6.2983   -999.2500
  2818.7500 100000.0000     11.8228     -3.3418   -999.2500
  2819.0000 100000.0000     10.8308     -1.1855   -999.2500
  2819.2500 100000.0000      9.0546      0.2128   -999.2500
  2819.5000 100000.0000      6.5404      0.9693   -999.2500
  2819.7500 100000.0000      3.7384      1.2443   -999.2500
  2820.0000 100000.0000      1.2905      1.2068   -999.2500
  2820.2500 100000.0000     -0.3813      1.0057   -999.2500
  2820.5000 100000.0000     -1.2724      0.7522   -999.2500
  2820.7500 100000.0000     -1.6428      0.5148   -999.2500
  2821.0000 100000.0000     -1.7628      0.3258   -999.2500
  2821.2500 100000.0000     -1.7931      0.1918   -999.2500
  2821.5000 100000.0000     -1.7991      0.1055   -999.2500
  2821.7500 100000.0000   -999.2500      0.0544   -999.2500
  2822.0000 100000.0000   -999.2500      0.0263   -999.2500
  2822.2500  11973.4551   -999.2500      0.0120   -999.2500
  2822.5000   3772.5667   -999.2500      0.0051   -999.2500
  2822.7500   2827.3481   -999.2500      0.0019   -999.2500
  2823.0000   2560.7463   -999.2500      0.0005   -999.2500
  2823.2500   2478.0491   -999.2500   -999.2500   -999.2500
  2823.5000   2454.1563   -999.2500   -999.2500   -999.2500
  2823.7500   2448.0881   -999.2500   -999.2500   -999.2500
  2824.0000 100000.0000   -999.2500   -999.2500   -999.2500
