~Version Information
VERS.                      2.0: CWLS Log ASCII Standard - VERSION 2.0
WRAP.                       NO: One line per depth step
~Well Information Block
STRT.FT                -7.2500: 
STOP.FT              1273.5000: 
STEP.FT                 0.2500: 
NULL.                -999.2500: 
COMP.          Pioneer Natural Resources: COMPANY
WELL.            Keiko 14-6 Tr: WELL
FLD.           Purgatorie River: FIELD
LOC.           462' FSL & 1202' FWL--: LOCATION
PROV.                       CO: PROVINCE
CNTY.               Las Animas: COUNTRY
SRVC.          Patterson Wireline: SERVICE COMPANY
DATE.          Wed Jan 04 09:22:19 2006: LOG DATE
UWI.           05 071 08629 00: UNIQUE WELL ID
~Curve Information Block
DEPT.FT            0 000 00 00: Depth
CCL.                          : Casing Collar Locator
TT3.usec                      : CBL 3' Travel Time
AMP3.mV                       : CBL 3' Amplitude
GR.GAPI                       : Gamma Ray
~Parameter Information Block
~A  Depth       CCL         TT3         AMP3         GR     
# ...
    59.7500      0.0000    841.2063     10.0571     82.3373
    60.0000      0.0000    862.5714      9.9267     76.3420
    60.2500      0.0000    883.0618      9.8633     71.4920
    60.5000      0.0000    894.1997      9.8710     68.3639
    60.7500      0.0000    892.0330      9.9214     67.0729
    61.0000      0.0000    878.5293      9.9777     67.2587
    61.2500      0.0000    860.6973     10.0204     68.5166
    61.5000      0.0000    846.0195     10.0528     70.6262
    61.7500      0.0000    836.8947     10.0820     73.2292
    62.0000      0.0000    829.7505     10.1024     75.6021
    62.2500      0.0000    819.7368     10.1039     77.1243
    62.5000      0.0000    805.6838     10.0905     77.7833
    62.7500      0.0000    790.4414     10.0835     77.9219
    63.0000      0.0000    777.3928     10.1024     77.6757
    63.2500      0.0000    767.7845     10.1473     76.9236
    63.5000      0.0000    761.2235     10.2017     75.6594
    63.7500      0.0000    757.2530     10.2470     74.3257
    64.0000      0.0000    756.1003     10.2764     73.8855
    64.2500      0.0000    759.0364     10.2955     75.2664
    64.5000      0.0000    767.9012     10.3096     78.4055
    64.7500      0.0000    782.6163     10.3134     82.1256
    65.0000      0.0000    798.7103     10.2964     85.1621
    65.2500      0.0000    809.0206     10.2577     87.0516
    65.5000      0.0000    809.0392     10.2095     88.1060
    65.7500      0.0000    800.0594     10.1659     88.9447
    66.0000      0.0000    786.9344     10.1314     89.9505
    66.2500      0.0000    774.1163     10.1014     90.8851
    66.5000      0.0000    764.1538     10.0716     91.1004
    66.7500      0.0000    758.0095     10.0445     90.1662
    67.0000      0.0000    755.2203     10.0241     88.1620
    67.2500      0.0000    754.3561     10.0108     85.4401
    67.5000      0.0000    754.3945     10.0006     82.3103
    67.7500      0.0000    755.4368      9.9885     78.9367
    68.0000      0.0000    757.6239      9.9707     75.4295
    68.2500      0.0000    760.0264      9.9444     72.0391
    68.5000      0.0000    761.4489      9.9090     69.3517
    68.7500      0.0000    761.8941      9.8647     68.2095
    69.0000      0.0000    762.2059      9.8124     69.1935
    69.2500      0.0000    762.5410      9.7542     72.1180
    69.5000      0.0000    762.3042      9.6973     76.1447
    69.7500      0.0000    761.5693      9.6512     80.3433
    70.0000      0.0000    761.4817      9.6201     84.0325
    70.2500      0.0000    763.0396      9.5998     86.7854
    70.5000      0.0000    766.0239      9.5817     88.4428
    70.7500      0.0000    769.1479      9.5594     89.2683
    71.0000      0.0000    770.9904      9.5257     90.0376
    71.2500      0.0000    770.9082      9.4704     91.7495
    71.5000      0.0000    769.1249      9.3884     94.9220
    71.7500      0.0000    766.0033      9.2922     98.9608
    72.0000      0.0000    761.8072      9.2073    102.3692
    72.2500      0.0000    757.3328      9.1531    103.7909
    72.5000      0.0000    753.8719      9.1295    102.9642
    72.7500      0.0000    751.9465      9.1216    100.7562
    73.0000      0.0000    750.7049      9.1140     98.2549
    73.2500      0.0000    749.1548      9.1021     95.7734
    73.5000      0.0000    747.5995      9.0924     92.9827
    73.7500      0.0000    747.4258      9.0941     90.1577
    74.0000      0.0000    749.5697      9.1092     88.7054
    74.2500      0.0000    753.2458      9.1294     89.7815
    74.5000      0.0000    756.1115      9.1444     92.5162
    74.7500      0.0000    755.9924      9.1507     94.3442
    75.0000      0.0000    752.7157      9.1509     93.3977
    75.2500      0.0000    748.1406      9.1440     90.2822
    75.5000      0.0000    744.5260      9.1228     87.2834
    75.7500      0.0000    743.2555      9.0809     86.1838
    76.0000      0.0000    744.8849      9.0220     87.1794
    76.2500      0.0000    749.4227      8.9604     89.3900
    76.5000      0.0000    755.8708      8.9133     91.7261
    76.7500      0.0000    761.7897      8.8928     93.3828
    77.0000      0.0000    764.2614      8.9022     94.0180
    77.2500      0.0000    761.9442      8.9370     93.7645
    77.5000      0.0000    756.1573      8.9906     93.1853
    77.7500      0.0000    749.7366      9.0597     93.0606
    78.0000      0.0000    744.8934      9.1415     93.7816
    78.2500      0.0000    742.1707      9.2288     94.7898
    78.5000      0.0000    740.9536      9.3101     94.8196
    78.7500      0.0000    740.4351      9.3770     92.8716
    79.0000      0.0000    740.1220      9.4291     89.0748
    79.2500      0.0000    739.8596      9.4744     84.8132
    79.5000      0.0000    739.7057      9.5243     81.9864
    79.7500      0.0000    739.8470      9.5874     81.8271
    80.0000      0.0000    740.5929      9.6619     84.1073
    80.2500      0.0000    742.2853      9.7325     87.3150
    80.5000      0.0000    744.9244      9.7785     89.7458
    80.7500      0.0000    747.7887      9.7896     90.6441
    81.0000      0.0000    749.8107      9.7718     90.3507
    81.2500      0.0000    750.6486      9.7384     89.5690
    81.5000      0.0000    751.0386      9.6980     88.8254
    81.7500      0.0000    751.7850      9.6562     88.4431
    82.0000      0.0000    752.8352      9.6224     88.3264
    82.2500      0.0000    753.5786      9.6092     87.7799
    82.5000      0.0000    753.4458      9.6224     86.3739
    82.7500      0.0000    751.9961      9.6545     85.2018
    83.0000      0.0000    749.1136      9.6910     86.3913
    83.2500      0.0000    745.3634      9.7259     90.8882
    83.5000      0.0000    741.6591      9.7733     97.2569
    83.7500      0.0000    738.4100      9.8613    102.8364
    84.0000      0.0000    735.2694     10.0061    105.6021
    84.2500      0.0000    731.7663     10.1855    105.0312
    84.5000      0.0000    727.9529     10.3427    102.0174
    84.7500      0.0000    724.1898     10.4246     98.2603
    85.0000      0.0000    720.4701     10.4198     95.3724
    85.2500      0.0000    716.6381     10.3612     94.0879
    85.5000      0.0000    713.5156     10.2962     93.8708
    85.7500      0.0000    712.9985     10.2543     93.3363
    86.0000      0.0000    716.3188     10.2363     91.5311
    86.2500      0.0000    722.5352     10.2277     88.7323
    86.5000      0.0000    729.1944     10.2204     85.6359
    86.7500      0.0000    734.2778     10.2188     82.3321
    87.0000      0.0000    737.2700     10.2252     78.7116
    87.2500      0.0000    738.7271     10.2251     75.4366
    87.5000      0.0000    739.3605     10.1963     73.7017
    87.7500      0.0000    739.5270     10.1293     74.0037
    88.0000      0.0000    739.1455     10.0380     75.6466
    88.2500      0.0000    737.7241      9.9519     77.5965
    88.5000      0.0000    734.4587      9.8974     79.4532
    88.7500      0.0000    728.6709      9.8811     81.3750
    89.0000      0.0000    720.5731      9.8864     83.3966
    89.2500      0.0000    711.7233      9.8915     85.2128
    89.5000      0.0000    704.4995      9.8881     86.6349
    89.7500      0.0000    701.0704      9.8791     87.9774
    90.0000      0.0000    702.8077      9.8634     89.6548
    90.2500      0.0000    710.0085      9.8294     91.4762
    90.5000      0.0000    721.1545      9.7678     92.8129
    90.7500      0.0000    732.4945      9.6872     93.5381
    91.0000      0.0000    739.6205      9.6153     94.3019
    91.2500      0.0000    740.4325      9.5833     95.6983
    91.5000      0.0000    736.6204      9.6056     97.4920
    91.7500      0.0000    732.3662      9.6699     98.7867
    92.0000      0.0000    731.6021      9.7414     98.7501
    92.2500      0.0000    735.2279      9.7728     97.0606
    92.5000      0.0000    739.7756      9.7218     93.6366
    92.7500      0.0000    739.8660      9.5873     88.1707
    93.0000      0.0000    733.9775      9.4337     80.4922
