~Version Information
VERS.                      2.0: CWLS Log ASCII Standard - VERSION 2.0
WRAP.                       NO: One line per depth step
~Well Information Block
STRT.FT               890.0000: 
STOP.FT              2097.0000: 
STEP.FT                 0.2500: 
NULL.                -999.2500: 
COMP.          Pioneer Natural Resources: COMPANY
WELL.          Greenwood 43-29 Tr: WELL
FLD.           Purgatoire River: FIELD
LOC.           1478' FSL & 744' FEL: LOCATION
STAT.                 Colorado: State
CNTY.               Las Animas: COUNTY
CTRY. USA : Country
SECT. 29 : Section
TOWN. 32S : Township
RANG. 67W : Range
SRVC.                Patterson: SERVICE COMPANY
DATE.          Wed Aug 31 08:07:28 2005: LOG DATE
API.           05 071 08478 00: UNIQUE WELL ID
~Curve Information Block
DEPT.FT            0 000 00 00: Depth
SN.Ohm-m                      : IEL Short Normal
SP.mV                         : IEL Spontaneous Potential
DIR.Ohm-m                     : IEL Induction Resistivity
GR.GAPI                       : Gamma Ray
~Parameter Information Block
~A  Depth        SN          SP         DIR          GR     
# ...
  1660.5000     39.6613   -206.5830     32.4483    121.8858
  1660.7500     39.5451   -206.4411     32.4762    118.5181
  1661.0000     39.8938   -206.2315     32.5448    109.7997
  1661.2500     40.7470   -206.0093     32.5588    102.1710
  1661.5000     42.0217   -205.8244     32.4921     90.2815
  1661.7500     43.5635   -205.7123     32.4203     83.7161
  1662.0000     45.2823   -205.6959     32.4869     77.7868
  1662.2500     47.1616   -205.7904     32.8249     76.3105
  1662.5000     49.2015   -206.0066     33.4845     75.6150
  1662.7500     51.3517   -206.3540     34.4080     74.5176
  1663.0000     53.4382   -206.8367     35.4646     70.0966
  1663.2500     55.2999   -207.4420     36.5236     65.2423
  1663.5000     56.9582   -208.1311     37.5172     56.3347
  1663.7500     58.5032   -208.8477     38.4524     50.2890
  1664.0000     59.9695   -209.5408     39.3829     42.5313
  1664.2500     61.3895   -210.1860     40.3749     38.8843
  1664.5000     62.7898   -210.7837     41.4867     36.3043
  1664.7500     64.1235   -211.3425     42.7547     36.4129
  1665.0000     65.3347   -211.8652     44.1747     38.2658
  1665.2500     66.4632   -212.3460     45.6704     39.6480
  1665.5000     67.5874   -212.7704     47.0736     40.3572
  1665.7500     68.6701   -213.1122     48.1565     39.5866
  1666.0000     69.5570   -213.3347     48.7367     37.4596
  1666.2500     70.1317   -213.4067     48.7651     36.3755
  1666.5000     70.4200   -213.3214     48.2986     36.3324
  1666.7500     70.4885   -213.0956     47.3991     37.2489
  1667.0000     70.2758   -212.7487     46.0895     39.1407
  1667.2500     69.6421   -212.2827     44.4073     40.3863
  1667.5000     68.5012   -211.6850     42.4727     42.4583
  1667.7500     66.7581   -210.9502     40.4776     44.5508
  1668.0000     64.2564   -210.1032     38.6075     50.1622
  1668.2500     60.9921   -209.1975     36.9711     56.3260
  1668.5000     57.2240   -208.2809     35.5901     69.6950
  1668.7500     53.2748   -207.3536     34.4427     80.8766
  1669.0000     49.4451   -206.3708     33.5136     99.0148
  1669.2500     46.0628   -205.2955     32.8116    110.3981
  1669.5000     43.3572   -204.1545     32.3403    123.6473
  1669.7500     41.3158   -203.0359     32.0626    128.8497
  1670.0000     39.7936   -202.0273     31.8950    130.9211
  1670.2500     38.7024   -201.1582     31.7377    129.0892
  1670.5000     38.0423   -200.3956     31.5137    123.1056
  1670.7500     37.8673   -199.6832     31.1877    117.8860
  1671.0000     38.3041   -198.9812     30.7653    109.5672
  1671.2500     39.4938   -198.2854     30.2899    104.2898
  1671.5000     41.3932   -197.6270     29.8389     97.5201
  1671.7500     43.6672   -197.0561     29.5046     94.0976
  1672.0000     45.8320   -196.6122     29.3602     90.7916
  1672.2500     47.4851   -196.3000     29.4197     89.5875
  1672.5000     48.3663   -196.0896     29.6147     88.5620
  1672.7500     48.3360   -195.9400     29.8104     88.0000
  1673.0000     47.4625   -195.8198     29.8646     86.8642
  1673.2500     46.0027   -195.7119     29.7003     85.8265
  1673.5000     44.1781   -195.6047     29.3284     84.2217
  1673.7500     42.0704   -195.4850     28.8077     83.5420
  1674.0000     39.7103   -195.3402     28.1931     83.6416
  1674.2500     37.2083   -195.1664     27.5267     84.4686
  1674.5000     34.8362   -194.9735     26.8629     86.3347
  1674.7500     32.9403   -194.7787     26.2787     87.3745
  1675.0000     31.7088   -194.5884     25.8435     87.3225
  1675.2500     31.0064   -194.3782     25.5730     85.7529
  1675.5000     30.5279   -194.0966     25.4137     81.4268
  1675.7500     30.1833   -193.7059     25.2774     77.8553
  1676.0000     30.1671   -193.2340     25.1031     72.3622
  1676.2500     30.6096   -192.7824     24.8940     68.7939
  1676.5000     31.4065   -192.4718     24.7023     63.5436
  1676.7500     32.4234   -192.3796     24.5850     60.0319
  1677.0000     33.6119   -192.5236     24.5658     54.5625
  1677.2500     34.9345   -192.8857     24.6169     50.7458
  1677.5000     36.4293   -193.4261     24.6592     45.1863
  1677.7500     38.3294   -194.0719     24.5831     42.1716
  1678.0000     40.8862   -194.7122     24.2923     39.9560
  1678.2500     43.8225   -195.2271     23.7478     40.7356
  1678.5000     45.9576   -195.5352     22.9786     46.2805
  1678.7500     45.8586   -195.6207     22.0544     53.2070
  1679.0000     43.0961   -195.5263     21.0498     68.1139
  1679.2500     38.5530   -195.3290     20.0283     80.1595
  1679.5000     33.5847   -195.1190     19.0440     98.7155
  1679.7500     29.2072   -194.9841     18.1452    109.6797
  1680.0000     25.8838   -194.9907     17.3687    121.9968
  1680.2500     23.6289   -195.1634     16.7285    127.2661
  1680.5000     22.1785   -195.4721     16.2094    132.0527
  1680.7500     21.1736   -195.8405     15.7742    134.4541
  1681.0000     20.2980   -196.1752     15.3834    138.9005
  1681.2500     19.3493   -196.4061     15.0162    142.9682
  1681.5000     18.2433   -196.5205     14.6760    150.2589
  1681.7500     16.9763   -196.5699     14.3812    155.1858
  1682.0000     15.6569   -196.6332     14.1502    161.5400
  1682.2500     14.5442   -196.7559     13.9934    164.6210
  1682.5000     13.9172   -196.9162     13.9124    167.0115
  1682.7500     13.9177   -197.0480     13.9010    167.1133
  1683.0000     14.5019   -197.1018     13.9455    165.6272
  1683.2500     15.4372   -197.0843     14.0260    164.0627
  1683.5000     16.3747   -197.0459     14.1181    161.4994
  1683.7500     17.0471   -197.0381     14.1992    159.6570
  1684.0000     17.4137   -197.0877     14.2566    156.0535
  1684.2500     17.5925   -197.1955     14.2935    152.6230
  1684.5000     17.7100   -197.3403     14.3268    145.6158
  1684.7500     17.8253   -197.4779     14.3787    139.9323
  1685.0000     17.9576   -197.5572     14.4687    131.0323
  1685.2500     18.1372   -197.5585     14.6111    125.8020
  1685.5000     18.3665   -197.5161     14.8139    120.2340
  1685.7500     18.5715   -197.4961     15.0752    118.0727
  1686.0000     18.6934   -197.5476     15.3805    116.3803
  1686.2500     18.8185   -197.6761     15.7061    115.9024
  1686.5000     19.0960   -197.8524     16.0290    116.0237
  1686.7500     19.4919   -198.0440     16.3371    116.5822
  1687.0000     19.7907   -198.2431     16.6317    117.4702
  1687.2500     19.9154   -198.4726     16.9240    117.6188
  1687.5000     20.0228   -198.7636     17.2289    116.9411
  1687.7500     20.2692   -199.1288     17.5583    116.0292
  1688.0000     20.6477   -199.5602     17.9147    114.1134
  1688.2500     21.0365   -200.0505     18.2890    112.5334
  1688.5000     21.3757   -200.6103     18.6658    110.2019
  1688.7500     21.7095   -201.2602     19.0354    109.0688
  1689.0000     22.0542   -202.0071     19.4043    108.3561
  1689.2500     22.4047   -202.8300     19.7929    108.6018
  1689.5000     22.8381   -203.6856     20.2218    110.1903
  1689.7500     23.4438   -204.5269     20.6988    111.9693
  1690.0000     24.1528   -205.3168     21.2185    114.7462
  1690.2500     24.7435   -206.0272     21.7755    115.9706
  1690.5000     25.0725   -206.6294     22.3714    116.8830
  1690.7500     25.2458   -207.0936     23.0053    117.7614
  1691.0000     25.4847   -207.4040     23.6568    120.9283
  1691.2500     25.9146   -207.5740     24.2824    124.0573
  1691.5000     26.5565   -207.6438     24.8362    128.0429
  1691.7500     27.3423   -207.6657     25.2980    128.8266
  1692.0000     28.1075   -207.6904     25.6878    126.5214
  1692.2500     28.7327   -207.7626     26.0557    123.4404
  1692.5000     29.2333   -207.9201     26.4630    118.5936
  1692.7500     29.7309   -208.1914     26.9674    116.0776
  1693.0000     30.4533   -208.5894     27.6177    113.5446
  1693.2500     31.5761   -209.1080     28.4503    112.0988
  1693.5000     33.0371   -209.7239     29.4801    108.8508
  1693.7500     34.6880   -210.4021     30.6870    105.4035
