~Version Information
VERS.                      2.0: CWLS Log ASCII Standard - VERSION 2.0
WRAP.                       NO: One line per depth step
~Well Information Block
STRT.FT                -3.0000: 
STOP.FT              1123.0000: 
STEP.FT                 0.2500: 
NULL.                -999.2500: 
COMP.          Pioneer Natural Resources: COMPANY
WELL.               Ryan 41-17: WELL
FLD.           Purgatoire River: FIELD
LOC.           822' FNL & 532' FEL--: LOCATION
CNTY.               Las Animas: COUNTY
SRVC.                Patterson: SERVICE COMPANY
DATE.          Mon Mar 27 14:50:31 2006: LOG DATE
UWI.           05 071 08719 00: UNIQUE WELL ID
STAT.                 Colorado: STATE
~Curve Information Block
DEPT.FT            0 000 00 00: Depth
CCL.                          : Casing Collar Locator
TT3.usec                      : CBL 3' Travel Time
AMP3.mV                       : CBL 3' Amplitude
GR.GAPI                       : Gamma Ray
~Parameter Information Block
~A  Depth       CCL         TT3         AMP3         GR     
# ...
   633.5000      0.0000    301.7749     40.9415     80.5421
   633.7500      0.0000    301.7170     41.2979     80.2199
   634.0000      0.0000    301.6496     41.8260     77.4272
   634.2500      0.0000    301.6105     42.2115     74.5015
   634.5000      0.0000    301.5572     42.8173     69.2069
   634.7500      0.0000    301.5284     43.1901     65.6685
   635.0000      0.0000    301.5016     43.6287     61.7050
   635.2500      0.0000    301.4949     43.8267     60.5789
   635.5000      0.0000    301.4960     43.9916     61.6773
   635.7500      0.0000    301.4989     44.0122     64.4928
   636.0000      0.0000    301.4993     43.8738     71.9071
   636.2500      0.0000    301.4962     43.6468     78.0640
   636.5000      0.0000    301.4909     43.1274     85.1841
   636.7500      0.0000    301.4919     42.7241     85.9035
   637.0000      0.0000    301.5083     42.1761     79.5492
   637.2500      0.0000    301.5327     41.9026     72.1900
   637.5000      0.0000    301.5918     41.5995     61.5424
   637.7500      0.0000    301.6479     41.3843     56.6579
   638.0000      0.0000    301.7599     40.8953     53.1282
   638.2500      0.0000    301.8518     40.4504     52.9387
   638.5000      0.0000    301.9975     39.7505     56.0502
   638.7500      0.0000    302.0815     39.3655     60.9933
   639.0000      0.0000    302.1627     38.9596     73.4016
   639.2500      0.0000    302.1887     38.7549     84.4104
   639.5000      0.0000    302.2132     38.4773    101.8512
   639.7500      0.0000    302.2328     38.3429    111.6188
   640.0000      0.0000    302.2561     38.3455    119.9577
   640.2500      0.0000    302.2462     38.5222    120.3899
   640.5000      0.0000    302.1687     38.9732    114.6601
   640.7500      0.0000    302.0816     39.3028    109.0937
   641.0000      0.0000    301.9348     39.7232    103.1025
   641.2500      0.0000    301.8480     39.9498    101.8663
   641.5000      0.0000    301.7535     40.2474    101.7601
   641.7500      0.0000    301.7154     40.3981    100.4253
   642.0000      0.0000    301.6887     40.4192     94.5961
   642.2500      0.0000    301.6886     40.2257     88.8664
   642.5000      0.0000    301.7191     39.6651     79.8707
   642.7500      0.0000    301.7637     39.2413     74.6024
   643.0000      0.0000    301.8609     38.7999     68.6592
   643.2500      0.0000    301.9328     38.7255     66.3084
   643.5000      0.0000    302.0300     38.9019     65.5858
   643.7500      0.0000    302.0854     39.0994     67.0852
   644.0000      0.0000    302.1641     39.3081     72.4117
   644.2500      0.0000    302.2160     39.3277     78.0967
   644.5000      0.0000    302.2845     39.1995     89.2964
   644.7500      0.0000    302.3166     39.0497     97.1035
   645.0000      0.0000    302.3429     38.7581    104.9334
   645.2500      0.0000    302.3518     38.5198    105.3452
   645.5000      0.0000    302.3630     38.1438     98.6315
   645.7500      0.0000    302.3705     37.9497     91.6443
   646.0000      0.0000    302.3749     37.8625     83.4576
   646.2500      0.0000    302.3682     37.9588     82.4584
   646.5000      0.0000    302.3412     38.2531     89.0023
   646.7500      0.0000    302.3156     38.4700     97.0964
   647.0000      0.0000    302.2739     38.7368    110.1220
   647.2500      0.0000    302.2427     38.8806    117.4306
   647.5000      0.0000    302.1769     39.1226    126.1693
   647.7500      0.0000    302.1153     39.3412    131.6921
   648.0000      0.0000    302.0099     39.7573    141.1456
   648.2500      0.0000    301.9479     40.0639    148.0024
   648.5000      0.0000    301.8841     40.5043    157.0065
   648.7500      0.0000    301.8552     40.7532    160.9235
   649.0000      0.0000    301.8060     41.0312    163.2874
   649.2500      0.0000    301.7562     41.1681    163.1185
   649.5000      0.0000    301.6530     41.3953    160.6722
   649.7500      0.0000    301.5743     41.6353    156.9894
   650.0000      0.0000    301.4626     42.1910    147.4387
   650.2500      0.0000    301.4017     42.6425    139.0801
   650.5000      0.0000    301.3432     43.2272    127.0778
   650.7500      0.0000    301.3336     43.4433    121.5015
   651.0000      0.0000    301.3723     43.5171    117.4203
   651.2500      0.0000    301.4274     43.5220    116.1090
   651.5000      0.0000    301.5211     43.6646    113.2624
   651.7500      0.0000    301.5673     43.8601    110.1788
   652.0000      0.0000    301.5888     44.1773    105.0471
   652.2500      0.0000    301.5716     44.3472    102.4850
   652.5000      0.0000    301.5140     44.5583    101.0521
   652.7500      0.0000    301.4651     44.7049    101.6995
   653.0000      0.0000    301.3907     44.9141    104.9909
   653.2500      0.0000    301.3473     44.9805    108.9845
   653.5000      0.0000    301.3048     44.8820    118.2303
   653.7500      0.0000    301.2986     44.7255    126.6328
   654.0000      0.0000    301.3217     44.5898    141.8606
   654.2500      0.0000    301.3484     44.6912    152.4796
   654.5000      0.0000    301.3842     45.1030    165.3992
   654.7500      0.0000    301.3998     45.3940    169.8914
   655.0000      0.0000    301.4153     45.5858    169.1075
   655.2500      0.0000    301.4253     45.5032    164.3474
   655.5000      0.0000    301.4438     45.1597    153.7408
   655.7500      0.0000    301.4564     44.8724    146.2338
   656.0000      0.0000    301.4595     44.4779    136.5984
   656.2500      0.0000    301.4359     44.2860    131.5727
   656.5000      0.0000    301.3468     44.1337    125.8411
   656.7500      0.0000    301.2614     44.1060    123.4684
   657.0000      0.0000    301.1349     44.1138    123.1083
   657.2500      0.0000    301.0725     44.1194    124.8924
   657.5000      0.0000    301.0198     44.1038    127.8427
   657.7500      0.0000    301.0041     44.0801    127.5793
   658.0000      0.0000    300.9947     44.0433    121.6938
   658.2500      0.0000    300.9962     44.0274    115.0748
   658.5000      0.0000    301.0210     44.0366    104.3489
   658.7500      0.0000    301.0602     44.0962     97.4716
   659.0000      0.0000    301.1487     44.3688     86.7864
   659.2500      0.0000    301.2096     44.7334     79.1991
   659.5000      0.0000    301.2603     45.5631     68.4913
   659.7500      0.0000    301.2490     46.2243     62.8791
   660.0000      0.0000    301.1629     47.1507     57.6197
   660.2500      0.0000    301.0740     47.6096     56.2259
   660.5000      0.0000    300.9302     47.9796     57.1620
   660.7500      0.0000    300.8488     48.0247     59.7021
   661.0000      0.0000    300.7801     47.8333     65.9970
   661.2500      0.0000    300.7844     47.5555     71.5417
   661.5000      0.0000    300.8735     46.9796     81.2339
   661.7500      0.0000    300.9752     46.5543     88.0583
   662.0000      0.0000    301.1439     45.9702     97.7887
   662.2500      0.0000    301.2379     45.6605    103.7486
   662.5000      0.0000    301.3264     45.3369    112.8007
   662.7500      0.0000    301.3572     45.1928    119.5727
   663.0000      0.0000    301.3985     44.9751    130.2044
   663.2500      0.0000    301.4468     44.7441    135.8809
   663.5000      0.0000    301.5704     44.1875    139.1443
   663.7500      0.0000    301.6812     43.7062    137.5780
   664.0000      0.0000    301.8625     42.9529    132.7687
   664.2500      0.0000    301.9776     42.4902    130.5118
   664.5000      0.0000    302.1213     41.8701    130.9553
   664.7500      0.0000    302.1883     41.4875    133.3362
   665.0000      0.0000    302.2416     40.9525    137.2578
   665.2500      0.0000    302.2647     40.6312    138.5807
   665.5000      0.0000    302.4453     40.1551    138.0156
   665.7500      0.0000    302.9430     39.7147    136.7434
   666.0000      0.0000    305.3759     38.4785    135.1951
   666.2500      0.0000    309.4175     37.0780    134.7848
   666.5000      0.0000    322.8192     34.2331    134.4397
   666.7500      0.0000    339.7267     32.2094    133.3851
