~Version Information
VERS.                      2.0: CWLS Log ASCII Standard - VERSION 2.0
WRAP.                       NO: One line per depth step
~Well Information Block
STRT.FT                10.0000: 
STOP.FT              1063.0000: 
STEP.FT                 0.1000: 
NULL.                -999.2500: 
COMP.          Pioneer Natural Resources: COMPANY
WELL.                Mac 22-36: WELL
FLD.           Purgatorie River: FIELD
LOC.           2545' FNL & 1398' FWL: LOCATION
PROV.                 Colorado: PROVINCE
CNTY.               Las Animas: COUNTRY
SRVC.                Patterson: SERVICE COMPANY
DATE.          Mon Dec 05 10:55:42 2005: LOG DATE
UWI.                          : UNIQUE WELL ID
~Curve Information Block
DEPT.FT            0 000 00 00: Depth
DCAL.in                       : CDL Caliper
RHOB.g/cc                     : CDL Bulk Density
RHOC.g/cc                     : CDL Density Correction
DPOR.pu                       : CDL Density Porosity
GR.GAPI                       : Gamma Ray
NPOR.pu                       : Neutron Porosity
~Parameter Information Block
~A  Depth       DCAL        RHOB        RHOC        DPOR         GR         NPOR    
# ...
   144.4000      2.7444      2.1322      2.5355     -0.0104    127.2215     22.9673
   144.5000      2.7444      2.1446      2.5860     -0.0101    127.0648     23.3458
   144.6000      2.7444      2.1594      2.5878     -0.0098    130.3401     23.8866
   144.7000      2.7444      2.1701      2.6023     -0.0096    133.1938     24.2352
   144.8000      2.7444      2.1771      2.6168     -0.0095    133.8459     24.2416
   144.9000      2.7444      2.1819      2.5962     -0.0094    133.0914     24.1714
   145.0000      2.7444      2.1886      2.6048     -0.0092    133.9250     24.5799
   145.1000      2.7444      2.1991      2.5973     -0.0090    136.7790     25.1994
   145.2000      2.7444      2.2065      2.6322     -0.0089    138.4950     25.2762
   145.3000      2.7444      2.2017      2.5978     -0.0090    137.6018     24.8178
   145.4000      2.7444      2.1860      2.6214     -0.0093    134.3148     24.4431
   145.5000      2.7444      2.1667      2.5897     -0.0097    130.8566     24.4758
   145.6000      2.7444      2.1476      2.5854     -0.0101    130.9320     24.5988
   145.7000      2.7444      2.1264      2.5653     -0.0105    134.2604     24.4405
   145.8000      2.7444      2.1038      2.5763     -0.0109    136.4101     24.1534
   145.9000      2.7444      2.0884      2.5404     -0.0112    136.8298     24.1367
   146.0000      2.7444      2.0836      2.5900     -0.0113    137.8952     24.4645
   146.1000      2.7444      2.0814      2.5935     -0.0114    139.7276     24.9323
   146.2000      2.7444      2.0702      2.6171     -0.0116    141.2880     25.4003
   146.3000      2.7444      2.0441      2.5792     -0.0121    140.9440     25.6967
   146.4000      2.7444      2.0131      2.5478     -0.0127    138.4384     25.7295
   146.5000      2.7444      1.9939      2.5275     -0.0131    136.5164     25.5893
   146.6000      2.7444      1.9933      2.5395     -0.0131    138.6775     25.5656
   146.7000      2.7444      2.0030      2.5458     -0.0129    143.9738     25.7328
   146.8000      2.7444      2.0066      2.5536     -0.0129    147.3811     25.9630
   146.9000      2.7444      1.9977      2.5612     -0.0131    147.6724     26.0510
   147.0000      2.7444      1.9902      2.5135     -0.0132    145.6805     25.7439
   147.1000      2.7444      1.9977      2.5431     -0.0131    142.6445     25.5306
   147.2000      2.7444      2.0104      2.5832     -0.0128    142.2674     25.9045
   147.3000      2.7444      2.0134      2.5612     -0.0127    146.4861     26.3241
   147.4000      2.7444      2.0089      2.5694     -0.0128    152.6495     26.0866
   147.5000      2.7444      2.0027      2.5821     -0.0130    156.6332     25.4716
   147.6000      2.7444      1.9984      2.5488     -0.0130    157.0714     25.1694
   147.7000      2.7444      1.9991      2.5559     -0.0130    154.8654     25.5135
   147.8000      2.7444      2.0012      2.5787     -0.0130    152.3039     26.1135
   147.9000      2.7444      2.0015      2.5535     -0.0130    153.0282     26.2001
   148.0000      2.7444      2.0038      2.5567     -0.0129    157.2088     25.7367
   148.1000      2.7444      2.0067      2.5789     -0.0129    160.6891     25.3993
   148.2000      2.7444      2.0062      2.5510     -0.0129    163.0915     25.3818
   148.3000      2.7444      2.0037      2.5538     -0.0129    166.3396     25.3140
   148.4000      2.7444      2.0001      2.5468     -0.0130    169.4742     25.1256
   148.5000      2.7444      1.9890      2.5726     -0.0132    172.2793     25.1154
   148.6000      2.7444      1.9691      2.5274     -0.0136    173.1271     25.3545
   148.7000      2.7444      1.9512      2.5401     -0.0140    170.9129     25.5741
   148.8000      2.7444      1.9399      2.5596     -0.0142    168.9797     25.6416
   148.9000      2.7444      1.9290      2.5556     -0.0144    169.3419     25.5821
   149.0000      2.7444      1.9162      2.5184     -0.0147    172.3338     25.2959
   149.1000      2.7444      1.9051      2.5294     -0.0149    178.0359     24.9940
   149.2000      2.7444      1.9010      2.4959     -0.0150    181.2604     25.0789
   149.3000      2.7444      1.9102      2.5010     -0.0148    178.8395     25.3681
   149.4000      2.7444      1.9284      2.5511     -0.0144    176.1091     25.6958
   149.5000      2.7444      1.9413      2.5307     -0.0142    174.6197     26.2706
   149.6000      2.7444      1.9412      2.5460     -0.0142    169.2468     26.9031
   149.7000      2.7444      1.9303      2.5376     -0.0144    162.1578     27.2669
   149.8000      2.7444      1.9158      2.5283     -0.0147    160.9373     27.5638
   149.9000      2.7444      1.9017      2.5426     -0.0150    168.0347     27.9753
   150.0000      2.7444      1.8916      2.4994     -0.0152    177.0952     28.0417
   150.1000      2.7444      1.8905      2.5281     -0.0152    179.2152     27.4915
   150.2000      2.7444      1.8972      2.5160     -0.0151    174.8933     26.7493
   150.3000      2.7444      1.9062      2.5333     -0.0149    170.8240     26.2113
   150.4000      2.7444      1.9099      2.5462     -0.0148    169.5107     25.9612
   150.5000      2.7444      1.9036      2.5435     -0.0149    169.0129     26.0238
   150.6000      2.7444      1.8931      2.5144     -0.0151    168.3181     26.3951
   150.7000      2.7444      1.8880      2.5200     -0.0152    171.0934     26.8648
   150.8000      2.7444      1.8906      2.5305     -0.0152    175.4281     27.1287
   150.9000      2.7444      1.8964      2.5469     -0.0151    174.0667     27.2004
   151.0000      2.7444      1.8941      2.5615     -0.0151    167.7293     27.2022
   151.1000      2.7444      1.8783      2.5029     -0.0154    160.4548     27.0502
   151.2000      2.7444      1.8584      2.5138     -0.0158    156.1333     26.6677
   151.3000      2.7444      1.8465      2.4942     -0.0161    158.5298     26.0789
   151.4000      2.7444      1.8483      2.4992     -0.0160    162.4990     25.4022
   151.5000      2.7444      1.8614      2.5211     -0.0158    161.9839     24.9360
   151.6000      2.7444      1.8798      2.5168     -0.0154    160.0371     24.9633
   151.7000      2.7444      1.9009      2.5367     -0.0150    158.7525     25.2716
   151.8000      2.7444      1.9207      2.5222     -0.0146    157.4827     25.3864
   151.9000      2.7444      1.9304      2.5690     -0.0144    156.6174     25.1701
   152.0000      2.7444      1.9253      2.5253     -0.0145    156.0632     24.8771
   152.1000      2.7444      1.9155      2.5266     -0.0147    156.5832     24.7948
   152.2000      2.7444      1.9078      2.5381     -0.0149    159.0380     24.9415
   152.3000      2.7444      1.8980      2.5341     -0.0150    162.7991     25.1975
   152.4000      2.7444      1.8860      2.5304     -0.0153    166.8910     25.5570
   152.5000      2.7444      1.8718      2.5577     -0.0156    169.9461     25.9251
   152.6000      2.7444      1.8527      2.5340     -0.0160    169.1990     26.0779
   152.7000      2.7444      1.8321      2.5140     -0.0164    166.0841     26.0295
   152.8000      2.7444      1.8155      2.5144     -0.0167    165.7104     25.9373
   152.9000      2.7444      1.8050      2.5017     -0.0169    166.9994     25.7458
   153.0000      2.7444      1.8003      2.5118     -0.0170    166.5910     25.3865
   153.1000      2.7444      1.7992      2.4939     -0.0170    166.6995     25.1502
   153.2000      2.7444      1.8002      2.4891     -0.0170    169.5342     25.3374
   153.3000      2.7444      1.7951      2.5032     -0.0171    172.8148     25.8611
   153.4000      2.7444      1.7743      2.5015     -0.0175    173.4455     26.4970
   153.5000      2.7444      1.7504      2.4271     -0.0180    169.0077     27.0315
   153.6000      2.7444      1.7452      2.4530     -0.0181    160.6070     27.3008
   153.7000      2.7444      1.7540      2.5013     -0.0179    152.9936     27.2268
   153.8000      2.7444      1.7618      2.4925     -0.0178    149.9885     26.8018
   153.9000      2.7444      1.7727      2.4603     -0.0176    151.1165     26.2776
