~Version Information
VERS.                      2.0: CWLS Log ASCII Standard - VERSION 2.0
WRAP.                       NO: One line per depth step
~Well Information Block
STRT.FT               230.0000: 
STOP.FT               706.5000: 
STEP.FT                 0.1000: 
NULL.                -999.2500: 
COMP.          Pioneer Natural Resources: COMPANY
WELL.          Razor Clam 23-27: WELL
FLD.           Purgatoire River: FIELD
LOC.           2499' FSL & 2636' FWL: LOCATION
CNTY.               Las Animas: COUNTY
SRVC.                Patterson: SERVICE COMPANY
DATE.          Mon Feb 13 07:31:47 2006: LOG DATE
UWI.           05 071 08667 00: UNIQUE WELL ID
STAT.                 Colorado: STATE
~Curve Information Block
DEPT.FT            0 000 00 00: Depth
DCAL.in                       : CDL Caliper
RHOB.g/cc                     : CDL Bulk Density
RHOC.g/cc                     : CDL Density Correction
DPOR.pu                       : CDL Density Porosity
GR.GAPI                       : Gamma Ray
NPOR.pu                       : Neutron Porosity
~Parameter Information Block
~A  Depth       DCAL        RHOB        RHOC        DPOR         GR         NPOR    
# ...
   662.0000      7.8681      2.6005      0.1469      3.0019    239.6186     28.0402
   662.1000      7.8681      2.6119      0.0829      2.3117    248.9016     28.1632
   662.2000      7.8681      2.6421      0.1127      0.4784    249.3470     27.6833
   662.3000      7.9071      2.6769      0.1484     -1.6290    243.4249     27.5498
   662.4000      7.9071      2.6946      0.1632     -2.7019    230.0028     27.6359
   662.5000      7.8564      2.6908      0.1886     -2.4717    205.0880     27.6311
   662.6000      7.8564      2.6696      0.1823     -1.1882    178.6743     27.8689
   662.7000      7.8564      2.6421      0.1033      0.4800    164.2477     28.1678
   662.8000      7.8567      2.6242      0.0880      1.5624    161.6207     28.1181
   662.9000      7.8567      2.6168      0.1037      2.0092    159.1852     27.9975
   663.0000      7.8589      2.6085      0.0797      2.5148    151.9320     28.1297
   663.1000      7.8589      2.5972      0.0730      3.2019    144.6505     28.1501
   663.2000      7.8589      2.5845      0.0592      3.9715    137.1190     27.7764
   663.3000      7.8680      2.5699      0.0397      4.8534    126.9578     27.1765
   663.4000      7.8680      2.5622      0.0121      5.3200    117.3028     26.6492
   663.5000      7.8768      2.5721      0.0389      4.7228    112.2087     26.4238
   663.6000      7.8768      2.5939      0.0554      3.4023    111.3911     26.5253
   663.7000      7.8768      2.6134      0.0938      2.2184    113.1409     26.6626
   663.8000      7.8674      2.6264      0.1003      1.4300    115.8790     26.9106
   663.9000      7.8674      2.6300      0.1383      1.2139    116.0627     27.5007
   664.0000      7.8723      2.6217      0.0528      1.7144    114.1416     27.9810
   664.1000      7.8723      2.6131      0.0792      2.2380    116.1684     28.2565
   664.2000      7.8723      2.6118      0.0798      2.3133    124.8220     28.6771
   664.3000      7.8676      2.6127      0.0584      2.2584    133.7589     29.0803
   664.4000      7.8676      2.6148      0.0879      2.1339    136.5077     28.9104
   664.5000      7.8808      2.6207      0.1472      1.7763    135.7236     28.1857
   664.6000      7.8808      2.6239      0.1266      1.5793    136.8839     27.6157
   664.7000      7.8808      2.6216      0.1209      1.7201    141.3510     27.4385
   664.8000      7.9339      2.6158      0.1456      2.0723    145.7079     27.4694
   664.9000      7.9339      2.5995      0.1245      3.0626    147.5332     27.5443
   665.0000      7.8831      2.5712      0.0662      4.7779    146.4946     27.5985
   665.1000      7.8831      2.5464      0.0267      6.2769    141.5765     27.6720
   665.2000      7.8831      2.5383      0.0330      6.7711    133.2101     27.5826
   665.3000      7.8877      2.5504      0.0262      6.0347    124.1892     27.3742
   665.4000      7.8877      2.5789      0.0547      4.3078    119.5700     27.0522
   665.5000      7.9128      2.6010      0.0826      2.9708    116.8913     26.3672
   665.6000      7.9128      2.5939      0.1018      3.4026    107.7850     25.9100
   665.7000      7.9128      2.5696      0.0158      4.8730     92.6777     26.4029
   665.8000      7.8926      2.5576      0.0390      5.6019     80.8029     27.0243
   665.9000      7.8926      2.5626      0.0624      5.2945     76.8148     26.4990
   666.0000      7.8753      2.5749      0.0236      4.5516     75.3880     25.0120
   666.1000      7.8753      2.5856      0.0617      3.9026     72.9062     23.8921
   666.2000      7.8753      2.5832      0.0790      4.0459     72.2398     24.1672
   666.3000      7.8769      2.5650      0.0255      5.1513     73.5134     25.3989
   666.4000      7.8769      2.5425      0.0218      6.5158     72.3099     26.1545
   666.5000      7.8845      2.5279      0.0145      7.4015     69.7750     26.0682
   666.6000      7.8845      2.5256      0.0291      7.5382     69.9729     25.6718
   666.7000      7.8845      2.5295      0.0470      7.3004     70.4873     24.8751
   666.8000      7.8789      2.5255      0.0652      7.5457     67.5095     23.7153
   666.9000      7.8789      2.5046      0.0553      8.8099     64.4902     23.2553
   667.0000      7.9031      2.4787     -0.0124     10.3846     65.9814     23.6407
   667.1000      7.9031      2.4664      0.0095     11.1278     69.5078     23.5991
   667.2000      7.9031      2.4662      0.0129     11.1407     71.0876     22.7424
   667.3000      7.8935      2.4717     -0.0117     10.8057     69.6428     21.9992
   667.4000      7.8935      2.4887      0.0334      9.7756     66.3537     21.6940
   667.5000      7.9068      2.5168      0.0460      8.0737     64.4334     21.3633
   667.6000      7.9068      2.5452      0.0581      6.3530     65.6151     20.8226
   667.7000      7.9068      2.5630      0.0650      5.2720     68.3629     20.6122
   667.8000      7.8760      2.5649      0.0763      5.1600     68.4131     21.3224
   667.9000      7.8760      2.5555      0.0512      5.7286     64.9590     22.4860
   668.0000      7.8641      2.5480      0.0515      6.1830     61.5928     23.0578
   668.1000      7.8641      2.5521      0.0350      5.9315     58.6775     22.9501
   668.2000      7.8641      2.5653      0.0529      5.1328     56.6771     22.8134
   668.3000      7.8614      2.5768      0.0708      4.4389     58.2542     22.8740
   668.4000      7.8614      2.5844      0.0313      3.9767     63.2056     23.0788
   668.5000      7.8633      2.5852      0.0855      3.9249     70.3976     23.5834
   668.6000      7.8633      2.5622      0.0635      5.3198     78.1315     24.5727
   668.7000      7.8633      2.5158      0.0111      8.1304     83.5377     25.4505
   668.8000      7.8651      2.4676      0.0472     11.0565     89.2867     25.2272
   668.9000      7.8651      2.4319     -0.0205     13.2211     96.2813     24.5745
   669.0000      7.8840      2.4173     -0.0032     14.1014     96.5676     24.7514
   669.1000      7.8840      2.4241     -0.0076     13.6932     89.0076     25.3458
   669.2000      7.8840      2.4411     -0.0088     12.6622     83.2085     25.9399
   669.3000      7.8792      2.4575      0.0184     11.6656     84.6597     26.6820
   669.4000      7.8792      2.4683      0.0271     11.0108     90.1744     27.1506
   669.5000      7.8818      2.4809      0.0165     10.2501     94.9352     27.1418
   669.6000      7.8818      2.5022      0.0921      8.9546     93.9525     27.0111
   669.7000      7.8818      2.5259      0.0930      7.5198     89.9377     27.0292
   669.8000      7.8559      2.5439      0.1263      6.4319     94.2841     27.0699
   669.9000      7.8559      2.5550      0.1263      5.7604    106.7640     27.2884
   670.0000      7.8503      2.5616      0.1739      5.3572    114.3784     27.8356
   670.1000      7.8503      2.5635      0.1530      5.2425    114.4894     28.1688
   670.2000      7.8503      2.5676      0.1464      4.9962    115.8517     27.9212
   670.3000      7.8532      2.5819      0.1679      4.1281    121.3892     27.3563
   670.4000      7.8532      2.6030      0.1657      2.8481    128.7038     26.8872
   670.5000      7.8563      2.6233      0.1681      1.6162    132.0701     26.3718
   670.6000      7.8563      2.6327      0.1725      1.0471    127.2667     25.7216
   670.7000      7.8563      2.6246      0.1437      1.5365    119.5181     25.4686
   670.8000      7.8641      2.6081      0.1338      2.5407    114.6671     25.6023
   670.9000      7.8641      2.6014      0.0887      2.9481    114.4032     25.7135
   671.0000      7.8827      2.6107      0.0730      2.3835    117.6112     26.0334
   671.1000      7.8827      2.6179      0.0946      1.9465    121.1761     26.6116
   671.2000      7.8827      2.6076      0.0899      2.5698    122.0167     26.8892
   671.3000      7.8848      2.5851      0.0893      3.9308    118.9408     26.9360
   671.4000      7.8848      2.5576      0.0935      5.5992    115.4022     27.1058
   671.5000      7.9038      2.5334      0.0570      7.0655    112.2649     27.2076
