~Version Information
VERS.                      2.0: CWLS Log ASCII Standard - VERSION 2.0
WRAP.                       NO: One line per depth step
~Well Information Block
STRT.FT               875.0000: 
STOP.FT              2053.0000: 
STEP.FT                 0.1000: 
NULL.                -999.2500: 
COMP.          Pioneer Natural Resources: COMPANY
WELL.          Woodstock 43-19: WELL
FLD.           Purgatoire River: FIELD
LOC.           2195' FSL & 250' FEL: LOCATION
CNTY.               Las Animas: COUNTY
SRVC.                Patterson: SERVICE COMPANY
DATE.          Thu Feb 02 12:45:04 2006: LOG DATE
UWI.           05 071 08677 00: UNIQUE WELL ID
STAT.                 Colorado: STATE
~Curve Information Block
DEPT.FT            0 000 00 00: Depth
DCAL.in                       : CDL Caliper
RHOB.g/cc                     : CDL Bulk Density
RHOC.g/cc                     : CDL Density Correction
DPOR.pu                       : CDL Density Porosity
GR.GAPI                       : Gamma Ray
NPOR.pu                       : Neutron Porosity
~Parameter Information Block
~A  Depth       DCAL        RHOB        RHOC        DPOR         GR         NPOR    
# ...
   951.8000      8.0001      2.5671      0.0449      5.0242    149.7218     26.7445
   951.9000      8.0001      2.5378     -0.0122      6.7995    139.7354     26.5575
   952.0000      7.9904      2.5143      0.0393      8.2262    132.5395     26.3494
   952.1000      7.9904      2.5101      0.0496      8.4797    132.1669     26.5611
   952.2000      7.9904      2.5153     -0.0052      8.1632    136.4001     26.8539
   952.3000      8.0017      2.5129      0.0077      8.3109    139.7369     26.7019
   952.4000      8.0017      2.5036     -0.0394      8.8702    144.2860     26.3844
   952.5000      8.0037      2.5049     -0.0172      8.7933    152.5079     26.2563
   952.6000      8.0037      2.5255      0.0181      7.5426    157.5319     26.3235
   952.7000      8.0037      2.5595      0.0503      5.4851    154.7579     26.7267
   952.8000      7.9897      2.5912      0.1086      3.5640    148.0990     27.1925
   952.9000      7.9897      2.6056      0.1158      2.6922    143.9055     27.1763
   953.0000      8.0032      2.5958      0.1099      3.2819    143.3181     26.8762
   953.1000      8.0032      2.5762      0.0431      4.4751    138.7933     26.8444
   953.2000      8.0032      2.5768     -0.0210      4.4390    125.0284     27.0656
   953.3000      7.9856      2.5936      0.0469      3.4191    112.5926     27.1372
   953.4000      7.9856      2.5887      0.0855      3.7168    112.9769     26.7336
   953.5000      7.9957      2.5587     -0.0082      5.5318    119.5503     26.0503
   953.6000      7.9957      2.5313     -0.0141      7.1968    122.3136     25.4527
   953.7000      7.9957      2.5115      0.0070      8.3968    121.3793     25.0672
   953.8000      8.0269      2.4954     -0.0626      9.3695    118.5111     24.9582
   953.9000      8.0269      2.4961     -0.0651      9.3295    113.6113     25.1704
   954.0000      8.0307      2.5205     -0.0266      7.8497    109.8601     25.5473
   954.1000      8.0307      2.5516      0.0539      5.9666    110.2203     25.8944
   954.2000      8.0307      2.5614      0.0528      5.3676    112.4187     26.0046
   954.3000      8.0312      2.5442     -0.0103      6.4114    110.0381     25.7733
   954.4000      8.0312      2.5252     -0.0205      7.5624    104.0805     25.4957
   954.5000      8.0264      2.5211      0.0197      7.8103    102.1067     25.4572
   954.6000      8.0264      2.5195     -0.0348      7.9077    104.3550     25.6413
   954.7000      8.0264      2.5037     -0.0266      8.8657    105.0965     25.9147
   954.8000      8.0335      2.4756     -0.0361     10.5721    102.1710     25.9885
   954.9000      8.0335      2.4528     -0.0593     11.9498     99.4290     25.4415
   955.0000      8.0492      2.4459     -0.0448     12.3673    103.0479     24.5347
   955.1000      8.0492      2.4586     -0.0568     11.6017    110.2814     23.8481
   955.2000      8.0492      2.4987     -0.0337      9.1682    111.7857     23.3559
   955.3000      8.0517      2.5537      0.0731      5.8353    107.3577     22.9731
   955.4000      8.0517      2.5907      0.0964      3.5927    102.2453     22.9873
   955.5000      8.0590      2.6037      0.0554      2.8051     99.0066     23.3763
   955.6000      8.0590      2.6208      0.0537      1.7727     99.8364     23.6670
   955.7000      8.0590      2.6499      0.1495      0.0069    104.4700     23.5711
   955.8000      8.0570      2.6653      0.1586     -0.9293    108.1219     23.2028
   955.9000      8.0570      2.6581      0.1330     -0.4924    108.9822     22.7820
   956.0000      7.9692      2.6411      0.0635      0.5419    109.4142     22.4470
   956.1000      7.9692      2.6166      0.0978      2.0259    107.4881     22.3171
   956.2000      7.9692      2.5740      0.1211      4.6074    101.4893     22.4721
   956.3000      7.9393      2.5214      0.0125      7.7910     95.8791     22.6578
   956.4000      7.9393      2.4917     -0.0116      9.5967     92.0226     22.6374
   956.5000      7.9508      2.4907      0.0518      9.6566     88.2369     22.6364
   956.6000      7.9508      2.4948      0.0694      9.4060     85.0246     22.7756
   956.7000      7.9508      2.4978      0.0245      9.2221     81.8516     22.9381
   956.8000      7.9618      2.5096      0.0263      8.5075     78.4445     22.9617
   956.9000      7.9618      2.5348      0.0200      6.9844     76.9572     22.8856
   957.0000      7.9257      2.5726      0.0567      4.6896     78.4202     23.0488
   957.1000      7.9257      2.6129      0.1109      2.2476     80.7341     23.4150
   957.2000      7.9257      2.6331      0.1561      1.0232     81.0660     23.4394
   957.3000      7.9077      2.6237      0.1003      1.5928     78.2868     23.0888
   957.4000      7.9077      2.6061      0.0521      2.6617     74.8920     22.9300
   957.5000      7.9017      2.5991      0.1050      3.0846     75.4263     23.1335
   957.6000      7.9017      2.5983      0.0622      3.1347     80.0723     23.3876
   957.7000      7.9017      2.6007      0.0167      2.9907     85.1975     23.6329
   957.8000      7.9110      2.6139      0.0868      2.1873     89.3111     23.6354
   957.9000      7.9110      2.6315      0.0892      1.1183     91.8964     23.1670
   958.0000      7.9293      2.6364      0.1158      0.8215     90.8823     22.7478
   958.1000      7.9293      2.6269      0.0774      1.3972     87.6317     22.7703
   958.2000      7.9293      2.6142      0.1057      2.1691     85.9691     23.0036
   958.3000      7.9204      2.6068      0.0399      2.6154     85.4912     23.0494
   958.4000      7.9204      2.6060      0.1390      2.6693     82.2262     22.9616
   958.5000      7.9102      2.6043      0.0804      2.7703     77.1492     23.0403
   958.6000      7.9102      2.6036      0.0476      2.8117     76.1955     23.0540
   958.7000      7.9102      2.6113      0.0811      2.3446     80.3277     22.7546
   958.8000      7.9408      2.6246      0.1006      1.5379     85.8412     22.5312
   958.9000      7.9408      2.6314      0.1278      1.1263     90.0618     22.6623
   959.0000      7.9669      2.6205      0.1259      1.7885     93.7215     22.9053
   959.1000      7.9669      2.5926      0.1111      3.4810     97.0783     23.0354
   959.2000      7.9669      2.5615      0.0581      5.3609     96.6672     23.1262
   959.3000      7.9590      2.5497      0.0030      6.0771     92.8804     23.1091
   959.4000      7.9590      2.5681      0.0500      4.9657     90.2093     22.9018
   959.5000      7.9183      2.5942      0.0751      3.3820     89.3203     22.7487
   959.6000      7.9183      2.5984      0.0434      3.1274     88.0020     22.7632
   959.7000      7.9183      2.5859      0.0554      3.8839     84.7587     23.0219
   959.8000      7.9162      2.5890      0.0431      3.6963     81.9334     23.2150
   959.9000      7.9162      2.6300      0.0665      1.2119     83.7432     22.8988
   960.0000      7.9603      2.6888      0.1615     -2.3530     88.7475     22.5767
   960.1000      7.9603      2.7188      0.1558     -4.1709     92.5216     22.7215
   960.2000      7.9603      2.6995      0.1292     -3.0023     92.9443     22.6873
   960.3000      7.9340      2.6560      0.0525     -0.3611     92.3789     22.1695
   960.4000      7.9340      2.6266      0.0551      1.4199     93.4109     21.9159
   960.5000      7.9516      2.6268      0.0264      1.4066     94.7620     22.0738
   960.6000      7.9516      2.6455      0.0756      0.2752     93.4905     22.2579
   960.7000      7.9516      2.6515      0.1053     -0.0896     91.0538     22.4607
   960.8000      7.9437      2.6264      0.0413      1.4325     91.0103     22.5935
   960.9000      7.9437      2.5847      0.0523      3.9555     89.5799     22.4296
   961.0000      7.9377      2.5570     -0.0525      5.6381     84.4644     22.2264
   961.1000      7.9377      2.5648     -0.0226      5.1646     80.2722     22.2460
   961.2000      7.9377      2.5857      0.0599      3.8990     80.3383     22.3031
   961.3000      7.9270      2.5788      0.0724      4.3167     82.7454     22.2287
