~Version Information
VERS.                      2.0: CWLS Log ASCII Standard - VERSION 2.0
WRAP.                       NO: One line per depth step
~Well Information Block
STRT.FT                -8.2500: 
STOP.FT              1439.2500: 
STEP.FT                 0.2500: 
NULL.                -999.2500: 
COMP.          Pioneer Natural Resources: COMPANY
WELL.          Old Faithful 21-2: WELL
FLD.           Purgatorie River: FIELD
LOC.           806' FNL & 2509' FWL--: LOCATION
PROV.                       CO: PROVINCE
CNTY.               Las Animas: COUNTRY
SRVC.          Patterson Wireline: SERVICE COMPANY
DATE.          Mon Dec 12 11:21:25 2005: LOG DATE
UWI.           08 071 08617 00: UNIQUE WELL ID
~Curve Information Block
DEPT.FT            0 000 00 00: Depth
CCL.                          : Casing Collar Locator
TT3.usec                      : CBL 3' Travel Time
AMP3.mV                       : CBL 3' Amplitude
GR.GAPI                       : Gamma Ray
~Parameter Information Block
~A  Depth       CCL         TT3         AMP3         GR     
# ...
   728.7500      0.0000    735.8331      9.3690    137.2956
   729.0000      0.0000    738.4606      9.2650    127.6496
   729.2500      0.0000    738.8878      9.2056    119.4741
   729.5000      0.0000    737.6402      9.1999    115.1092
   729.7500      0.0000    735.0992      9.2492    115.0736
   730.0000      0.0000    731.8486      9.3460    118.6493
   730.2500      0.0000    728.5295      9.4732    124.4294
   730.5000      0.0000    725.3111      9.6123    130.4312
   730.7500      0.0000    721.9594      9.7522    134.5628
   731.0000      0.0000    718.4877      9.8858    135.6966
   731.2500      0.0000    715.1883      9.9984    134.4271
   731.5000      0.0000    712.0368     10.0663    132.5678
   731.7500      0.0000    708.7609     10.0711    131.6330
   732.0000      0.0000    705.5254     10.0145    131.5653
   732.2500      0.0000    702.9667      9.9207    130.7553
   732.5000      0.0000    701.5482      9.8220    127.3620
   732.7500      0.0000    701.2913      9.7405    120.9453
   733.0000      0.0000    702.1608      9.6787    113.0085
   733.2500      0.0000    704.4223      9.6252    105.9954
   733.5000      0.0000    708.3426      9.5671    101.7662
   733.7500      0.0000    713.4371      9.5005    100.6544
   734.0000      0.0000    718.2736      9.4336    101.3281
   734.2500      0.0000    721.4919      9.3861    101.5417
   734.5000      0.0000    723.0812      9.3803     99.7393
   734.7500      0.0000    724.3078      9.4273     96.4566
   735.0000      0.0000    726.2955      9.5157     93.9013
   735.2500      0.0000    728.7455      9.6188     93.7796
   735.5000      0.0000    729.9735      9.7123     95.7720
   735.7500      0.0000    728.1960      9.7863     98.4604
   736.0000      0.0000    723.0098      9.8415    101.3717
   736.2500      0.0000    715.8250      9.8775    105.4127
   736.5000      0.0000    708.8872      9.8898    111.0111
   736.7500      0.0000    703.8104      9.8794    116.1709
   737.0000      0.0000    700.9061      9.8634    117.3639
   737.2500      0.0000    699.5892      9.8709    113.0567
   737.5000      0.0000    699.1030      9.9236    105.8132
   737.7500      0.0000    698.9197     10.0191    100.3601
   738.0000      0.0000    698.7772     10.1309    100.0287
   738.2500      0.0000    698.6362     10.2186    105.0853
   738.5000      0.0000    698.7021     10.2436    113.2166
   738.7500      0.0000    699.4995     10.1870    120.9928
   739.0000      0.0000    701.8127     10.0573    125.7483
   739.2500      0.0000    706.2003      9.8795    126.8650
   739.5000      0.0000    712.1248      9.6789    125.3964
   739.7500      0.0000    717.5195      9.4776    122.7985
   740.0000      0.0000    719.7630      9.2975    120.1895
   740.2500      0.0000    717.6196      9.1527    118.0364
   740.5000      0.0000    712.2654      9.0387    115.8826
   740.7500      0.0000    706.2804      8.9342    112.8168
   741.0000      0.0000    701.6877      8.8140    108.6827
   741.2500      0.0000    698.8919      8.6487    104.4226
   741.5000      0.0000    696.9525      8.3866    100.7020
   741.7500      0.0000    694.5753      7.9572     96.6271
   742.0000      0.0000    691.5549      7.3365     90.6900
   742.2500      0.0000    690.7559      6.6391     83.0281
   742.5000      0.0000    699.0610      6.1028     75.8658
   742.7500      0.0000    724.0815      5.9149     71.3538
   743.0000      0.0000    766.6344      6.0493     69.5122
   743.2500      0.0000    817.0092      6.3167     68.6002
   743.5000      0.0000    862.7720      6.5511     66.9937
   743.7500      0.0000    900.7065      6.7035     64.3425
   744.0000      0.0000    936.6697      6.7965     61.4055
   744.2500     -2.0000    973.1293      6.8639     59.3514
   744.5000      2.0000   1001.7115      6.9345     59.1314
   744.7500      0.0000   1008.2490      7.0383     61.1316
   745.0000      0.0000    981.6429      7.2058     65.1756
   745.2500      0.0000    920.9964      7.4389     70.7648
   745.5000      0.0000    840.7719      7.6721     77.2966
   745.7500      0.0000    766.8653      7.8137     84.3872
   746.0000      0.0000    720.1259      7.8709     92.3971
   746.2500      0.0000    702.7758      7.9733    102.3716
   746.5000      0.0000    702.8857      8.2119    114.5860
   746.7500      0.0000    708.4016      8.5143    127.1482
   747.0000      0.0000    713.5709      8.7365    137.0478
   747.2500      0.0000    716.3500      8.8241    142.9411
   747.5000      0.0000    715.6967      8.8439    146.0925
   747.7500      0.0000    711.9703      8.9006    148.1727
   748.0000      0.0000    707.3116      9.0488    148.8947
   748.2500      0.0000    704.4081      9.2650    146.4186
   748.5000      0.0000    705.3408      9.4810    139.6211
   748.7500      0.0000    711.2503      9.6417    129.4777
   749.0000      0.0000    722.0176      9.7356    118.6198
   749.2500      0.0000    735.7151      9.7813    110.1906
   749.5000      0.0000    748.9917      9.7981    106.8636
   749.7500      0.0000    758.5792      9.7919    109.8705
   750.0000      0.0000    762.6092      9.7615    118.0372
   750.2500      0.0000    761.0969      9.7109    127.8276
   750.5000      0.0000    755.8361      9.6512    135.2612
   750.7500      0.0000    749.5047      9.5913    138.6143
   751.0000      0.0000    744.1594      9.5291    139.2191
   751.2500      0.0000    740.5434      9.4529    139.5534
   751.5000      0.0000    739.0618      9.3534    140.9316
   751.7500      0.0000    741.0325      9.2330    143.0325
   752.0000      0.0000    748.0558      9.1035    144.8734
   752.2500      0.0000    759.6259      8.9768    145.7465
   752.5000      0.0000    772.0712      8.8596    145.5515
   752.7500      0.0000    780.8412      8.7547    144.8029
   753.0000      0.0000    783.8267      8.6633    144.2805
   753.2500      0.0000    782.2719      8.5842    144.2537
   753.5000      0.0000    779.2047      8.5141    144.0721
   753.7500      0.0000    777.3526      8.4504    142.8808
   754.0000      0.0000    777.6602      8.3968    140.4450
   754.2500      0.0000    778.9672      8.3613    136.8598
   754.5000      0.0000    779.1362      8.3480    132.0023
   754.7500      0.0000    776.8934      8.3517    125.9678
   755.0000      0.0000    773.0515      8.3668    119.7477
   755.2500      0.0000    770.1585      8.3986    115.0024
   755.5000      0.0000    770.5562      8.4574    113.0541
   755.7500      0.0000    774.3889      8.5447    114.0226
   756.0000      0.0000    779.6791      8.6504    116.8693
   756.2500      0.0000    784.3417      8.7641    120.2906
   756.5000      0.0000    787.8129      8.8801    123.3240
   756.7500      0.0000    790.7916      8.9931    125.1641
   757.0000      0.0000    793.8413      9.0916    125.1791
   757.2500      0.0000    796.4329      9.1609    123.4114
   757.5000      0.0000    797.4067      9.1909    120.4623
   757.7500      0.0000    796.4244      9.1832    116.8772
   758.0000      0.0000    794.8122      9.1525    113.2602
   758.2500      0.0000    794.7787      9.1190    110.8375
   758.5000      0.0000    797.7584      9.0972    110.9928
   758.7500      0.0000    803.2379      9.0888    113.8041
   759.0000      0.0000    808.8347      9.0843    117.4236
   759.2500      0.0000    811.8055      9.0707    119.5078
   759.5000      0.0000    811.0510      9.0364    119.1656
   759.7500      0.0000    807.6936      8.9744    117.0944
   760.0000      0.0000    803.5284      8.8857    114.0422
   760.2500      0.0000    799.2562      8.7812    110.0291
   760.5000      0.0000    794.4548      8.6738    105.3468
   760.7500      0.0000    788.6893      8.5719    101.4373
   761.0000      0.0000    782.1136      8.4842     99.9026
   761.2500      0.0000    775.3686      8.4267    100.7920
   761.5000      0.0000    769.2501      8.4183    102.4646
   761.7500      0.0000    764.1735      8.4695    103.1060
   762.0000      0.0000    759.7662      8.5792    102.1179
