~Version Information
VERS.                      2.0: CWLS Log ASCII Standard - VERSION 2.0
WRAP.                       NO: One line per depth step
~Well Information Block
STRT.FT               360.0000: 
STOP.FT              2475.0000: 
STEP.FT                 0.1000: 
NULL.                -999.2500: 
COMP.          Pioneer Natural Resources: COMPANY
WELL.          Hellzonfire 32-31: WELL
FLD.           Purgatoire River: FIELD
LOC.           1993' FNL & 2265' FEL: LOCATION
STAT.                 Colorado: State
CNTY.               Las Animas: COUNTY
CTRY. USA : Country
SECT. 31 : Section
TOWN. 32S : Township
RANG. 66W : Range
SRVC.                Patterson: SERVICE COMPANY
DATE.          Fri Sep 02 07:26:13 2005: LOG DATE
API.           05 071 08483 00: UNIQUE WELL ID
~Curve Information Block
DEPT.FT            0 000 00 00: Depth
DCAL.in                       : CDL Caliper
RHOB.g/cc                     : CDL Bulk Density
RHOC.g/cc                     : CDL Density Correction
DPOR.pu                       : CDL Density Porosity
GR.GAPI                       : Gamma Ray
NPOR.pu                       : Neutron Porosity
~Parameter Information Block
~A  Depth       DCAL        RHOB        RHOC        DPOR         GR         NPOR    
# ...
  2318.4000      7.9758      2.5397      0.0987      6.6829     93.3813     29.5811
  2318.5000      7.9747      2.5125      0.0565      8.3354     90.9669     29.2776
  2318.6000      7.9747      2.5078     -0.0048      8.6174     89.9388     28.2273
  2318.7000      7.9747      2.5362      0.1011      6.8990     92.3949     27.6349
  2318.8000      7.9819      2.5631      0.0420      5.2692     95.4658     28.1912
  2318.9000      7.9819      2.5764      0.0689      4.4584     93.0405     29.2112
  2319.0000      7.9777      2.5712      0.1018      4.7748     88.7171     29.4398
  2319.1000      7.9777      2.5195      0.0985      7.9081     85.3634     28.7899
  2319.2000      7.9777      2.4058      0.0555     14.7999     80.5843     28.1878
  2319.3000      7.9698      2.2481      0.0085     24.3567     77.4124     27.8102
  2319.4000      7.9698      2.0681     -0.0218     35.2657     76.2706     27.5436
  2319.5000      7.9778      1.8757     -0.0848     46.9287     72.3839     27.7620
  2319.6000      7.9778      1.6793     -0.0921     58.8311     66.1488     28.4753
  2319.7000      7.9778      1.4998     -0.1950     69.7101     62.7621     28.8535
  2319.8000      7.9859      1.3787     -0.2410     77.0464     63.6021     28.7325
  2319.9000      7.9859      1.3567     -0.1716     78.3834     64.1750     29.3835
  2320.0000      7.9724      1.4462     -0.0166     72.9602     65.3675     31.6079
  2320.1000      7.9724      1.6184      0.1023     62.5198     71.6922     33.9712
  2320.2000      7.9724      1.8075      0.1985     51.0618     78.9130     34.6140
  2320.3000      8.0225      1.9545      0.1906     42.1527     82.8730     34.3411
  2320.4000      8.0225      2.0403      0.2609     36.9505     88.5095     34.4980
  2320.5000      8.5501      2.0730      0.2359     34.9688     99.4376     34.4969
  2320.6000      8.5501      2.0796      0.2455     34.5673    110.9126     33.9953
  2320.7000      8.5501      2.1025      0.1408     33.1822    116.1430     33.3424
  2320.8000      9.1761      2.1753      0.0354     28.7723    114.2295     32.2145
  2320.9000      9.1761      2.2815      0.0415     22.3334    107.3735     30.9203
  2321.0000      9.1000      2.3718      0.0377     16.8609     97.9075     30.3189
  2321.1000      9.1000      2.4234      0.0963     13.7353     90.7383     30.1981
  2321.2000      9.1000      2.4332      0.1152     13.1417     90.7367     30.1900
  2321.3000      8.1441      2.3996      0.0617     15.1777     98.6315     30.6095
  2321.4000      8.1441      2.3440     -0.0095     18.5485    109.0392     31.2641
  2321.5000      7.9589      2.3024      0.0006     21.0689    112.7759     31.8100
  2321.6000      7.9589      2.2856      0.0630     22.0846    106.6012     32.1033
  2321.7000      7.9589      2.2678      0.1005     23.1607     97.2005     31.7613
  2321.8000      7.9415      2.2268      0.0835     25.6481     94.4254     31.2218
  2321.9000      7.9415      2.1761      0.0189     28.7203    101.0357     31.3274
  2322.0000      7.9065      2.1513      0.0072     30.2258    112.2039     32.0053
  2322.1000      7.9065      2.1706      0.0035     29.0566    122.1380     32.4841
  2322.2000      7.9065      2.2125      0.0970     26.5181    125.5848     32.1785
  2322.3000      7.9368      2.2415      0.1073     24.7575    124.1589     31.6857
  2322.4000      7.9368      2.2594      0.0849     23.6755    124.2506     31.7055
  2322.5000      8.0076      2.2986      0.0687     21.2942    125.0174     31.8025
  2322.6000      8.0076      2.3667      0.1673     17.1707    122.8947     31.5445
  2322.7000      8.0076      2.4390      0.1341     12.7866    119.4256     31.5807
  2322.8000      8.0058      2.4946      0.1945      9.4162    117.4303     32.0150
  2322.9000      8.0058      2.5222      0.1633      7.7467    118.1647     31.6606
  2323.0000      7.9368      2.5271      0.1596      7.4510    120.3228     30.2363
  2323.1000      7.9368      2.5281      0.1199      7.3849    118.0348     28.4989
  2323.2000      7.9368      2.5304      0.1470      7.2490    112.9187     26.9105
  2323.3000      7.9200      2.5274      0.0950      7.4290    112.3298     25.8480
  2323.4000      7.9200      2.5197      0.0723      7.8950    115.9265     25.1717
  2323.5000      7.9829      2.5155      0.0735      8.1529    120.8249     24.5960
  2323.6000      7.9829      2.5305      0.0623      7.2410    127.2059     24.1283
  2323.7000      7.9829      2.5669      0.1081      5.0384    134.4165     23.3094
  2323.8000      7.9932      2.6003      0.0938      3.0110    141.4993     21.8352
  2323.9000      7.9932      2.6150      0.0927      2.1239    147.5078     20.6194
  2324.0000      7.9535      2.6136      0.0784      2.2065    145.2273     20.2089
  2324.1000      7.9535      2.6028      0.0997      2.8631    135.2147     19.6836
  2324.2000      7.9535      2.5970      0.0311      3.2121    129.3084     18.6914
  2324.3000      7.8864      2.6080      0.1510      2.5454    130.0647     18.1287
  2324.4000      7.8864      2.6282      0.1420      1.3236    132.4139     18.5914
  2324.5000      7.8322      2.6465      0.1393      0.2095    134.7673     19.5353
  2324.6000      7.8322      2.6513      0.1846     -0.0766    135.0301     20.0455
  2324.7000      7.8322      2.6338      0.1276      0.9842    129.2546     20.1813
  2324.8000      7.7901      2.6031      0.0974      2.8424    117.4065     20.4362
  2324.9000      7.7901      2.5738      0.0034      4.6209    104.4770     20.6602
  2325.0000      7.8738      2.5383      0.0873      6.7700     95.3056     20.8420
  2325.1000      7.8738      2.4721      0.0909     10.7839     88.4759     20.9794
  2325.2000      7.8738      2.3896     -0.0076     15.7826     83.5293     21.2063
  2325.3000      7.9177      2.3219      0.0238     19.8827     83.9267     22.2111
  2325.4000      7.9177      2.2456     -0.0064     24.5091     87.9357     23.7058
  2325.5000      7.9225      2.1126      0.0229     32.5687     90.8498     24.6302
  2325.6000      7.9225      1.9310     -0.0639     43.5772     92.5867     24.9731
  2325.7000      7.9225      1.7764     -0.0205     52.9484     95.3160     25.7054
  2325.8000      7.9200      1.7093     -0.0254     57.0115    100.2840     27.2677
  2325.9000      7.9200      1.7319     -0.0098     55.6451    107.5300     28.8444
  2326.0000      7.8343      1.8225      0.0720     50.1505    116.6938     29.7560
  2326.1000      7.8343      1.9535      0.1538     42.2142    125.3595     29.8435
  2326.2000      7.8343      2.0786      0.2718     34.6279    131.4131     29.0225
  2326.3000      7.8995      2.1546      0.2342     30.0270    135.1052     28.1289
  2326.4000      7.8995      2.1857      0.1451     28.1390    135.7234     28.0981
  2326.5000      8.1546      2.2206      0.0884     26.0256    137.0997     28.2209
  2326.6000      8.1546      2.3017      0.0445     21.1095    142.8057     27.9397
  2326.7000      8.1546      2.4182      0.0852     14.0471    143.5948     27.8284
  2326.8000      8.4323      2.5191      0.0385      7.9312    134.3330     27.0784
  2326.9000      8.4323      2.5736      0.0786      4.6332    127.3527     24.6260
  2327.0000      8.2179      2.5794      0.0996      4.2764    130.7931     21.6806
  2327.1000      8.2179      2.5534      0.0310      5.8523    138.7512     19.6798
  2327.2000      8.2179      2.5281      0.0544      7.3860    146.2394     18.6694
  2327.3000      8.0090      2.5197      0.0266      7.8977    153.1934     17.7720
  2327.4000      8.0090      2.5166      0.0450      8.0822    155.3090     16.5786
  2327.5000      7.9733      2.5027      0.0381      8.9256    149.2635     15.4507
  2327.6000      7.9733      2.4862     -0.0378      9.9293    142.4315     14.9591
  2327.7000      7.9733      2.4930      0.0124      9.5169    141.0314     15.3152
  2327.8000      7.9743      2.5208      0.0603      7.8276    143.9565     15.9830
  2327.9000      7.9743      2.5409      0.0615      6.6147    144.5010     16.3424
