~Version Information
VERS.                      2.0: CWLS Log ASCII Standard - VERSION 2.0
WRAP.                       NO: One line per depth step
~Well Information Block
STRT.FT               770.0000: 
STOP.FT              2171.0000: 
STEP.FT                 0.1000: 
NULL.                -999.2500: 
COMP.          Pioneer Natural Resources: COMPANY
WELL.              Kermit 32-7: WELL
FLD.           Purgatoire River: FIELD
LOC.           2002' FNL & 2103' FEL: LOCATION
PROV.                 Colorado: PROVINCE
CNTY.               Las Animas: COUNTRY
SRVC.                Patterson: SERVICE COMPANY
DATE.          Thu Jan 12 03:02:28 2006: LOG DATE
UWI.           05 071 08647 00: UNIQUE WELL ID
~Curve Information Block
DEPT.FT            0 000 00 00: Depth
DCAL.in                       : CDL Caliper
RHOB.g/cc                     : CDL Bulk Density
RHOC.g/cc                     : CDL Density Correction
DPOR.pu                       : CDL Density Porosity
GR.GAPI                       : Gamma Ray
NPOR.pu                       : Neutron Porosity
~Parameter Information Block
~A  Depth       DCAL        RHOB        RHOC        DPOR         GR         NPOR    
# ...
   866.0000      7.9410      2.7352      0.1739     -5.1618     93.6336     24.4690
   866.1000      7.9410      2.6742      0.1088     -1.4661    101.6885     24.4241
   866.2000      7.9410      2.6186      0.0759      1.9051    109.3456     24.2131
   866.3000      7.9331      2.5786      0.0135      4.3253    110.4047     24.0646
   866.4000      7.9331      2.5586     -0.0124      5.5394    109.0747     24.4550
   866.5000      7.9606      2.5515      0.0398      5.9704    112.6973     25.0490
   866.6000      7.9606      2.5516      0.0830      5.9620    119.7185     25.2850
   866.7000      7.9606      2.5726      0.0450      4.6897    121.3607     25.2651
   866.8000      8.0254      2.6137      0.1587      2.2023    116.3846     25.3924
   866.9000      8.0254      2.6350      0.1893      0.9093    112.6906     25.7549
   867.0000      8.0158      2.6131      0.1635      2.2392    114.5061     26.1521
   867.1000      8.0158      2.5749      0.1010      4.5540    117.1297     26.3145
   867.2000      8.0158      2.5608      0.1146      5.4087    116.8214     26.1782
   867.3000      7.9803      2.5771      0.2101      4.4174    117.0548     25.9086
   867.4000      7.9803      2.6024      0.1778      2.8830    119.5859     25.6613
   867.5000      7.9304      2.6232      0.1745      1.6253    123.9206     25.5103
   867.6000      7.9304      2.6422      0.1477      0.4704    128.8609     25.4202
   867.7000      7.9304      2.6569      0.2480     -0.4162    130.9889     25.3586
   867.8000      7.9452      2.6474      0.1829      0.1565    128.3158     25.4631
   867.9000      7.9452      2.6083      0.1278      2.5262    121.2958     25.7827
   868.0000      7.9736      2.5661      0.0611      5.0850    113.0614     26.0915
   868.1000      7.9736      2.5515      0.0789      5.9727    108.2475     26.1593
   868.2000      7.9736      2.5613      0.1112      5.3787    108.7292     26.0298
   868.3000      7.9687      2.5731      0.1117      4.6613    110.5225     25.7096
   868.4000      7.9687      2.5838      0.0785      4.0133    113.3110     25.2243
   868.5000      7.9756      2.6091      0.0834      2.4807    119.8253     24.8234
   868.6000      7.9756      2.6445      0.1601      0.3351    123.4033     24.7406
   868.7000      7.9756      2.6582      0.1715     -0.4941    117.3428     25.0356
   868.8000      7.9569      2.6385      0.1491      0.6981    108.1149     25.5712
   868.9000      7.9569      2.6086      0.0948      2.5091    105.4852     25.9942
   869.0000      7.9858      2.5937      0.0672      3.4151    110.4882     26.0530
   869.1000      7.9858      2.5929      0.1199      3.4603    119.6205     25.7618
   869.2000      7.9858      2.5936      0.1061      3.4169    126.7391     25.5323
   869.3000      8.0020      2.5926      0.0584      3.4801    127.8211     25.8066
   869.4000      8.0020      2.5884      0.0860      3.7312    126.6636     26.1877
   869.5000      8.0039      2.5809      0.0333      4.1865    126.0288     26.1037
   869.6000      8.0039      2.5791      0.0023      4.2997    124.9556     25.7887
   869.7000      8.0039      2.5863      0.0622      3.8598    123.8511     25.7709
   869.8000      8.0030      2.5930      0.0392      3.4575    122.8289     26.0483
   869.9000      8.0030      2.5899      0.0300      3.6430    122.3380     26.0847
   870.0000      8.0539      2.5747      0.0335      4.5639    125.8347     25.8953
   870.1000      8.0539      2.5559      0.0125      5.7027    134.2390     26.0309
   870.2000      8.0539      2.5475      0.0244      6.2130    142.9059     26.5031
   870.3000      8.0640      2.5467      0.0937      6.2604    147.3440     26.9248
   870.4000      8.0640      2.5422      0.0473      6.5319    146.2587     27.2025
   870.5000      8.0362      2.5360      0.0666      6.9077    140.8342     27.5011
   870.6000      8.0362      2.5329      0.0363      7.0957    134.7615     27.7139
   870.7000      8.0362      2.5298      0.0788      7.2836    132.5121     27.6044
   870.8000      8.0496      2.5208      0.0899      7.8288    132.0206     27.2036
   870.9000      8.0496      2.5138      0.0285      8.2573    127.6819     26.9259
   871.0000      8.0361      2.5238      0.0705      7.6491    123.0986     27.1870
   871.1000      8.0361      2.5513      0.0787      5.9844    122.9664     27.7541
   871.2000      8.0361      2.5873      0.1133      3.7980    124.2329     28.0832
   871.3000      7.9926      2.6272      0.1081      1.3834    127.6609     28.0718
   871.4000      7.9926      2.6674      0.1633     -1.0570    132.7609     28.0751
   871.5000      8.0004      2.7008      0.1359     -3.0810    132.6354     28.3518
   871.6000      8.0004      2.7195      0.1855     -4.2100    127.8454     28.5928
   871.7000      8.0004      2.7161      0.2007     -4.0070    129.3944     28.5400
   871.8000      8.0091      2.6967      0.0981     -2.8319    140.8018     28.4346
   871.9000      8.0091      2.6756      0.1061     -1.5542    150.6351     28.4057
   872.0000      7.9838      2.6572      0.0740     -0.4393    149.8786     28.1306
   872.1000      7.9838      2.6382      0.1114      0.7149    144.0098     27.2492
   872.2000      7.9838      2.6122      0.1470      2.2896    140.0609     26.0576
   872.3000      7.9841      2.5792      0.1625      4.2885    137.6683     25.3510
   872.4000      7.9841      2.5515      0.1076      5.9671    132.5949     25.1650
   872.5000      7.9990      2.5292      0.1452      7.3230    124.6587     24.7943
   872.6000      7.9990      2.4918      0.1325      9.5868    122.4624     23.9966
   872.7000      7.9990      2.4382      0.0818     12.8357    129.0131     23.0541
   872.8000      8.0173      2.3919      0.0740     15.6422    135.2340     22.1860
   872.9000      8.0173      2.3632      0.0860     17.3834    133.4425     21.6297
   873.0000      8.0239      2.3553      0.0873     17.8613    127.6866     21.5285
   873.1000      8.0239      2.3786      0.0771     16.4484    128.2687     21.5898
   873.2000      8.0239      2.4244      0.2242     13.6705    137.8942     21.3159
   873.3000      8.0448      2.4671      0.2493     11.0828    144.9945     20.8113
   873.4000      8.0448      2.4902      0.2785      9.6842    141.1942     20.6971
   873.5000      8.0839      2.4790      0.3290     10.3641    136.6789     21.1699
   873.6000      8.0839      2.4257      0.3005     13.5969    140.1729     21.9136
   873.7000      8.0839      2.3485      0.2656     18.2742    147.3297     22.6800
   873.8000      8.1125      2.2762      0.2395     22.6522    151.0024     23.5560
   873.9000      8.1125      2.2166      0.1946     26.2657    149.8330     24.4702
   874.0000      8.1394      2.1700      0.1009     29.0916    149.6685     25.2598
   874.1000      8.1394      2.1533      0.1203     30.1046    150.5417     26.1552
   874.2000      8.1394      2.1801      0.0940     28.4804    147.3515     27.2556
   874.3000      8.1871      2.2383      0.1537     24.9492    141.5230     28.1796
   874.4000      8.1871      2.3049      0.1682     20.9151    136.6780     28.5238
   874.5000      8.2951      2.3822      0.2292     16.2279    136.9810     28.1725
   874.6000      8.2951      2.4791      0.2837     10.3555    142.3198     27.6307
   874.7000      8.2951      2.5642      0.3166      5.1975    142.5766     27.5775
   874.8000      8.0860      2.5955      0.2350      3.3005    133.9918     27.7905
   874.9000      8.0860      2.5864      0.1346      3.8545    123.3949     27.6305
   875.0000      8.1012      2.5842      0.1208      3.9878    116.4359     27.2746
   875.1000      8.1012      2.6027      0.1561      2.8656    115.1771     27.3803
   875.2000      8.1012      2.6199      0.1558      1.8220    119.0321     27.7698
   875.3000      8.0001      2.6142      0.1940      2.1711    125.0263     27.8058
   875.4000      8.0001      2.5835      0.1609      4.0313    128.9938     27.5416
   875.5000      7.9919      2.5439      0.1044      6.4278    129.3161     27.3048
