~Version Information
VERS.                      2.0: CWLS Log ASCII Standard - VERSION 2.0
WRAP.                       NO: One line per depth step
~Well Information Block
STRT.FT               505.0000: 
STOP.FT               770.5000: 
STEP.FT                 0.1000: 
NULL.                -999.2500: 
COMP.          Pioneer Natural Resources: COMPANY
WELL.                Zed 11-23: WELL
FLD.           Purgatoire River: FIELD
LOC.           641' FNL & 952' FWL: LOCATION
CNTY.               Las Animas: COUNTY
SRVC.                Patterson: SERVICE COMPANY
DATE.          Mon Feb 27 07:12:43 2006: LOG DATE
UWI.           05 071 08702 00: UNIQUE WELL ID
STAT.                 Colorado: STATE
~Curve Information Block
DEPT.FT            0 000 00 00: Depth
DCAL.in                       : CDL Caliper
RHOB.g/cc                     : CDL Bulk Density
RHOC.g/cc                     : CDL Density Correction
DPOR.pu                       : CDL Density Porosity
GR.GAPI                       : Gamma Ray
NPOR.pu                       : Neutron Porosity
~Parameter Information Block
~A  Depth       DCAL        RHOB        RHOC        DPOR         GR         NPOR    
# ...
   620.2000      7.9652      1.9678     -0.0995     41.3434    189.8977     24.0636
   620.3000      7.9458      1.9018     -0.0962     45.3481    181.7401     24.9611
   620.4000      7.9458      1.8627     -0.0817     47.7145    173.2072     26.2974
   620.5000      7.9388      1.8619     -0.1130     47.7638    163.4903     27.5468
   620.6000      7.9388      1.9127     -0.0105     44.6854    144.0229     28.1477
   620.7000      7.9388      2.0031      0.1620     39.2076    117.3937     28.3361
   620.8000      7.9398      2.1028      0.2224     33.1655     97.6987     28.8030
   620.9000      7.9398      2.1951      0.2162     27.5726     89.7838     29.5695
   621.0000      7.9425      2.2730      0.2099     22.8471     88.8422     29.7513
   621.1000      7.9425      2.3263      0.1709     19.6209     92.8490     29.1749
   621.2000      7.9425      2.3587      0.0801     17.6538    100.0052     28.2048
   621.3000      7.9705      2.3981      0.0209     15.2655    105.1297     27.2083
   621.4000      7.9705      2.4528      0.0768     11.9518    105.9451     26.6918
   621.5000      7.9437      2.4932      0.0889      9.5018    104.5964     26.4434
   621.6000      7.9437      2.5086      0.0295      8.5689    104.3506     25.8135
   621.7000      7.9437      2.5227      0.0638      7.7142    107.3683     24.9087
   621.8000      7.9338      2.5448      0.0669      6.3764    113.8118     24.3012
   621.9000      7.9338      2.5595      0.1037      5.4862    118.6410     24.2603
   622.0000      7.9322      2.5557      0.0377      5.7131    118.9261     24.6153
   622.1000      7.9322      2.5381      0.0202      6.7796    119.5409     24.9273
   622.2000      7.9322      2.5172      0.0156      8.0476    121.4012     24.7551
   622.3000      7.9305      2.5073      0.0246      8.6480    124.0596     24.2366
   622.4000      7.9305      2.5137      0.0350      8.2619    130.6528     24.1362
   622.5000      7.9324      2.5182      0.0784      7.9886    136.8079     24.6041
   622.6000      7.9324      2.5096      0.0064      8.5087    137.5629     24.9590
   622.7000      7.9324      2.5014      0.0665      9.0081    134.3885     24.6648
   622.8000      7.9340      2.4977      0.0245      9.2280    126.0190     24.1145
   622.9000      7.9340      2.4932      0.0033      9.5023    112.6895     24.0996
   623.0000      7.9339      2.4893      0.0567      9.7413     99.2155     24.4389
   623.1000      7.9339      2.4838      0.0016     10.0737     90.8215     24.4746
   623.2000      7.9339      2.4742     -0.0005     10.6551     92.1537     24.1830
   623.3000      7.9358      2.4668      0.0135     11.1044    100.4239     24.2710
   623.4000      7.9358      2.4740     -0.0151     10.6691    105.1057     25.1110
   623.5000      7.9406      2.4971      0.0422      9.2655    101.4367     25.8409
   623.6000      7.9406      2.5225      0.0716      7.7284     97.9793     25.5650
   623.7000      7.9406      2.5453      0.0254      6.3480    104.1463     25.0254
   623.8000      7.9456      2.5656      0.0579      5.1146    115.1386     25.1690
   623.9000      7.9456      2.5778      0.0714      4.3776    120.4991     25.3369
   624.0000      7.9623      2.5804      0.0827      4.2185    122.1959     25.0148
   624.1000      7.9623      2.5726      0.0967      4.6936    129.9028     24.6017
   624.2000      7.9623      2.5522      0.0314      5.9251    147.0089     24.6465
   624.3000      7.9452      2.5300      0.0155      7.2733    165.6518     25.3923
   624.4000      7.9452      2.5193      0.0042      7.9208    176.7223     26.1413
   624.5000      7.9448      2.5163      0.0044      8.1051    176.6048     25.5922
   624.6000      7.9448      2.5065     -0.0070      8.6984    165.5948     24.1401
   624.7000      7.9448      2.4855      0.0130      9.9697    153.3123     23.4781
   624.8000      7.9442      2.4636     -0.0151     11.2980    147.7775     23.7993
   624.9000      7.9442      2.4565     -0.0259     11.7263    142.7102     24.0338
   625.0000      7.9387      2.4673      0.0289     11.0723    133.0553     24.0308
   625.1000      7.9387      2.4853      0.0385      9.9814    122.0420     24.1860
   625.2000      7.9387      2.4996      0.0213      9.1175    112.9905     24.1659
   625.3000      7.9449      2.4949      0.0754      9.4007    106.2875     24.3007
   625.4000      7.9449      2.4658     -0.0120     11.1641    100.7303     24.9368
   625.5000      7.9393      2.4367     -0.0313     12.9285     95.6599     25.3349
   625.6000      7.9393      2.4345     -0.0350     13.0578     88.8667     25.1772
   625.7000      7.9393      2.4588     -0.0105     11.5884     80.8617     24.9026
   625.8000      7.9421      2.4896      0.0387      9.7206     74.9402     24.6049
   625.9000      7.9421      2.5140      0.0488      8.2437     69.6087     23.7950
   626.0000      7.9450      2.5279      0.0805      7.3982     62.4761     22.7212
   626.1000      7.9450      2.5296      0.0628      7.2972     57.2818     22.3897
   626.2000      7.9450      2.5259      0.0342      7.5185     58.3609     22.8402
   626.3000      7.9438      2.5276      0.0181      7.4191     63.8327     23.6772
   626.4000      7.9438      2.5348      0.0186      6.9829     70.4726     24.4948
   626.5000      7.9494      2.5346      0.0566      6.9915     76.7286     24.5043
   626.6000      7.9494      2.5201      0.0286      7.8714     78.7741     23.5095
   626.7000      7.9494      2.5051      0.0230      8.7790     74.8473     22.4978
   626.8000      7.9520      2.5022      0.0369      8.9565     70.7658     22.2099
   626.9000      7.9520      2.5038      0.0398      8.8627     70.9854     22.4028
   627.0000      7.9561      2.5015      0.0230      9.0003     73.8398     22.8950
   627.1000      7.9561      2.5003      0.0585      9.0750     76.8259     23.6942
   627.2000      7.9561      2.4989      0.0175      9.1582     78.6597     24.3444
   627.3000      7.9348      2.4871      0.0328      9.8720     77.7429     24.2296
   627.4000      7.9348      2.4720     -0.0225     10.7883     73.8036     23.4737
   627.5000      7.9433      2.4729     -0.0014     10.7356     69.5177     22.9267
   627.6000      7.9433      2.4857      0.0231      9.9553     70.0964     23.4552
   627.7000      7.9433      2.4930      0.0314      9.5173     77.0500     24.9678
   627.8000      7.9459      2.4962      0.0215      9.3189     83.6528     25.9759
   627.9000      7.9459      2.5044      0.0637      8.8224     85.4527     25.2378
   628.0000      7.9401      2.5116      0.0755      8.3889     83.9932     23.6515
   628.1000      7.9401      2.5097      0.0205      8.5020     80.4670     22.3614
   628.2000      7.9401      2.5042      0.0111      8.8362     76.3963     21.2220
   628.3000      7.9409      2.5056      0.0019      8.7518     74.3858     20.4797
   628.4000      7.9409      2.5174      0.0267      8.0335     75.7116     20.8311
   628.5000      7.9426      2.5282      0.0848      7.3805     79.4365     21.9831
   628.6000      7.9426      2.5209      0.0545      7.8246     84.1531     23.1241
   628.7000      7.9426      2.5008      0.0065      9.0450     89.0254     23.7962
   628.8000      7.9446      2.4836      0.0355     10.0878     89.9914     23.7363
   628.9000      7.9446      2.4735     -0.0299     10.6958     84.9325     23.1358
   629.0000      7.9553      2.4746     -0.0449     10.6298     79.8758     22.6519
   629.1000      7.9553      2.4836      0.0239     10.0874     77.2044     22.6146
   629.2000      7.9553      2.4868      0.0132      9.8907     72.6195     22.6290
   629.3000      7.9616      2.4828      0.0075     10.1312     66.1041     22.5888
   629.4000      7.9616      2.4816      0.0418     10.2063     64.3290     22.9642
   629.5000      7.9629      2.4925      0.0064      9.5430     70.7678     23.6642
   629.6000      7.9629      2.5145      0.0531      8.2130     77.9125     24.0827
   629.7000      7.9629      2.5277      0.0534      7.4152     77.5642     23.8342
