~Version Information
VERS.                      2.0: CWLS Log ASCII Standard - VERSION 2.0
WRAP.                       NO: One line per depth step
~Well Information Block
STRT.FT               860.0000: 
STOP.FT              2362.5000: 
STEP.FT                 0.2500: 
NULL.                -999.2500: 
COMP.          Pioneer Natural Resources: COMPANY
WELL.            Cayenne 23-23: WELL
FLD.           Purgatoire River: FIELD
LOC.           2555' FSL & 2386' FWL: LOCATION
PROV.                 Colorado: PROVINCE
CNTY.               Las Animas: COUNTRY
SRVC.                Patterson: SERVICE COMPANY
DATE.          Wed Aug 17 06:47:40 2005: LOG DATE
UWI.           05 071 08476 00: UNIQUE WELL ID
~Curve Information Block
DEPT.FT            0 000 00 00: Depth
SN.Ohm-m                      : IEL Short Normal
SP.mV                         : IEL Spontaneous Potential
DIR.Ohm-m                     : IEL Induction Resistivity
GR.GAPI                       : Gamma Ray
~Parameter Information Block
~A  Depth        SN          SP         DIR          GR     
# ...
  2032.5000     14.0712    152.1790     14.1838     94.5914
  2032.7500     14.2322    151.8226     14.3809     92.4904
  2033.0000     14.5465    151.3126     14.6444     91.2061
  2033.2500     15.0288    150.7107     14.9896     91.1663
  2033.5000     15.5968    150.0957     15.4144     91.6000
  2033.7500     16.1972    149.5353     15.9004     91.8326
  2034.0000     16.8485    149.0619     16.4222     91.2553
  2034.2500     17.5563    148.6635     16.9592     89.7933
  2034.5000     18.3338    148.2924     17.5012     86.0653
  2034.7500     19.2529    147.8912     18.0465     83.2409
  2035.0000     20.3454    147.4243     18.5986     79.6857
  2035.2500     21.5329    146.8920     19.1633     77.7060
  2035.5000     22.6887    146.3208     19.7449     73.8604
  2035.7500     23.7073    145.7420     20.3359     69.8737
  2036.0000     24.5217    145.1803     20.9082     61.8373
  2036.2500     25.0985    144.6523     21.4157     56.0833
  2036.5000     25.4556    144.1706     21.8101     48.9038
  2036.7500     25.6446    143.7487     22.0635     45.8656
  2037.0000     25.6861    143.4014     22.1809     44.2902
  2037.2500     25.5697    143.1443     22.1918     44.9871
  2037.5000     25.3073    142.9856     22.1251     47.5829
  2037.7500     24.9701    142.9145     21.9872     49.4429
  2038.0000     24.6329    142.8928     21.7654     50.9956
  2038.2500     24.2484    142.8665     21.4529     50.8189
  2038.5000     23.6939    142.7939     21.0690     49.1454
  2038.7500     22.9684    142.6653     20.6513     47.7864
  2039.0000     22.2019    142.4937     20.2308     46.5486
  2039.2500     21.5129    142.2911     19.8174     46.5695
  2039.5000     20.9538    142.0569     19.4061     47.8143
  2039.7500     20.5005    141.7869     18.9904     49.3453
  2040.0000     20.0635    141.4835     18.5698     52.5367
  2040.2500     19.6036    141.1569     18.1495     55.0715
  2040.5000     19.1757    140.8192     17.7390     58.9870
  2040.7500     18.7779    140.4860     17.3507     61.4269
  2041.0000     18.2809    140.1818     16.9975     64.5529
  2041.2500     17.5839    139.9352     16.6863     66.0635
  2041.5000     16.7586    139.7607     16.4141     67.0203
  2041.7500     16.0014    139.6453     16.1706     66.7775
  2042.0000     15.4337    139.5539     15.9469     65.8868
  2042.2500     15.0301    139.4454     15.7424     65.6199
  2042.5000     14.7654    139.2858     15.5654     66.3751
  2042.7500     14.6317    139.0605     15.4263     67.5517
  2043.0000     14.5476    138.7873     15.3282     69.6492
  2043.2500     14.4462    138.5158     15.2619     70.8571
  2043.5000     14.3634    138.2996     15.2082     71.9584
  2043.7500     14.3342    138.1628     15.1499     72.1131
  2044.0000     14.3009    138.0900     15.0884     71.3835
  2044.2500     14.2019    138.0457     15.0496     70.2499
  2044.5000     14.0826    138.0060     15.0720     67.7931
  2044.7500     14.0393    137.9764     15.1818     65.9577
  2045.0000     14.0937    137.9811     15.3710     63.5182
  2045.2500     14.1683    138.0346     15.5957     62.2464
  2045.5000     14.1782    138.1279     15.7948     60.6165
  2045.7500     14.1056    138.2418     15.9181     59.5190
  2046.0000     13.9643    138.3656     15.9428     58.0116
  2046.2500     13.7686    138.4968     15.8724     57.4775
  2046.5000     13.5662    138.6257     15.7255     57.9674
  2046.7500     13.3778    138.7293     15.5261     59.1452
  2047.0000     13.0912    138.7828     15.2985     61.4217
  2047.2500     12.5749    138.7783     15.0621     62.6237
  2047.5000     11.8890    138.7374     14.8269     63.2409
  2047.7500     11.2466    138.7084     14.5900     62.9794
  2048.0000     10.7757    138.7508     14.3370     62.5414
  2048.2500     10.4065    138.9109     14.0494     62.8343
  2048.5000     10.0237    139.2012     13.7131     64.4462
  2048.7500      9.6652    139.5933     13.3208     65.8325
  2049.0000      9.4582    140.0294     12.8701     67.1211
  2049.2500      9.3754    140.4473     12.3645     67.1586
  2049.5000      9.2333    140.8052     11.8195     66.8323
  2049.7500      8.9519    141.0933     11.2673     67.2115
  2050.0000      8.6373    141.3265     10.7507     69.4888
  2050.2500      8.4160    141.5259     10.3063     72.0506
  2050.5000      8.2984    141.7032      9.9512     76.9778
  2050.7500      8.1943    141.8565      9.6788     80.9019
  2051.0000      8.0411    141.9784      9.4656     88.0308
  2051.2500      7.8743    142.0721      9.2838     93.8160
  2051.5000      7.7500    142.1670      9.1132    103.9396
  2051.7500      7.6655    142.3240      8.9472    111.1475
  2052.0000      7.5677    142.6191      8.7904    121.1568
  2052.2500      7.4204    143.1067      8.6521    126.3792
  2052.5000      7.2702    143.7724      8.5413    131.0683
  2052.7500      7.2023    144.5112      8.4644    132.1172
  2053.0000      7.2366    145.1604      8.4250    131.4590
  2053.2500      7.3440    145.5806      8.4239    130.1635
  2053.5000      7.5204    145.7207      8.4583    127.6080
  2053.7500      7.7498    145.6205      8.5220    125.6184
  2054.0000      7.9703    145.3640      8.6080    122.3361
  2054.2500      8.1390    145.0347      8.7116    120.2559
  2054.5000      8.2773    144.6979      8.8333    118.3305
  2054.7500      8.4560    144.3995      8.9790    118.3061
  2055.0000      8.7307    144.1660      9.1579    119.6639
  2055.2500      9.0727    143.9978      9.3786    120.4543
  2055.5000      9.4089    143.8669      9.6452    119.5380
  2055.7500      9.7282    143.7272      9.9540    117.0309
  2056.0000     10.1009    143.5382     10.2937    111.2782
  2056.2500     10.5600    143.2847     10.6479    107.4137
  2056.5000     11.0508    142.9803     11.0006    103.8142
  2056.7500     11.5415    142.6558     11.3408    103.3149
  2057.0000     12.0594    142.3443     11.6626    104.2331
  2057.2500     12.5897    142.0721     11.9633    104.8538
  2057.5000     13.0354    141.8535     12.2399    104.8372
  2057.7500     13.3215    141.6864     12.4896    104.3497
  2058.0000     13.4904    141.5508     12.7133    103.5967
  2058.2500     13.6393    141.4158     12.9198    103.4748
  2058.5000     13.8122    141.2514     13.1239    104.4792
  2058.7500     14.0099    141.0385     13.3397    106.0873
  2059.0000     14.2346    140.7741     13.5733    109.3272
  2059.2500     14.4636    140.4762     13.8205    111.3098
  2059.5000     14.6427    140.1815     14.0711    112.6728
  2059.7500     14.7507    139.9251     14.3159    111.9373
  2060.0000     14.8417    139.7092     14.5519    108.4512
  2060.2500     14.9838    139.4896     14.7837    105.5119
  2060.5000     15.1577    139.2012     15.0205    102.5387
  2060.7500     15.3041    138.8020     15.2723    102.0894
  2061.0000     15.4552    138.2919     15.5455    102.2904
  2061.2500     15.7049    137.6923     15.8425    101.6107
  2061.5000     16.0853    137.0173     16.1605     98.2874
  2061.7500     16.5546    136.2702     16.4896     94.9161
  2062.0000     17.0918    135.4582     16.8089     89.3156
  2062.2500     17.7178    134.6026     17.0902     85.7569
  2062.5000     18.3924    133.7336     17.3108     81.5350
  2062.7500     18.9900    132.8780     17.4690     79.9506
  2063.0000     19.4248    132.0521     17.5865     79.5721
  2063.2500     19.7180    131.2592     17.6969     80.0873
  2063.5000     19.9077    130.4932     17.8288     80.4947
  2063.7500     19.9748    129.7453     17.9924     79.9659
  2064.0000     19.9149    129.0087     18.1768     78.2665
  2064.2500     19.8124    128.2765     18.3551     77.1966
  2064.5000     19.7555    127.5360     18.4970     76.6272
  2064.7500     19.7354    126.7743     18.5799     77.0117
  2065.0000     19.6975    125.9927     18.5966     78.2291
  2065.2500     19.6052    125.2135     18.5566     79.0909
  2065.5000     19.4518    124.4675     18.4846     79.9507
  2065.7500     19.2768    123.7710     18.4106     80.0507
