~Version Information
VERS.                      2.0: CWLS Log ASCII Standard - VERSION 2.0
WRAP.                       NO: One line per depth step
~Well Information Block
STRT.FT               795.0000: 
STOP.FT              2279.7500: 
STEP.FT                 0.2500: 
NULL.                -999.2500: 
COMP.          Pioneer Natural Resources: COMPANY
WELL.            Wildcard 31-5: WELL
FLD.           Purgatoire River: FIELD
LOC.           624' FNL & 1852' FEL--: LOCATION
CNTY.               Las Animas: COUNTY
SRVC.                Patterson: SERVICE COMPANY
DATE.          Tue Mar 07 07:02:36 2006: LOG DATE
UWI.           05 071 08707 00: UNIQUE WELL ID
STAT.                 Colorado: STATE
~Curve Information Block
DEPT.FT            0 000 00 00: Depth
DIR.Ohm-m                     : IEL Induction Resistivity
SN.Ohm-m                      : IEL Short Normal
SP.mV                         : IEL Spontaneous Potential
GR.GAPI                       : Gamma Ray
~Parameter Information Block
~A  Depth       DIR          SN          SP          GR     
   795.0000 100000.0000   2000.0000   1968.0000    115.3149
   795.2500 100000.0000   2000.0000   1968.0000    110.3062
   795.5000 100000.0000   2000.0000   1968.0000    103.4205
   795.7500 100000.0000   2000.0000   1968.0000     99.0862
   796.0000 100000.0000   2000.0000   1968.0000     92.6262
   796.2500 100000.0000   2000.0000   1968.0000     88.6202
   796.5000 100000.0000   2000.0000   1968.0000     84.0736
   796.7500 100000.0000   2000.0000   1968.0000     82.3825
   797.0000 100000.0000   2000.0000   1968.0000     81.8052
   797.2500 100000.0000   2000.0000   1968.0000     82.5653
   797.5000 100000.0000   2000.0000   1968.0000     56.7275
   797.7500 100000.0000   2000.0000   1968.0000     58.2589
   798.0000 100000.0000   2000.0000   1968.0000     60.9050
   798.2500 100000.0000   2000.0000   1968.0000     63.0147
   798.5000 100000.0000   2000.0000   1968.0000     67.1255
   798.7500 100000.0000   2000.0000   1968.0000     70.4278
   799.0000 100000.0000   2000.0000   1968.0000     75.1629
   799.2500 100000.0000   2000.0000   1968.0000     77.4503
   799.5000 100000.0000   2000.0000   1968.0000     79.3651
   799.7500 100000.0000   2000.0000   1968.0000     80.1190
   800.0000 100000.0000   2000.0000   1968.0000     81.0515
   800.2500 100000.0000   2000.0000   1968.0000     81.2470
   800.5000 100000.0000   2000.0000   1968.0000     79.9986
   800.7500 100000.0000   2000.0000   1968.0000     78.0499
   801.0000 100000.0000   2000.0000   1968.0000     74.2421
   801.2500 100000.0000   2000.0000   1968.0000     71.6936
   801.5000 100000.0000   2000.0000   1968.0000     68.3028
   801.7500 100000.0000   2000.0000   1968.0000     66.1815
   802.0000 100000.0000   2000.0000   1968.0000     62.6169
   802.2500 100000.0000   2000.0000   1968.0000     59.7932
   802.5000 100000.0000   2000.0000   1968.0000     55.2556
   802.7500 100000.0000   2000.0000   1968.0000     52.5469
   803.0000 100000.0000   2000.0000   1968.0000     49.8073
   803.2500 100000.0000   2000.0000   1968.0000     49.2135
   803.5000 100000.0000   2000.0000   1968.0000     50.8028
   803.7500 100000.0000   2000.0000   1968.0000     53.9973
   804.0000 100000.0000   2000.0000   1968.0000     62.5613
   804.2500 100000.0000   2000.0000   1968.0000     70.5728
   804.5000 100000.0000   2000.0000   1968.0000     84.5540
   804.7500 100000.0000   2000.0000   1968.0000     93.9824
   805.0000 100000.0000   2000.0000   1968.0000    106.5555
   805.2500 100000.0000   2000.0000   1968.0000    113.3831
   805.5000      8.1910   2000.0000   1968.0000    121.3657
   805.7500      4.2661   2000.0000   1968.0000    125.6002
   806.0000      3.7925   2000.0000   1968.0000    131.0688
   806.2500      4.6085   2000.0000   1968.0000    134.2307
   806.5000      7.6692   2000.0000   1968.0000    137.7584
   806.7500     22.9519   2000.0000   1968.0000    139.0108
   807.0000 100000.0000   2000.0000   1968.0000    139.5547
   807.2500 100000.0000   2000.0000   1968.0000    139.6261
   807.5000 100000.0000   2000.0000   1968.0000    139.9737
   807.7500 100000.0000   2000.0000   1968.0000    140.1697
   808.0000     29.9956   2000.0000   1968.0000    139.6276
   808.2500     12.8345   2000.0000   1968.0000    138.6382
   808.5000      8.7829   2000.0000   1968.0000    136.9933
   808.7500      7.3273   2000.0000   1968.0000    136.2522
   809.0000      6.8334   2000.0000   1968.0000    135.7668
   809.2500      6.8003   2000.0000   1968.0000    135.7383
   809.5000      6.9976   2000.0000   1968.0000    136.1817
   809.7500      7.2759   2000.0000   1968.0000    136.7758
   810.0000      7.5239   2000.0000   1968.0000    137.4246
   810.2500      7.6772   2000.0000   1968.0000    137.1172
   810.5000      7.7358   2000.0000   1968.0000    135.3029
   810.7500      7.7644   2000.0000   1968.0000    133.7308
   811.0000      7.8605   2000.0000   1968.0000    132.1691
   811.2500      8.1146   2000.0000   1968.0000    132.0323
   811.5000      8.5739   2000.0000   1968.0000    132.7915
   811.7500      9.2051   2000.0000   1968.0000    133.4394
   812.0000      9.8607   2000.0000   1968.0000    133.9504
   812.2500     10.3116   2000.0000   1968.0000    133.8366
   812.5000     10.3972   2000.0000   1968.0000    133.2860
   812.7500     10.1605   2000.0000   1968.0000    133.1047
   813.0000      9.7907   2000.0000   1968.0000    133.6593
   813.2500      9.4721   2000.0000   1968.0000    134.3766
   813.5000      9.3140   2000.0000   1968.0000    134.7979
   813.7500      9.3603   2000.0000   1968.0000    134.0438
   814.0000      9.6122   2000.0000   1968.0000    131.4713
   814.2500     10.0386   2000.0000   1968.0000    129.4137
   814.5000     10.5802   2000.0000   1968.0000    126.7068
   814.7500     11.1582   2000.0000   1968.0000    125.1818
   815.0000     11.6919   2000.0000   1968.0000    122.7382
   815.2500     12.1150   2000.0000   1968.0000    120.7410
   815.5000     12.3852   2000.0000   1968.0000    117.6202
   815.7500     12.4847   2000.0000   1968.0000    116.2274
   816.0000     12.4177   2000.0000   1968.0000    116.3271
   816.2500     12.2063   2000.0000   1968.0000    117.7998
   816.5000     11.8834   2000.0000   1968.0000    120.9075
   816.7500     11.4849   2000.0000   1968.0000    122.9357
   817.0000     11.0436   2000.0000   1968.0000    125.9643
   817.2500     10.5854   2000.0000   1968.0000    128.4717
   817.5000     10.1292   2000.0000   1968.0000    133.3155
   817.7500      9.6893   2000.0000   1968.0000    136.7415
   818.0000      9.2776   2000.0000   1968.0000    140.6120
   818.2500      8.9056   2000.0000   1968.0000    141.7871
   818.5000      8.5844   2000.0000   1968.0000    141.8673
   818.7500      8.3220   2000.0000   1968.0000    141.6387
   819.0000      8.1228   2000.0000   1968.0000    142.1931
   819.2500      7.9866   2000.0000   1968.0000    143.3878
   819.5000      7.9106   2000.0000   1968.0000    145.8584
   819.7500      7.8911   2000.0000   1968.0000    147.4280
   820.0000      7.9267   2000.0000   1968.0000    148.9216
   820.2500      8.0192   2000.0000   1968.0000    148.9972
   820.5000      8.1737   2000.0000   1968.0000    147.2716
   820.7500      8.3973   2000.0000   1968.0000    144.9570
   821.0000      8.6972   2000.0000   1968.0000    140.7298
   821.2500      9.0810   2000.0000   1968.0000    138.2319
   821.5000      9.5576   2000.0000   1968.0000    135.8792
   821.7500     10.1398   2000.0000   1968.0000    135.2470
   822.0000     10.8461   2000.0000   1968.0000    135.0274
   822.2500     11.6985   2000.0000   1968.0000    134.7300
   822.5000     12.7154   2000.0000   1968.0000    132.5956
   822.7500     13.8957   2000.0000   1968.0000    129.1057
   823.0000     15.1968   2000.0000   1968.0000    120.0357
   823.2500     16.5108   2000.0000   1968.0000    112.1140
   823.5000     17.6590   2000.0000   1968.0000    100.2714
   823.7500     18.4340   2000.0000   1968.0000     94.1763
   824.0000     18.6900   2000.0000   1968.0000     89.4826
   824.2500     18.4197   2000.0000   1968.0000     89.4579
   824.5000     17.7508   2000.0000   1968.0000     93.4742
   824.7500     16.8701   2000.0000   1968.0000     98.2978
   825.0000     15.9474   2000.0000   1968.0000    107.3691
   825.2500     15.1005   2000.0000   1968.0000    113.5572
   825.5000     14.3956   2000.0000   1968.0000    121.3021
   825.7500     13.8616   2000.0000   1968.0000    124.7978
   826.0000     13.5061   2000.0000   1968.0000    126.9524
   826.2500     13.3250   2000.0000   1968.0000    126.0993
   826.5000     13.3074   2000.0000   1968.0000    121.4290
   826.7500     13.4337   2000.0000   1968.0000    116.6326
   827.0000     13.6724   2000.0000   1968.0000    108.7698
   827.2500     13.9785   2000.0000   1968.0000    104.1862
   827.5000     14.2964   2000.0000   1968.0000     99.3292
   827.7500     14.5668   2000.0000   1968.0000     97.5604
   828.0000     14.7346   2000.0000   1968.0000     97.2728
   828.2500     14.7557   2000.0000   1968.0000     98.9067
