~Version Information
VERS.                      2.0: CWLS Log ASCII Standard - VERSION 2.0
WRAP.                       NO: One line per depth step
~Well Information Block
STRT.FT               240.0000: 
STOP.FT              1677.0000: 
STEP.FT                 0.1000: 
NULL.                -999.2500: 
COMP.          Pioneer Natural Resources: COMPANY
WELL.          Lorencito 8-1-34-67: WELL
FLD.           Purgatoire River: FIELD
LOC.           1567' FNL & 500' FEL: LOCATION
STAT.                 Colorado: State
CTRY. USA : Country 
CNTY.               Las Animas: COUNTY
SECT. 1 : Section 
TOWN. 34S : Township
RANG. 67W : Range
SRVC.                Patterson: SERVICE COMPANY
DATE.          Fri Aug 26 09:30:14 2005: LOG DATE
API.           05 071 08506 00: UNIQUE WELL ID
~Curve Information Block
DEPT.FT            0 000 00 00: Depth
DCAL.in                       : CDL Caliper
RHOB.g/cc                     : CDL Bulk Density
RHOC.g/cc                     : CDL Density Correction
DPOR.pu                       : CDL Density Porosity
GR.GAPI                       : Gamma Ray
NPOR.pu                       : Neutron Porosity
~Parameter Information Block
~A  Depth       DCAL        RHOB        RHOC        DPOR         GR         NPOR    
# ...
  1660.8000      7.9833      2.3825      0.0359     16.2112   -999.2500     16.1216
  1660.9000      7.9833      2.3775      0.0376     16.5180   -999.2500     16.4186
  1661.0000      7.9549      2.3684      0.0437     17.0644   -999.2500     17.1862
  1661.1000      7.9549      2.3579      0.0538     17.7018   -999.2500     18.0679
  1661.2000      7.9549      2.3514     -0.0010     18.0976   -999.2500     18.7289
  1661.3000      7.9632      2.3569      0.0409     17.7634   -999.2500     19.0150
  1661.4000      7.9632      2.3730      0.0798     16.7852   -999.2500     19.1063
  1661.5000      7.9638      2.3855      0.0815     16.0324   -999.2500     19.1024
  1661.6000      7.9638      2.3779      0.0601     16.4881   -999.2500     18.8153
  1661.7000      7.9638      2.3512      0.0249     18.1100   -999.2500     18.2849
  1661.8000      7.9649      2.3254     -0.0239     19.6715   -999.2500     18.0568
  1661.9000      7.9649      2.3212      0.0072     19.9273   -999.2500     18.6549
  1662.0000      7.9611      2.3405      0.0167     18.7566   -999.2500     20.0066
  1662.1000      7.9611      2.3656      0.0608     17.2378   -999.2500     22.8402
  1662.2000      7.9611      2.3760      0.0941     16.6081   -999.2500     29.8269
  1662.3000      7.9616      2.3706      0.0473     16.9339   -999.2500     40.2817
  1662.4000      7.9616      2.3644      0.0156     17.3082   -999.2500     47.7856
  1662.5000      7.9610      2.3610      0.0593     17.5153   -999.2500     50.4942
  1662.6000      7.9610      2.3521      0.0350     18.0546   -999.2500     51.0259
  1662.7000      7.9610      2.3461     -0.0096     18.4200   -999.2500     51.0824
  1662.8000      7.9502      2.3566      0.0392     17.7805   -999.2500     51.0856
  1662.9000      7.9502      2.3753      0.0683     16.6473   -999.2500   -999.2500
  1663.0000      7.9535      2.3909      0.0356     15.7036   -999.2500   -999.2500
  1663.1000      7.9535      2.4048      0.0220     14.8617   -999.2500   -999.2500
  1663.2000      7.9535      2.4111      0.0975     14.4798   -999.2500   -999.2500
  1663.3000      7.9485      2.4012      0.0692     15.0793   -999.2500   -999.2500
  1663.4000      7.9485      2.3830      0.0392     16.1827   -999.2500   -999.2500
  1663.5000      7.9424      2.3659      0.0380     17.2152   -999.2500   -999.2500
  1663.6000      7.9424      2.3575     -0.0026     17.7303   -999.2500   -999.2500
  1663.7000      7.9424      2.3662     -0.0047     17.1999   -999.2500   -999.2500
  1663.8000      7.9362      2.3839      0.0209     16.1251   -999.2500   -999.2500
  1663.9000      7.9362      2.3912      0.0430     15.6859   -999.2500   -999.2500
  1664.0000      7.9328      2.3847      0.0102     16.0771   -999.2500   -999.2500
  1664.1000      7.9328      2.3761      0.0136     16.5976   -999.2500   -999.2500
  1664.2000      7.9328      2.3786     -0.0093     16.4478   -999.2500   -999.2500
  1664.3000      7.9366      2.3961      0.0672     15.3896   -999.2500   -999.2500
  1664.4000      7.9366      2.4124      0.0599     14.3980   -999.2500   -999.2500
  1664.5000      7.9340      2.4103      0.0700     14.5274   -999.2500   -999.2500
  1664.6000      7.9340      2.3910      0.0307     15.6991   -999.2500   -999.2500
  1664.7000      7.9340      2.3739      0.0271     16.7316   -999.2500   -999.2500
  1664.8000      7.9350      2.3742      0.0081     16.7181   -999.2500   -999.2500
  1664.9000      7.9350      2.3846      0.0598     16.0855   -999.2500   -999.2500
  1665.0000      7.9422      2.3900      0.0421     15.7555   -999.2500   -999.2500
  1665.1000      7.9422      2.3868      0.0413     15.9533   -999.2500   -999.2500
  1665.2000      7.9422      2.3801      0.0311     16.3568   -999.2500   -999.2500
  1665.3000      7.9477      2.3706      0.0797     16.9327   -999.2500   -999.2500
  1665.4000      7.9477      2.3567      0.0622     17.7772   -999.2500   -999.2500
  1665.5000      7.9459      2.3504      0.0646     18.1574   -999.2500   -999.2500
  1665.6000      7.9459      2.3663      0.0784     17.1969   -999.2500   -999.2500
  1665.7000      7.9459      2.3952      0.0924     15.4419   -999.2500   -999.2500
  1665.8000      7.9345      2.4099      0.0775     14.5504   -999.2500   -999.2500
  1665.9000      7.9345      2.3970      0.0737     15.3320   -999.2500   -999.2500
  1666.0000      7.9270      2.3754      0.0637     16.6447   -999.2500   -999.2500
  1666.1000      7.9270      2.3703      0.0187     16.9494   -999.2500   -999.2500
  1666.2000      7.9270      2.3821      0.0814     16.2374   -999.2500   -999.2500
  1666.3000      7.9069      2.3979      0.0769     15.2795   -999.2500   -999.2500
  1666.4000      7.9069      2.4151      0.1134     14.2347   -999.2500   -999.2500
  1666.5000      7.9139      2.4252      0.1431     13.6218   -999.2500   -999.2500
  1666.6000      7.9139      2.4176      0.0729     14.0871   -999.2500   -999.2500
  1666.7000      7.9139      2.4010      0.0640     15.0885   -999.2500   -999.2500
  1666.8000      7.9324      2.3919      0.0954     15.6405   -999.2500   -999.2500
  1666.9000      7.9324      2.4015      0.0444     15.0607   -999.2500   -999.2500
  1667.0000      7.9417      2.4270      0.0874     13.5165   -999.2500   -999.2500
  1667.1000      7.9417      2.4507      0.0776     12.0775   -999.2500   -999.2500
  1667.2000      7.9417      2.4584      0.0816     11.6115   -999.2500   -999.2500
  1667.3000      7.9324      2.4499      0.1016     12.1254   -999.2500   -999.2500
  1667.4000      7.9324      2.4363      0.0930     12.9527   -999.2500   -999.2500
  1667.5000      7.9305      2.4292      0.0780     13.3801   -999.2500   -999.2500
  1667.6000      7.9305      2.4334      0.0742     13.1303   -999.2500   -999.2500
  1667.7000      7.9305      2.4421      0.0724     12.5985   -999.2500   -999.2500
  1667.8000      7.9332      2.4450      0.0761     12.4253   -999.2500   -999.2500
  1667.9000      7.9332      2.4370      0.0810     12.9116   -999.2500   -999.2500
  1668.0000      7.9341      2.4269     -0.0014     13.5228   -999.2500   -999.2500
  1668.1000      7.9341      2.4318      0.0436     13.2258   -999.2500   -999.2500
  1668.2000      7.9341      2.4467      0.0642     12.3186   -999.2500   -999.2500
  1668.3000      7.9370      2.4508      0.0833     12.0704   -999.2500   -999.2500
  1668.4000      7.9370      2.4432      0.0210     12.5312   -999.2500   -999.2500
  1668.5000      7.9291      2.4403      0.0054     12.7107   -999.2500   -999.2500
  1668.6000      7.9291      2.4417      0.0395     12.6243   -999.2500   -999.2500
  1668.7000      7.9291      2.4348      0.0563     13.0402   -999.2500   -999.2500
  1668.8000      7.9378      2.4228      0.0006     13.7668   -999.2500   -999.2500
  1668.9000      7.9378      2.4217     -0.0040     13.8389   -999.2500   -999.2500
  1669.0000      7.9366      2.4342      0.0053     13.0772   -999.2500   -999.2500
  1669.1000      7.9366      2.4444      0.0260     12.4634   -999.2500   -999.2500
  1669.2000      7.9366      2.4393      0.0655     12.7675   -999.2500   -999.2500
  1669.3000      7.9343      2.4316      0.0161     13.2385   -999.2500   -999.2500
  1669.4000      7.9343      2.4391      0.0936     12.7838   -999.2500   -999.2500
  1669.5000      7.9308      2.4538      0.0706     11.8930   -999.2500   -999.2500
  1669.6000      7.9308      2.4607      0.0453     11.4753   -999.2500   -999.2500
  1669.7000      7.9308      2.4561      0.0157     11.7488   -999.2500   -999.2500
  1669.8000      7.9358      2.4450      0.0200     12.4225   -999.2500   -999.2500
  1669.9000      7.9358      2.4404      0.0472     12.7015   -999.2500   -999.2500
  1670.0000      7.9335      2.4507      0.0680     12.0813   -999.2500   -999.2500
  1670.1000      7.9335      2.4670      0.0632     11.0911   -999.2500   -999.2500
  1670.2000      7.9335      2.4762      0.0529     10.5317   -999.2500   -999.2500
  1670.3000      7.9379      2.4732      0.0929     10.7130   -999.2500   -999.2500
