~Version Information
 VERS.                                  2.0 : CWLS LAS VERSION
 WRAP.                                   NO : WRAPING MODE
 SWARE .                 MController 2.5.0N : SOFTWARE VERSION
~Well Information
 WELL.                         Giggle 21-22 : WELL
 COMP.       Pioneer Natural Resources, USA : COMPANY
 FLD.                       Purgatory River : FIELD
 LOC.                 NE/NW Sec22 T34S R65W : LOCATION
 DATE.                              4/12/06 : DATE(S) LOGGED
 SRVC.      Blanco Geological Services, LLC : SERVICE COMPANY
 STAT.                             Colorado : STATE
 CNTY.                           Las Animas : COUNTY
 CTRY.                                  USA : COUNTRY
 API.                       05-071-08726-00 : API NUMBER
 STRT.FT                             267.00 : START DEPTH
 STOP.FT                            1011.00 : STOP DEPTH
 STEP.FT                               1.00 : DEPTH INCREMENT
 NULL.                                -9999 : NULL VALUE
~Curve information
 DEPTH.FT                                   :
 ROP.MIN/FT                                 :
 GAS.UNITS                                  :
~ASCII Log data
# ...
       467.0         0.23          6.4 
       468.0         0.23          6.8 
       469.0         0.23          7.0 
       470.0         0.27          7.4 
       471.0         0.28          7.3 
       472.0         3.68         14.6 
       473.0         0.53         11.2 
       474.0         0.37          7.0 
       475.0         0.27          6.5 
       476.0         0.23          6.7 
       477.0         0.20          6.2 
       478.0         0.23          6.0 
       479.0         0.43          5.8 
       480.0         0.23          5.2 
       481.0         0.27          5.2 
       482.0         0.22          5.1 
       483.0         0.20          5.0 
       484.0         0.23          5.1 
       485.0         0.27          4.7 
       486.0         0.27          4.4 
       487.0         0.30          4.6 
       488.0         0.23          4.4 
       489.0         0.37          4.5 
       490.0         0.37          4.3 
       491.0         0.23          4.1 
       492.0         0.27          3.8 
       493.0         0.27          3.5 
       494.0         0.32          3.9 
       495.0         0.27          3.6 
       496.0         0.27          4.1 
       497.0         0.23          4.1 
       498.0         0.27          3.9 
       499.0         0.20          4.1 
       500.0         0.20          3.5 
       501.0         0.17          3.6 
       502.0         4.52         10.2 
       503.0         0.20          5.5 
       504.0         0.23          5.7 
       505.0         0.22          5.7 
       506.0         0.20          6.0 
       507.0         0.23          5.1 
       508.0         0.17          4.4 
       509.0         0.20          4.2 
       510.0         0.23          3.9 
       511.0         0.23          3.9 
       512.0         0.17          3.1 
       513.0         0.13          3.5 
       514.0         0.20          2.8 
       515.0         0.27          2.7 
       516.0         0.27          3.0 
       517.0         0.30          4.2 
       518.0         0.27          4.5 
       519.0         0.23          4.3 
       520.0         0.32          4.2 
       521.0         0.20          4.1 
       522.0         0.20          4.0 
       523.0         0.20          3.5 
       524.0         0.23          3.4 
       525.0         0.23          3.5 
       526.0         0.20          3.2 
       527.0         0.20          2.9 
       528.0         0.27          3.3 
       529.0         0.30          3.0 
       530.0         0.27          3.0 
       531.0         0.23          2.8 
       532.0         5.53         15.7 
       533.0         0.47          4.2 
       534.0         0.33          4.8 
       535.0         0.23          5.2 
       536.0         0.30          5.5 
       537.0         0.37          5.6 
       538.0         0.28          4.9 
       539.0         0.20          4.6 
       540.0         0.23          4.3 
       541.0         0.30          4.3 
       542.0         0.30          3.9 
       543.0         0.30          3.9 
       544.0         0.23          4.0 
       545.0         0.17          4.1 
       546.0         0.27          4.2 
       547.0         0.27          3.9 
       548.0         0.17          3.8 
       549.0         0.20          4.4 
       550.0         0.20          4.3 
       551.0         0.20          4.6 
       552.0         0.18          4.2 
       553.0         0.20          4.0 
       554.0         0.17          4.1 
       555.0         0.17          4.0 
       556.0         0.17          4.1 
       557.0         0.17          3.7 
       558.0         0.13          3.8 
       559.0         0.17          3.8 
       560.0         0.27          4.0 
       561.0         0.17          3.8 
       562.0         3.72         24.1 
       563.0         0.30         17.5 
       564.0         0.47         11.9 
       565.0         0.27         10.4 
       566.0         0.35         11.4 
       567.0         0.27         11.0 
       568.0         0.27         10.0 
       569.0         0.30          8.9 
       570.0         0.30          7.7 
       571.0         0.27          6.7 
       572.0         0.30          6.4 
       573.0         0.27          6.2 
       574.0         0.27          6.1 
       575.0         0.27          5.8 
       576.0         0.23          5.8 
       577.0         0.27          5.8 
       578.0         0.28          6.2 
       579.0         0.27          6.9 
       580.0         0.27          7.4 
       581.0         0.27          7.8 
       582.0         0.27          7.7 
       583.0         0.27          7.5 
       584.0         0.30          7.1 
       585.0         0.30          6.9 
       586.0         0.30          6.9 
       587.0         0.30          6.4 
       588.0         0.30          6.2 
       589.0         0.30          6.1 
       590.0         0.28          5.4 
       591.0         0.27          5.2 
       592.0         4.28         16.2 
       593.0         0.37          9.0 
       594.0         0.40          7.1 
       595.0         0.33          6.6 
       596.0         0.30          8.5 
       597.0         0.27          9.0 
       598.0         0.23          8.6 
       599.0         0.18          7.9 
       600.0         0.17          7.7 
       601.0         0.17          7.5 
       602.0         0.13          7.3 
       603.0         0.20          6.6 
       604.0         0.23          5.8 
       605.0         0.23          5.2 
       606.0         0.20          4.8 
       607.0         0.37          5.5 
       608.0         0.27          5.4 
       609.0         0.20          5.6 
       610.0         0.20          5.2 
       611.0         0.13          5.0 
       612.0         0.17          5.3 
       613.0         0.13          4.9 
       614.0         0.17          7.7 
       615.0         0.13         14.3 
       616.0         0.18         50.8 
       617.0         0.17        130.7 
       618.0         0.17        170.0 
       619.0         0.17        243.0 
       620.0         0.33        318.7 
       621.0         0.37        365.3 
       622.0         5.83       1329.6 
       623.0         0.23        216.5 
       624.0         0.23        240.5 
       625.0         0.20        249.6 
       626.0         0.17        250.3 
       627.0         0.23        242.1 
       628.0         0.20        231.1 
       629.0         0.33        207.7 
       630.0         0.27        182.8 
       631.0         0.20        170.6 
       632.0         0.13        166.7 
       633.0         0.13        164.0 
       634.0         0.23        169.2 
       635.0         0.23        202.2 
       636.0         0.25        298.5 
       637.0         0.27        420.2 
       638.0         0.23        811.5 
       639.0         0.27        900.1 
       640.0         0.23        939.8 
       641.0         0.23        959.7 
       642.0         0.20        964.4 
       643.0         0.20        957.7 
       644.0         0.27        944.9 
       645.0         0.23        912.2 
       646.0         0.20        882.5 
       647.0         0.23        861.7 
       648.0         0.20        845.1 
       649.0         0.17        842.8 
       650.0         0.20        840.1 
       651.0         0.32        839.1 
       652.0         3.58       2970.4 
       653.0         0.33       1880.5 
       654.0         0.30       1300.7 
       655.0         0.30       1145.7 
       656.0         0.30       1246.4 
       657.0         0.33       1262.2 
       658.0         0.27       1190.8 
       659.0         0.27       1089.4 
       660.0         0.23        992.4 
       661.0         0.27        919.3 
       662.0         0.28        871.8 
       663.0         0.27        826.9 
       664.0         0.23        787.9 
       665.0         0.27        752.2 
       666.0         0.17        716.8 
