~Version Information
VERS.                      2.0: CWLS Log ASCII Standard - VERSION 2.0
WRAP.                       NO: One line per depth step
~Well Information Block
STRT.FT               -10.0000: 
STOP.FT              2073.0000: 
STEP.FT                 0.2500: 
NULL.                -999.2500: 
COMP.          Pioneer Natural Resources: COMPANY
WELL.              Joplin 44-5: WELL
FLD.           Purgatorie River: FIELD
LOC.           262' FSL & 418' FEL--: LOCATION
PROV.                       CO: PROVINCE
CNTY.               Las Animas: COUNTRY
SRVC.          Patterson Wireline: SERVICE COMPANY
DATE.          Mon Dec 19 09:21:33 2005: LOG DATE
UWI.           05 071 08623 00: UNIQUE WELL ID
~Curve Information Block
DEPT.FT            0 000 00 00: Depth
CCL.                          : Casing Collar Locator
TT3.usec                      : CBL 3' Travel Time
AMP3.mV                       : CBL 3' Amplitude
GR.GAPI                       : Gamma Ray
~Parameter Information Block
~A  Depth       CCL         TT3         AMP3         GR     
# ...
   392.0000      0.0000    875.4676      6.3830     94.1035
   392.2500      0.0000    873.8442      6.3461     99.9101
   392.5000      0.0000    864.1349      6.3083    104.5662
   392.7500      0.0000    847.0188      6.2800    109.0135
   393.0000      0.0000    829.9017      6.2707    114.0820
   393.2500      0.0000    822.9628      6.2826    118.9928
   393.5000      0.0000    831.2875      6.3085    121.8146
   393.7500      0.0000    850.6918      6.3354    120.9394
   394.0000      0.0000    871.3961      6.3514    115.8634
   394.2500      0.0000    885.2589      6.3508    107.3122
   394.5000      0.0000    889.7214      6.3322     97.2920
   394.7500      0.0000    886.9007      6.2949     88.5130
   395.0000      0.0000    880.9669      6.2393     82.9931
   395.2500      0.0000    876.3049      6.1696     81.0807
   395.5000      0.0000    876.6871      6.0937     81.6393
   395.7500      0.0000    884.5802      6.0200     82.9052
   396.0000      0.0000    899.5961      5.9559     83.4209
   396.2500      0.0000    917.0197      5.9076     82.6717
   396.5000      0.0000    929.4868      5.8785     81.0163
   396.7500      0.0000    932.3734      5.8673     79.0728
   397.0000      0.0000    927.6608      5.8687     77.3934
   397.2500      0.0000    921.6768      5.8776     76.6425
   397.5000      0.0000    919.6284      5.8906     77.3988
   397.7500      0.0000    922.8636      5.9052     79.2735
   398.0000      0.0000    929.8292      5.9189     80.7596
   398.2500      0.0000    937.7721      5.9284     80.8325
   398.5000      0.0000    943.9536      5.9304     80.5574
   398.7500      0.0000    947.0767      5.9231     82.2831
   399.0000      0.0000    948.3795      5.9090     87.1849
   399.2500      0.0000    951.3043      5.8953     94.1671
   399.5000      0.0000    960.1078      5.8923    101.0787
   399.7500      0.0000    977.7803      5.9081    106.3887
   400.0000      0.0000   1003.3205      5.9418    109.6105
   400.2500      0.0000   1030.0590      5.9819    110.7839
   400.5000      0.0000   1047.7799      6.0135    110.0378
   400.7500      0.0000   1047.8159      6.0299    107.5783
   401.0000      0.0000   1026.8042      6.0364    103.8718
   401.2500      0.0000    986.9351      6.0422     99.7218
   401.5000      0.0000    934.7656      6.0486     96.0979
   401.7500      0.0000    880.0463      6.0440     93.8806
   402.0000      0.0000    833.0215      6.0064     93.6637
   402.2500      0.0000    800.3149      5.9066     95.5296
   402.5000      0.0000    783.6729      5.7264     98.7930
   402.7500      0.0000    783.7284      5.4948    102.0801
   403.0000      0.0000    803.9290      5.2959    104.0395
   403.2500      0.0000    848.1560      5.1980    104.1221
   403.5000      0.0000    912.9534      5.1776    102.5592
   403.7500      0.0000    984.1852      5.1557     99.6584
   404.0000      0.0000   1044.7289      5.1004     95.4989
   404.2500      0.0000   1085.3601      5.0465     90.5278
   404.5000      2.0000   1106.4437      5.0299     86.1523
   404.7500      0.0000   1110.8484      5.0493     84.2497
   405.0000      0.0000   1098.9739      5.0871     85.8469
   405.2500      0.0000   1071.2933      5.1442     90.1399
   405.5000      0.0000   1033.4143      5.2507     94.7179
   405.7500      0.0000    995.7163      5.4410     97.0278
   406.0000      0.0000    965.8536      5.7005     96.0903
   406.2500      0.0000    941.9360      5.9542     92.9352
   406.5000      0.0000    916.0524      6.1344     89.3995
   406.7500      0.0000    885.8974      6.2404     86.7715
   407.0000      0.0000    859.7298      6.3118     85.5920
   407.2500      0.0000    847.1250      6.3693     86.0753
   407.5000      0.0000    847.0139      6.4057     88.0673
   407.7500      0.0000    848.4063      6.4126     90.7272
   408.0000      0.0000    842.4498      6.3967     92.8467
   408.2500      0.0000    830.2527      6.3746     93.7272
   408.5000      0.0000    818.3724      6.3619     93.6703
   408.7500      0.0000    810.7523      6.3668     93.6240
   409.0000      0.0000    807.1189      6.3894     94.3374
   409.2500      0.0000    806.0719      6.4237     95.6907
   409.5000      0.0000    806.7371      6.4582     96.7751
   409.7500      0.0000    808.2715      6.4796     96.6237
   410.0000      0.0000    809.7153      6.4809     94.8224
   410.2500      0.0000    810.5628      6.4672     91.7822
   410.5000      0.0000    810.8973      6.4533     88.8258
   410.7500      0.0000    811.0267      6.4545     87.6613
   411.0000      0.0000    811.1452      6.4775     89.1026
   411.2500      0.0000    811.2800      6.5169     92.1960
   411.5000      0.0000    811.3611      6.5591     94.7832
   411.7500      0.0000    811.3037      6.5898     94.9498
   412.0000      0.0000    811.0817      6.6020     92.2441
   412.2500      0.0000    810.7266      6.5983     88.1144
   412.5000      0.0000    810.2646      6.5875     85.0503
   412.7500      0.0000    809.6857      6.5790     84.5333
   413.0000      0.0000    808.9877      6.5801     85.7499
   413.2500      0.0000    808.2202      6.5930     86.8069
   413.5000      0.0000    807.4617      6.6141     86.9982
   413.7500      0.0000    806.7718      6.6347     87.2306
   414.0000      0.0000    806.1414      6.6467     88.3116
   414.2500      0.0000    805.4283      6.6482     89.5731
   414.5000      0.0000    804.3024      6.6435     89.5596
   414.7500      0.0000    802.3817      6.6380     87.7058
   415.0000      0.0000    799.6942      6.6336     84.8040
   415.2500      0.0000    797.1026      6.6303     82.1265
   415.5000      0.0000    795.9449      6.6306     80.7389
   415.7500      0.0000    796.8894      6.6387     81.4020
   416.0000      0.0000    799.2598      6.6562     84.2889
   416.2500      0.0000    801.6962      6.6791     88.7132
   416.5000      0.0000    803.2881      6.6991     93.4917
   416.7500      0.0000    803.9078      6.7096     97.5972
   417.0000      0.0000    803.7136      6.7115    100.4537
   417.2500      0.0000    802.5510      6.7126    101.8546
   417.5000      0.0000    799.7963      6.7222    101.8092
   417.7500      0.0000    794.8566      6.7465    100.5647
   418.0000      0.0000    788.1389      6.7880     98.7313
   418.2500      0.0000    781.5364      6.8441     97.0823
   418.5000      0.0000    777.4655      6.9061     96.1155
   418.7500      0.0000    777.0983      6.9644     95.9141
   419.0000      0.0000    779.5523      7.0132     96.1784
   419.2500      0.0000    782.6132      7.0505     96.0447
   419.5000      0.0000    783.8376      7.0736     94.2835
   419.7500      0.0000    781.1850      7.0799     90.2886
   420.0000      0.0000    773.5479      7.0717     84.6952
   420.2500      0.0000    761.5536      7.0588     78.8529
   420.5000      0.0000    748.0442      7.0525     74.1707
   420.7500      0.0000    737.0717      7.0590     71.9005
   421.0000      0.0000    731.5460      7.0782     72.5084
   421.2500      0.0000    731.7079      7.1070     74.9509
   421.5000      0.0000    735.8533      7.1439     77.4048
   421.7500      0.0000    741.8978      7.1878     78.9644
   422.0000      0.0000    748.0274      7.2345     80.0179
   422.2500      0.0000    752.6526      7.2787     80.9716
   422.5000      0.0000    754.4163      7.3177     81.3606
   422.7500      0.0000    752.2795      7.3536     80.5343
   423.0000      0.0000    745.7405      7.3885     78.8403
   423.2500      0.0000    735.3544      7.4192     77.7147
   423.5000      0.0000    722.9186      7.4396     78.7224
   423.7500      0.0000    710.7247      7.4471     82.5751
   424.0000      0.0000    700.5415      7.4449     88.5627
   424.2500      0.0000    693.2168      7.4391     94.4886
   424.5000      0.0000    688.7701      7.4349     97.5614
   424.7500      0.0000    686.5896      7.4354     96.2115
   425.0000      0.0000    685.8055      7.4405     91.4133
   425.2500      0.0000    685.7949      7.4465     86.0223
