~Version Information
VERS.                      2.0: CWLS Log ASCII Standard - VERSION 2.0
WRAP.                       NO: One line per depth step
~Well Information Block
STRT.FT               875.0000: 
STOP.FT              2947.2000: 
STEP.FT                 0.1000: 
NULL.                -999.2500: 
COMP.          Pioneer Natural Resources: COMPANY
WELL.          Hanginstone 21-27: WELL
FLD.           Purgatoire River: FIELD
LOC.           1186' FNL & 1606' FWL--: LOCATION
PROV.                 Colorado: PROVINCE
CNTY.               Las Animas: COUNTRY
SRVC.                Patterson: SERVICE COMPANY
DATE.          Mon Jan 09 07:31:45 2006: LOG DATE
UWI.           05 071 08632 00: UNIQUE WELL ID
~Curve Information Block
DEPT.FT            0 000 00 00: Depth
DCAL.in                       : CDL Caliper
RHOB.g/cc                     : CDL Bulk Density
RHOC.g/cc                     : CDL Density Correction
DPOR.pu                       : CDL Density Porosity
NPOR.pu                       : Neutron Porosity
GR.GAPI                       : Gamma Ray
~Parameter Information Block
~A  Depth       DCAL        RHOB        RHOC        DPOR        NPOR         GR     
# ...
  1556.6000      8.0377      2.6275      0.2490      1.3646     16.9412     83.6727
  1556.7000      8.0377      2.6618      0.2702     -0.7135     16.0800     77.1331
  1556.8000      8.0330      2.6704      0.2021     -1.2369     15.3025     74.2270
  1556.9000      8.0330      2.6523      0.1088     -0.1422     14.6778     72.3291
  1557.0000      8.0302      2.6277      0.0736      1.3501     14.3435     67.9229
  1557.1000      8.0302      2.6099      0.0629      2.4288     14.3202     63.3254
  1557.2000      8.0302      2.6040      0.0632      2.7866     14.5580     61.8035
  1557.3000      8.0293      2.6128      0.0479      2.2534     14.8554     61.3849
  1557.4000      8.0293      2.6323      0.0470      1.0707     14.7304     60.1781
  1557.5000      8.0290      2.6487      0.0850      0.0802     14.0524     59.5439
  1557.6000      8.0290      2.6438      0.0928      0.3747     13.4189     59.6108
  1557.7000      8.0290      2.6176      0.0236      1.9632     13.1700     58.5185
  1557.8000      8.0296      2.5915     -0.0002      3.5455     12.9492     55.7766
  1557.9000      8.0296      2.5799      0.0230      4.2466     12.3652     52.5358
  1558.0000      8.0295      2.5863     -0.0014      3.8631     11.6295     49.0701
  1558.1000      8.0295      2.6081      0.0379      2.5402     11.2932     46.6208
  1558.2000      8.0295      2.6274      0.0678      1.3669     11.5584     48.0026
  1558.3000      8.0311      2.6288      0.0444      1.2837     12.2262     53.5097
  1558.4000      8.0311      2.6204     -0.0017      1.7935     12.9927     61.4542
  1558.5000      8.0358      2.6126      0.0412      2.2671     13.9407     68.3488
  1558.6000      8.0358      2.5974      0.0788      3.1879     15.4647     71.0944
  1558.7000      8.0358      2.5746      0.0255      4.5695     17.5209     70.5580
  1558.8000      8.0418      2.5629     -0.0144      5.2809     19.5423     69.0942
  1558.9000      8.0418      2.5623      0.0483      5.3155     20.9446     67.9026
  1559.0000      8.0447      2.5580      0.0283      5.5740     21.8960     67.6429
  1559.1000      8.0447      2.5541      0.0309      5.8115     22.9335     68.9786
  1559.2000      8.0447      2.5564      0.0380      5.6745     24.0330     71.6082
  1559.3000      8.0435      2.5567      0.0454      5.6546     24.7261     75.0160
  1559.4000      8.0435      2.5474      0.0482      6.2193     24.6292     78.5323
  1559.5000      8.0410      2.5341      0.0219      7.0266     24.0719     82.5408
  1559.6000      8.0410      2.5221      0.0516      7.7494     23.6497     86.5668
  1559.7000      8.0410      2.5063     -0.0061      8.7064     23.3637     88.5561
  1559.8000      8.0408      2.4941      0.0021      9.4469     23.3209     88.6092
  1559.9000      8.0408      2.4980      0.0253      9.2145     23.5063     87.5908
  1560.0000      8.0424      2.5113      0.0497      8.4078     23.3387     86.6043
  1560.1000      8.0424      2.5242      0.0150      7.6229     22.9484     87.3968
  1560.2000      8.0424      2.5347      0.0234      6.9898     22.9942     89.1927
  1560.3000      8.0447      2.5383      0.0304      6.7699     23.6191     90.2089
  1560.4000      8.0447      2.5358     -0.0150      6.9190     24.4907     89.7883
  1560.5000      8.0527      2.5327      0.0045      7.1089     25.1847     92.3431
  1560.6000      8.0527      2.5185      0.0886      7.9685     25.5391    101.3949
  1560.7000      8.0527      2.4843      0.0695     10.0454     25.6301    110.4870
  1560.8000      8.0657      2.4481      0.0112     12.2391     25.6149    113.3289
  1560.9000      8.0657      2.4300      0.0017     13.3333     25.6790    110.8989
  1561.0000      8.0740      2.4339     -0.0516     13.0971     25.9396    108.5246
  1561.1000      8.0740      2.4614      0.0023     11.4276     26.4216    109.0398
  1561.2000      8.0740      2.5036      0.0569      8.8723     26.8097    109.1741
  1561.3000      8.0758      2.5346      0.1286      6.9941     27.0358    105.7082
  1561.4000      8.0758      2.5389      0.1218      6.7317     27.6773    100.9032
  1561.5000      8.0751      2.5318      0.1143      7.1614     28.5048     98.2336
  1561.6000      8.0751      2.5339      0.1829      7.0363     28.7475     99.8880
  1561.7000      8.0751      2.5520      0.1900      5.9423     28.4310    106.1799
  1561.8000      8.0745      2.5874      0.1704      3.7933     27.8795    113.6782
  1561.9000      8.0745      2.6210      0.1950      1.7554     27.4566    116.8074
  1562.0000      8.0743      2.6257      0.1607      1.4707     27.3345    112.1533
  1562.1000      8.0743      2.6043      0.1059      2.7724     27.1039    104.2870
  1562.2000      8.0743      2.5806      0.0787      4.2046     26.5428    100.0267
  1562.3000      8.0744      2.5695      0.0237      4.8772     26.0270     99.7419
  1562.4000      8.0744      2.5642      0.0606      5.1988     26.0010    101.1896
  1562.5000      8.0742      2.5493      0.0733      6.1001     26.4778    104.0153
  1562.6000      8.0742      2.5206      0.0455      7.8437     26.9524    106.5478
  1562.7000      8.0742      2.4854      0.0272      9.9768     27.0069    106.9271
  1562.8000      8.0724      2.4472      0.0644     12.2885     26.7079    106.0151
  1562.9000      8.0724      2.4046      0.0193     14.8712     26.4285    101.5528
  1563.0000      8.0701      2.3658      0.0256     17.2222     26.3629     94.5134
  1563.1000      8.0701      2.3425      0.0412     18.6376     26.4615     93.1595
  1563.2000      8.0701      2.3402      0.0778     18.7737     26.6695     98.9613
  1563.3000      8.0687      2.3569      0.1212     17.7634     26.9361    105.0527
  1563.4000      8.0687      2.3853      0.1424     16.0406     27.1784    106.9482
  1563.5000      8.0646      2.4255      0.1604     13.6037     27.2107    103.3754
  1563.6000      8.0646      2.4799      0.2316     10.3117     26.8139     95.2946
  1563.7000      8.0646      2.5401      0.2972      6.6614     26.1664     90.9194
  1563.8000      8.0457      2.5918      0.3477      3.5284     25.7628     95.3338
  1563.9000      8.0457      2.6238      0.3270      1.5864     25.5742    100.9228
  1564.0000      8.0107      2.6311      0.3455      1.1431     25.1855    101.0523
  1564.1000      8.0107      2.6124      0.2795      2.2767     24.5572     98.6540
  1564.2000      8.0107      2.5858      0.1665      3.8898     24.0587     96.4126
  1564.3000      7.9823      2.5865      0.1528      3.8487     24.0888     92.6889
  1564.4000      7.9823      2.6184      0.1686      1.9134     24.5160     87.2537
  1564.5000      7.9696      2.6451      0.1652      0.2985     24.6554     82.3112
  1564.6000      7.9696      2.6399      0.1107      0.6127     24.3035     79.4970
  1564.7000      7.9696      2.6137      0.1050      2.1993     23.9605     77.2096
  1564.8000      7.9638      2.5954      0.0798      3.3089     24.2402     75.0561
  1564.9000      7.9638      2.6012      0.1169      2.9559     25.2748     75.0014
  1565.0000      7.9604      2.6250      0.0873      1.5143     26.1279     73.9412
  1565.1000      7.9604      2.6482      0.0981      0.1114     26.0648     71.6834
  1565.2000      7.9604      2.6522      0.1157     -0.1353     25.7696     73.9190
  1565.3000      7.9613      2.6391      0.0507      0.6580     25.7385     81.1116
  1565.4000      7.9613      2.6273      0.0578      1.3751     25.4522     87.3186
  1565.5000      7.9642      2.6179      0.1227      1.9456     24.8037     88.3360
  1565.6000      7.9642      2.5967      0.0812      3.2324     24.1156     84.6542
  1565.7000      7.9642      2.5722      0.0144      4.7126     23.4568     80.6359
  1565.8000      7.9646      2.5722      0.0205      4.7169     23.0206     84.1764
  1565.9000      7.9646      2.6052      0.0614      2.7153     22.8821     95.7846
  1566.0000      7.9631      2.6531      0.0831     -0.1855     22.7228    104.1007
  1566.1000      7.9631      2.6872      0.1458     -2.2527     22.3129    102.0531
