~Version Information
VERS.                      2.0: CWLS Log ASCII Standard - VERSION 2.0
WRAP.                       NO: One line per depth step
~Well Information Block
STRT.FT               615.0000: 
STOP.FT              2807.0000: 
STEP.FT                 0.1000: 
NULL.                -999.2500: 
COMP.          Pioneer Natural Resources: COMPANY
WELL.              Loews 41-32: WELL
FLD.           Purgatoire River: FIELD
LOC.           751' FNL & 128' FEL: LOCATION
CNTY.               Las Animas: COUNTY
SRVC.                Patterson: SERVICE COMPANY
DATE.          Mon Feb 13 07:19:27 2006: LOG DATE
UWI.           05 071 08693 00: UNIQUE WELL ID
STAT.                 Colorado: STATE
~Curve Information Block
DEPT.FT            0 000 00 00: Depth
DCAL.in                       : CDL Caliper
RHOB.g/cc                     : CDL Bulk Density
RHOC.g/cc                     : CDL Density Correction
DPOR.pu                       : CDL Density Porosity
GR.GAPI                       : Gamma Ray
NPOR.pu                       : Neutron Porosity
~Parameter Information Block
~A  Depth       DCAL        RHOB        RHOC        DPOR         GR         NPOR    
   615.0000      3.6826      2.4722      0.4695     10.7774     95.0235     19.8564
   615.1000      3.6826      2.4751      0.4472     10.6028     89.6339     19.5956
   615.2000      3.6826      2.4582      0.4166     11.6250     89.0362     19.6004
   615.3000      3.6845      2.4152      0.4197     14.2312     93.6521     19.7295
   615.4000      3.6845      2.3461      0.3623     18.4152    102.3786     20.0781
   615.5000      3.6802      2.2575      0.3428     23.7881    105.3103     20.3407
   615.6000      3.6802      2.1518      0.2671     30.1957     97.6855     19.7011
   615.7000      3.6802      2.0348      0.2238     37.2836     89.2257     18.1987
   615.8000      3.6854      1.9244      0.1145     43.9728     86.0555     17.2681
   615.9000      3.6854      1.8401      0.1614     49.0870     84.6998     17.8626
   616.0000      3.6950      1.7815      0.1881     52.6351     84.0232     18.8305
   616.1000      3.6950      1.7390      0.2208     55.2109     86.0177     18.7420
   616.2000      3.6950      1.7078      0.2651     57.1031     92.2606     18.1941
   616.3000      3.7210      1.6861      0.3043     58.4155    100.1351     17.9949
   616.4000      3.7210      1.6792      0.3173     58.8358    102.0792     17.8557
   616.5000      3.7349      1.6949      0.3776     57.8829     96.1550     17.4916
   616.6000      3.7349      1.7269      0.4369     55.9438     88.9868     17.2108
   616.7000      3.7349      1.7588      0.4697     54.0131     86.8329     17.2404
   616.8000      3.7460      1.7913      0.4919     52.0432     91.9482     17.3899
   616.9000      3.7460      1.8653      0.5187     47.5550    102.2556     17.4639
   617.0000      4.2174      2.0761      0.4854     34.7821    111.9587     17.5451
   617.1000      4.2174      2.5050      0.5956      8.7888    118.1000     17.6558
   617.2000      4.2174      3.0496      0.9231    -24.2168    122.1194     17.7308
   617.3000      7.7286      3.4644      1.0310    -49.3560    123.0595     17.7194
   617.4000      7.7286      3.6472      0.9919    -60.4347    120.7126     17.9483
   617.5000      8.2042      3.6639      1.0076    -61.4499    119.1273     18.6483
   617.6000      8.2042      3.5261      1.0267    -53.0996    119.8013     19.7716
   617.7000      8.2042      3.1876      0.7131    -32.5825    121.4351     21.1051
   617.8000      8.2062      2.7456     -0.2041     -5.7941    127.8312     22.0741
   617.9000      8.2062      2.4139     -0.4458     14.3091    137.8142     22.5967
   618.0000      8.2107      2.2811     -0.4974     22.3604    142.0814     22.6423
   618.1000      8.2107      2.2759     -0.3824     22.6729    143.2099     22.1812
   618.2000      8.2107      2.3058     -0.4161     20.8634    146.6052     21.8857
   618.3000      8.2028      2.3247     -0.3528     19.7175    145.7913     22.4962
   618.4000      8.2028      2.3196     -0.3941     20.0215    138.8299     23.6510
   618.5000      8.2044      2.2999     -0.4456     21.2203    132.1499     24.0505
   618.6000      8.2044      2.2854     -0.4743     22.0984    130.6749     23.3839
   618.7000      8.2044      2.2815     -0.4317     22.3328    136.3161     22.4043
   618.8000      8.2030      2.2762     -0.4036     22.6566    149.0672     21.7990
   618.9000      8.2030      2.2622     -0.4281     23.5028    164.1106     21.9977
   619.0000      8.2029      2.2478     -0.4404     24.3738    169.5235     22.5469
   619.1000      8.2029      2.2458     -0.4714     24.4974    157.7155     22.5207
   619.2000      8.2029      2.2553     -0.4296     23.9224    139.4823     21.6671
   619.3000      8.2039      2.2627     -0.4489     23.4730    131.6987     20.8025
   619.4000      8.2039      2.2595     -0.4136     23.6670    133.0573     21.0669
   619.5000      8.2043      2.2499     -0.4479     24.2481    131.4194     21.9408
   619.6000      8.2043      2.2464     -0.4240     24.4629    130.8218     21.9361
   619.7000      8.2043      2.2548     -0.4615     23.9504    139.3862     21.1087
   619.8000      8.2021      2.2632     -0.4351     23.4395    147.2658     20.3845
   619.9000      8.2021      2.2489     -0.3980     24.3065    145.1064     20.0190
   620.0000      8.2036      2.2183     -0.5185     26.1638    138.0860     20.0068
   620.1000      8.2036      2.2062     -0.4794     26.8986    132.5415     19.9898
   620.2000      8.2036      2.2249     -0.4704     25.7661    130.5988     19.7259
   620.3000      8.2062      2.2571     -0.4323     23.8111    126.2512     19.8779
   620.4000      8.2062      2.2869     -0.4500     22.0054    115.0771     20.7121
   620.5000      8.2061      2.3064     -0.3632     20.8220    106.5079     21.4807
   620.6000      8.2061      2.3093     -0.4210     20.6478    109.4930     21.8867
   620.7000      8.2061      2.3048     -0.3980     20.9242    119.4365     22.3966
   620.8000      8.2047      2.3038     -0.3783     20.9790    127.5154     22.9046
   620.9000      8.2047      2.3035     -0.4040     20.9980    129.7266     22.7318
   621.0000      8.2036      2.2991     -0.4337     21.2668    129.0081     21.7574
   621.1000      8.2036      2.2920     -0.4350     21.6981    131.0768     20.6084
   621.2000      8.2036      2.2835     -0.3992     22.2125    134.1579     19.7242
   621.3000      8.2029      2.2686     -0.4157     23.1167    135.4839     19.5082
   621.4000      8.2029      2.2507     -0.4934     24.1979    137.0604     20.1938
   621.5000      8.2033      2.2474     -0.4809     24.3976    138.7771     20.8918
   621.6000      8.2033      2.2622     -0.4395     23.5038    137.3962     20.9235
   621.7000      8.2033      2.2719     -0.4263     22.9139    134.2087     20.8068
   621.8000      8.2052      2.2624     -0.4540     23.4927    134.7628     20.8343
   621.9000      8.2052      2.2530     -0.4551     24.0597    137.8065     20.6525
   622.0000      8.2052      2.2632     -0.4541     23.4404    137.6492     20.4913
   622.1000      8.2052      2.2786     -0.3900     22.5061    134.9870     20.9624
   622.2000      8.2052      2.2761     -0.4322     22.6605    134.8976     21.8659
   622.3000      8.2038      2.2572     -0.3970     23.8041    137.8858     22.4206
   622.4000      8.2038      2.2385     -0.4642     24.9423    139.9189     22.1499
   622.5000      8.2041      2.2340     -0.4621     25.2130    139.6083     21.4707
   622.6000      8.2041      2.2437     -0.4598     24.6230    139.0450     21.2944
   622.7000      8.2041      2.2542     -0.4259     23.9883    141.7390     21.8422
   622.8000      8.2036      2.2563     -0.4393     23.8601    147.8722     22.2496
   622.9000      8.2036      2.2598     -0.4422     23.6458    153.8722     22.0574
   623.0000      8.2039      2.2758     -0.4394     22.6782    157.0471     21.4958
   623.1000      8.2039      2.2948     -0.3909     21.5264    155.9378     20.7756
   623.2000      8.2039      2.3014     -0.4187     21.1271    148.5322     20.5276
   623.3000      8.2039      2.2960     -0.4563     21.4537    138.7272     21.1419
   623.4000      8.2039      2.2892     -0.4014     21.8638    136.4028     21.9652
   623.5000      8.2025      2.2869     -0.4552     22.0082    140.6668     22.2976
   623.6000      8.2025      2.2898     -0.4865     21.8329    146.2902     22.2396
   623.7000      8.2025      2.2908     -0.4463     21.7706    156.7865     22.3855
   623.8000      8.2105      2.2816     -0.4321     22.3277    168.6798     22.6976
   623.9000      8.2105      2.2626     -0.4065     23.4811    168.6963     22.5770
   624.0000      8.2048      2.2469     -0.4540     24.4292    155.6987     22.0732
   624.1000      8.2048      2.2550     -0.4945     23.9413    145.1395     21.2780
   624.2000      8.2048      2.2794     -0.3786     22.4613    145.9416     20.5014
   624.3000      8.2037      2.2877     -0.4385     21.9558    150.0483     20.7138
   624.4000      8.2037      2.2796     -0.4657     22.4491    151.5989     21.8534
   624.5000      8.2045      2.2803     -0.4472     22.4062    152.1782     22.9671
