~Version Information
VERS.                      2.0: CWLS Log ASCII Standard - VERSION 2.0
WRAP.                       NO: One line per depth step
~Well Information Block
STRT.FT               330.0000: 
STOP.FT              1972.5000: 
STEP.FT                 0.1000: 
NULL.                -999.2500: 
COMP.          Pioneer Natural Resources: COMPANY
WELL.           Willys 32-8 Tr: WELL
FLD.           Purgatoire River: FIELD
LOC.           1843' FNL & 2355' FEL: LOCATION
CNTY.               Las Animas: COUNTY
SRVC.                Patterson: SERVICE COMPANY
DATE.          Thu Feb 09 10:31:59 2006: LOG DATE
UWI.           05 071 08688 00: UNIQUE WELL ID
STAT.                 Colorado: STATE
~Curve Information Block
DEPT.FT            0 000 00 00: Depth
DCAL.in                       : CDL Caliper
RHOB.g/cc                     : CDL Bulk Density
RHOC.g/cc                     : CDL Density Correction
DPOR.pu                       : CDL Density Porosity
GR.GAPI                       : Gamma Ray
~Parameter Information Block
~A  Depth       DCAL        RHOB        RHOC        DPOR         GR     
# ...
  1640.4000      7.8996      1.9530     -0.1325     42.2401    125.5967
  1640.5000      7.8996      1.9115     -0.1460     44.7548    137.0236
  1640.6000      7.8996      1.8823     -0.0745     46.5250    146.8491
  1640.7000      7.8996      1.8624     -0.1447     47.7337    156.5069
  1640.8000      7.9093      1.8851      0.0055     46.3551    167.0375
  1640.9000      7.9093      1.9359      0.2069     43.2772    175.7054
  1641.0000      7.8968      1.9710      0.2748     41.1533    182.1163
  1641.1000      7.8968      1.9875      0.2848     40.1516    189.1224
  1641.2000      7.8968      2.0088      0.2581     38.8592    195.8802
  1641.3000      7.9440      2.0650      0.0961     35.4552    195.8282
  1641.4000      7.9440      2.1696      0.1244     29.1175    187.1862
  1641.5000      8.0627      2.2843      0.2186     22.1651    176.1666
  1641.6000      8.0627      2.3631      0.2678     17.3886    166.6200
  1641.7000      8.0627      2.4041      0.2125     14.9041    158.4408
  1641.8000      7.9924      2.4273      0.2255     13.4962    151.0334
  1641.9000      7.9924      2.4408      0.2494     12.6798    144.8662
  1642.0000      7.9489      2.4454      0.2640     12.3988    139.2243
  1642.1000      7.9489      2.4478      0.1652     12.2539    132.7462
  1642.2000      7.9489      2.4458      0.1740     12.3743    127.1065
  1642.3000      8.0454      2.4251      0.1616     13.6273    124.7560
  1642.4000      8.0454      2.3933      0.1273     15.5597    127.2334
  1642.5000      8.0257      2.3812      0.1741     16.2939    131.5685
  1642.6000      8.0257      2.3990      0.2005     15.2129    130.0474
  1642.7000      8.0257      2.4199      0.2278     13.9446    122.9387
  1642.8000      7.9751      2.4057      0.2707     14.8087    119.6894
  1642.9000      7.9751      2.3462      0.1404     18.4123    124.1689
  1643.0000      7.9358      2.2732      0.1239     22.8376    130.0554
  1643.1000      7.9358      2.2169      0.1952     26.2503    131.9837
  1643.2000      7.9358      2.1646      0.2330     29.4170    129.7103
  1643.3000      7.9328      2.0797      0.2875     34.5653    125.3237
  1643.4000      7.9328      1.9677      0.1187     41.3532    122.6358
  1643.5000      8.0458      1.8965      0.1226     45.6686    121.8743
  1643.6000      8.0458      1.9214      0.1697     44.1592    122.5317
  1643.7000      8.0458      2.0319      0.3327     37.4601    127.8152
  1643.8000      8.1486      2.1863      0.4095     28.1025    135.8365
  1643.9000      8.1486      2.3492      0.5139     18.2284    140.9452
  1644.0000      8.2444      2.4762      0.6177     10.5309    143.3877
  1644.1000      8.2444      2.5274      0.5011      7.4293    144.1469
  1644.2000      8.2444      2.5078      0.4572      8.6189    142.9849
  1644.3000      7.9998      2.4521      0.3477     11.9920    140.9771
  1644.4000      7.9998      2.3977      0.2207     15.2930    137.3858
  1644.5000      7.9952      2.3592      0.2797     17.6259    133.1843
  1644.6000      7.9952      2.3260      0.2085     19.6349    131.0912
  1644.7000      7.9952      2.2981      0.1793     21.3249    128.6174
  1644.8000      7.9238      2.2807      0.1775     22.3800    124.6275
  1644.9000      7.9238      2.2706      0.0991     22.9916    120.9729
  1645.0000      7.9411      2.2716      0.1369     22.9320    116.9668
  1645.1000      7.9411      2.2951      0.1306     21.5113    112.9687
  1645.2000      7.9411      2.3375      0.1840     18.9401    110.5980
  1645.3000      7.9266      2.3673      0.1939     17.1337    109.3196
  1645.4000      7.9266      2.3691      0.0873     17.0257    108.7395
  1645.5000      8.0030      2.3653      0.1066     17.2527    108.8419
  1645.6000      8.0030      2.3727      0.1063     16.8074    109.3015
  1645.7000      8.0030      2.3863      0.1127     15.9845    107.0986
  1645.8000      7.9923      2.3953      0.1321     15.4335     99.9201
  1645.9000      7.9923      2.3862      0.1723     15.9858     94.3536
  1646.0000      8.0019      2.3544      0.1431     17.9138     96.7009
  1646.1000      8.0019      2.3277      0.0567     19.5343    103.7855
  1646.2000      8.0019      2.3368      0.0915     18.9796    110.0293
  1646.3000      8.0218      2.3720      0.1137     16.8472    114.2858
  1646.4000      8.0218      2.4121      0.0948     14.4178    116.2575
  1646.5000      8.0350      2.4534      0.1198     11.9137    116.2663
  1646.6000      8.0350      2.4909      0.1481      9.6452    116.6775
  1646.7000      8.0350      2.5203      0.2199      7.8597    115.6164
  1646.8000      7.9644      2.5545      0.1769      5.7891    109.0314
  1646.9000      7.9644      2.5945      0.3224      3.3654     98.4868
  1647.0000      8.0108      2.6105      0.2858      2.3929     89.6830
  1647.1000      8.0108      2.5988      0.0809      3.1049     86.3924
  1647.2000      8.0108      2.5917      0.0482      3.5351     87.9214
  1647.3000      7.9763      2.5992      0.0564      3.0782     88.3137
  1647.4000      7.9763      2.6094      0.0911      2.4632     82.9763
  1647.5000      7.8739      2.6211      0.0624      1.7497     75.8625
  1647.6000      7.8739      2.6413      0.1120      0.5280     73.1261
  1647.7000      7.8739      2.6576      0.2060     -0.4589     73.9525
  1647.8000      7.8507      2.6555      0.1230     -0.3315     73.9238
  1647.9000      7.8507      2.6384      0.0964      0.7035     73.3337
  1648.0000      7.8286      2.6053      0.1000      2.7107     74.8058
  1648.1000      7.8286      2.5602      0.0528      5.4433     79.6598
  1648.2000      7.8286      2.5215      0.0237      7.7872     88.6179
  1648.3000      7.8335      2.5029      0.0499      8.9145     98.6087
  1648.4000      7.8335      2.5070      0.0544      8.6665    104.4500
  1648.5000      7.8366      2.5264      0.0774      7.4883    106.1204
  1648.6000      7.8366      2.5470      0.1128      6.2404    108.1302
  1648.7000      7.8366      2.5573      0.1506      5.6171    112.4815
  1648.8000      7.8324      2.5586      0.1580      5.5409    119.4047
  1648.9000      7.8324      2.5588      0.1305      5.5295    125.7350
  1649.0000      7.8280      2.5579      0.1675      5.5815    126.3714
  1649.1000      7.8280      2.5548      0.1152      5.7692    122.4774
  1649.2000      7.8280      2.5594      0.0938      5.4935    121.6763
  1649.3000      7.8319      2.5721      0.1327      4.7182    128.8201
  1649.4000      7.8319      2.5795      0.0926      4.2746    138.2678
  1649.5000      7.8606      2.5704      0.0990      4.8265    143.3498
  1649.6000      7.8606      2.5331      0.1420      7.0872    142.1378
  1649.7000      7.8606      2.4713      0.0662     10.8309    135.6896
  1649.8000      7.8826      2.4075      0.0397     14.6988    129.0306
  1649.9000      7.8826      2.3518      0.0729     18.0702    124.8624
  1650.0000      7.8568      2.3198     -0.0068     20.0110    122.1026
  1650.1000      7.8568      2.3448      0.0359     18.4962    122.8844
  1650.2000      7.8568      2.4307      0.1352     13.2933    128.9682
  1650.3000      7.8339      2.5413      0.1383      6.5901    137.2273
  1650.4000      7.8339      2.6456      0.1545      0.2677    142.3158
  1650.5000      7.8160      2.7302      0.2974     -4.8587    139.0819
  1650.6000      7.8160      2.7855      0.3433     -8.2118    130.6068
  1650.7000      7.8160      2.8022      0.3486     -9.2266    124.3730
  1650.8000      7.8050      2.7741      0.2867     -7.5224    118.5928
  1650.9000      7.8050      2.7158      0.1535     -3.9867    110.5057
  1651.0000      7.7677      2.6597      0.0625     -0.5850    106.1295
  1651.1000      7.7677      2.6277      0.0239      1.3544    107.0087
  1651.2000      7.7677      2.6213      0.0389      1.7407    105.9162
  1651.3000      7.8148      2.6292      0.1158      1.2632    101.4021
  1651.4000      7.8148      2.6332      0.1081      1.0155     98.8406
  1651.5000      7.8355      2.6215      0.1209      1.7259     98.8112
