~Version Information
VERS.                      2.0: CWLS Log ASCII Standard - VERSION 2.0
WRAP.                       NO: One line per depth step
~Well Information Block
STRT.FT                 0.0000: 
STOP.FT              1528.0000: 
STEP.FT                 0.1000: 
NULL.                -999.2500: 
COMP.          Pioneer Natural Resources: COMPANY
WELL.             Andrew 23-15: WELL
FLD.           Purgatorie River: FIELD
LOC.           2137' FSL & 2292' FWL: LOCATION
PROV.                 Colorado: PROVINCE
CNTY.               Las Animas: COUNTRY
SRVC.                Patterson: SERVICE COMPANY
DATE.          Sat Aug 13 12:06:57 2005: LOG DATE
UWI.                          : UNIQUE WELL ID
~Curve Information Block
DEPT.FT            0 000 00 00: Depth
DCAL.in                       : CDL Caliper
RHOB.g/cc                     : CDL Bulk Density
RHOC.g/cc                     : CDL Density Correction
DPOR.pu                       : CDL Density Porosity
GR.GAPI                       : Gamma Ray
NPOR.pu                       : Neutron Porosity
~Parameter Information Block
~A  Depth       DCAL        RHOB        RHOC        DPOR         GR         NPOR    
# ...
   201.6000     16.7234      1.2746      2.2003     -0.0275    139.0714     24.9700
   201.7000     16.7234      1.2743      2.1708     -0.0275    140.2926     25.1200
   201.8000     16.7217      1.2794      2.1674     -0.0274    144.0520     25.4049
   201.9000     16.7217      1.2920      2.2000     -0.0272    149.9174     25.6496
   202.0000     16.7239      1.3059      2.1843     -0.0269    156.2886     25.7716
   202.1000     16.7239      1.3168      2.2054     -0.0267    159.7373     25.8901
   202.2000     16.7239      1.3222      2.2273     -0.0266    158.4380     25.7513
   202.3000     16.7246      1.3236      2.2156     -0.0265    156.3437     25.1320
   202.4000     16.7246      1.3304      2.1927     -0.0264    155.9841     24.3515
   202.5000     16.7273      1.3449      2.2389     -0.0261    154.3975     24.0749
   202.6000     16.7273      1.3530      2.2774     -0.0260    151.9149     24.7005
   202.7000     16.7273      1.3466      2.2404     -0.0261    151.9733     25.4083
   202.8000     16.7274      1.3346      2.2120     -0.0263    152.4593     25.2106
   202.9000     16.7274      1.3221      2.2639     -0.0266    149.9885     24.4787
   203.0000     16.7256      1.3057      2.2089     -0.0269    143.9549     24.1221
   203.1000     16.7256      1.2850      2.2135     -0.0273    139.5360     24.3519
   203.2000     16.7256      1.2620      2.1866     -0.0278    143.1649     24.8247
   203.3000     16.7202      1.2471      2.1255     -0.0281    149.5051     25.2606
   203.4000     16.7202      1.2485      2.1846     -0.0280    152.7132     25.2953
   203.5000     16.7121      1.2514      2.2126     -0.0280    155.6080     24.9611
   203.6000     16.7121      1.2438      2.1556     -0.0281    159.6877     24.7669
   203.7000     16.7121      1.2349      2.1859     -0.0283    162.3050     24.3732
   203.8000     16.7229      1.2326      2.1681     -0.0284    159.4088     23.5868
   203.9000     16.7229      1.2334      2.1845     -0.0283    149.6013     23.5912
   204.0000     16.7247      1.2273      2.2078     -0.0285    139.0788     24.5993
   204.1000     16.7247      1.2116      2.1565     -0.0288    135.7150     25.1034
   204.2000     16.7247      1.1977      2.1233     -0.0291    140.4104     24.5059
   204.3000     16.7181      1.1949      2.1589     -0.0291    146.5216     23.5661
   204.4000     16.7181      1.1995      2.1403     -0.0290    148.1104     23.1575
   204.5000     16.7245      1.1994      2.2004     -0.0290    146.2933     23.8114
   204.6000     16.7245      1.1862      2.1282     -0.0293    145.6439     25.0831
   204.7000     16.7245      1.1663      2.1169     -0.0297    147.3912     25.7049
   204.8000     16.7230      1.1482      2.1174     -0.0301    151.7716     25.1488
   204.9000     16.7230      1.1370      2.0689     -0.0303    158.5095     24.3500
   205.0000     16.7228      1.1382      2.1002     -0.0303    163.2696     24.3561
   205.1000     16.7228      1.1476      2.1147     -0.0301    165.7125     25.0407
   205.2000     16.7228      1.1578      2.1207     -0.0299    169.5932     25.7935
   205.3000     16.7248      1.1668      2.1271     -0.0297    174.1378     26.2400
   205.4000     16.7248      1.1704      2.1641     -0.0296    176.5195     26.3318
   205.5000     16.7297      1.1666      2.1170     -0.0297    175.4973     26.5116
   205.6000     16.7297      1.1618      2.1193     -0.0298    171.7540     27.2526
   205.7000     16.7297      1.1583      2.1323     -0.0298    169.7570     28.1288
   205.8000     16.7268      1.1555      2.0973     -0.0299    170.7892     28.3143
   205.9000     16.7268      1.1533      2.1321     -0.0299    168.9279     27.6071
   206.0000     16.7302      1.1498      2.1025     -0.0300    164.0714     26.4940
   206.1000     16.7302      1.1489      2.1025     -0.0300    161.9913     26.1361
   206.2000     16.7302      1.1565      2.1081     -0.0299    161.3419     26.8392
   206.3000     16.7377      1.1666      2.1381     -0.0297    160.6891     27.5391
   206.4000     16.7377      1.1681      2.1163     -0.0297    162.2540     27.5208
   206.5000     16.7244      1.1613      2.1095     -0.0298    164.7914     27.0203
   206.6000     16.7244      1.1557      2.1049     -0.0299    165.5705     26.7106
   206.7000     16.7244      1.1564      2.1169     -0.0299    164.9823     26.8652
   206.8000     16.7225      1.1607      2.1307     -0.0298    163.9903     27.1707
   206.9000     16.7225      1.1665      2.0976     -0.0297    159.0645     27.5237
   207.0000     16.7329      1.1737      2.1414     -0.0295    149.7857     28.0314
   207.1000     16.7329      1.1795      2.1277     -0.0294    142.9657     28.5237
   207.2000     16.7329      1.1812      2.1670     -0.0294    144.6854     28.8013
   207.3000     16.7329      1.1806      2.1246     -0.0294    154.0523     28.8802
   207.4000     16.7329      1.1838      2.1280     -0.0293    164.4284     28.4940
   207.5000     16.7236      1.1918      2.1510     -0.0292    169.0885     27.5487
   207.6000     16.7236      1.1976      2.1583     -0.0291    167.5243     26.8442
   207.7000     16.7236      1.1961      2.1633     -0.0291    164.7984     26.8859
   207.8000     16.7308      1.1909      2.1200     -0.0292    163.0320     27.0781
   207.9000     16.7308      1.1859      2.1552     -0.0293    159.6958     26.9054
   208.0000     16.7283      1.1774      2.1342     -0.0295    156.8596     26.4898
   208.1000     16.7283      1.1689      2.1043     -0.0296    158.7580     26.0996
   208.2000     16.7283      1.1715      2.1096     -0.0296    162.5114     26.0245
   208.3000     16.7286      1.1870      2.1402     -0.0293    164.6136     26.4020
   208.4000     16.7286      1.2058      2.1445     -0.0289    165.5606     26.8511
   208.5000     16.7253      1.2192      2.1486     -0.0286    164.2717     26.9884
   208.6000     16.7253      1.2236      2.1779     -0.0285    160.8707     27.0560
   208.7000     16.7253      1.2247      2.1426     -0.0285    157.2882     27.3850
   208.8000     16.7296      1.2361      2.1360     -0.0283    154.2725     27.6774
   208.9000     16.7296      1.2567      2.1937     -0.0279    154.6102     27.6501
   209.0000     16.7344      1.2645      2.2331     -0.0277    158.9421     27.3140
   209.1000     16.7344      1.2486      2.1861     -0.0280    160.2648     26.7229
   209.2000     16.7344      1.2259      2.1105     -0.0285    156.2248     26.2963
   209.3000     16.7190      1.2152      2.1508     -0.0287    151.9125     26.1657
   209.4000     16.7190      1.2145      2.1482     -0.0287    149.3104     25.9018
   209.5000     16.7224      1.2157      2.1653     -0.0287    148.6318     25.6528
   209.6000     16.7224      1.2167      2.1584     -0.0287    150.8234     25.8214
   209.7000     16.7224      1.2179      2.1498     -0.0287    154.2210     25.9791
   209.8000     16.7269      1.2172      2.1950     -0.0287    157.0202     25.8731
   209.9000     16.7269      1.2120      2.1559     -0.0288    158.4212     25.8682
   210.0000     16.7268      1.2028      2.1555     -0.0290    156.7709     26.0859
   210.1000     16.7268      1.1879      2.1690     -0.0293    153.6484     26.1516
   210.2000     16.7268      1.1686      2.1279     -0.0296    152.5515     25.8237
   210.3000     16.7326      1.1536      2.1022     -0.0299    152.2730     25.4784
   210.4000     16.7326      1.1451      2.1056     -0.0301    149.6342     25.4668
   210.5000     16.7384      1.1354      2.1179     -0.0303    147.8906     25.7619
   210.6000     16.7384      1.1226      2.0543     -0.0306    151.8732     26.1135
   210.7000     16.7384      1.1128      2.1011     -0.0308    156.3990     26.0892
   210.8000     16.7365      1.1087      2.0389     -0.0308    155.7766     25.7753
   210.9000     16.7365      1.1113      2.0972     -0.0308    156.5192     25.5735
   211.0000     16.7286      1.1206      2.0667     -0.0306    159.6211     25.4778
   211.1000     16.7286      1.1347      2.1200     -0.0303    156.6091     25.2961
