~Version Information
VERS.                      2.0: CWLS Log ASCII Standard - VERSION 2.0
WRAP.                       NO: One line per depth step
~Well Information Block
STRT.FT               230.0000: 
STOP.FT              1028.0000: 
STEP.FT                 0.2500: 
NULL.                -999.2500: 
COMP.          Pioneer Natural Resources: COMPANY
WELL.              Gough 14-29: WELL
FLD.           Purgatoire River: FIELD
LOC.           1199' FSL & 676' FWL: LOCATION
PROV.                 Colorado: PROVINCE
CNTY.               Las Animas: COUNTRY
SRVC.                Patterson: SERVICE COMPANY
DATE.          Thu Dec 22 16:27:18 2005: LOG DATE
UWI.           05 071 08612 00: UNIQUE WELL ID
~Curve Information Block
DEPT.FT            0 000 00 00: Depth
SN.Ohm-m                      : IEL Short Normal
SP.mV                         : IEL Spontaneous Potential
DIR.Ohm-m                     : IEL Induction Resistivity
GR.GAPI                       : Gamma Ray
~Parameter Information Block
SNDERRM.mmho-m         10.0000: Medium Sonde Error Correction
~A  Depth        SN          SP         DIR          GR     
# ...
   397.5000   2000.0000   2000.0000     14.4831    119.1185
   397.7500   2000.0000   2000.0000     15.2224    105.0669
   398.0000   2000.0000   2000.0000     16.0632     85.9300
   398.2500   2000.0000   2000.0000     17.0434     76.1116
   398.5000   2000.0000   2000.0000     18.2116     66.5523
   398.7500   2000.0000   2000.0000     19.6175     62.8833
   399.0000   2000.0000   2000.0000     21.2978     59.4213
   399.2500   2000.0000   2000.0000     23.2609     57.6474
   399.5000   2000.0000   2000.0000     25.4733     55.4373
   399.7500   2000.0000   2000.0000     27.8503     54.4270
   400.0000   2000.0000   2000.0000     30.2481     53.8588
   400.2500   2000.0000   2000.0000     32.4645     54.0219
   400.5000   2000.0000   2000.0000     34.2680     54.4757
   400.7500   2000.0000   2000.0000     35.4714     54.4975
   401.0000   2000.0000   2000.0000     36.0162     53.8403
   401.2500   2000.0000   2000.0000     36.0035     53.1903
   401.5000   2000.0000   2000.0000     35.6349     52.7601
   401.7500   2000.0000   2000.0000     35.1072     53.3481
   402.0000   2000.0000   2000.0000     34.5383     56.1820
   402.2500   2000.0000   2000.0000     33.9646     59.5785
   402.5000   2000.0000   2000.0000     33.3884     66.9180
   402.7500   2000.0000   2000.0000     32.8217     72.9740
   403.0000   2000.0000   2000.0000     32.2883     82.5281
   403.2500   2000.0000   2000.0000     31.7936     88.2499
   403.5000   2000.0000   2000.0000     31.3051     94.6764
   403.7500   2000.0000   2000.0000     30.7683     97.4289
   404.0000   2000.0000   2000.0000     30.1463     99.8550
   404.2500   2000.0000   2000.0000     29.4504    100.6850
   404.5000   2000.0000   2000.0000     28.7382    100.9078
   404.7500   2000.0000   2000.0000     28.0821    100.3734
   405.0000   2000.0000   2000.0000     27.5295     99.0070
   405.2500   2000.0000   2000.0000     27.0816     98.3054
   405.5000   2000.0000   2000.0000     26.6972     98.2414
   405.7500   2000.0000   2000.0000     26.3192     98.5393
   406.0000   2000.0000   2000.0000     25.9066     98.1029
   406.2500   2000.0000   2000.0000     25.4528     96.7233
   406.5000   2000.0000   2000.0000     24.9815     93.5767
   406.7500   2000.0000   2000.0000     24.5266     91.6526
   407.0000   2000.0000   2000.0000     24.1124     90.6357
   407.2500   2000.0000   2000.0000     23.7497     91.8760
   407.5000   2000.0000   2000.0000     23.4446     96.7864
   407.7500   2000.0000   2000.0000     23.2045    101.4004
   408.0000   2000.0000   2000.0000     23.0301    108.0617
   408.2500   2000.0000   2000.0000     22.8979    110.9178
   408.5000   2000.0000   2000.0000     22.7485    111.2979
   408.7500   2000.0000   2000.0000     22.4926    108.9734
   409.0000   2000.0000   2000.0000     22.0359    103.3715
   409.2500   2000.0000   2000.0000     21.3176     99.7037
   409.5000   2000.0000   2000.0000     20.3429     95.7120
   409.7500   2000.0000   2000.0000     19.1852     93.6696
   410.0000   2000.0000   2000.0000     17.9556     90.0693
   410.2500   2000.0000   2000.0000     16.7612     87.3099
   410.5000   2000.0000   2000.0000     15.6774     85.0487
   410.7500   2000.0000   2000.0000     14.7421     86.8586
   411.0000   2000.0000   2000.0000     13.9605     96.8922
   411.2500   2000.0000   2000.0000     13.3165    108.2184
   411.5000   2000.0000   2000.0000     12.7835    128.8192
   411.7500   2000.0000   2000.0000     12.3353    142.1958
   412.0000   2000.0000   2000.0000     11.9531    158.2091
   412.2500   2000.0000   2000.0000     11.6284    165.5976
   412.5000   2000.0000   2000.0000     11.3600    172.4387
   412.7500   2000.0000   2000.0000     11.1495    174.7739
   413.0000   2000.0000   2000.0000     10.9971    175.7336
   413.2500   2000.0000   2000.0000     10.9017    174.9148
   413.5000   2000.0000   2000.0000     10.8615    171.3036
   413.7500   2000.0000   2000.0000     10.8761    167.0688
   414.0000   2000.0000   2000.0000     10.9466    158.4324
   414.2500   2000.0000   2000.0000     11.0753    152.2854
   414.5000   2000.0000   2000.0000     11.2649    145.1534
   414.7500   2000.0000   2000.0000     11.5157    142.7856
   415.0000   2000.0000   2000.0000     11.8239    142.2332
   415.2500   2000.0000   2000.0000     12.1796    142.5995
   415.5000   2000.0000   2000.0000     12.5676    142.6269
   415.7500   2000.0000   2000.0000     12.9653    142.2784
   416.0000   2000.0000   2000.0000     13.3418    142.0461
   416.2500   2000.0000   2000.0000     13.6625    142.4564
   416.5000   2000.0000   2000.0000     13.9009    144.0269
   416.7500   2000.0000   2000.0000     14.0525    145.5569
   417.0000   2000.0000   2000.0000     14.1382    148.0698
   417.2500   2000.0000   2000.0000     14.1958    149.5132
   417.5000   2000.0000   2000.0000     14.2663    150.7872
   417.7500   2000.0000   2000.0000     14.3816    150.8982
   418.0000   2000.0000   2000.0000     14.5586    149.9586
   418.2500   2000.0000   2000.0000     14.8006    148.5206
   418.5000   2000.0000   2000.0000     15.1020    144.6905
   418.7500   2000.0000   2000.0000     15.4532    140.7918
   419.0000   2000.0000   2000.0000     15.8409    133.2856
   419.2500   2000.0000   2000.0000     16.2449    127.8375
   419.5000   2000.0000   2000.0000     16.6386    120.0718
   419.7500   2000.0000   2000.0000     16.9934    115.3027
   420.0000   2000.0000   2000.0000     17.2856    108.2822
   420.2500   2000.0000   2000.0000     17.4983    103.6255
   420.5000   2000.0000   2000.0000     17.6218     97.8843
   420.7500   2000.0000   2000.0000     17.6545     96.1349
   421.0000   2000.0000   2000.0000     17.6061     98.2795
   421.2500   2000.0000   2000.0000     17.4999    103.0617
   421.5000   2000.0000   2000.0000     17.3684    114.4601
   421.7500   2000.0000   2000.0000     17.2432    124.1424
   422.0000   2000.0000   2000.0000     17.1432    140.1786
   422.2500   2000.0000   2000.0000     17.0690    150.5473
   422.5000   2000.0000   2000.0000     17.0078    162.8947
   422.7500   2000.0000   2000.0000     16.9479    167.7549
   423.0000   2000.0000   2000.0000     16.8912    169.2869
   423.2500   2000.0000   2000.0000     16.8547    166.6905
   423.5000   2000.0000   2000.0000     16.8626    158.0605
   423.7500   2000.0000   2000.0000     16.9374    149.7027
   424.0000   2000.0000   2000.0000     17.0962    134.8558
   424.2500   2000.0000   2000.0000     17.3519    124.6650
   424.5000   2000.0000   2000.0000     17.7142    110.8753
   424.7500   2000.0000   2000.0000     18.1876    103.3562
   425.0000   2000.0000   2000.0000     18.7685     95.0765
   425.2500   2000.0000   2000.0000     19.4451     91.6280
   425.5000   2000.0000   2000.0000     20.2003     89.1421
   425.7500   2000.0000   2000.0000     21.0145     88.5273
   426.0000   2000.0000   2000.0000     21.8607     87.6727
   426.2500   2000.0000   2000.0000     22.6890     86.8079
   426.5000   2000.0000   2000.0000     23.4114     85.5568
   426.7500   2000.0000   2000.0000     23.9101     85.0846
   427.0000   2000.0000   2000.0000     24.0807     84.9885
   427.2500   2000.0000   2000.0000     23.8903     85.4894
   427.5000   2000.0000   2000.0000     23.4016     88.3772
   427.7500   2000.0000   2000.0000     22.7376     92.7491
   428.0000   2000.0000   2000.0000     22.0184    103.5121
   428.2500   2000.0000   2000.0000     21.3205    112.5391
   428.5000   2000.0000   2000.0000     20.6733    125.7191
   428.7500   2000.0000   2000.0000     20.0808    132.4602
   429.0000   2000.0000   2000.0000     19.5442    137.8176
   429.2500   2000.0000   2000.0000     19.0720    138.3217
   429.5000   2000.0000   2000.0000     18.6781    136.0942
   429.7500   2000.0000   2000.0000     18.3760    133.8422
   430.0000   2000.0000   2000.0000     18.1752    130.7967
   430.2500   2000.0000   2000.0000     18.0797    129.2506
   430.5000   2000.0000   2000.0000     18.0850    127.3722
   430.7500   2000.0000   2000.0000     18.1740    126.1587
