~Version Information
VERS.                      2.0: CWLS Log ASCII Standard - VERSION 2.0
WRAP.                       NO: One line per depth step
~Well Information Block
STRT.FT                -7.5000: 
STOP.FT               988.5000: 
STEP.FT                 0.2500: 
NULL.                -999.2500: 
COMP.          Pioneer Natural Resources: COMPANY
WELL.          Stags Leap 13-30: WELL
FLD.           Purgatorie River: FIELD
LOC.           1813' FSL & 117' FWL--: LOCATION
PROV.                       CO: PROVINCE
CNTY.               Las Animas: COUNTRY
SRVC.          Patterson Wireline: SERVICE COMPANY
DATE.          Tue Dec 13 11:29:26 2005: LOG DATE
UWI.           05 071 08595 00: UNIQUE WELL ID
~Curve Information Block
DEPT.FT            0 000 00 00: Depth
CCL.                          : Casing Collar Locator
TT3.usec                      : CBL 3' Travel Time
AMP3.mV                       : CBL 3' Amplitude
GR.GAPI                       : Gamma Ray
~Parameter Information Block
~A  Depth       CCL         TT3         AMP3         GR     
    -7.5000   -999.2500   -999.2500   -999.2500     99.9583
    -7.2500   -999.2500   -999.2500   -999.2500    101.4413
    -7.0000   -999.2500   -999.2500   -999.2500    102.1935
    -6.7500   -999.2500   -999.2500   -999.2500    102.8983
    -6.5000   -999.2500   -999.2500   -999.2500    103.8718
    -6.2500   -999.2500   -999.2500   -999.2500    103.9508
    -6.0000   -999.2500   -999.2500   -999.2500    101.3528
    -5.7500   -999.2500   -999.2500   -999.2500     95.7673
    -5.5000   -999.2500   -999.2500   -999.2500     89.3471
    -5.2500   -999.2500   -999.2500   -999.2500     85.3719
    -5.0000   -999.2500   -999.2500   -999.2500     85.8361
    -4.7500   -999.2500   -999.2500   -999.2500     90.2032
    -4.5000   -999.2500   -999.2500   -999.2500     96.0969
    -4.2500   -999.2500   -999.2500   -999.2500    100.8829
    -4.0000   -999.2500   -999.2500   -999.2500    102.9298
    -3.7500   -999.2500   -999.2500   -999.2500    102.1446
    -3.5000   -999.2500   -999.2500   -999.2500     99.8890
    -3.2500   -999.2500   -999.2500   -999.2500     98.2578
    -3.0000   -999.2500   -999.2500   -999.2500     98.6286
    -2.7500   -999.2500   1167.0000     -0.3303    100.3411
    -2.5000   -999.2500   1167.0000     -0.3359    101.1105
    -2.2500   -999.2500   1167.0000     -0.3401     99.1282
    -2.0000   -999.2500   1167.0000     -0.3411     94.5342
    -1.7500   -999.2500   1167.0000     -0.3381     88.6144
    -1.5000   -999.2500   1167.0000     -0.3306     82.1323
    -1.2500   -999.2500   1167.0000     -0.3196     75.0542
    -1.0000   -999.2500   1167.0000     -0.3076     67.5554
    -0.7500   -999.2500   1167.0000     -0.2974     60.4693
    -0.5000   -999.2500   1167.0000     -0.2909     54.6134
    -0.2500   -999.2500   1167.0000     -0.2885     50.0495
     0.0000   -999.2500   1167.0000     -0.2900     46.1425
     0.2500   -999.2500   1167.0000     -0.2984     38.4604
     0.5000   -999.2500   1167.0000     -0.2995     35.3423
     0.7500   -999.2500   1167.0000     -0.2945     33.4646
     1.0000   -999.2500   1167.0000     -0.2842     32.9228
     1.2500   -999.2500   1167.0000     -0.2727     33.4301
     1.5000   -999.2500   1167.0000     -0.2646     34.2451
     1.7500   -999.2500   1167.0000     -0.2631     34.1929
     2.0000   -999.2500   1167.0000     -0.2682     32.5104
     2.2500   -999.2500   1167.0000     -0.2766     29.9190
     2.5000      0.0000   1167.0000     -0.2838     28.5179
     2.7500      0.0000   1167.0000     -0.2879     30.3012
     3.0000      0.0000   1167.0000     -0.2903     35.5908
     3.2500      0.0000   1167.0000     -0.2934     42.7455
     3.5000      0.0000   1167.0000     -0.2979     49.3891
     3.7500      0.0000   1167.0000     -0.3025     54.0034
     4.0000      0.0000   1167.0000     -0.3042     56.4788
     4.2500      0.0000   1167.0000     -0.2987     57.6447
     4.5000      0.0000   1166.9838     -0.2841     58.8084
     4.7500      0.0000   1166.8641     -0.2632     61.3655
     5.0000      0.0000   1166.2080     -0.2362     65.7522
     5.2500      0.0000   1163.4395     -0.1788     70.4214
     5.5000      0.0000   1154.1387      0.0380     72.5185
     5.7500      0.0000   1129.1079      0.8247     70.1446
     6.0000      0.0000   1074.7764      3.1278     63.9792
     6.2500      0.0000    979.0799      8.4595     56.7015
     6.5000      0.0000    841.7432     18.1809     51.1140
     6.7500      0.0000    680.9877     32.0934     48.8786
     7.0000      0.0000    527.8768     47.6595     50.4243
     7.2500      0.0000    409.8156     61.1811     55.2306
     7.5000      0.0000    336.5888     70.0997     62.0360
     7.7500      0.0000    300.2906     74.1123     69.2420
     8.0000      0.0000    285.9970     74.3503     75.4510
     8.2500      0.0000    281.5894     72.0215     79.6739
     8.5000      0.0000    280.7059     67.8335     81.4370
     8.7500      0.0000    281.1403     62.2007     81.1836
     9.0000      0.0000    282.7375     55.6107     80.2114
     9.2500      0.0000    286.2822     48.7312     79.5542
     9.5000      0.0000    293.2090     42.2301     78.9702
     9.7500      0.0000    306.1878     36.5309     77.3887
    10.0000      0.0000    330.9296     31.7375     74.3172
    10.2500      0.0000    377.5480     27.7349     70.5313
    10.5000      0.0000    456.3765     24.3362     67.3288
    10.7500      0.0000    566.6221     21.3800     65.3925
    11.0000      0.0000    688.3460     18.7861     64.6102
    11.2500      0.0000    791.3179     16.5692     64.6599
    11.5000      0.0000    855.6914     14.7949     65.3148
    11.7500      0.0000    882.9150     13.4987     66.3351
    12.0000      0.0000    887.6055     12.6325     67.4918
    12.2500      0.0000    883.4953     12.0831     68.8090
    12.5000      0.0000    877.5073     11.7361     70.6867
    12.7500      0.0000    871.7527     11.5219     73.6618
    13.0000      0.0000    866.8652     11.4082     77.7960
    13.2500      0.0000    863.6224     11.3612     82.0993
    13.5000      0.0000    863.0638     11.3292     84.8150
    13.7500      0.0000    865.6249     11.2674     84.8417
    14.0000      0.0000    870.3751     11.1720     82.9893
    14.2500      0.0000    875.4521     11.0813     81.4038
    14.5000      0.0000    879.3326     11.0368     81.5836
    14.7500      0.0000    881.5435     11.0440     83.1388
    15.0000      0.0000    882.2938     11.0701     84.5130
    15.2500      0.0000    881.7184     11.0764     84.7040
    15.5000      0.0000    879.5424     11.0436     84.1581
    15.7500      0.0000    875.4266     10.9696     84.0797
    16.0000      0.0000    869.7785     10.8606     85.1342
    16.2500      0.0000    864.1464     10.7312     86.9743
    16.5000      0.0000    860.3913     10.6056     88.6939
    16.7500      0.0000    859.1821     10.5069     89.3554
    17.0000      0.0000    859.4301     10.4461     88.2796
    17.2500      0.0000    859.2849     10.4171     85.3696
    17.5000      0.0000    857.5885     10.3969     81.3697
    17.7500      0.0000    854.5121     10.3532     77.4956
    18.0000      0.0000    851.0721     10.2636     74.4946
    18.2500      0.0000    848.1182     10.1340     72.2589
    18.5000      0.0000    845.6407      9.9942     70.5329
    18.7500      0.0000    843.0490      9.8777     69.5656
    19.0000      0.0000    840.0632      9.8075     69.8776
    19.2500      0.0000    837.0824      9.7954     71.8079
    19.5000      0.0000    834.0425      9.8450     75.2847
    19.7500      0.0000    829.2044      9.9466     79.4967
    20.0000      0.0000    820.8724     10.0724     82.8850
    20.2500      0.0000    810.9769     10.1789     84.1638
    20.5000      0.0000    804.5406     10.2202     83.3655
    20.7500      0.0000    803.9138     10.1658     81.5714
    21.0000      0.0000    805.7906     10.0175     79.7241
    21.2500      0.0000    805.4791      9.8132     77.9046
    21.5000      0.0000    801.6356      9.6051     75.7092
    21.7500      0.0000    795.6179      9.4250     73.0551
    22.0000      0.0000    788.9551      9.2722     70.4140
    22.2500      0.0000    782.9442      9.1364     68.3720
    22.5000      0.0000    779.0475      9.0178     67.0779
    22.7500      0.0000    778.5417      8.9192     66.0367
    23.0000      0.0000    782.0341      8.8287     64.4916
    23.2500      0.0000    789.3008      8.7232     62.1836
    23.5000      0.0000    799.0095      8.5868     59.7448
    23.7500      0.0000    808.6313      8.4254     58.2447
    24.0000      0.0000    815.2436      8.2666     58.3835
    24.2500      0.0000    817.2337      8.1439     60.0689
    24.5000      0.0000    815.6339      8.0723     62.5546
    24.7500      0.0000    813.6190      8.0339     65.0585
    25.0000      0.0000    814.3102      7.9917     67.3748
    25.2500      0.0000    818.7507      7.9154     69.7244
    25.5000      0.0000    825.6382      7.7976     71.9895
    25.7500      0.0000    832.8161      7.6541     73.5302
