~Version Information
VERS.                      2.0: CWLS Log ASCII Standard - VERSION 2.0
WRAP.                       NO: One line per depth step
~Well Information Block
STRT.FT                 5.0000: 
STOP.FT               880.0000: 
STEP.FT                 0.2500: 
NULL.                -999.2500: 
COMP.          Pioneer Natural Resources: COMPANY
WELL.          Bienville 31-28: WELL
FLD.           Purgatoire River: FIELD
LOC.           1212' FNL & 2271' FEL: LOCATION
PROV.                 Colorado: PROVINCE
CNTY.               Las Animas: COUNTRY
SRVC.                Patterson: SERVICE COMPANY
DATE.          Tue Jan 24 11:44:03 2006: LOG DATE
UWI.           05 071 08666 00: UNIQUE WELL ID
~Curve Information Block
DEPT.FT            0 000 00 00: Depth
GR.GAPI                       : Gamma Ray
CCL.                          : Casing Collar Locator
TT3.usec                      : CBL 3' Travel Time
AMP3.mV                       : CBL 3' Amplitude
~Parameter Information Block
~A  Depth        GR         CCL         TT3         AMP3    
# ...
   105.5000     47.9072      0.0000    870.5761      7.9272
   105.7500     49.1945      0.0000    860.5321      7.8422
   106.0000     49.9580      0.0000    852.8722      7.7620
   106.2500     49.7510      0.0000    848.4139      7.7051
   106.5000     48.9799      0.0000    843.9737      7.6724
   106.7500     48.5907      0.0000    834.6447      7.6503
   107.0000     49.0446      0.0000    818.8719      7.6262
   107.2500     49.7908      0.0000    800.3129      7.5994
   107.5000     49.9097      0.0000    784.3751      7.5793
   107.7500     49.1599      0.0000    773.9480      7.5743
   108.0000     48.2886      0.0000    768.5692      7.5833
   108.2500     48.3464      0.0000    766.2870      7.5965
   108.5000     49.7340      0.0000    765.4059      7.6011
   108.7500     51.8696      0.0000    765.0154      7.5889
   109.0000     53.7341      0.0000    764.7911      7.5619
   109.2500     54.6932      0.0000    764.6757      7.5320
   109.5000     54.7857      0.0000    764.6615      7.5153
   109.7500     54.3793      0.0000    764.7088      7.5237
   110.0000     53.7858      0.0000    764.7656      7.5564
   110.2500     53.2804      0.0000    764.8065      7.5986
   110.5000     53.2450      0.0000    764.8315      7.6298
   110.7500     53.8623      0.0000    764.8437      7.6349
   111.0000     54.6152      0.0000    764.8519      7.6122
   111.2500     54.4995      0.0000    764.8858      7.5718
   111.5000     52.9372      0.0000    764.9829      7.5284
   111.7500     50.2532      0.0000    765.1537      7.4956
   112.0000     47.2220      0.0000    765.3636      7.4808
   112.2500     44.5854      0.0000    765.5539      7.4827
   112.5000     43.1469      0.0000    765.6770      7.4916
   112.7500     43.7550      0.0000    765.7151      7.4960
   113.0000     46.7004      0.0000    765.6720      7.4870
   113.2500     51.2869      0.0000    765.5505      7.4598
   113.5000     56.2428      0.0000    765.3085      7.4149
   113.7500     60.4067      0.0000    764.8007      7.3613
   114.0000     62.9322      0.0000    763.7347      7.3144
   114.2500     63.2143      0.0000    761.7936      7.2876
   114.5000     61.0444      0.0000    759.0614      7.2844
   114.7500     56.8818      0.0000    756.4323      7.2986
   115.0000     51.8445      0.0000    755.2499      7.3200
   115.2500     47.3182      0.0000    756.1155      7.3382
   115.5000     44.4164      0.0000    758.1066      7.3425
   115.7500     43.6570      0.0000    759.3119      7.3235
   116.0000     44.9693      0.0000    758.0010      7.2779
   116.2500     47.8272      0.0000    753.4670      7.2134
   116.5000     51.3752      0.0000    746.5389      7.1488
   116.7500     54.6263      0.0000    739.5479      7.1055
   117.0000     56.7298      0.0000    735.1085      7.0940
   117.2500     57.2544      0.0000    734.2697      7.1041
   117.5000     56.4768      0.0000    735.9311      7.1126
   117.7500     55.4835      0.0000    738.1306      7.1038
   118.0000     55.8448      0.0000    739.6311      7.0830
   118.2500     58.9150      0.0000    740.3409      7.0665
   118.5000     65.0885      0.0000    740.8255      7.0615
   118.7500     73.4758      0.0000    741.8434      7.0589
   119.0000     82.2827      0.0000    744.1254      7.0432
   119.2500     89.7189      0.0000    748.0364      7.0081
   119.5000     94.7760      0.0000    753.1202      6.9622
   119.7500     97.2874      0.0000    758.1481      6.9208
   120.0000     97.3601      0.0000    761.9438      6.8921
   120.2500     95.0507      0.0000    764.1685      6.8689
   120.5000     90.8015      0.0000    765.2587      6.8338
   120.7500     85.8638      0.0000    765.8032      6.7751
   121.0000     81.7007      0.0000    766.1492      6.6972
   121.2500     78.8161      0.0000    766.4105      6.6197
   121.5000     76.5489      0.0000    766.6089      6.5658
   121.7500     74.2426      0.0000    766.7341      6.5493
   122.0000     72.3789      0.0000    766.7695      6.5692
   122.2500     72.2822      0.0000    766.7123      6.6130
   122.5000     74.6745      0.0000    766.5883      6.6637
   122.7500     78.6674      0.0000    766.4485      6.7071
   123.0000     82.3741      0.0000    766.3605      6.7320
   123.2500     84.5949      0.0000    766.3913      6.7295
   123.5000     85.7199      0.0000    766.5740      6.6958
   123.7500     86.9170      0.0000    766.8753      6.6388
   124.0000     88.6710      0.0000    767.2068      6.5766
   124.2500     90.3039      0.0000    767.4844      6.5280
   124.5000     90.7932      0.0000    767.6782      6.5025
   124.7500     89.8486      0.0000    767.7986      6.4992
   125.0000     88.0905      0.0000    767.8492      6.5123
   125.2500     86.2803      0.0000    767.8134      6.5357
   125.5000     84.5748      0.0000    767.6895      6.5667
   125.7500     82.5720      0.0000    767.5197      6.6046
   126.0000     79.9463      0.0000    767.3743      6.6467
   126.2500     76.9621      0.0000    767.3085      6.6859
   126.5000     74.4693      0.0000    767.3271      6.7150
   126.7500     73.4505      0.0000    767.3780      6.7305
   127.0000     74.4015      0.0000    767.3422      6.7343
   127.2500     76.9210      0.0000    766.9584      6.7326
   127.5000     79.8144      0.0000    765.6890      6.7353
   127.7500     81.7878      0.0000    762.7648      6.7517
   128.0000     82.3103      0.0000    757.7692      6.7830
   128.2500     81.8621      0.0000    751.5225      6.8215
   128.5000     81.3133      0.0000    746.0020      6.8632
   128.7500     81.1047      0.0000    742.5707      6.9180
   129.0000     80.9827      0.0000    740.3105      7.0020
   129.2500     80.3542      0.0000    736.9546      7.1210
   129.5000     78.8194      0.0000    731.5519      7.2642
   129.7500     76.4824      0.0000    725.4449      7.4067
   130.0000     73.8244      0.0000    720.6747      7.5234
   130.2500     71.2262      0.0000    718.3257      7.6068
   130.5000     68.6641      0.0000    718.6202      7.6720
   130.7500     66.0023      0.0000    721.9456      7.7371
   131.0000     63.4554      0.0000    729.3057      7.7980
   131.2500     61.5283      0.0000    741.9384      7.8277
   131.5000     60.6103      0.0000    760.7613      7.7979
   131.7500     60.8667      0.0000    785.8234      7.7032
   132.0000     62.2916      0.0000    815.3307      7.5697
   132.2500     64.5156      0.0000    844.9991      7.4429
   132.5000     66.7959      0.0000    869.5502      7.3682
   132.7500     68.6450      0.0000    885.8111      7.3745
   133.0000     70.4154      0.0000    894.2197      7.4662
   133.2500     72.9532      0.0000    897.3240      7.6205
   133.5000     76.6265      0.0000    897.2160      7.7943
   133.7500     80.9475      0.0000    893.9410      7.9412
   134.0000     85.1431      0.0000    885.2699      8.0331
   134.2500     88.7088      0.0000    867.9761      8.0710
   134.5000     91.3255      0.0000    840.7560      8.0783
   134.7500     92.7886      0.0000    807.0858      8.0832
   135.0000     93.3962      0.0000    774.6858      8.1038
   135.2500     93.9951      0.0000    750.8945      8.1455
   135.5000     95.0661      0.0000    738.1128      8.2106
   135.7500     95.7601      0.0000    733.7063      8.2984
   136.0000     94.2550      0.0000    733.2694      8.3923
   136.2500     89.3740      0.0000    732.7230      8.4510
   136.5000     81.9280      0.0000    728.1459      8.4273
   136.7500     74.5267      0.0000    716.6600      8.2995
   137.0000     70.0028      0.0000    699.5058      8.0622
   137.2500     69.6438      0.0000    683.6977      7.6717
   137.5000     72.4324      0.0000    678.8124      7.0530
   137.7500     75.7137      0.0000    690.7697      6.2244
   138.0000     76.7776      0.0000    717.5042      5.3726
   138.2500     74.4306      0.0000    750.4971      4.7271
   138.5000     69.6662      0.0000    781.4862      4.3749
   138.7500     65.0346      0.0000    809.1820      4.2407
