~Version Information
VERS.                      2.0: CWLS Log ASCII Standard - VERSION 2.0
WRAP.                       NO: One line per depth step
~Well Information Block
STRT.FT                -4.7500: 
STOP.FT              2723.2500: 
STEP.FT                 0.2500: 
NULL.                -999.2500: 
COMP.          Pioneer Natural Resources: COMPANY
WELL.           Dolzanie 34-12: WELL
FLD.           Purgatorie River: FIELD
LOC.           1001' FSL & 1750' FEL: LOCATION
PROV.                 Colorado: PROVINCE
CNTY.               Las Animas: COUNTRY
SRVC.                Patterson: SERVICE COMPANY
DATE.          Wed Jul 27 14:23:29 2005: LOG DATE
UWI.                          : UNIQUE WELL ID
~Curve Information Block
DEPT.FT            0 000 00 00: Depth
GR.GAPI                       : Gamma Ray
CCL.                          : Casing Collar Locator
TT3.usec                      : CBL 3' Travel Time
AMP3.mV                       : CBL 3' Amplitude
~Parameter Information Block
~A  Depth        GR         CCL         TT3         AMP3    
# ...
  2306.7500    148.4154      0.0000    506.2899      4.7330
  2307.0000    140.3639      0.0000    488.9868      4.7048
  2307.2500    133.2427      0.0000    512.8409      4.7357
  2307.5000    128.4105      0.0000    558.8010      4.8057
  2307.7500    125.3065      0.0000    598.5140      4.8491
  2308.0000    122.9263      0.0000    622.8984      4.8162
  2308.2500    121.3690      0.0000    642.5439      4.7094
  2308.5000    121.5472      0.0000    666.7794      4.5566
  2308.7500    123.6627      0.0000    688.3741      4.3815
  2309.0000    126.4109      0.0000    694.1401      4.2064
  2309.2500    127.6025      0.0000    689.3062      4.0762
  2309.5000    125.2067      0.0000    693.7711      4.0596
  2309.7500    118.0937      0.0000    711.5699      4.2038
  2310.0000    106.8254      0.0000    724.9819      4.4726
  2310.2500     94.2116      0.0000    724.1306      4.7437
  2310.5000     84.3470      0.0000    719.9268      4.9045
  2310.7500     80.0864      0.0000    719.8564      4.9314
  2311.0000     81.1978      0.0000    717.5301      4.8562
  2311.2500     85.1354      0.0000    711.9730      4.7103
  2311.5000     89.5117      0.0000    711.3246      4.5170
  2311.7500     93.5616      0.0000    714.4155      4.2981
  2312.0000     97.5040      0.0000    710.0305      4.0956
  2312.2500    101.2908      0.0000    696.5419      3.9800
  2312.5000    104.2746      0.0000    683.8185      3.9896
  2312.7500    105.6412      0.0000    676.4550      4.0768
  2313.0000    105.0352      0.0000    675.1183      4.1527
  2313.2500    103.1377      0.0000    686.3196      4.1735
  2313.5000    101.5641      0.0000    710.1302      4.1582
  2313.7500    101.7188      0.0000    733.3888      4.1397
  2314.0000    103.6462      0.0000    746.1688      4.1423
  2314.2500    106.2261      0.0000    749.5395      4.1804
  2314.5000    108.4035      0.0000    746.5494      4.2313
  2314.7500    109.9526      0.0000    736.6039      4.2411
  2315.0000    111.0971      0.0000    720.1718      4.1694
  2315.2500    111.8893      0.0000    702.2202      3.9915
  2315.5000    112.2249      0.0000    684.3144      3.6947
  2315.7500    112.0990      0.0000    664.0037      3.3479
  2316.0000    111.5310      0.0000    648.9086      3.0630
  2316.2500    110.3487      0.0000    652.3802      2.7898
  2316.5000    108.1298      0.0000    675.4589      2.3887
  2316.7500    104.3302      0.0000    711.6957      1.9338
  2317.0000     98.6653      0.0000    760.9240      1.6241
  2317.2500     91.5442      0.0000    820.3042      1.5026
  2317.5000     83.9836     -2.0000    872.1928      1.4732
  2317.7500     76.9595     -2.0000    902.4526      1.4530
  2318.0000     70.9238      0.0000    910.6423      1.4538
  2318.2500     65.9792      0.0000    889.4484      1.5997
  2318.5000     62.2850      0.0000    844.4775      2.0386
  2318.7500     60.1357      0.0000    817.0559      2.7225
  2319.0000     59.7187      0.0000    826.4919      3.3406
  2319.2500     60.9533      0.0000    836.9646      3.6783
  2319.5000     63.6400      0.0000    819.1447      3.8872
  2319.7500     67.6982      0.0000    789.5668      4.1839
  2320.0000     73.0413      0.0000    772.0140      4.5426
  2320.2500     79.1331      0.0000    766.0032      4.8068
  2320.5000     85.0043      0.0000    761.2521      4.9261
  2320.7500     89.9838      0.0000    753.6185      5.0118
  2321.0000     94.2012      0.0000    741.0798      5.1893
  2321.2500     98.1348      0.0000    720.4731      5.4654
  2321.5000    101.8938      0.0000    695.3040      5.7136
  2321.7500    105.0425      0.0000    676.5689      5.7613
  2322.0000    106.8684      0.0000    668.1924      5.5737
  2322.2500    106.8153      0.0000    661.0686      5.2956
  2322.5000    105.0326      0.0000    645.6904      5.0917
  2322.7500    102.6205      0.0000    616.8947      5.0370
  2323.0000    101.1202      0.0000    569.8385      5.0983
  2323.2500    101.4416      0.0000    511.1352      5.1629
  2323.5000    103.0857      0.0000    462.8802      5.1421
  2323.7500    104.5650      0.0000    442.2376      5.0475
  2324.0000    104.8278      0.0000    452.1184      4.9586
  2324.2500    104.1125      0.0000    484.4814      4.9464
  2324.5000    103.2835      0.0000    514.1497      5.0134
  2324.7500    102.8874      0.0000    510.8527      5.0950
  2325.0000    103.3560      0.0000    475.8640      5.1322
  2325.2500    105.5047      0.0000    444.9160      5.1392
  2325.5000    109.8735      0.0000    450.4529      5.1808
  2325.7500    115.6064      0.0000    498.7562      5.2698
  2326.0000    120.6238      0.0000    573.3703      5.3362
  2326.2500    123.1426      0.0000    648.2001      5.3335
  2326.5000    122.9745      0.0000    704.0273      5.3082
  2326.7500    121.2620      0.0000    735.8773      5.3277
  2327.0000    118.9152      0.0000    749.0922      5.3790
  2327.2500    115.5327      0.0000    752.2720      5.3992
  2327.5000    110.3037      0.0000    751.5464      5.3884
  2327.7500    103.7131      0.0000    748.3204      5.3977
  2328.0000     97.6546      0.0000    740.8868      5.4344
  2328.2500     93.9315      0.0000    730.0479      5.4611
  2328.5000     93.1409      0.0000    721.9672      5.4407
  2328.7500     94.8725      0.0000    719.7011      5.3465
  2329.0000     98.3801      0.0000    719.2318      5.1664
  2329.2500    102.7620      0.0000    720.6293      4.9156
  2329.5000    106.6439      0.0000    727.3867      4.6489
  2329.7500    108.1730      0.0000    733.4250      4.4424
  2330.0000    105.9661      0.0000    725.7706      4.3380
  2330.2500    100.3420      0.0000    696.7419      4.3288
  2330.5000     93.2916      0.0000    649.4481      4.4101
  2330.7500     86.9602      0.0000    596.6575      4.6041
  2331.0000     82.3864      0.0000    558.2285      4.9145
  2331.2500     79.7352      0.0000    554.4506      5.3003
  2331.5000     79.1298      0.0000    588.0425      5.7157
  2331.7500     80.7333      0.0000    635.9058      6.1131
  2332.0000     84.3563      0.0000    672.0551      6.4296
  2332.2500     89.5573      0.0000    691.8293      6.6514
  2332.5000     95.9634      0.0000    706.3724      6.8171
  2332.7500    103.0191      0.0000    722.9835      6.9309
  2333.0000    109.6475      0.0000    736.3878      6.9599
  2333.2500    114.7696      0.0000    738.0091      6.8765
  2333.5000    118.0968      0.0000    723.7330      6.6655
  2333.7500    120.0104      0.0000    690.5624      6.3461
  2334.0000    120.8663      0.0000    642.4379      5.9892
  2334.2500    120.8435      0.0000    601.4725      5.6762
  2334.5000    120.2014      0.0000    593.3591      5.4395
  2334.7500    119.1023      0.0000    618.2985      5.2647
  2335.0000    117.1859      0.0000    651.0957      5.1273
  2335.2500    113.7443      0.0000    668.9438      5.0046
  2335.5000    108.5179      0.0000    670.6769      4.8872
  2335.7500    102.2460      0.0000    667.0481      4.7956
  2336.0000     96.3835      0.0000    656.3340      4.7505
  2336.2500     92.2072      0.0000    625.7546      4.7412
  2336.5000     90.0814      0.0000    577.9917      4.7446
  2336.7500     89.5788      0.0000    541.0961      4.7468
  2337.0000     90.2185      0.0000    544.6030      4.7405
  2337.2500     91.7245      0.0000    586.4191      4.7294
  2337.5000     93.4156      0.0000    635.5563      4.7377
  2337.7500     93.8621      0.0000    665.1177      4.8040
  2338.0000     91.7784      0.0000    670.6372      4.9578
  2338.2500     87.2966      0.0000    664.1581      5.2043
  2338.5000     82.0303      0.0000    658.0184      5.5289
  2338.7500     77.7429      0.0000    655.6882      5.9078
  2339.0000     75.0119      0.0000    655.4234      6.3054
  2339.2500     73.1641      0.0000    655.5270      6.6692
  2339.5000     71.2661      0.0000    655.4347      6.9515
  2339.7500     69.0168      0.0000    655.1708      7.1331
  2340.0000     66.8212      0.0000    655.0067      7.2072
