~Version Information
 VERS.                                  2.0 : CWLS LAS VERSION
 WRAP.                                   NO : WRAPING MODE
 SWARE .                 MController 2.5.0N : SOFTWARE VERSION
~Well Information
 WELL.                     CORTINA 23-25 TR : WELL
 COMP.    PIONEER NATURAL RESOURCES USA INC : COMPANY
 FLD.                      PURGATOIRE RIVER : FIELD
 LOC.                NE/SW SEC 25 T32S R67W : LOCATION
 DATE.                             09/24/05 : DATE(S) LOGGED
 SRVC.       BLANCO GEOLOGICAL SERVICES LLC : SERVICE COMPANY
 STAT.                             COLORADO : STATE
 CNTY.                           LAS ANIMAS : COUNTY
 CTRY.                                  USA : COUNTRY
 API.                       05-071-08534-00 : API NUMBER
 STRT.FT                             388.00 : START DEPTH
 STOP.FT                            1890.00 : STOP DEPTH
 STEP.FT                               1.00 : DEPTH INCREMENT
 NULL.                                -9999 : NULL VALUE
~Curve information
 DEPTH.FT                                   :
 ROP.MIN/FT                                 :
 GAS.UNITS                                  :
~ASCII Log data
# ...
      1388.0         0.28         23.7 
      1389.0         0.13         23.7 
      1390.0         0.20         22.4 
      1391.0         0.47         21.8 
      1392.0         0.37         24.5 
      1393.0         0.37         27.0 
      1394.0         0.27         30.8 
      1395.0         0.53         37.7 
      1396.0         0.40         38.2 
      1397.0         1.32          9.6 
      1398.0         1.97         33.8 
      1399.0         0.37          0.7 
      1400.0         0.52          0.8 
      1401.0         0.07          0.8 
      1402.0         0.27          1.4 
      1403.0         0.30          1.2 
      1404.0         0.27         23.5 
      1405.0         0.30         28.9 
      1406.0         0.30         30.3 
      1407.0         0.27         30.0 
      1408.0         0.30         29.7 
      1409.0         0.50         29.5 
      1410.0         0.17         28.5 
      1411.0         0.55         27.6 
      1412.0         0.30         24.0 
      1413.0         0.43         24.6 
      1414.0         0.40         26.6 
      1415.0         0.30         31.4 
      1416.0         0.30         33.6 
      1417.0         0.27         34.8 
      1418.0         0.30         38.5 
      1419.0         0.57         39.9 
      1420.0         0.07         40.2 
      1421.0         0.35         41.2 
      1422.0         0.30         41.8 
      1423.0         0.30         42.0 
      1424.0         0.50         39.2 
      1425.0         0.50         40.9 
      1426.0         0.57         34.6 
      1427.0         1.32         31.1 
      1428.0         2.27         26.7 
      1429.0         0.72         25.8 
      1430.0         0.27         25.0 
      1431.0         0.27         24.5 
      1432.0         0.27         23.8 
      1433.0         0.37         23.7 
      1434.0         0.30         22.5 
      1435.0         0.27         23.8 
      1436.0         0.37         26.5 
      1437.0         0.23         26.5 
      1438.0         0.40         31.0 
      1439.0         0.27         33.8 
      1440.0         0.28         36.9 
      1441.0         0.57         38.6 
      1442.0         0.13         38.7 
      1443.0         0.40         41.0 
      1444.0         0.30         39.4 
      1445.0         0.30         38.8 
      1446.0         0.33         38.3 
      1447.0         0.23         37.3 
      1448.0         0.10         37.3 
      1449.0         0.13         36.9 
      1450.0         0.13         36.9 
      1451.0         0.27         35.5 
      1452.0         0.35         34.9 
      1453.0         0.37         34.4 
      1454.0         0.40         34.7 
      1455.0         0.27         34.9 
      1456.0         0.27         36.9 
      1457.0         1.50         39.1 
      1458.0         2.05         39.2 
      1459.0         0.60         46.0 
      1460.0         0.43         45.0 
      1461.0         0.27          7.7 
      1462.0         0.37          0.8 
      1463.0         0.28          0.8 
      1464.0         0.57          0.0 
      1465.0         0.30          0.3 
      1466.0         0.30          0.0 
      1467.0         0.50          0.4 
      1468.0         0.10          0.7 
      1469.0         0.37         42.3 
      1470.0         0.13         45.0 
      1471.0         0.13         52.8 
      1472.0         0.27         55.3 
      1473.0         0.30         54.5 
      1474.0         0.28         53.4 
      1475.0         0.17         52.8 
      1476.0         0.30         52.7 
      1477.0         0.27         52.8 
      1478.0         0.20         52.8 
      1479.0         0.20         55.1 
      1480.0         0.30         53.3 
      1481.0         0.20         51.0 
      1482.0         0.23         50.1 
      1483.0         0.27         48.8 
      1484.0         0.43         47.9 
      1485.0         0.27         46.4 
      1486.0         0.48         45.1 
      1487.0         1.40         43.4 
      1488.0         2.85         60.2 
      1489.0         0.60         57.9 
      1490.0         0.30         57.5 
      1491.0         0.20         55.8 
      1492.0         0.30         55.6 
      1493.0         0.53         53.3 
      1494.0         0.32         52.0 
      1495.0         0.30         54.8 
      1496.0         0.27         62.6 
      1497.0         0.30         73.9 
      1498.0         0.33         86.1 
      1499.0         0.20         92.1 
      1500.0         0.23         92.1 
      1501.0         0.17         89.3 
      1502.0         0.13         88.3 
      1503.0         0.13         87.9 
      1504.0         0.17         87.5 
      1505.0         0.33         82.5 
      1506.0         0.42         81.2 
      1507.0         0.13         75.2 
      1508.0         0.33         70.6 
      1509.0         0.20         68.0 
      1510.0         0.13         66.5 
      1511.0         0.13         66.8 
      1512.0         0.10         69.8 
      1513.0         0.07         69.8 
      1514.0         0.23         73.7 
      1515.0         0.37         88.1 
      1516.0         0.37        104.7 
      1517.0         1.65        147.4 
      1518.0         3.22        145.3 
      1519.0         0.27        117.7 
      1520.0         0.33        118.6 
      1521.0         0.30        108.5 
      1522.0         0.30        100.3 
      1523.0         0.33         97.2 
      1524.0         0.23         91.2 
      1525.0         0.27         89.7 
      1526.0         0.28         88.9 
      1527.0         0.50         86.1 
      1528.0         0.30         78.2 
      1529.0         0.10         74.8 
      1530.0         0.10         73.9 
      1531.0         0.37         76.8 
      1532.0         0.40         83.1 
      1533.0         0.20         89.2 
      1534.0         0.13         95.2 
      1535.0         0.17         99.4 
      1536.0         0.23        104.5 
      1537.0         0.20        110.7 
      1538.0         0.17        116.1 
      1539.0         0.25        119.5 
      1540.0         0.27        121.0 
      1541.0         0.30        120.5 
      1542.0         0.23        116.9 
      1543.0         0.20        116.9 
      1544.0         0.17        115.4 
      1545.0         0.17        113.8 
      1546.0         0.20        111.8 
      1547.0         1.37        111.7 
      1548.0         1.85         96.5 
      1549.0         0.27         75.8 
      1550.0         0.30         75.5 
      1551.0         0.40         71.7 
      1552.0         0.20         67.9 
      1553.0         0.13         65.5 
      1554.0         0.15         64.2 
      1555.0         0.07         64.2 
      1556.0         0.23         65.0 
      1557.0         0.50         74.7 
      1558.0         0.33         82.9 
      1559.0         0.33         91.2 
      1560.0         0.33        100.0 
      1561.0         0.30        106.0 
      1562.0         0.27        111.1 
      1563.0         0.27        114.9 
      1564.0         0.33        114.2 
      1565.0         0.32        108.5 
      1566.0         0.30        107.5 
      1567.0         0.30        103.0 
      1568.0         0.37        103.6 
      1569.0         0.27        103.6 
      1570.0         0.30        102.3 
      1571.0         0.23        102.4 
      1572.0         0.37        101.9 
      1573.0         0.27         99.1 
      1574.0         0.23         95.9 
      1575.0         0.30         93.0 
      1576.0         0.28         89.5 
      1577.0         1.60         94.4 
      1578.0         2.42         88.0 
      1579.0         0.10         78.7 
      1580.0         0.53         88.2 
      1581.0         0.27         99.2 
      1582.0         0.27        110.1 
      1583.0         0.33        121.8 
      1584.0         0.17        134.4 
      1585.0         0.17        134.4 
      1586.0         0.23        146.3 
      1587.0         0.30        164.2 
