~Version Information
VERS.                      2.0: CWLS Log ASCII Standard - VERSION 2.0
WRAP.                       NO: One line per depth step
~Well Information Block
STRT.FT                 0.0000: 
STOP.FT              1871.2500: 
STEP.FT                 0.2500: 
NULL.                -999.2500: 
COMP.          Petrogulf Corporation: COMPANY
WELL.             Norton 9-14R: WELL
FLD.           Purgatorie River: FIELD
LOC.           725' FSL & 1103' FWL: LOCATION
STAT.                 Colorado: State
CNTY.               Las Animas: COUNTY
CTRY. USA : Country
SECT. 9 : Section
TOWN. 33S : Township
RANG. 67W : Range
SRVC.                Patterson: SERVICE COMPANY
DATE.          Thu Nov 10 13:05:53 2005: LOG DATE
API. 05-071-08444                         : UNIQUE WELL ID
~Curve Information Block
DEPT.FT            0 000 00 00: Depth
CCL.                          : Casing Collar Locator
TT3.usec                      : CBL 3' Travel Time
AMP3.mV                       : CBL 3' Amplitude
GR.GAPI                       : Gamma Ray
~Parameter Information Block
~A  Depth       CCL         TT3         AMP3         GR     
# ...
   134.0000      0.0000    326.5329     22.3265     50.2587
   134.2500      0.0000    313.1458     23.9935     52.1791
   134.5000      0.0000    305.2138     25.2620     54.9059
   134.7500      0.0000    301.9563     26.2294     58.6958
   135.0000      0.0000    300.7275     26.7770     63.1892
   135.2500      0.0000    300.1152     26.8237     68.1699
   135.5000      0.0000    299.7818     26.4008     73.8768
   135.7500      0.0000    299.6451     25.6353     80.3152
   136.0000      0.0000    299.5878     24.7179     86.4121
   136.2500      0.0000    299.5035     23.8023     90.3127
   136.5000      0.0000    299.3794     22.9521     90.8206
   136.7500      0.0000    299.2787     22.1504     88.6071
   137.0000      0.0000    299.2523     21.3557     85.9973
   137.2500      0.0000    299.3012     20.5812     85.6353
   137.5000      0.0000    299.3920     19.8776     89.0186
   137.7500      0.0000    299.4858     19.2566     95.7018
   138.0000      0.0000    299.5757     18.7088    103.5265
   138.2500      0.0000    299.6920     18.2508    109.6887
   138.5000      0.0000    299.8794     17.8778    112.1132
   138.7500      0.0000    300.1612     17.5302    110.6287
   139.0000      0.0000    300.4918     17.1681    107.1418
   139.2500      0.0000    300.7457     16.8246    104.2206
   139.5000      0.0000    300.7983     16.5634    103.0188
   139.7500      0.0000    300.6370     16.4174    102.6429
   140.0000      0.0000    300.3850     16.3707    101.5809
   140.2500      0.0000    300.1978     16.3852     99.3739
   140.5000      0.0000    300.1584     16.4451     96.6412
   140.7500      0.0000    300.3035     16.5538     94.0223
   141.0000      0.0000    300.8277     16.6736     91.6622
   141.2500      0.0000    302.4860     16.7276     89.4311
   141.5000      0.0000    306.7345     16.6801     87.0413
   141.7500      0.0000    314.4318     16.5646     84.1119
   142.0000      0.0000    323.7847     16.4326     80.5862
   142.2500      0.0000    331.3040     16.3228     77.0135
   142.5000      0.0000    335.3908     16.2692     74.0551
   142.7500      0.0000    337.0818     16.3008     71.7113
   143.0000      0.0000    337.8599     16.4143     69.2746
   143.2500      0.0000    338.4378     16.5769     66.0859
   143.5000      0.0000    338.9895     16.7742     62.1968
   143.7500      0.0000    339.3635     17.0086     58.3204
   144.0000      0.0000    338.6750     17.2782     55.3822
   144.2500      0.0000    335.0118     17.6051     54.1105
   144.5000      0.0000    327.0576     18.0285     54.6106
   144.7500      0.0000    316.7970     18.5318     56.1691
   145.0000      0.0000    308.4636     19.0286     57.8320
   145.2500      0.0000    304.1283     19.4403     59.2000
   145.5000      0.0000    302.6487     19.7362     60.3287
   145.7500      0.0000    302.2523     19.9098     61.0189
   146.0000      0.0000    302.0572     19.9792     60.8114
   146.2500      0.0000    301.8563     19.9906     59.8659
   146.5000      0.0000    301.6854     19.9813     59.3965
   146.7500      0.0000    301.5819     19.9532     60.7552
   147.0000      0.0000    301.4713     19.8807     64.1535
   147.2500      0.0000    301.2439     19.7364     68.5882
   147.5000      0.0000    300.9014     19.5258     72.8802
   147.7500      0.0000    300.5419     19.2970     76.5417
   148.0000      0.0000    300.2329     19.1040     79.8009
   148.2500      0.0000    299.9658     18.9594     83.0980
   148.5000      0.0000    299.7160     18.8369     86.6533
   148.7500      0.0000    299.4938     18.7208     90.2972
   149.0000      0.0000    299.3242     18.6322     93.3953
   149.2500      0.0000    299.2043     18.5951     95.0474
   149.5000      0.0000    299.1047     18.6001     94.8631
   149.7500      0.0000    299.0106     18.6205     93.5228
   150.0000      0.0000    298.9687     18.6523     92.1109
   150.2500      0.0000    299.2013     18.7054     90.9074
   150.5000      0.0000    300.4621     18.7648     89.2939
   150.7500      0.0000    304.2620     18.8096     86.8321
   151.0000      0.0000    311.5833     18.8515     83.9745
   151.2500      0.0000    320.6798     18.9081     81.6034
   151.5000      0.0000    327.9948     18.9600     80.1311
   151.7500      0.0000    331.8790     18.9675     79.0835
   152.0000      0.0000    333.3859     18.9107     77.3967
   152.2500      0.0000    333.9780     18.7973     74.2090
   152.5000      0.0000    334.2737     18.6467     69.5693
   152.7500      0.0000    334.4075     18.4585     64.5928
   153.0000      0.0000    334.4780     18.2031     60.9767
   153.2500      0.0000    334.6160     17.8641     59.9947
   153.5000      0.0000    334.9387     17.4741     61.6092
   153.7500      0.0000    335.5008     17.0962     64.6992
   154.0000      0.0000    336.2090     16.7566     68.2466
   154.2500      0.0000    336.8102     16.4192     72.0734
   154.5000      0.0000    337.0674     16.0698     76.3903
   154.7500      0.0000    336.9522     15.7730     81.0027
   155.0000      0.0000    336.5910     15.5935     85.1453
   155.2500      0.0000    336.1003     15.5137     87.9419
   155.5000      0.0000    335.5576     15.4808     89.0300
   155.7500      0.0000    335.0311     15.4966     88.8903
   156.0000      0.0000    334.5430     15.6102     88.4937
   156.2500      0.0000    333.9221     15.8410     88.3853
   156.5000      0.0000    332.4537     16.1603     88.1583
   156.7500      0.0000    328.6479     16.5407     87.0608
   157.0000      0.0000    321.4459     16.9613     85.0771
   157.2500      0.0000    312.4461     17.3786     83.2055
   157.5000      0.0000    305.1669     17.7549     82.6694
   157.7500      0.0000    301.3768     18.0974     83.9576
   158.0000      0.0000    300.1268     18.4296     86.4065
   158.2500      0.0000    299.8844     18.7612     88.4571
   158.5000      0.0000    299.8420     19.1022     88.4686
   158.7500      0.0000    299.8122     19.4593     85.8024
   159.0000      0.0000    300.0025     19.8144     81.3996
   159.2500      0.0000    301.1647     20.1119     77.2545
   159.5000      0.0000    304.7020     20.2833     75.1737
   159.7500      0.0000    311.4706     20.3096     75.8990
   160.0000      0.0000    319.7732     20.2338     79.1137
   160.2500      0.0000    326.2490     20.1060     83.9850
   160.5000      0.0000    329.3820     19.9315     89.7709
   160.7500      0.0000    330.2234     19.6734     95.9819
   161.0000      0.0000    330.2242     19.3024    101.9441
   161.2500      0.0000    330.0729     18.8336    106.4905
   161.5000      0.0000    329.9665     18.3054    108.5661
   161.7500      0.0000    329.9459     17.7369    108.2952
   162.0000      0.0000    329.9768     17.1488    107.1542
   162.2500      0.0000    329.9919     16.5976    106.7422
   162.5000      0.0000    329.9776     16.1327    107.3648
   162.7500      0.0000    330.0266     15.7499    107.8711
   163.0000      0.0000    330.2774     15.4255    106.6920
   163.2500      0.0000    330.7816     15.1647    102.9821
   163.5000      0.0000    331.4264     14.9906     97.0159
   163.7500      0.0000    332.0032     14.9271     89.8305
   164.0000      0.0000    332.3500     15.0248     82.7547
   164.2500      0.0000    332.4333     15.3489     77.2079
   164.5000      0.0000    332.3589     15.8818     74.3077
   164.7500      0.0000    332.3079     16.4990     74.0299
   165.0000      0.0000    332.4019     17.1113     75.0469
   165.2500      0.0000    332.6241     17.7451     75.9537
   165.5000      0.0000    332.8574     18.4243     76.4984
   165.7500      0.0000    333.0000     19.0811     77.2901
   166.0000      0.0000    333.0759     19.6153     78.6354
   166.2500      0.0000    333.2183     19.9624     80.0394
   166.5000      0.0000    333.5283     20.1148     80.6720
   166.7500      0.0000    333.8412     20.1023     80.1147
   167.0000      0.0000    333.4754     19.9366     78.7282
   167.2500      0.0000    331.5847     19.5612     77.2775
