~Version Information
VERS.                      2.0: CWLS Log ASCII Standard - VERSION 2.0
WRAP.                       NO: One line per depth step
~Well Information Block
STRT.FT               597.2500: 
STOP.FT              1567.2500: 
STEP.FT                 0.2500: 
NULL.                -999.2500: 
COMP.          Pioneer Natural Resources: COMPANY
WELL.           Butch 33-10 Tr: WELL
FLD.           Purgatoire River: FIELD
LOC.           2309' FSL & 1337' FEL--: LOCATION
PROV.                 Colorado: PROVINCE
CNTY.               Las Animas: COUNTRY
SRVC.                Patterson: SERVICE COMPANY
DATE.          Sat Jan 14 05:18:29 2006: LOG DATE
UWI.           05 071 08649 00: UNIQUE WELL ID
~Curve Information Block
DEPT.FT            0 000 00 00: Depth
SN.Ohm-m                      : IEL Short Normal
SP.mV                         : IEL Spontaneous Potential
DIR.Ohm-m                     : IEL Induction Resistivity
GR.GAPI                       : Gamma Ray
~Parameter Information Block
~A  Depth        SN          SP         DIR          GR     
# ...
  1468.2500     12.5505     80.3983     10.7739    137.8072
  1468.5000     12.3753     80.9722     10.5606    142.7547
  1468.7500     12.1175     81.5048     10.2876    144.2889
  1469.0000     11.8253     81.9847      9.9743    145.0473
  1469.2500     11.5408     82.4122      9.6489    145.6260
  1469.5000     11.2915     82.7939      9.3392    147.8442
  1469.7500     11.0876     83.1371      9.0649    150.1599
  1470.0000     10.9242     83.4452      8.8348    153.9350
  1470.2500     10.7909     83.7164      8.6494    156.0895
  1470.5000     10.6848     83.9436      8.5065    158.2056
  1470.7500     10.6170     84.1169      8.4065    158.7919
  1471.0000     10.6072     84.2258      8.3546    158.8762
  1471.2500     10.6676     84.2627      8.3601    158.9708
  1471.5000     10.7911     84.2234      8.4335    159.9882
  1471.7500     10.9497     84.1083      8.5828    161.0968
  1472.0000     11.1058     83.9219      8.8121    161.7270
  1472.2500     11.2302     83.6718      9.1209    160.0955
  1472.5000     11.3243     83.3679      9.5061    153.0611
  1472.7500     11.4430     83.0217      9.9654    145.4263
  1473.0000     11.7106     82.6456     10.5005    131.2629
  1473.2500     12.3065     82.2524     11.1183    121.4601
  1473.5000     13.4063     81.8547     11.8280    108.6564
  1473.7500     15.0935     81.4644     12.6363    102.3795
  1474.0000     17.2864     81.0930     13.5403     96.7774
  1474.2500     19.7272     80.7518     14.5201     95.1336
  1474.5000     22.0551     80.4532     15.5344     94.5068
  1474.7500     23.9454     80.2113     16.5209     94.7092
  1475.0000     25.2331     80.0416     17.4090     95.6878
  1475.2500     25.9380     79.9602     18.1405     97.0279
  1475.5000     26.1931     79.9807     18.6896    100.4999
  1475.7500     26.1480     80.1107     19.0661    103.7400
  1476.0000     25.9137     80.3492     19.3018    109.2240
  1476.2500     25.5565     80.6846     19.4329    112.5478
  1476.5000     25.1205     81.0956     19.4878    115.8082
  1476.7500     24.6480     81.5532     19.4860    116.6079
  1477.0000     24.1862     82.0242     19.4431    116.6232
  1477.2500     23.7805     82.4741     19.3785    116.7358
  1477.5000     23.4617     82.8698     19.3200    118.1007
  1477.7500     23.2339     83.1804     19.2998    119.8592
  1478.0000     23.0734     83.3786     19.3418    123.0751
  1478.2500     22.9414     83.4420     19.4493    124.8008
  1478.5000     22.8081     83.3565     19.6020    124.8992
  1478.7500     22.6758     83.1190     19.7674    122.5121
  1479.0000     22.5898     82.7415     19.9215    115.7663
  1479.2500     22.6297     82.2525     20.0631    110.5478
  1479.5000     22.8722     81.6962     20.2129    104.0938
  1479.7500     23.3358     81.1293     20.3973    101.2061
  1480.0000     23.9345     80.6143     20.6249     98.2493
  1480.2500     24.4837     80.2126     20.8695     96.5908
  1480.5000     24.7711     79.9770     21.0650     94.2201
  1480.7500     24.6501     79.9461     21.1216     92.8278
  1481.0000     24.0953     80.1403     20.9590     91.3565
  1481.2500     23.1946     80.5606     20.5410     91.0408
  1481.5000     22.1013     81.1902     19.8871     91.9619
  1481.7500     20.9711     81.9974     19.0558     93.5946
  1482.0000     19.9083     82.9403     18.1164     97.6562
  1482.2500     18.9417     83.9717     17.1281    101.5909
  1482.5000     18.0408     85.0433     16.1335    109.3486
  1482.7500     17.1592     86.1093     15.1625    115.1756
  1483.0000     16.2737     87.1284     14.2386    122.9540
  1483.2500     15.3990     88.0654     13.3840    126.5277
  1483.5000     14.5762     88.8926     12.6190    129.3936
  1483.7500     13.8506     89.5901     11.9596    130.5006
  1484.0000     13.2498     90.1471     11.4143    132.7118
  1484.2500     12.7728     90.5616     10.9823    135.0215
  1484.5000     12.3958     90.8414     10.6533    139.1777
  1484.7500     12.0907     91.0038     10.4101    141.6255
  1485.0000     11.8393     91.0745     10.2330    143.6333
  1485.2500     11.6375     91.0856     10.1055    143.5592
  1485.5000     11.4920     91.0710     10.0179    141.6333
  1485.7500     11.4129     91.0618      9.9669    139.7906
  1486.0000     11.4039     91.0799      9.9524    137.5615
  1486.2500     11.4546     91.1340      9.9744    136.8260
  1486.5000     11.5420     91.2179     10.0304    136.4915
  1486.7500     11.6384     91.3131     10.1149    136.4561
  1487.0000     11.7182     91.3954     10.2181    136.7971
  1487.2500     11.7603     91.4423     10.3258    137.4809
  1487.5000     11.7525     91.4399     10.4207    138.5049
  1487.7500     11.6970     91.3863     10.4871    138.1821
  1488.0000     11.6129     91.2914     10.5170    135.1982
  1488.2500     11.5300     91.1726     10.5133    132.2014
  1488.5000     11.4767     91.0500     10.4884    128.7058
  1488.7500     11.4657     90.9418     10.4580    128.1922
  1489.0000     11.4850     90.8611     10.4325    130.3210
  1489.2500     11.5002     90.8154     10.4098    132.8249
  1489.5000     11.4702     90.8073     10.3730    136.0253
  1489.7500     11.3676     90.8353     10.2978    136.6745
  1490.0000     11.1909     90.8949     10.1653    134.7323
  1490.2500     10.9618     90.9790      9.9735    132.0827
  1490.5000     10.7134     91.0782      9.7385    128.4834
  1490.7500     10.4805     91.1808      9.4854    127.9531
  1491.0000     10.2921     91.2739      9.2378    131.8535
  1491.2500     10.1617     91.3442      9.0115    137.7864
  1491.5000     10.0819     91.3794      8.8141    150.2654
  1491.7500     10.0307     91.3700      8.6464    159.2832
  1492.0000      9.9879     91.3099      8.5049    170.7707
  1492.2500      9.9461     91.1972      8.3837    176.0925
  1492.5000      9.9095     91.0340      8.2768    180.7196
  1492.7500      9.8848     90.8255      8.1798    182.0434
  1493.0000      9.8761     90.5791      8.0918    181.9219
  1493.2500      9.8850     90.3025      8.0168    180.8469
  1493.5000      9.9106     90.0033      7.9632    178.9725
  1493.7500      9.9474     89.6870      7.9428    178.0551
  1494.0000      9.9868     89.3572      7.9673    176.8243
  1494.2500     10.0223     89.0155      8.0456    175.5231
  1494.5000     10.0521     88.6622      8.1813    172.4336
  1494.7500     10.0737     88.2973      8.3718    169.8695
  1495.0000     10.0787     87.9218      8.6098    165.8465
  1495.2500     10.0580     87.5392      8.8858    163.0168
  1495.5000     10.0165     87.1562      9.1914    157.7582
  1495.7500      9.9852     86.7831      9.5212    153.1949
  1496.0000     10.0258     86.4337      9.8728    145.4679
  1496.2500     10.2254     86.1233     10.2451    140.8654
  1496.5000     10.6769     85.8654     10.6365    136.3315
  1496.7500     11.4407     85.6681     11.0443    134.8554
  1497.0000     12.5004     85.5301     11.4661    133.9002
  1497.2500     13.7476     85.4372     11.9001    133.6996
  1497.5000     15.0203     85.3617     12.3444    134.2175
  1497.7500     16.1816     85.2644     12.7975    135.3127
  1498.0000     17.1794     85.0995     13.2600    137.8546
  1498.2500     18.0445     84.8209     13.7379    139.6614
  1498.5000     18.8473     84.3899     14.2462    141.5071
  1498.7500     19.6641     83.7818     14.8096    141.4845
  1499.0000     20.5706     82.9898     15.4613    138.0467
  1499.2500     21.6508     82.0262     16.2402    132.6184
  1499.5000     23.0083     80.9203     17.1880    119.6055
  1499.7500     24.7608     79.7128     18.3461    108.6979
  1500.0000     26.9974     78.4486     19.7495     91.6897
  1500.2500     29.7098     77.1698     21.4145     81.3348
  1500.5000     32.7561     75.9091     23.3189     68.9487
  1500.7500     35.9021     74.6872     25.3846     63.3347
  1501.0000     38.9065     73.5123     27.4773     58.9225
  1501.2500     41.5875     72.3834     29.4321     58.1460
  1501.5000     43.8409     71.2957     31.0953     58.9730
