~Version Information
VERS.                      2.0: CWLS Log ASCII Standard - VERSION 2.0
WRAP.                       NO: One line per depth step
~Well Information Block
STRT.FT                -8.7500: 
STOP.FT              1525.0000: 
STEP.FT                 0.2500: 
NULL.                -999.2500: 
COMP.          Pioneer Natural Resources: COMPANY
WELL.          Grand Prix 13-12 Tr: WELL
FLD.           Purgatorie River: FIELD
LOC.           2595' FSL & 1277' FWL--: LOCATION
CNTY.               Las Animas: COUNTY
SRVC.          Patterson Wireline: SERVICE COMPANY
DATE.          Thu Apr 13 10:28:30 2006: LOG DATE
UWI.           05 071 08711 00: UNIQUE WELL ID
STAT.                       CO: STATE
~Curve Information Block
DEPT.FT            0 000 00 00: Depth
CCL.                          : Casing Collar Locator
TT3.usec                      : CBL 3' Travel Time
AMP3.mV                       : CBL 3' Amplitude
GR.GAPI                       : Gamma Ray
~Parameter Information Block
~A  Depth       CCL         TT3         AMP3         GR     
# ...
   795.2500      0.0000    429.0498      4.3989     67.6145
   795.5000      0.0000    428.4368      4.4221     63.7773
   795.7500      0.0000    439.2610      4.4066     60.1068
   796.0000      0.0000    467.3544      4.3063     57.1075
   796.2500      0.0000    511.2386      4.1271     55.2553
   796.5000      0.0000    559.9746      3.9550     54.7058
   796.7500      0.0000    599.3104      3.9105     55.3245
   797.0000      0.0000    621.5394      4.0387     56.8787
   797.2500      0.0000    628.5727      4.2528     59.0235
   797.5000      0.0000    625.6939      4.4191     61.3137
   797.7500      0.0000    615.5048      4.4853     64.0395
   798.0000      0.0000    600.5049      4.4941     69.2251
   798.2500      2.0000    589.3745      4.4977     79.6397
   798.5000     -2.0000    595.3366      4.5032     95.8759
   798.7500      0.0000    624.8642      4.4977    114.8222
   799.0000      0.0000    668.8229      4.4970    131.5171
   799.2500      0.0000    707.4222      4.5531    142.0138
   799.5000      0.0000    725.0438      4.7011    144.6115
   799.7500      0.0000    719.9537      4.8954    139.9274
   800.0000      0.0000    700.5251      5.0305    130.7968
   800.2500      0.0000    675.1400      5.0477    121.2929
   800.5000      0.0000    648.0136      4.9899    114.7755
   800.7500      0.0000    622.4437      4.9319    112.5394
   801.0000      0.0000    602.8934      4.8989    113.9816
   801.2500      0.0000    592.1855      4.8719    117.7441
   801.5000      0.0000    589.7175      4.8343    122.7773
   801.7500      0.0000    593.2251      4.7887    128.4631
   802.0000      0.0000    599.3591      4.7448    134.0144
   802.2500      0.0000    603.0818      4.7088    138.2008
   802.5000      0.0000    600.2896      4.6819    139.8713
   802.7500      0.0000    590.9406      4.6627    138.6246
   803.0000      0.0000    577.8767      4.6511    135.0061
   803.2500      0.0000    563.9886      4.6483    130.2608
   803.5000      0.0000    552.0266      4.6535    125.8554
   803.7500      0.0000    545.2402      4.6634    122.9913
   804.0000      0.0000    545.3270      4.6738    122.4164
   804.2500      0.0000    549.4450      4.6834    124.3445
   804.5000      0.0000    551.0908      4.6932    128.2116
   804.7500      0.0000    545.2505      4.7038    132.7108
   805.0000      0.0000    532.3122      4.7139    136.5031
   805.2500      0.0000    516.6868      4.7208    138.9243
   805.5000      0.0000    502.9073      4.7213    139.9008
   805.7500      0.0000    493.5990      4.7117    139.5820
   806.0000      0.0000    489.7172      4.6887    138.4495
   806.2500      0.0000    491.2381      4.6527    137.3126
   806.5000      0.0000    497.4785      4.6086    136.6829
   806.7500      0.0000    507.3949      4.5647    136.3621
   807.0000      0.0000    520.1171      4.5329    135.8274
   807.2500      0.0000    535.0633      4.5260    134.6340
   807.5000      0.0000    551.2222      4.5480    132.5272
   807.7500      0.0000    566.6194      4.5868    129.9609
   808.0000      0.0000    579.2092      4.6202    128.3358
   808.2500      0.0000    588.2867      4.6322    128.6433
   808.5000      0.0000    594.5073      4.6216    130.0450
   808.7500      0.0000    598.5381      4.5988    130.7857
   809.0000      0.0000    600.2460      4.5778    130.3180
   809.2500      0.0000    599.3511      4.5698    129.8437
   809.5000      0.0000    596.1805      4.5781    130.9828
   809.7500      0.0000    591.2982      4.5971    134.1701
   810.0000      0.0000    584.9408      4.6174    138.1998
   810.2500      0.0000    577.5712      4.6303    141.2090
   810.5000      0.0000    570.7432      4.6316    141.9833
   810.7500      0.0000    566.5279      4.6244    140.3425
   811.0000      0.0000    565.8045      4.6176    136.9090
   811.2500      0.0000    567.5184      4.6193    132.9423
   811.5000      0.0000    569.6754      4.6298    129.8185
   811.7500      0.0000    570.5453      4.6426    128.0269
   812.0000      0.0000    569.1030      4.6502    126.9437
   812.2500      0.0000    565.3986      4.6481    125.9873
   812.5000      0.0000    560.9211      4.6351    125.6674
   812.7500      0.0000    557.8488      4.6114    127.1045
   813.0000      0.0000    557.3821      4.5773    130.7807
   813.2500      0.0000    558.9711      4.5355    135.9720
   813.5000      0.0000    561.1399      4.4918    141.1166
   813.7500      0.0000    562.6664      4.4508    144.5301
   814.0000      0.0000    562.8856      4.4132    145.1001
   814.2500      0.0000    561.4571      4.3783    142.8001
   814.5000      0.0000    558.6320      4.3479    138.7186
   814.7500      0.0000    556.4548      4.3227    134.4561
   815.0000      0.0000    559.6069      4.2978    131.2769
   815.2500      0.0000    573.7039      4.2655    129.7192
   815.5000      0.0000    600.8646      4.2234    129.9016
   815.7500      0.0000    636.1602      4.1763    131.8513
   816.0000      0.0000    669.2296      4.1337    135.2182
   816.2500      0.0000    690.7780      4.1051    138.9369
   816.5000      0.0000    698.5895      4.0977    141.5941
   816.7500      0.0000    697.9016      4.1117    142.1770
   817.0000      0.0000    696.5422      4.1370    140.5686
   817.2500      0.0000    699.5388      4.1583    137.5086
   817.5000      0.0000    706.6782      4.1665    134.2235
   817.7500      0.0000    713.3937      4.1643    132.1689
   818.0000      0.0000    714.2311      4.1609    132.6433
   818.2500      0.0000    706.7434      4.1613    135.6716
   818.5000      0.0000    692.1630      4.1615    139.2645
   818.7500      0.0000    672.6112      4.1518    140.7380
   819.0000      0.0000    649.4124      4.1271    138.9164
   819.2500      0.0000    625.2513      4.0946    134.4636
   819.5000      0.0000    606.3257      4.0720    128.3910
   819.7500      0.0000    599.7079      4.0738    121.1305
   820.0000      0.0000    607.3010      4.1000    113.1142
   820.2500      0.0000    622.9023      4.1387    105.6078
   820.5000      0.0000    636.2383      4.1771    100.3738
   820.7500      0.0000    640.4548      4.2099     98.4903
   821.0000      0.0000    635.9537      4.2387     99.7339
   821.2500      0.0000    627.4733      4.2655    103.0861
   821.5000      0.0000    618.3287      4.2894    107.5674
   821.7500      0.0000    608.1675      4.3081    112.6947
   822.0000      0.0000    595.9504      4.3224    118.4600
   822.2500      0.0000    583.3621      4.3354    124.7999
   822.5000      0.0000    573.9828      4.3477    130.8341
   822.7500      0.0000    570.0400      4.3541    134.9507
   823.0000      0.0000    571.4828      4.3481    136.1304
   823.2500      0.0000    577.9059      4.3269    134.9224
   823.5000      0.0000    589.5601      4.2941    132.7680
   823.7500      0.0000    605.8453      4.2582    130.6338
   824.0000      0.0000    624.1326      4.2288    128.6522
   824.2500      0.0000    641.2510      4.2152    126.8761
   824.5000      0.0000    655.3320      4.2232    125.9482
   824.7500      0.0000    664.7856      4.2541    126.9018
   825.0000      0.0000    666.0600      4.3029    130.3850
   825.2500      0.0000    654.9077      4.3579    136.0672
   825.5000      0.0000    631.4855      4.4040    142.5487
   825.7500      0.0000    603.5925      4.4315    147.6864
   826.0000      0.0000    583.2711      4.4432    149.3924
   826.2500      0.0000    578.9023      4.4492    146.9243
   826.5000      0.0000    589.4406      4.4550    141.6073
   826.7500      0.0000    605.4778      4.4547    135.8695
   827.0000      0.0000    616.3380      4.4389    131.4384
   827.2500      0.0000    617.3195      4.4057    128.5284
   827.5000      0.0000    610.9047      4.3644    126.3853
   827.7500      0.0000    602.1548      4.3287    124.2259
   828.0000      0.0000    594.0323      4.3075    122.0047
   828.2500      0.0000    586.5246      4.3022    120.7490
   828.5000      0.0000    578.4894      4.3091    122.0704
