~Version Information
VERS.                      2.0: CWLS Log ASCII Standard - VERSION 2.0
WRAP.                       NO: One line per depth step
~Well Information Block
STRT.FT               -12.0000: 
STOP.FT              1266.5000: 
STEP.FT                 0.2500: 
NULL.                -999.2500: 
COMP.          Pioneer Natural Resources: COMPANY
WELL.          Hot Tomatoes 22-20: WELL
FLD.           Purgatorie River: FIELD
LOC.           2120' FNL & 2585' FWL: LOCATION
CNTY.               Las Animas: COUNTY
SRVC.                Patterson: SERVICE COMPANY
DATE.          Thu Mar 02 13:59:39 2006: LOG DATE
UWI.           05 071 08701 00: UNIQUE WELL ID
STAT.                       CO: STATE
~Curve Information Block
DEPT.FT            0 000 00 00: Depth
GR.GAPI                       : Gamma Ray
CCL.                          : Casing Collar Locator
TT3.usec                      : CBL 3' Travel Time
AMP3.mV                       : CBL 3' Amplitude
~Parameter Information Block
~A  Depth        GR         CCL         TT3         AMP3    
# ...
   222.5000     32.6687      0.0000    357.2511     13.3546
   222.7500     34.2780      0.0000    350.0406     13.4500
   223.0000     36.9522      0.0000    352.1591     13.4274
   223.2500     40.3510      0.0000    357.1554     13.3015
   223.5000     44.1542      0.0000    361.6766     13.0873
   223.7500     48.2066      0.0000    365.8625     12.7951
   224.0000     52.4711      0.0000    372.4113     12.4591
   224.2500     57.1156      0.0000    384.5215     12.1429
   224.5000     62.3953      0.0000    402.5322     11.9040
   224.7500     68.1682      0.0000    421.3004     11.7600
   225.0000     73.8101      0.0000    433.0917     11.6975
   225.2500     78.6788      0.0000    435.0955     11.6986
   225.5000     82.2293      0.0000    431.8142     11.7482
   225.7500     83.8028      0.0000    427.8401     11.8261
   226.0000     83.1122      0.0000    421.5865     11.9125
   226.2500     81.1260      0.0000    409.1872     12.0063
   226.5000     79.7731      0.0000    391.3853     12.1345
   226.7500     80.3395      0.0000    373.2849     12.3379
   227.0000     82.4347      0.0000    359.5027     12.6311
   227.2500     84.6813      0.0000    351.8728     12.9699
   227.5000     86.0248      0.0000    349.9792     13.2797
   227.7500     86.1860      0.0000    351.6118     13.5278
   228.0000     85.3101      0.0000    353.4172     13.7476
   228.2500     83.6564      0.0000    352.6068     13.9904
   228.5000     81.6425      0.0000    348.6736     14.2715
   228.7500     79.9227      0.0000    343.4085     14.5563
   229.0000     79.0226      0.0000    339.1399     14.7805
   229.2500     78.6874      0.0000    336.6972     14.8967
   229.5000     77.8585      0.0000    335.0916     14.9225
   229.7500     75.5978      0.0000    333.0662     14.9306
   230.0000     71.9803      0.0000    330.5424     14.9711
   230.2500     68.0293      0.0000    328.4741     15.0173
   230.5000     64.8985      0.0000    327.9116     14.9971
   230.7500     63.0931      0.0000    329.5816     14.8700
   231.0000     62.2428      0.0000    333.8424     14.6693
   231.2500     61.4166      0.0000    340.3450     14.4813
   231.5000     59.6546      0.0000    347.7555     14.3861
   231.7500     56.5319      0.0000    354.3177     14.4038
   232.0000     52.5600      0.0000    359.0686     14.4860
   232.2500     49.0202      0.0000    362.6775     14.5523
   232.5000     47.2428      0.0000    367.5147     14.5363
   232.7500     47.9399      0.0000    377.1163     14.4038
   233.0000     51.0996      0.0000    394.7742     14.1411
   233.2500     56.2586      0.0000    421.2354     13.7408
   233.5000     62.7008      0.0000    453.1355     13.2173
   233.7500     69.4763      0.0000    483.7141     12.6520
   234.0000     75.5024      0.0000    504.8260     12.2196
   234.2500     79.8917      0.0000    508.9438     12.1358
   234.5000     82.2884      0.0000    492.1609     12.5363
   234.7500     83.0009      0.0000    457.7580     13.3768
   235.0000     82.9051      0.0000    416.1516     14.4438
   235.2500     83.0952      0.0000    379.3895     15.4676
   235.5000     84.3093      0.0000    354.9178     16.2368
   235.7500     86.4986     -1.6562    344.0049     16.6302
   236.0000     88.9883      0.0000    344.4957     16.5927
   236.2500     91.1319      0.0000    353.7913     16.1460
   236.5000     92.7285      0.0000    369.7627     15.4509
   236.7500     93.6847      0.0000    390.3913     14.8017
   237.0000     93.5261      0.0000    413.7197     14.4614
   237.2500     91.7272      0.0000    438.1201     14.4515
   237.5000     88.4823      0.0000    461.3512     14.5268
   237.7500     84.5880      0.0000    478.9541     14.4048
   238.0000     80.5153      0.0000    485.9939     14.0135
   238.2500     76.1590      0.0000    482.9670     13.5038
   238.5000     71.7043      0.0000    478.4516     13.0632
   238.7500     68.3558      0.0000    482.1140     12.7722
   239.0000     67.8684      0.0000    493.9010     12.6038
   239.2500     71.2228      0.0000    501.7326     12.4880
   239.5000     77.5807      0.0000    492.0326     12.3528
   239.7500     84.4276      0.0000    463.0783     12.1420
   240.0000     89.0155      0.0000    426.5835     11.8319
   240.2500     90.1512      0.0000    396.4774     11.4473
   240.5000     88.8861      0.0000    378.6251     11.0542
   240.7500     87.4935      0.0000    370.7492     10.7253
   241.0000     87.5905      0.0000    368.1111     10.4987
   241.2500     89.0586      0.0000    367.3642     10.3563
   241.5000     90.6978      0.0000    367.0224     10.2386
   241.7500     91.7225      0.0000    366.6833     10.0906
   242.0000     92.3037      0.0000    366.4677      9.8948
   242.2500     92.8326      0.0000    366.9053      9.6650
   242.5000     93.2755      0.0000    369.0415      9.4237
   242.7500     93.3641      0.0000    374.0836      9.2029
   243.0000     93.0873      0.0000    382.3189      9.0565
   243.2500     92.7846      0.0000    392.2672      9.0489
   243.5000     92.6768      0.0000    402.1611      9.2143
   243.7500     92.2513      0.0000    412.5903      9.5153
   244.0000     90.4335      0.0000    425.5463      9.8466
   244.2500     86.7919      0.0000    439.6294     10.1014
   244.5000     82.4225      0.0000    449.6901     10.2381
   244.7500     79.1015      0.0000    453.6152     10.2707
   245.0000     77.5854      0.0000    455.1304     10.2101
   245.2500     77.1952      0.0000    456.2122     10.0469
   245.5000     76.9495      0.0000    451.5877      9.7943
   245.7500     76.5561      0.0000    435.8739      9.5236
   246.0000     76.2569      0.0000    412.8383      9.3503
   246.2500     76.1290      0.0000    393.4927      9.3814
   246.5000     75.7645      0.0000    388.1731      9.6502
   246.7500     74.5721      0.0000    403.0958     10.0829
   247.0000     72.3913      0.0000    439.6931     10.5401
   247.2500     69.8308      0.0000    490.4746     10.9105
   247.5000     67.9904      0.0000    535.9445     11.1684
   247.7500     67.7143      0.0000    552.4750     11.3556
   248.0000     69.0091      0.0000    529.1023     11.5325
   248.2500     71.1637      0.0000    476.7740     11.7440
   248.5000     73.4171      0.0000    419.4029     12.0023
   248.7500     75.4490      0.0000    376.0059     12.2831
   249.0000     77.3504      0.0000    351.5836     12.5455
   249.2500     79.3417      0.0000    341.5579     12.7630
   249.5000     81.5233      0.0000    340.1198     12.9290
   249.7500     83.7225      0.0000    343.5996     13.0342
   250.0000     85.4784      0.0000    349.4265     13.0665
   250.2500     86.1430      0.0000    355.1970     13.0396
   250.5000     85.0997      0.0000    359.3197     12.9966
   250.7500     82.2189      0.0000    361.5697     12.9635
   251.0000     78.3621      0.0000    362.6109     12.9212
   251.2500     75.1623      0.0000    363.1223     12.8385
   251.5000     73.8388      0.0000    363.4138     12.7183
   251.7500     74.2357      0.0000    363.5483     12.5960
   252.0000     75.2869      0.0000    363.5753     12.5081
   252.2500     76.2068      0.0000    363.6049     12.4665
   252.5000     76.8619      0.0000    363.7679     12.4508
   252.7500     77.2526      0.0000    364.2137     12.4175
   253.0000     77.1417      0.0000    365.2047     12.3344
   253.2500     76.2110      0.0000    367.2049     12.2186
   253.5000     74.3385      0.0000    370.7791     12.1283
   253.7500     71.6708      0.0000    376.0984     12.1113
   254.0000     68.5959      0.0000    382.2681     12.1719
   254.2500     65.7819      0.0000    387.4624     12.2897
   254.5000     64.1213      0.0000    390.3813     12.4443
   254.7500     64.3174      0.0000    391.4534     12.6092
   255.0000     66.3968      0.0000    391.8549     12.7421
   255.2500     69.7272      0.0000    391.5373     12.8038
   255.5000     73.4974      0.0000    389.3060     12.7787
   255.7500     77.0535      0.0000    384.9214     12.6599
