~Version Information
VERS.                      2.0: CWLS Log ASCII Standard - VERSION 2.0
WRAP.                       NO: One line per depth step
~Well Information Block
STRT.FT               480.0000: 
STOP.FT              1946.0000: 
STEP.FT                 0.1000: 
NULL.                -999.2500: 
COMP.          XTO Energy Inc.: COMPANY
WELL.          Golden Eagle 19-15: WELL
FLD.           Purgatoire River: FIELD
LOC.           1121' FSL & 2332' FEL--: LOCATION
CNTY.               Las Animas: COUNTY
SRVC.                Patterson: SERVICE COMPANY
DATE.          Mon Mar 13 10:27:20 2006: LOG DATE
UWI.           05 071 08717 00: UNIQUE WELL ID
STAT.                 Colorado: STATE
~Curve Information Block
DEPT.FT            0 000 00 00: Depth
DCAL.in                       : CDL Caliper
RHOB.g/cc                     : CDL Bulk Density
RHOC.g/cc                     : CDL Density Correction
DPOR.pu                       : CDL Density Porosity
NPOR.pu                       : Neutron Porosity
GR.GAPI                       : Gamma Ray
~Parameter Information Block
~A  Depth       DCAL        RHOB        RHOC        DPOR        NPOR         GR     
# ...
   672.0000      8.0354      2.5729      0.0097      4.6730     23.3065    117.8024
   672.1000      8.0354      2.5834      0.0138      4.0392     24.2449    115.1217
   672.2000      8.0354      2.6144      0.0092      2.1584     24.8975    110.3369
   672.3000      8.0358      2.6410      0.0815      0.5424     25.5726    105.7799
   672.4000      8.0358      2.6493      0.0247      0.0434     26.1032     99.8438
   672.5000      8.0351      2.6481      0.0621      0.1141     26.2555     93.1516
   672.6000      8.0351      2.6333      0.0778      1.0107     26.1230     92.9916
   672.7000      8.0351      2.6008      0.0281      2.9848     25.9882    100.4405
   672.8000      8.0335      2.5715      0.0006      4.7577     26.2593    105.9019
   672.9000      8.0335      2.5705     -0.0018      4.8185     26.8278    104.4273
   673.0000      8.0323      2.5974      0.0694      3.1855     26.9581    102.5574
   673.1000      8.0323      2.6239      0.1088      1.5815     26.4000    104.5170
   673.2000      8.0323      2.6310      0.0582      1.1491     25.6380    106.7891
   673.3000      8.0317      2.6301      0.0338      1.2090     25.1335    106.8361
   673.4000      8.0317      2.6290      0.0736      1.2700     25.1240    105.0671
   673.5000      8.0318      2.6231      0.0410      1.6274     25.3684    101.0473
   673.6000      8.0318      2.6176      0.0515      1.9607     25.4154     94.3500
   673.7000      8.0318      2.6107      0.0838      2.3790     25.1142     89.0613
   673.8000      8.0334      2.5932      0.0451      3.4422     24.4445     89.3134
   673.9000      8.0334      2.5793      0.0038      4.2819     23.5597     91.1076
   674.0000      8.0360      2.5775      0.0416      4.3950     22.9389     90.8121
   674.1000      8.0360      2.5625      0.0465      5.3007     22.7613     92.8460
   674.2000      8.0360      2.5304     -0.0288      7.2466     22.6949    100.0265
   674.3000      8.0367      2.5128     -0.0429      8.3165     22.5626    106.7327
   674.4000      8.0367      2.5217     -0.0292      7.7728     22.6692    108.4950
   674.5000      8.0355      2.5425     -0.0247      6.5162     23.1777    107.7977
   674.6000      8.0355      2.5604      0.0242      5.4294     23.5785    106.8944
   674.7000      8.0355      2.5732     -0.0127      4.6570     23.4277    106.0764
   674.8000      8.0334      2.5800      0.1021      4.2400     23.0049    105.4261
   674.9000      8.0334      2.5762      0.0363      4.4734     22.7184    104.7118
   675.0000      8.0309      2.5694      0.0298      4.8832     22.8014    103.5398
   675.1000      8.0309      2.5631      0.1002      5.2663     23.2774    102.5095
   675.2000      8.0309      2.5503      0.0326      6.0452     23.7384    104.4190
   675.3000      8.0308      2.5391      0.0257      6.7222     23.7829    107.2026
   675.4000      8.0308      2.5408      0.0176      6.6202     23.5812    107.7399
   675.5000      8.0319      2.5527      0.0477      5.8990     23.4299    108.6173
   675.6000      8.0319      2.5657      0.0554      5.1104     23.4290    109.2657
   675.7000      8.0319      2.5793      0.0252      4.2819     23.6423    107.0723
   675.8000      8.0309      2.5970      0.0663      3.2122     23.8735    103.4068
   675.9000      8.0309      2.6119      0.0831      2.3119     23.7323     99.9034
   676.0000      8.0308      2.6173      0.0576      1.9830     23.3961    100.2793
   676.1000      8.0308      2.6108      0.0816      2.3780     23.3299    107.2339
   676.2000      8.0308      2.5927      0.0105      3.4710     23.6015    115.0602
   676.3000      8.0344      2.5797     -0.0234      4.2577     23.9488    116.3074
   676.4000      8.0344      2.5828      0.0338      4.0752     24.0260    109.6367
   676.5000      8.0378      2.5894      0.0172      3.6706     23.9055    100.5655
   676.6000      8.0378      2.5913      0.0614      3.5554     24.0985     98.0576
   676.7000      8.0378      2.5930     -0.0036      3.4558     24.6826    103.1147
   676.8000      8.0394      2.6003      0.0274      3.0134     25.1676    107.7468
   676.9000      8.0394      2.6084      0.0368      2.5228     25.3282    108.9014
   677.0000      8.0409      2.6099      0.0020      2.4330     25.3636    109.3256
   677.1000      8.0409      2.6044      0.0570      2.7655     25.3993    108.4655
   677.2000      8.0409      2.5978      0.0031      3.1664     25.2773    105.1914
   677.3000      8.0398      2.6012      0.0384      2.9579     24.9785    102.0182
   677.4000      8.0398      2.6156      0.0029      2.0870     24.7733    102.2169
   677.5000      8.0369      2.6263      0.0645      1.4352     24.6734    107.5453
   677.6000      8.0369      2.6219      0.0380      1.7021     24.4458    114.3640
   677.7000      8.0369      2.6055      0.0345      2.6948     24.1367    117.6318
   677.8000      8.0367      2.5767      0.0400      4.4440     23.9723    116.8602
   677.9000      8.0367      2.5430     -0.0328      6.4843     23.9784    114.0817
   678.0000      8.0393      2.5338     -0.0467      7.0417     24.0036    112.4547
   678.1000      8.0393      2.5591     -0.0165      5.5107     24.0080    114.1272
   678.2000      8.0393      2.5887      0.0671      3.7171     24.1259    114.7613
   678.3000      8.0413      2.5964      0.0587      3.2508     24.2319    110.5915
   678.4000      8.0413      2.5904      0.0481      3.6133     24.0699    106.6431
   678.5000      8.0406      2.5860     -0.0122      3.8812     23.7303    106.1143
   678.6000      8.0406      2.5796      0.0161      4.2650     23.4701    105.3254
   678.7000      8.0406      2.5663     -0.0084      5.0724     23.4213    103.5613
   678.8000      8.0390      2.5595     -0.0330      5.4870     23.4537    103.6328
   678.9000      8.0390      2.5674      0.0288      5.0041     23.3229    105.4197
   679.0000      8.0391      2.5798      0.0333      4.2518     23.0784    106.0642
   679.1000      8.0391      2.5954     -0.0132      3.3099     23.0875    104.1767
   679.2000      8.0391      2.6243      0.0181      1.5595     23.5768    101.7637
   679.3000      8.0386      2.6508      0.0982     -0.0457     24.3121    101.5373
   679.4000      8.0386      2.6465      0.0624      0.2102     24.7973    104.9208
   679.5000      8.0367      2.6217      0.0376      1.7126     24.8030    111.3534
   679.6000      8.0367      2.6031      0.0106      2.8400     24.5386    117.9066
   679.7000      8.0367      2.5926      0.0456      3.4761     24.2381    122.7079
   679.8000      8.0360      2.5859      0.0051      3.8818     24.0606    126.2326
   679.9000      8.0360      2.5864      0.0053      3.8567     24.1902    127.9448
   680.0000      8.0361      2.5840      0.0387      4.0025     24.6328    126.0641
   680.1000      8.0361      2.5712     -0.0243      4.7744     25.1150    122.7973
   680.2000      8.0361      2.5595     -0.0453      5.4854     25.4225    121.7702
   680.3000      8.0367      2.5457      0.0258      6.3184     25.7194    123.0630
   680.4000      8.0367      2.5208     -0.0430      7.8324     26.0151    125.2589
   680.5000      8.0371      2.5015     -0.0539      9.0019     26.0060    125.4073
   680.6000      8.0371      2.4946     -0.0016      9.4175     25.7714    122.2764
   680.7000      8.0371      2.4858     -0.0210      9.9519     25.6697    120.3907
   680.8000      8.0374      2.4785     -0.0597     10.3948     25.5481    125.0416
   680.9000      8.0374      2.4836      0.0000     10.0851     25.0844    132.7517
   681.0000      8.0371      2.4979     -0.0048      9.2174     24.4402    137.6831
   681.1000      8.0371      2.5145     -0.0049      8.2140     23.9340    141.8875
   681.2000      8.0371      2.5221      0.0409      7.7491     23.8246    144.6651
   681.3000      8.0370      2.5143      0.0183      8.2249     23.9353    141.3838
   681.4000      8.0370      2.5063     -0.0195      8.7077     23.7442    136.7290
   681.5000      8.0354      2.5107      0.0320      8.4416     23.2858    137.7478
