~Version Information
VERS.                      2.0: CWLS Log ASCII Standard - VERSION 2.0
WRAP.                       NO: One line per depth step
~Well Information Block
STRT.FT               880.0000: 
STOP.FT              1995.0000: 
STEP.FT                 0.2500: 
NULL.                -999.2500: 
COMP.          Petrogulf Corporation: COMPANY
WELL.          Collister 17-31R: WELL
FLD.           Purgatorie River: FIELD
LOC.           962' FNL & 1520' FEL: LOCATION
PROV.                 Colorado: PROVINCE
CNTY.               Las Animas: COUNTRY
SRVC.                Patterson: SERVICE COMPANY
DATE.          Mon Sep 26 09:32:26 2005: LOG DATE
UWI.                          : UNIQUE WELL ID
~Curve Information Block
DEPT.FT            0 000 00 00: Depth
SP.mV                         : DIL Spontaneous Potential
RILD.Ohm-m                    : DIL Deep Resistivity
RILM.Ohm-m                    : DIL Medium Resistivity
RLL3.Ohm-m                    : DIL Shallow Resistivity
GR.GAPI                       : Gamma Ray
~Parameter Information Block
~A  Depth        SP         RILD        RILM        RLL3         GR     
# ...
  1328.0000    201.2529      6.1010      6.2873      8.9699    157.3443
  1328.2500    201.2808      6.0488      6.2865      8.8007    140.1012
  1328.5000    200.8827      6.0540      6.2579      8.1917    130.3047
  1328.7500    200.2553      6.0439      6.1987      8.3731    129.3880
  1329.0000    199.3938      6.0359      6.0835      8.8739    139.6854
  1329.2500    198.3105      6.0811      6.0308      8.3611    140.5421
  1329.5000    197.2089      6.2002      5.9691      7.3722    131.5263
  1329.7500    196.2621      6.2912      5.9624      7.3231    122.9784
  1330.0000    195.2779      6.3484      6.0095      8.1001    126.0795
  1330.2500    194.3551      6.4063      6.1572      7.6967    122.1544
  1330.5000    193.6745      6.4932      6.2968      7.3526    104.0334
  1330.7500    192.9142      6.5238      6.4412      8.3999     98.0750
  1331.0000    192.0970      6.6151      6.6150      9.0447     89.6248
  1331.2500    191.2706      6.6606      6.8242      9.2084     99.8661
  1331.5000    190.3921      6.7121      6.9747      9.6986     83.3931
  1331.7500    189.6808      6.7860      7.1453     10.2220     76.1477
  1332.0000    188.8744      6.9403      7.2895     10.3904     79.7659
  1332.2500    188.0733      7.1829      7.3713     10.8431     85.7375
  1332.5000    187.4017      7.3889      7.4992     10.5420     79.8330
  1332.7500    186.9017      7.5473      7.6351     10.5222     93.6259
  1333.0000    186.4371      7.8707      7.8605      9.9232     96.7556
  1333.2500    185.7129      8.0182      8.1408      9.8401     96.4213
  1333.5000    184.5555      8.2911      8.3947      9.8504    112.1908
  1333.7500    183.3872      8.5203      8.6014      9.9846     85.4333
  1334.0000    181.8532      8.7339      9.0117     10.4903     99.3275
  1334.2500    180.0696      8.7950      9.3732     11.1274     86.2634
  1334.5000    178.1400      8.8385      9.7798     11.7319     96.6865
  1334.7500    176.1556      8.9098     10.2008     13.7692     87.5473
  1335.0000    174.5322      9.0389     10.5503     16.9431     87.8798
  1335.2500    172.7986      9.2146     10.5525     20.1966     84.8083
  1335.5000    171.0298      9.4536     10.4563     18.8242     80.4330
  1335.7500    169.0644      9.6727     10.1741     13.9458     90.7768
  1336.0000    167.1429      9.9990      9.9934     11.0837     85.4537
  1336.2500    165.5722     10.2389      9.9933     10.5173     81.6108
  1336.5000    163.9627     10.4204     10.2859     10.6025     78.7216
  1336.7500    162.7357     10.6968     10.8421     11.5514     84.3152
  1337.0000    161.5550     11.0123     11.4032     14.7790     81.4068
  1337.2500    160.7868     11.3955     11.6894     21.3742     85.8850
  1337.5000    160.1534     11.6508     12.0575     28.3877     72.7031
  1337.7500    159.5416     11.8683     12.2848     24.0459     70.1598
  1338.0000    159.0392     12.3467     12.4296     16.0816     76.6001
  1338.2500    158.7357     12.7547     12.6919     13.7512     77.7292
  1338.5000    158.1934     13.1966     13.2820     14.8024     84.8808
  1338.7500    157.5578     14.0443     14.1468     17.0034     79.6368
  1339.0000    157.0278     14.7180     15.3976     20.9515     72.4511
  1339.2500    156.6508     15.2435     16.6759     24.6525     81.4634
  1339.5000    156.5423     15.8080     18.1930     25.8695     94.4897
  1339.7500    156.6377     16.9384     19.3875     26.4468     80.2702
  1340.0000    156.7451     17.6605     20.6223     29.4568     82.3272
  1340.2500    156.8207     18.3674     21.9822     35.1921     82.8612
  1340.5000    157.2977     19.6694     24.0466     40.9990     96.7599
  1340.7500    157.9217     20.9291     25.8501     44.0679     90.7320
  1341.0000    158.6902     22.1558     27.8386     44.6172     79.9613
  1341.2500    159.3489     22.9131     29.9991     44.6639     93.8684
  1341.5000    159.9229     23.6085     32.2463     45.5019     74.7244
  1341.7500    160.4342     24.4375     34.0185     49.6201     74.1529
  1342.0000    161.1352     24.4579     36.0606     55.2656     60.5826
  1342.2500    161.9962     26.0793     37.7740     56.3157     65.5576
  1342.5000    162.7762     26.5658     37.4345     52.3213     53.3158
  1342.7500    163.6298     27.9384     38.4113     49.9433     49.4658
  1343.0000    164.4350     28.0914     38.6326     51.1079     53.2467
  1343.2500    165.3977     28.3020     39.2389     52.4496     71.5902
  1343.5000    166.3007     29.0378     41.5020     54.1413     71.3081
  1343.7500    167.1542     30.3259     42.1197     56.5704     73.4596
  1344.0000    167.9870     30.3485     40.9019     55.2141     61.5964
  1344.2500    168.8610     31.5417     39.7769     50.4231     72.9519
  1344.5000    169.7725     31.4205     40.7525     44.1828     68.4264
  1344.7500    170.8681     32.1921     44.0699     40.8267     59.7743
  1345.0000    172.0505     32.0903     45.6370     43.9688     51.6512
  1345.2500    173.5297     32.5794     45.0466     49.6665     52.3795
  1345.5000    175.0210     33.0413     47.0853     54.6666     48.4736
  1345.7500    176.7478     34.1640     47.6552     52.7064     75.9963
  1346.0000    178.4015     35.1408     46.0836     43.9936     66.8595
  1346.2500    180.4164     35.8889     48.0601     39.8018     61.8773
  1346.5000    182.2200     35.7985     49.3021     46.9036     81.6033
  1346.7500    183.8589     35.7996     53.5296     63.6211     77.6662
  1347.0000    185.3454     35.5869     60.3970     75.9659     86.8124
  1347.2500    186.6862     35.0513     64.7840     81.4246     75.0382
  1347.5000    188.2016     33.4740     68.7918     78.8214     70.6316
  1347.7500    189.6555     31.9288     65.7038     75.0755     60.1476
  1348.0000    191.1365     30.2544     61.4043     81.3354     59.8145
  1348.2500    192.7180     28.7502     53.8647     89.1186     75.8269
  1348.5000    194.4525     27.2402     45.8408     88.7056     58.5314
  1348.7500    196.2710     25.7296     40.3705     78.2448     55.5897
  1349.0000    197.9043     24.6821     33.6103     57.0480     75.8091
  1349.2500    199.5177     22.8757     29.1302     33.0963     77.2096
  1349.5000    200.9286     21.7159     25.0080     17.9428     74.5170
  1349.7500    201.9467     20.5051     22.7786     13.1688     82.5506
  1350.0000    202.7626     18.9523     21.3534     15.6325     81.9239
  1350.2500    203.4215     17.5725     20.5764     23.9006     86.7977
  1350.5000    204.0029     16.3563     19.3818     33.6939     94.1155
  1350.7500    204.6427     15.2992     17.8657     38.9458     83.3534
  1351.0000    205.5128     14.2085     15.9919     38.1383     77.9140
  1351.2500    206.3577     13.3668     14.4362     29.7842     87.6229
  1351.5000    207.0084     12.8330     13.0142     18.7906     75.4350
  1351.7500    207.3549     12.3426     11.9685     12.3993     67.2871
  1352.0000    207.6260     11.9870     11.3301     10.5123     76.8705
  1352.2500    207.7585     11.7166     11.0110     10.5064    101.0127
  1352.5000    207.7466     11.4459     10.9326     10.9196    116.5089
  1352.7500    207.8749     11.2115     10.7284     11.4909    101.0041
  1353.0000    207.9729     10.9603     10.5213     12.5953    110.6123
  1353.2500    207.9135     10.7274     10.3676     12.7781    108.8237
  1353.5000    207.6034     10.5479     10.1614     12.1992    107.9622
  1353.7500    207.1634     10.3546     10.0601     11.6882     91.3065
  1354.0000    206.5535     10.2597      9.9229     11.4636     99.7517
  1354.2500    205.8626     10.1592      9.8434     11.0274    112.9483
  1354.5000    205.1120     10.1612      9.8387     10.7274    103.9341
  1354.7500    204.1351     10.0695      9.9481     10.8604    110.9523
  1355.0000    203.0773     10.0916     10.0233     11.0899    156.5610
  1355.2500    201.6675     10.0764     10.1208     11.8176    146.7556
  1355.5000    200.3951      9.9966     10.2645     12.0599    102.6617
  1355.7500    199.3409     10.0183     10.2917     12.1204    101.1498
