~Version Information
VERS.                      2.0: CWLS Log ASCII Standard - VERSION 2.0
WRAP.                       NO: One line per depth step
~Well Information Block
STRT.FT              1585.0000: 
STOP.FT              2353.0000: 
STEP.FT                 0.2500: 
NULL.                -999.2500: 
COMP.          XTO Energy Inc.: COMPANY
WELL.          Hill Ranch 15-11: WELL
FLD.           Purgatrorie River: FIELD
LOC.           1862' FSL & 1801' FWL: LOCATION
STAT.                       CO: State
CNTY.               Las Animas: COUNTY
CTRY. USA : Country
SECT. 15 : Section
TOWN. 35S : Township
RANG. 67W : Range
SRVC.          Patterson Wireline: SERVICE COMPANY
DATE.          Thu Dec 08 10:20:02 2005: LOG DATE
API.              05 071 08472: UNIQUE WELL ID
~Curve Information Block
DEPT.FT            0 000 00 00: Depth
CCL.                          : Casing Collar Locator
TT3.usec                      : CBL 3' Travel Time
AMP3.mV                       : CBL 3' Amplitude
BONDIX.                       : CBL Bond Index
GR.GAPI                       : Gamma Ray
~Parameter Information Block
~A  Depth       CCL         TT3         AMP3       BONDIX        GR     
# ...
  2229.0000      0.0000    759.0244      5.6697      0.6188     82.1482
  2229.2500      0.0000    788.8762      5.6584      0.6192     80.1854
  2229.5000      0.0000    815.3773      5.6800      0.6184     78.0223
  2229.7500      0.0000    831.3973      5.7231      0.6167     76.1128
  2230.0000      0.0000    835.5240      5.7848      0.6144     74.3289
  2230.2500      0.0000    831.0743      5.8694      0.6112     72.8410
  2230.5000      0.0000    822.2921      5.9726      0.6074     72.5066
  2230.7500      0.0000    811.1213      6.0718      0.6038     74.1392
  2231.0000      0.0000    797.0212      6.1341      0.6015     77.3644
  2231.2500      0.0000    779.5215      6.1353      0.6015     80.3212
  2231.5000      0.0000    760.3229      6.0725      0.6037     80.8214
  2231.7500      0.0000    742.1991      5.9629      0.6077     78.1685
  2232.0000      0.0000    725.6360      5.8341      0.6125     73.9833
  2232.2500      0.0000    707.0742      5.7106      0.6172     71.2285
  2232.5000      0.0000    681.3848      5.6066      0.6213     72.2104
  2232.7500      0.0000    647.1267      5.5256      0.6245     77.1953
  2233.0000      0.0000    609.6356      5.4665      0.6268     84.5724
  2233.2500      0.0000    577.9606      5.4282      0.6284     92.0264
  2233.5000      0.0000    558.0989      5.4104      0.6291     97.5708
  2233.7500      0.0000    549.4828      5.4113      0.6291    100.0169
  2234.0000      0.0000    547.4603      5.4261      0.6285     99.2459
  2234.2500      0.0000    547.6964      5.4496      0.6275     96.3070
  2234.5000      0.0000    548.2955      5.4807      0.6263     92.9664
  2234.7500      0.0000    549.7408      5.5226      0.6246     90.6851
  2235.0000      0.0000    554.6190      5.5811      0.6223     89.6457
  2235.2500      0.0000    567.2853      5.6573      0.6193     88.6677
  2235.5000      0.0000    591.8268      5.7392      0.6161     86.4306
  2235.7500      0.0000    628.2043      5.7972      0.6139     83.0086
  2236.0000      0.0000    670.0889      5.7984      0.6139     79.8244
  2236.2500      0.0000    707.8021      5.7400      0.6161     77.9776
  2236.5000      0.0000    733.9344      5.6729      0.6187     77.1942
  2236.7500      0.0000    746.0991      5.6822      0.6183     76.5514
  2237.0000      0.0000    745.7774      5.8298      0.6127     75.5149
  2237.2500      0.0000    736.3318      6.1060      0.6025     73.9393
  2237.5000      0.0000    721.6857      6.4276      0.5912     71.5455
  2237.7500      0.0000    704.7415      6.6846      0.5826     67.9926
  2238.0000      0.0000    686.4794      6.8055      0.5787     63.5959
  2238.2500      0.0000    668.1019      6.8016      0.5788     59.7831
  2238.5000      0.0000    654.4652      6.7579      0.5802     58.6153
  2238.7500      0.0000    652.6832      6.7696      0.5799     61.3839
  2239.0000      0.0000    665.1473      6.8687      0.5767     67.2486
  2239.2500      0.0000    685.5928      6.9981      0.5726     73.3935
  2239.5000      0.0000    704.2094      7.0501      0.5709     77.0234
  2239.7500      0.0000    715.3530      6.9333      0.5746     77.3177
  2240.0000      0.0000    719.0718      6.6241      0.5846     75.3760
  2240.2500      0.0000    716.5267      6.1888      0.5996     72.5777
  2240.5000      0.0000    705.8729      5.7741      0.6148     69.4659
  2240.7500      0.0000    683.4344      5.5500      0.6235     66.1723
  2241.0000      0.0000    648.7678      5.6098      0.6211     63.2526
  2241.2500      0.0000    607.5662      5.9059      0.6098     61.4926
  2241.5000      0.0000    569.5323      6.2830      0.5962     60.9398
  2241.7500      2.0000    544.1501      6.5734      0.5863     60.5923
  2242.0000      0.0000    537.1285      6.6652      0.5833     59.3868
  2242.2500      0.0000    548.1128      6.5158      0.5883     57.4097
  2242.5000      0.0000    571.6707      6.1500      0.6009     55.7041
  2242.7500      0.0000    601.0345      5.6743      0.6186     54.8105
  2243.0000      0.0000    630.4591      5.2701      0.6349     54.0415
  2243.2500      0.0000    655.5810      5.1175      0.6413     52.5789
  2243.5000      0.0000    674.2065      5.2871      0.6342     50.8810
  2243.7500      0.0000    686.6800      5.6940      0.6179     50.4518
  2244.0000      0.0000    693.9369      6.1521      0.6009     52.3522
  2244.2500      0.0000    694.2628      6.4770      0.5896     56.2662
  2244.5000      0.0000    682.1091      6.5687      0.5865     60.9046
  2244.7500      0.0000    651.6996      6.4404      0.5908     65.0018
  2245.0000      0.0000    604.5053      6.1906      0.5995     68.0409
  2245.2500      0.0000    553.9940      5.9359      0.6087     70.3719
  2245.5000      0.0000    520.7337      5.7449      0.6159     72.6164
  2245.7500      0.0000    519.8687      5.6196      0.6208     74.7456
  2246.0000      0.0000    551.3455      5.5303      0.6243     75.9439
  2246.2500      0.0000    600.8304      5.4627      0.6270     75.5833
  2246.5000      0.0000    649.6774      5.4300      0.6283     74.0123
  2246.7500      0.0000    684.7340      5.4509      0.6275     72.1608
  2247.0000      0.0000    700.0515      5.5300      0.6243     70.6621
  2247.2500      0.0000    692.2808      5.6627      0.6191     69.5157
  2247.5000      0.0000    659.0351      5.8558      0.6117     68.3470
  2247.7500      0.0000    604.7271      6.1323      0.6016     66.9418
  2248.0000      0.0000    546.8718      6.4999      0.5888     65.5617
  2248.2500      0.0000    511.9762      6.9061      0.5755     64.6643
  2248.5000      0.0000    520.4416      7.2416      0.5650     64.3542
  2248.7500      0.0000    572.3357      7.4099      0.5600     64.1759
  2249.0000      0.0000    646.7936      7.3997      0.5603     63.3962
  2249.2500      0.0000    716.5931      7.2893      0.5636     61.5070
  2249.5000      0.0000    765.5257      7.1878      0.5667     58.7529
  2249.7500      0.0000    794.0180      7.1647      0.5674     56.3206
  2250.0000      0.0000    811.1903      7.2105      0.5660     55.5216
  2250.2500      0.0000    823.7968      7.2497      0.5648     56.4070
  2250.5000      0.0000    831.4917      7.2011      0.5663     57.6986
  2250.7500      0.0000    829.9031      7.0389      0.5713     58.4925
  2251.0000      0.0000    817.1684      6.7953      0.5790     59.5284
  2251.2500      0.0000    797.5494      6.5167      0.5882     62.3412
  2251.5000      0.0000    778.8191      6.2289      0.5981     67.5966
  2251.7500      0.0000    766.6862      5.9383      0.6086     74.5544
  2252.0000      0.0000    761.9348      5.6482      0.6196     81.6766
  2252.2500      0.0000    761.8126      5.3634      0.6310     87.4806
  2252.5000      0.0000    763.1142      5.0832      0.6428     91.0347
  2252.7500      0.0000    764.0815      4.7963      0.6556     91.9087
  2253.0000      0.0000    764.4116      4.4866      0.6702     89.8506
  2253.2500      0.0000    764.4613      4.1479      0.6875     84.7496
  2253.5000      0.0000    764.7478      3.7996      0.7067     77.1700
  2253.7500      0.0000    765.9651      3.4843      0.7258     68.8381
  2254.0000      0.0000    768.9934      3.2475      0.7412     62.0984
  2254.2500      0.0000    774.3969      3.1156      0.7503     58.4985
  2254.5000      0.0000    781.4615      3.0920      0.7520     57.8036
  2254.7500      0.0000    787.7355      3.1676      0.7467     58.4779
  2255.0000      0.0000    790.1893      3.3297      0.7357     59.3035
  2255.2500      0.0000    787.4838      3.5646      0.7208     60.5632
  2255.5000      0.0000    781.1548      3.8603      0.7033     63.5445
  2255.7500      0.0000    774.3748      4.2109      0.6842     69.0083
  2256.0000      0.0000    769.5974      4.6117      0.6642     76.4267
  2256.2500      0.0000    767.3593      5.0439      0.6445     84.5602
  2256.5000      0.0000    766.8293      5.4675      0.6268     92.3601
  2256.7500      0.0000    766.9573      5.8338      0.6125     99.2115
