~Version Information
VERS.                      2.0: CWLS Log ASCII Standard - VERSION 2.0
WRAP.                       NO: One line per depth step
~Well Information Block
STRT.FT               480.0000: 
STOP.FT              1817.0000: 
STEP.FT                 0.1000: 
NULL.                -999.2500: 
COMP.          Pioneer Natural Resources: COMPANY
WELL.           Bobsy 34-11 Tr: WELL
FLD.           Purgatoire River: FIELD
LOC.           514' FSL & 1784' FEL: LOCATION
PROV.                 Colorado: PROVINCE
CNTY.               Las Animas: COUNTRY
SRVC.                Patterson: SERVICE COMPANY
DATE.          Tue Jul 19 10:30:09 2005: LOG DATE
UWI.           05 071 08438 00: UNIQUE WELL ID
~Curve Information Block
DEPT.FT            0 000 00 00: Depth
DCAL.in                       : CDL Caliper
DPOR.pu                       : CDL Density Porosity
GR.GAPI                       : Gamma Ray
NPOR.pu                       : Neutron Porosity
RHOB.g/cc                     : CDL Bulk Density
RHOC.g/cc                     : CDL Density Correction
~Parameter Information Block
~A  Depth       DCAL        DPOR         GR         NPOR        RHOB        RHOC    
# ...
  1008.0000      8.1159      2.7992    122.5669     25.2050      2.6038      0.0792
  1008.1000      8.1159      2.7956    124.3464     25.0698      2.6039      0.0881
  1008.2000      8.1159      3.4181    130.1868     25.2074      2.5936      0.0781
  1008.3000      8.1088      3.9537    135.4851     25.1386      2.5848      0.0713
  1008.4000      8.1088      3.7205    138.7602     24.7709      2.5886      0.0551
  1008.5000      8.1008      2.7154    141.6016     24.5664      2.6052      0.0406
  1008.6000      8.1008      2.2187    139.7994     24.5370      2.6134      0.0611
  1008.7000      8.1008      3.2893    134.0625     24.3344      2.5957      0.0023
  1008.8000      8.0912      5.0781    131.6796     24.1122      2.5662      0.0014
  1008.9000      8.0912      6.3499    134.0799     24.0636      2.5452      0.0086
  1009.0000      8.1196      6.6894    139.1996     23.9484      2.5396      0.0063
  1009.1000      8.1196      6.4545    146.7960     23.5264      2.5435      0.0131
  1009.2000      8.1196      7.3101    153.8279     22.8251      2.5294      0.1067
  1009.3000      8.1385     10.5153    153.7710     22.2712      2.4765      0.0369
  1009.4000      8.1385     15.0459    145.8309     22.1539      2.4017     -0.0133
  1009.5000      8.1710     19.6464    135.3295     22.1966      2.3258      0.0103
  1009.6000      8.1710     23.9079    127.5715     22.1443      2.2555     -0.0259
  1009.7000      8.1710     27.1091    125.6249     22.1926      2.2027     -0.0788
  1009.8000      8.1450     28.7296    127.3454     22.2616      2.1760     -0.0574
  1009.9000      8.1450     28.9748    128.1620     21.8152      2.1719     -0.0720
  1010.0000      8.1407     28.0284    127.8148     20.8396      2.1875      0.0698
  1010.1000      8.1407     25.6080    130.5376     19.9668      2.2275      0.0669
  1010.2000      8.1407     21.3528    138.4772     19.5437      2.2977      0.2397
  1010.3000      8.1513     16.3596    145.8767     19.2726      2.3801      0.4028
  1010.4000      8.1513     12.5795    146.9765     18.7632      2.4424      0.4383
  1010.5000      8.1465     11.0924    140.6218     18.0478      2.4670      0.4633
  1010.6000      8.1465     12.1344    132.4881     17.4178      2.4498      0.4178
  1010.7000      8.1465     15.5699    131.2249     16.9564      2.3931      0.3907
  1010.8000      8.1926     20.6639    133.4842     16.7294      2.3090      0.2741
  1010.9000      8.1926     25.7167    133.7139     16.8647      2.2257      0.2058
  1011.0000      8.1663     29.2115    135.3694     17.4179      2.1680      0.2018
  1011.1000      8.1663     30.6617    140.0965     18.3756      2.1441      0.1402
  1011.2000      8.1663     30.2134    145.3796     19.6169      2.1515      0.1630
  1011.3000      8.1801     28.6449    145.5679     20.9011      2.1774      0.2099
  1011.4000      8.1801     26.9133    140.0190     22.0366      2.2059      0.2052
  1011.5000      8.2639     25.6085    135.1865     22.9396      2.2275      0.2307
  1011.6000      8.2639     24.5291    130.4108     23.6191      2.2453      0.2115
  1011.7000      8.2639     22.2828    123.1462     24.1793      2.2823      0.2086
  1011.8000      8.2095     18.1671    116.0845     24.5613      2.3502      0.2331
  1011.9000      8.2095     13.6923    111.9865     24.7761      2.4241      0.2123
  1012.0000      8.1339     10.2809    113.4643     25.0569      2.4804      0.1859
  1012.1000      8.1339      7.3488    120.5255     25.5021      2.5287      0.1559
  1012.2000      8.1339      4.1495    128.1745     25.8837      2.5815      0.2248
  1012.3000      8.0667      1.1664    128.5611     25.7770      2.6308      0.2169
  1012.4000      8.0667     -0.8946    121.2979     25.3556      2.6648      0.2616
  1012.5000      8.0699     -1.8281    116.3580     25.2466      2.6802      0.2743
  1012.6000      8.0699     -2.1424    117.7279     25.3879      2.6854      0.2308
  1012.7000      8.0699     -2.0112    120.8746     25.0922      2.6832      0.1996
  1012.8000      8.0739     -0.9562    122.4995     24.2134      2.6658      0.1279
  1012.9000      8.0739      0.9971    120.3538     23.3285      2.6335      0.1225
  1013.0000      8.0636      3.5453    114.9745     22.7600      2.5915      0.0652
  1013.1000      8.0636      5.9936    108.0837     22.2781      2.5511      0.0068
  1013.2000      8.0636      7.3858    100.2395     21.8433      2.5281      0.0095
  1013.3000      8.0751      7.8537     96.0548     21.7359      2.5204      0.0197
  1013.4000      8.0751      8.4050     99.2035     21.8822      2.5113      0.0154
  1013.5000      8.0980      9.1696    107.7802     22.1358      2.4987     -0.0419
  1013.6000      8.0980      9.3305    116.5725     22.3785      2.4960     -0.0367
  1013.7000      8.0980      8.9382    120.8186     22.3982      2.5025     -0.0139
  1013.8000      8.1069      8.7678    121.0799     22.2754      2.5053      0.0115
  1013.9000      8.1069      8.7550    123.3923     22.5040      2.5055      0.0293
  1014.0000      8.1092      8.1696    128.4504     23.2533      2.5152      0.1068
  1014.1000      8.1092      7.1783    128.8947     23.8853      2.5316      0.1252
  1014.2000      8.1092      6.9913    122.8340     24.0165      2.5346      0.1317
  1014.3000      8.1186      7.9166    116.5171     23.8838      2.5194      0.0870
  1014.4000      8.1186      8.8912    115.6880     23.6756      2.5033      0.0529
  1014.5000      8.1102      9.5507    120.6089     23.5321      2.4924      0.0705
  1014.6000      8.1102     10.2906    129.7259     23.4605      2.4802      0.0451
  1014.7000      8.1102     10.9391    141.4064     23.4059      2.4695      0.0659
  1014.8000      8.1100     11.1103    149.9032     23.2596      2.4667      0.0429
  1014.9000      8.1100     11.2752    148.8130     22.9355      2.4640      0.0801
  1015.0000      8.1203     12.1413    139.9621     22.7085      2.4497      0.0314
  1015.1000      8.1203     13.1392    132.7942     22.7791      2.4332      0.0262
  1015.2000      8.1203     13.3957    130.5296     22.8402      2.4290      0.0416
  1015.3000      8.1120     13.2416    128.5604     22.7353      2.4315      0.0732
  1015.4000      8.1120     13.5362    127.6768     22.6196      2.4267      0.1125
  1015.5000      8.1105     13.7584    134.1042     22.6965      2.4230      0.0752
  1015.6000      8.1105     12.4812    146.0661     23.1500      2.4441      0.0888
  1015.7000      8.1105      9.8145    152.7659     23.8137      2.4881      0.1216
  1015.8000      8.1089      7.1365    150.2227     24.2402      2.5322      0.1612
  1015.9000      8.1089      4.9830    143.7429     24.2336      2.5678      0.1578
  1016.0000      8.1076      2.9861    139.4386     24.1421      2.6007      0.2348
  1016.1000      8.1076      1.4604    141.1933     24.4604      2.6259      0.2625
  1016.2000      8.1076      0.9897    145.3964     24.9978      2.6337      0.2512
  1016.3000      8.1119      1.0182    145.5252     25.3516      2.6332      0.2069
  1016.4000      8.1119      0.4936    141.0432     25.7219      2.6419      0.1766
  1016.5000      8.1250     -0.4630    136.5901     26.4376      2.6576      0.2235
  1016.6000      8.1250     -0.8978    135.3444     27.4946      2.6648      0.1828
  1016.7000      8.1250     -1.3416    133.9628     28.6031      2.6721      0.0864
  1016.8000      8.0983     -3.1739    129.7272     29.1452      2.7024      0.1233
  1016.9000      8.0983     -5.5747    123.9666     28.7925      2.7420      0.1820
  1017.0000      8.0662     -6.2740    117.2446     28.0708      2.7535      0.1471
  1017.1000      8.0662     -4.8925    110.2963     27.2689      2.7307      0.1200
  1017.2000      8.0662     -2.9133    103.9088     26.2086      2.6981      0.0777
  1017.3000      8.1110     -1.2998    101.1031     25.1151      2.6714      0.0408
  1017.4000      8.1110      0.1902    106.0841     24.3450      2.6469      0.0532
  1017.5000      8.0580      2.0876    117.2565     23.8436      2.6156      0.0373
