~Version Information
VERS.                      2.0: CWLS Log ASCII Standard - VERSION 2.0
WRAP.                       NO: One line per depth step
~Well Information Block
STRT.FT               670.0000: 
STOP.FT              2108.5000: 
STEP.FT                 0.1000: 
NULL.                -999.2500: 
COMP.          Petrogulf Corporation: COMPANY
WELL.           Montoya 12-44R: WELL
FLD.           Purgatorie River: FIELD
LOC.           713' FSL & 798' FEL: LOCATION
PROV.                 Colorado: PROVINCE
CNTY.               Las Animas: COUNTRY
SRVC.                Patterson: SERVICE COMPANY
DATE.          Mon Oct 03 07:50:59 2005: LOG DATE
UWI.           05-071-08538               : UNIQUE WELL ID
~Curve Information Block
DEPT.FT            0 000 00 00: Depth
DCAL.in                       : CDL Caliper
RHOB.g/cc                     : CDL Bulk Density
RHOC.g/cc                     : CDL Density Correction
DPOR.pu                       : CDL Density Porosity
GR.GAPI                       : Gamma Ray
NPOR.pu                       : Neutron Porosity
~Parameter Information Block
~A  Depth       DCAL        RHOB        RHOC        DPOR         GR         NPOR    
   670.0000      8.1396      1.9396     -0.5254     43.0536     51.8369     37.4295
   670.1000      8.1396      1.9281     -0.4898     43.7502     51.3883     37.1611
   670.2000      8.1396      1.9013     -0.5371     45.3761     52.0122     37.0687
   670.3000      8.1463      1.8703     -0.5720     47.2548     52.2736     37.1719
   670.4000      8.1463      1.8533     -0.5700     48.2855     53.0464     37.3586
   670.5000      8.1416      1.8594     -0.5712     47.9182     55.4298     37.6293
   670.6000      8.1416      1.8863     -0.5412     46.2855     58.1917     37.8681
   670.7000      8.1416      1.9137     -0.4579     44.6224     59.5511     37.8420
   670.8000      8.1442      1.9194     -0.4460     44.2779     60.2402     37.5622
   670.9000      8.1442      1.9092     -0.4994     44.8942     61.2062     37.2488
   671.0000      8.1461      1.8994     -0.5064     45.4891     60.3605     37.0738
   671.1000      8.1461      1.8897     -0.4823     46.0801     57.4153     37.1201
   671.2000      8.1461      1.8758     -0.5242     46.9217     55.6950     37.3360
   671.3000      8.1422      1.8655     -0.5422     47.5447     56.1658     37.4277
   671.4000      8.1422      1.8651     -0.4797     47.5683     57.0512     37.1264
   671.5000      8.1418      1.8692     -0.5231     47.3225     56.6659     36.6826
   671.6000      8.1418      1.8715     -0.5140     47.1796     55.4435     36.5365
   671.7000      8.1418      1.8642     -0.5103     47.6225     54.7141     36.6880
   671.8000      8.1424      1.8428     -0.5220     48.9234     54.2598     36.8480
   671.9000      8.1424      1.8226     -0.5941     50.1440     54.4619     37.0243
   672.0000      8.1390      1.8160     -0.5624     50.5464     55.7224     37.4254
   672.1000      8.1390      1.8086     -0.5583     50.9952     57.0616     37.8354
   672.2000      8.1390      1.7870     -0.5634     52.3051     58.1016     38.0241
   672.3000      8.1365      1.7547     -0.6033     54.2599     60.0122     38.0947
   672.4000      8.1365      1.7252     -0.6207     56.0505     64.4697     37.9421
   672.5000      8.1425      1.7052     -0.5923     57.2633     70.4978     37.5624
   672.6000      8.1425      1.6905     -0.6294     58.1504     76.5938     37.3185
   672.7000      8.1425      1.6813     -0.6013     58.7108     83.2813     37.4177
   672.8000      8.1375      1.6795     -0.5817     58.8179     88.3330     37.8695
   672.9000      8.1375      1.6842     -0.5535     58.5363     89.5981     38.4341
   673.0000      8.1392      1.6895     -0.5412     58.2106     90.0446     38.7870
   673.1000      8.1392      1.6919     -0.5452     58.0647     90.2330     39.0091
   673.2000      8.1392      1.6949     -0.5493     57.8836     87.9476     39.2352
   673.3000      8.1421      1.7011     -0.5421     57.5088     85.0142     39.3314
   673.4000      8.1421      1.7066     -0.5317     57.1756     83.8565     39.3536
   673.5000      8.1397      1.7040     -0.4926     57.3313     83.1866     39.4582
   673.6000      8.1397      1.6923     -0.5045     58.0402     81.6602     39.5823
   673.7000      8.1397      1.6777     -0.5238     58.9289     81.2281     39.6560
   673.8000      8.1415      1.6592     -0.4752     60.0455     82.4865     39.5190
   673.9000      8.1415      1.6346     -0.5314     61.5377     82.9843     39.0581
   674.0000      8.1435      1.6162     -0.5884     62.6536     81.4352     38.4616
   674.1000      8.1435      1.6103     -0.5095     63.0147     78.8448     37.9277
   674.2000      8.1435      1.6042     -0.5329     63.3839     76.3834     37.5826
   674.3000      8.1483      1.5980     -0.5707     63.7579     74.7865     37.4335
   674.4000      8.1483      1.6026     -0.5305     63.4813     73.7513     37.2954
   674.5000      8.1449      1.6174     -0.5488     62.5821     71.3189     37.1251
   674.6000      8.1449      1.6394     -0.5403     61.2483     67.8712     37.0953
   674.7000      8.1449      1.6608     -0.4963     59.9513     66.3083     37.2280
   674.8000      8.1437      1.6691     -0.5230     59.4508     67.2955     37.3944
   674.9000      8.1437      1.6670     -0.5147     59.5745     69.2658     37.5314
   675.0000      8.1403      1.6734     -0.5882     59.1886     70.7492     37.4836
   675.1000      8.1403      1.6956     -0.5361     57.8394     70.8841     37.1781
   675.2000      8.1403      1.7183     -0.4974     56.4636     69.1739     36.8364
   675.3000      8.1441      1.7322     -0.5536     55.6257     66.1880     36.7518
   675.4000      8.1441      1.7458     -0.5026     54.8020     63.4554     36.9995
   675.5000      8.1389      1.7684     -0.4852     53.4295     60.5211     37.3415
   675.6000      8.1389      1.8054     -0.4964     51.1905     57.5266     37.5036
   675.7000      8.1389      1.8472     -0.4136     48.6571     56.6194     37.4877
   675.8000      8.1405      1.8742     -0.4513     47.0157     57.8596     37.5651
   675.9000      8.1405      1.8864     -0.4731     46.2763     60.2379     37.8445
   676.0000      8.1437      1.9028     -0.4749     45.2844     62.5584     38.0046
   676.1000      8.1437      1.9375     -0.4991     43.1799     62.9634     37.8186
   676.2000      8.1437      1.9749     -0.3622     40.9170     62.2795     37.4910
   676.3000      8.1427      1.9869     -0.4883     40.1885     64.3068     37.3445
   676.4000      8.1427      1.9794     -0.4888     40.6445     69.7274     37.4430
   676.5000      8.1395      1.9765     -0.4795     40.8176     73.2812     37.6215
   676.6000      8.1395      1.9801     -0.4750     40.5996     71.4386     37.7387
   676.7000      8.1395      1.9701     -0.4085     41.2081     67.0953     37.7630
   676.8000      8.1395      1.9451     -0.5337     42.7203     64.0376     37.6774
   676.9000      8.1395      1.9346     -0.5483     43.3593     63.0244     37.4988
   677.0000      8.1427      1.9501     -0.5166     42.4179     63.0787     37.3738
   677.1000      8.1427      1.9699     -0.4463     41.2209     63.4286     37.3548
   677.2000      8.1427      1.9781     -0.4821     40.7219     64.5712     37.3286
   677.3000      8.1432      1.9848     -0.4594     40.3146     66.6305     37.2253
   677.4000      8.1432      2.0022     -0.4804     39.2626     67.3090     36.9536
   677.5000      8.1372      2.0230     -0.4281     38.0027     64.7645     36.5103
   677.6000      8.1372      2.0310     -0.4620     37.5158     61.2704     36.2112
   677.7000      8.1372      2.0281     -0.4373     37.6887     60.4061     36.2005
   677.8000      8.1434      2.0245     -0.4518     37.9097     63.1062     36.3144
   677.9000      8.1434      2.0144     -0.4045     38.5185     66.7158     36.4490
   678.0000      8.1375      1.9901     -0.4760     39.9930     66.9036     36.4751
   678.1000      8.1375      1.9677     -0.5137     41.3502     62.9773     36.2734
   678.2000      8.1375      1.9732     -0.5330     41.0177     58.6562     36.1468
   678.3000      8.1453      2.0079     -0.4564     38.9167     57.1001     36.4304
   678.4000      8.1453      2.0479     -0.4695     36.4884     57.9052     36.7428
   678.5000      8.1437      2.0764     -0.4428     34.7651     58.7599     36.5495
   678.6000      8.1437      2.0974     -0.4528     33.4887     59.2666     35.9458
   678.7000      8.1437      2.1204     -0.3994     32.0944     61.2379     35.3786
   678.8000      8.1456      2.1448     -0.4001     30.6166     63.0667     35.1470
   678.9000      8.1456      2.1615     -0.3787     29.6031     61.8130     35.0840
   679.0000      8.1474      2.1602     -0.4016     29.6866     59.7701     34.8490
   679.1000      8.1474      2.1468     -0.4613     30.4946     59.4773     34.4476
   679.2000      8.1474      2.1381     -0.4348     31.0259     58.7887     34.0230
   679.3000      8.1431      2.1375     -0.4436     31.0633     56.6053     33.6920
   679.4000      8.1431      2.1407     -0.3954     30.8660     55.4451     33.7428
   679.5000      8.1389      2.1431     -0.4494     30.7211     56.3778     34.1553
