~Version Information Section
 VERS.      2.0         :CWLS LAS VERSION
 WRAP.      NO          :WRAPING MODE
 WARE.      oller 2.5.0J:SOFTWARE VERSION
~Well Information Section
#MNEM.UNIT               VALUE/NAME                 DESCRIPTION
#----.----     ----------------------------------   --------------------
 WELL.         Dicks 35-05R                         :WELL
 COMP.         Pioneer Natrual Resources USA Inc.   :COMPANY
 FLD .         Purgatoire River                     :FIELD
 LOC .         SW/NE SEC05 T33S R65W                :LOCATION
 DATE.         12/08/05                             :DATE(S) LOGGED
 SRVC.         Blanco Geological Services LLC       :SERVICE COMPANY
 STAT.         Colorado                             :STATE
 CNTY.         Las Animas                           :COUNTY
 CTRY.         USA                                  :COUNTRY
 API .         05-071-08596-00                      :API NUMBER
 STRT.FT           400.0000                         :START DEPTH
 STOP.FT          1345.0000                         :STOP DEPTH
 STEP.FT             1.0000                         :DEPTH INCREMENT
 NULL.           -9999.0000                         :NULL VALUE
~Curve Information Section
#MNEM .UNIT         CURVE DESCRIPTION
#---- .----         -------------------------
 DEPTH.FT           :1
 ROP  .MIN/FT       :2
 GAS  .UNITS        :3
~Parameter Information Section
#MNEM.UNIT                  VALUE                   DESCRIPTION
#----.----     ----------------------------------   --------------------
~A  DEPTH     ROP        GAS    
# ...
  886.0000     0.2300    21.7000
  887.0000     0.2700    20.7000
  888.0000     0.2700    19.8000
  889.0000     0.1700    19.8000
  890.0000     0.2700    18.8000
  891.0000     0.1300    18.0000
  892.0000     0.2700    19.2000
  893.0000     0.2700    19.0000
  894.0000     0.2700    16.7000
  895.0000     0.2700    15.4000
  896.0000     0.2700    15.1000
  897.0000     0.2700    15.3000
  898.0000     0.2700    14.9000
  899.0000     0.2800    15.8000
  900.0000     0.2000    15.0000
  901.0000     0.2700    18.5000
  902.0000     0.2700    47.2000
  903.0000     0.2700   128.0000
  904.0000     0.2700   223.1000
  905.0000     0.2700   276.2000
  906.0000     0.2700   289.8000
  907.0000     0.2700   273.6000
  908.0000     0.2700   246.3000
  909.0000     0.2700   201.3000
  910.0000     0.2700   156.0000
  911.0000     0.2800   117.4000
  912.0000     0.2700    88.1000
  913.0000     0.3000    69.1000
  914.0000     0.2700    52.5000
  915.0000     0.2700    40.9000
  916.0000     0.2700    32.5000
  917.0000     0.2700    28.6000
  918.0000     0.2700    25.6000
  919.0000     0.2700    23.8000
  920.0000     0.2300    22.3000
  921.0000     0.2700    20.4000
  922.0000     0.2700    18.1000
  923.0000     0.2700    16.6000
  924.0000     0.2800    15.4000
  925.0000     0.2700    14.6000
  926.0000     0.2700    15.1000
  927.0000     0.2700    20.3000
  928.0000     0.2700    43.2000
  929.0000     0.2700    97.2000
  930.0000     0.2700   183.5000
  931.0000     0.2700   264.5000
  932.0000     0.1000   264.5000
  933.0000     0.2700   318.5000
  934.0000     0.2700   301.6000
  935.0000     0.1300   284.9000
  936.0000     0.2700   187.2000
  937.0000     0.2800   140.3000
  938.0000     0.7300   105.4000
  939.0000     0.2700    61.3000
  940.0000     0.2700    47.6000
  941.0000     0.2700    39.5000
  942.0000     0.2700    31.9000
  943.0000     0.2700    27.1000
  944.0000     0.3700    23.0000
  945.0000     0.2700    20.2000
  946.0000     0.2700    18.7000
  947.0000     0.2700    18.5000
  948.0000     0.2800    17.7000
  949.0000     0.2700    17.7000
  950.0000     0.2700    17.5000
  951.0000     0.2700    16.7000
  952.0000     0.2700    14.9000
  953.0000     0.2700    14.2000
  954.0000     0.2700    13.3000
  955.0000     1.1000    18.7000
  956.0000     0.5500    77.0000
  957.0000     0.2700   127.3000
  958.0000     0.5300   183.2000
  959.0000     0.4000   165.0000
  960.0000     0.2700   116.7000
  961.0000     0.2700    89.8000
  962.0000     0.2700    67.4000
  963.0000     0.2700    50.9000
  964.0000     0.2700    39.8000
  965.0000     0.2700    32.0000
  966.0000     0.2700    26.8000
  967.0000     0.2800    23.3000
  968.0000     0.2700    21.4000
  969.0000     0.2700    20.4000
  970.0000     0.4000    18.4000
  971.0000     0.2700    16.2000
  972.0000     0.2700    15.1000
  973.0000     0.2700    16.1000
  974.0000     0.2700    16.2000
  975.0000     0.2700    16.2000
  976.0000     0.2700    17.4000
  977.0000     0.2700    17.0000
  978.0000     0.2700    17.1000
  979.0000     0.3200    16.3000
  980.0000     0.2700    16.1000
  981.0000     0.2700    15.2000
  982.0000     0.2700    15.4000
  983.0000     0.2700    19.1000
  984.0000     0.1700    36.7000
  985.0000     0.2700    74.0000
  986.0000     0.2700   127.7000
  987.0000     0.2700   180.0000
  988.0000     0.2700   195.1000
  989.0000     0.2700   170.4000
  990.0000     0.2700   157.8000
  991.0000     0.2700    95.5000
  992.0000     0.2800    70.8000
  993.0000     0.5300    54.0000
  994.0000     0.1700    42.5000
  995.0000     0.2700    36.0000
  996.0000     0.2700    31.1000
  997.0000     0.2700    28.0000
  998.0000     0.2700    27.3000
  999.0000     0.2700    24.3000
 1000.0000     0.2700    21.7000
 1001.0000     0.3700    21.0000
 1002.0000     0.5500    19.5000
 1003.0000     0.2700    17.8000
 1004.0000     0.5300    19.7000
 1005.0000     0.2700    17.9000
 1006.0000     0.3000    16.6000
 1007.0000     0.2700    16.2000
 1008.0000     0.0700    16.2000
 1009.0000     0.2700    15.1000
 1010.0000     0.2000    14.5000
 1011.0000     0.2700    14.3000
 1012.0000     0.2700    19.5000
 1013.0000     0.2700    40.9000
 1014.0000     0.2700    80.9000
 1015.0000     0.2800   122.2000
 1016.0000     0.2700   152.6000
 1017.0000     0.5300   163.6000
 1018.0000     0.2700   134.5000
 1019.0000     0.4300   107.2000
 1020.0000     0.2700    65.3000
 1021.0000     0.2700    50.6000
 1022.0000     0.3000    41.5000
 1023.0000     0.2700    33.3000
 1024.0000     0.2700    27.7000
 1025.0000     0.2800    24.2000
 1026.0000     0.2700    20.5000
 1027.0000     0.2700    19.3000
 1028.0000     0.2700    18.5000
 1029.0000     0.2000    16.7000
 1030.0000     0.2700    16.0000
 1031.0000     0.2700    16.4000
 1032.0000     0.2700    16.2000
 1033.0000     0.2700    16.9000
 1034.0000     0.2700    18.1000
 1035.0000     0.2700    20.3000
 1036.0000     0.2700    21.8000
 1037.0000     0.2700    20.7000
 1038.0000     0.2800    19.1000
 1039.0000     0.2700    18.7000
 1040.0000     0.2700    15.8000
 1041.0000     0.2700    15.2000
 1042.0000     0.2700    15.0000
 1043.0000     0.2700    19.1000
 1044.0000     0.2700    41.3000
 1045.0000     0.5300   151.8000
 1046.0000     0.2700   205.3000
 1047.0000     0.2700   231.4000
 1048.0000     0.2700   225.2000
 1049.0000     0.2800   205.3000
 1050.0000     0.2700   176.2000
 1051.0000     0.3000   144.5000
 1052.0000     0.2700   116.3000
 1053.0000     0.4000    93.7000
 1054.0000     0.2700    64.4000
 1055.0000     0.2700    54.6000
 1056.0000     0.2700    47.4000
 1057.0000     0.2700    42.0000
 1058.0000     0.2700    36.8000
 1059.0000     0.2700    32.9000
 1060.0000     0.2300    28.6000
 1061.0000     0.2800    26.7000
 1062.0000     0.2700    25.5000
 1063.0000     0.2700    22.3000
 1064.0000     0.2700    20.4000
 1065.0000     0.2700    18.8000
 1066.0000     0.2700    16.4000
 1067.0000     0.2700    16.3000
 1068.0000     0.2700    15.5000
 1069.0000     0.2700    14.7000
 1070.0000     0.2700    14.3000
 1071.0000     0.2700    15.3000
 1072.0000     0.2700    14.1000
 1073.0000     0.3000    13.5000
 1074.0000     0.3200    15.9000
 1075.0000     0.2700    21.6000
 1076.0000     0.2700    44.5000
 1077.0000     0.2700    88.1000
 1078.0000     0.2700   142.3000
 1079.0000     0.2700   180.4000
 1080.0000     0.2700   198.2000
 1081.0000     0.2700   198.9000
 1082.0000     0.2700   177.1000
 1083.0000     0.5300   152.7000
 1084.0000     0.2700   102.7000
 1085.0000     0.4200    84.6000
 1086.0000     0.2700    60.7000
 1087.0000     0.2700    54.7000
 1088.0000     0.2700    54.1000
 1089.0000     0.2700    49.3000
 1090.0000     0.3000    48.6000
 1091.0000     0.2700    43.7000
 1092.0000     0.2700    39.0000
 1093.0000     0.2700    35.0000
 1094.0000     0.2700    34.0000
 1095.0000     0.2700    31.8000
 1096.0000     0.2700    31.4000
 1097.0000     0.2800    30.1000
 1098.0000     0.2700    28.0000
 1099.0000     0.3000    27.3000
 1100.0000     0.3000    25.0000
 1101.0000     0.3300    22.3000
 1102.0000     0.2700    20.1000
 1103.0000     0.1000    20.8000
 1104.0000     0.2700    25.5000
 1105.0000     0.2000    48.1000
 1106.0000     0.2700    95.1000
 1107.0000     0.4000   157.5000
 1108.0000     0.2700   204.8000
 1109.0000     0.5500   227.9000
 1110.0000     0.2700   213.5000
 1111.0000     0.1700   202.8000
 1112.0000     0.2700   145.9000
 1113.0000     0.2700   119.5000
 1114.0000     0.2700   100.2000
 1115.0000     0.1700   100.2000
 1116.0000     0.2700    84.1000
 1117.0000     0.2700    71.3000
 1118.0000     0.2700    61.6000
 1119.0000     0.2700    53.7000
 1120.0000     0.2700    47.9000
 1121.0000     0.2800    44.3000
 1122.0000     0.2700    42.8000
 1123.0000     0.4000    38.5000
 1124.0000     0.2700    35.6000
 1125.0000     0.2700    35.0000
 1126.0000     0.2700    34.5000
 1127.0000     0.2700    33.5000
 1128.0000     0.2700    32.2000
