~Version Information
VERS.                      2.0: CWLS Log ASCII Standard - VERSION 2.0
WRAP.                       NO: One line per depth step
~Well Information Block
STRT.FT               575.0000: 
STOP.FT              1558.5000: 
STEP.FT                 0.2500: 
NULL.                -999.2500: 
COMP.          Pioneer Natural Resources: COMPANY
WELL.          McClaren 13-34 Tr: WELL
FLD.           Purgatoire River: FIELD
LOC.           1934' FSL & 826' FWL: LOCATION
PROV.                 Colorado: PROVINCE
CNTY.               Las Animas: COUNTRY
SRVC.                Patterson: SERVICE COMPANY
DATE.          Mon Jul 11 20:01:13 2005: LOG DATE
UWI.           05 071 08437 00: UNIQUE WELL ID
~Curve Information Block
DEPT.FT            0 000 00 00: Depth
SN.Ohm-m                      : IEL Short Normal
SP.mV                         : IEL Spontaneous Potential
DIR.Ohm-m                     : IEL Induction Resistivity
GR.GAPI                       : Gamma Ray
~Parameter Information Block
~A  Depth        SN          SP         DIR          GR     
# ...
   943.5000   2000.0000   2000.0000     49.8612     57.9213
   943.7500   2000.0000   2000.0000     49.6847     59.1022
   944.0000   2000.0000   2000.0000     48.7636     62.2062
   944.2500   2000.0000   2000.0000     47.1197     65.4039
   944.5000   2000.0000   2000.0000     44.9981     72.1796
   944.7500   2000.0000   2000.0000     42.6830     78.1755
   945.0000   2000.0000   2000.0000     40.3471     89.4474
   945.2500   2000.0000   2000.0000     38.0439     98.0211
   945.5000   2000.0000   2000.0000     35.7884    110.7193
   945.7500   2000.0000   2000.0000     33.6218    118.1064
   946.0000   2000.0000   2000.0000     31.6123    127.1919
   946.2500   2000.0000   2000.0000     29.8138    132.2890
   946.5000   2000.0000   2000.0000     28.2327    138.7167
   946.7500   2000.0000   2000.0000     26.8330    141.7322
   947.0000   2000.0000   2000.0000     25.5690    143.3934
   947.2500   2000.0000   2000.0000     24.4166    142.4990
   947.5000   2000.0000   2000.0000     23.3829    139.0121
   947.7500   2000.0000   2000.0000     22.4914    136.1397
   948.0000   2000.0000   2000.0000     21.7615    132.5029
   948.2500   2000.0000   2000.0000     21.1980    130.9572
   948.5000   2000.0000   2000.0000     20.7912    129.7390
   948.7500   2000.0000   2000.0000     20.5237    129.3867
   949.0000   2000.0000   2000.0000     20.3799    129.5888
   949.2500   2000.0000   2000.0000     20.3542    130.4004
   949.5000   2000.0000   2000.0000     20.4531    132.3502
   949.7500   2000.0000   2000.0000     20.6892    133.4889
   950.0000   2000.0000   2000.0000     21.0686    133.7929
   950.2500   2000.0000   2000.0000     21.5777    132.7949
   950.5000   2000.0000   2000.0000     22.1767    129.7233
   950.7500   2000.0000   2000.0000     22.8092    126.8994
   951.0000   2000.0000   2000.0000     23.4242    122.0912
   951.2500   2000.0000   2000.0000     23.9963    118.9620
   951.5000   2000.0000   2000.0000     24.5271    115.1184
   951.7500   2000.0000   2000.0000     25.0269    113.2218
   952.0000   2000.0000   2000.0000     25.4994    110.8175
   952.2500   2000.0000   2000.0000     25.9422    109.1104
   952.5000   2000.0000   2000.0000     26.3570    106.4206
   952.7500   2000.0000   2000.0000     26.7529    104.9264
   953.0000   2000.0000   2000.0000     27.1353    103.4946
   953.2500   2000.0000   2000.0000     27.4903    102.8217
   953.5000   2000.0000   2000.0000     27.7723    101.4944
   953.7500   2000.0000   2000.0000     27.9065    100.2731
   954.0000   2000.0000   2000.0000     27.8103     98.7139
   954.2500   2000.0000   2000.0000     27.4317     98.8064
   954.5000   2000.0000   2000.0000     26.7903    102.3385
   954.7500   2000.0000   2000.0000     25.9853    107.3178
   955.0000   2000.0000   2000.0000     25.1604    117.5646
   955.2500   2000.0000   2000.0000     24.4478    124.8518
   955.5000   2000.0000   2000.0000     23.9287    134.2166
   955.7500   2000.0000   2000.0000     23.6218    138.7387
   956.0000   2000.0000   2000.0000     23.4911    142.9432
   956.2500   2000.0000   2000.0000     23.4663    144.3010
   956.5000   2000.0000   2000.0000     23.4733    144.1996
   956.7500   2000.0000   2000.0000     23.4676    142.4216
   957.0000   2000.0000   2000.0000     23.4482    136.9225
   957.2500   2000.0000   2000.0000     23.4410    131.6777
   957.5000   2000.0000   2000.0000     23.4675    122.8183
   957.7500   2000.0000   2000.0000     23.5267    117.3834
   958.0000   2000.0000   2000.0000     23.5960    111.8363
   958.2500   2000.0000   2000.0000     23.6456    110.4560
   958.5000   2000.0000   2000.0000     23.6527    111.4839
   958.7500   2000.0000   2000.0000     23.6120    113.5004
   959.0000   2000.0000   2000.0000     23.5362    117.4374
   959.2500   2000.0000   2000.0000     23.4458    120.4609
   959.5000   2000.0000   2000.0000     23.3556    125.7245
   959.7500   2000.0000   2000.0000     23.2717    129.7256
   960.0000   2000.0000   2000.0000     23.2018    135.9553
   960.2500   2000.0000   2000.0000     23.1665    139.7571
   960.5000   2000.0000   2000.0000     23.1937    144.2408
   960.7500   2000.0000   2000.0000     23.2964    146.2751
   961.0000   2000.0000   2000.0000     23.4515    147.8357
   961.2500   2000.0000   2000.0000     23.5973    147.6218
   961.5000   2000.0000   2000.0000     23.6590    144.1383
   961.7500   2000.0000   2000.0000     23.5870    138.6465
   962.0000   2000.0000   2000.0000     23.3801    124.6624
   962.2500   2000.0000   2000.0000     23.0699    112.2130
   962.5000   2000.0000   2000.0000     22.6834     92.2347
   962.7500   2000.0000   2000.0000     22.2186     80.3630
   963.0000   2000.0000   2000.0000     21.6523     67.5167
   963.2500   2000.0000   2000.0000     20.9728     62.9956
   963.5000   2000.0000   2000.0000     20.2033     62.6280
   963.7500   2000.0000   2000.0000     19.3950     66.5850
   964.0000   2000.0000   2000.0000     18.5966     78.0610
   964.2500   2000.0000   2000.0000     17.8326     88.4050
   964.5000   2000.0000   2000.0000     17.1025    105.3910
   964.7500   2000.0000   2000.0000     16.3940    115.9970
   965.0000   2000.0000   2000.0000     15.6961    128.3272
   965.2500   2000.0000   2000.0000     15.0040    133.3053
   965.5000   2000.0000   2000.0000     14.3235    135.8709
   965.7500   2000.0000   2000.0000     13.6738    135.1161
   966.0000   2000.0000   2000.0000     13.0833    132.5184
   966.2500   2000.0000   2000.0000     12.5794    131.0356
   966.5000   2000.0000   2000.0000     12.1794    130.1586
   966.7500   2000.0000   2000.0000     11.8897    130.3396
   967.0000   2000.0000   2000.0000     11.7117    131.0984
   967.2500   2000.0000   2000.0000     11.6467    131.6098
   967.5000   2000.0000   2000.0000     11.6958    132.0420
   967.7500   2000.0000   2000.0000     11.8572    132.0265
   968.0000   2000.0000   2000.0000     12.1237    131.5139
   968.2500   2000.0000   2000.0000     12.4848    130.6550
   968.5000   2000.0000   2000.0000     12.9297    127.6994
   968.7500   2000.0000   2000.0000     13.4485    124.0843
   969.0000   2000.0000   2000.0000     14.0314    116.3647
   969.2500   2000.0000   2000.0000     14.6689    110.6947
   969.5000   2000.0000   2000.0000     15.3537    103.9227
   969.7500   2000.0000   2000.0000     16.0830    101.7094
   970.0000   2000.0000   2000.0000     16.8568    102.3285
   970.2500   2000.0000   2000.0000     17.6715    104.8963
   970.5000   2000.0000   2000.0000     18.5114    110.7220
   970.7500   2000.0000   2000.0000     19.3415    115.2408
   971.0000   2000.0000   2000.0000     20.1062    121.9377
   971.2500   2000.0000   2000.0000     20.7378    125.8464
   971.5000   2000.0000   2000.0000     21.1744    130.6068
   971.7500   2000.0000   2000.0000     21.3820    133.3402
   972.0000   2000.0000   2000.0000     21.3684    137.4225
   972.2500   2000.0000   2000.0000     21.1819    140.1005
   972.5000   2000.0000   2000.0000     20.8895    143.3500
   972.7500   2000.0000   2000.0000     20.5490    144.7301
   973.0000   2000.0000   2000.0000     20.1872    145.7790
   973.2500   2000.0000   2000.0000     19.7961    145.9448
   973.5000   2000.0000   2000.0000     19.3507    145.3199
   973.7500   2000.0000   2000.0000     18.8408    144.3027
   974.0000   2000.0000   2000.0000     18.2933    142.3304
   974.2500   2000.0000   2000.0000     17.7657    141.2700
   974.5000   2000.0000   2000.0000     17.3145    141.2314
   974.7500   2000.0000   2000.0000     16.9666    142.7069
   975.0000   2000.0000   2000.0000     16.7119    146.6714
   975.2500   2000.0000   2000.0000     16.5176    149.3303
   975.5000   2000.0000   2000.0000     16.3493    151.2157
   975.7500   2000.0000   2000.0000     16.1836    150.6857
   976.0000   2000.0000   2000.0000     16.0078    148.4317
   976.2500   2000.0000   2000.0000     15.8139    147.1580
   976.5000   2000.0000   2000.0000     15.6000    147.1064
   976.7500   2000.0000   2000.0000     15.3797    148.4548
