~Version Information
VERS.                      2.0: CWLS Log ASCII Standard - VERSION 2.0
WRAP.                       NO: One line per depth step
~Well Information Block
STRT.FT                -1.5000: 
STOP.FT              2898.5000: 
STEP.FT                 0.2500: 
NULL.                -999.2500: 
COMP.          Pioneer Natural Resources: COMPANY
WELL.          Hanginstone 21-27: WELL
FLD.           Purgatoire River: FIELD
LOC.           1186' FNL & 1606' FWL--: LOCATION
PROV.                 Colorado: PROVINCE
CNTY.               Las Animas: COUNTRY
SRVC.                Patterson: SERVICE COMPANY
DATE.          Mon Jan 23 11:03:53 2006: LOG DATE
UWI.           05 071 08632 00: UNIQUE WELL ID
~Curve Information Block
DEPT.FT            0 000 00 00: Depth
CCL.                          : Casing Collar Locator
TT3.usec                      : CBL 3' Travel Time
AMP3.mV                       : CBL 3' Amplitude
GR.GAPI                       : Gamma Ray
~Parameter Information Block
~A  Depth       CCL         TT3         AMP3         GR     
# ...
  1740.5000      0.0000    712.7903      5.2988    143.3480
  1740.7500      0.0000    713.8050      5.1628    149.2698
  1741.0000      0.0000    716.5870      5.0466    152.2724
  1741.2500      0.0000    717.1996      4.9604    151.9433
  1741.5000      0.0000    713.2134      4.8979    148.2568
  1741.7500      0.0000    705.5947      4.8328    141.0689
  1742.0000      0.0000    697.3484      4.7299    130.7725
  1742.2500      0.0000    690.9526      4.5711    119.0522
  1742.5000      0.0000    687.4518      4.3718    108.2200
  1742.7500      0.0000    687.2328      4.1663     99.5518
  1743.0000      0.0000    690.6263      3.9788     92.6268
  1743.2500      0.0000    697.6190      3.8132     86.7444
  1743.5000      0.0000    707.4565      3.6647     82.6011
  1743.7500      0.0000    718.8613      3.5292     81.7746
  1744.0000      0.0000    730.3069      3.4040     84.6977
  1744.2500      0.0000    739.8040      3.2940     90.0122
  1744.5000      0.0000    745.2845      3.2295     95.8984
  1744.7500      0.0000    746.6249      3.2669    101.2809
  1745.0000      0.0000    747.0368      3.4531    105.8152
  1745.2500      0.0000    750.4980      3.7775    109.8515
  1745.5000      0.0000    756.8835      4.1632    114.7121
  1745.7500      0.0000    760.7924      4.5115    122.0104
  1746.0000      0.0000    756.2952      4.7623    131.9204
  1746.2500      0.0000    742.9324      4.9210    142.4170
  1746.5000      0.0000    727.2053      5.0410    150.6389
  1746.7500      0.0000    718.2924      5.1842    155.0451
  1747.0000      0.0000    721.7420      5.3856    156.2525
  1747.2500      0.0000    736.2697      5.6375    155.9785
  1747.5000      0.0000    755.5282      5.8947    155.3330
  1747.7500      0.0000    772.5865      6.0972    153.9875
  1748.0000      0.0000    783.5485      6.2011    150.7782
  1748.2500      0.0000    788.3989      6.2033    145.2542
  1748.5000      0.0000    789.5672      6.1412    138.5439
  1748.7500      0.0000    789.8120      6.0660    132.1777
  1749.0000      0.0000    790.6645      6.0102    126.1286
  1749.2500      0.0000    792.0960      5.9807    118.9442
  1749.5000      0.0000    793.2704      5.9759    109.9492
  1749.7500      0.0000    793.4139      5.9977    100.5137
  1750.0000      0.0000    791.9031      6.0439     92.8998
  1750.2500      0.0000    787.9834      6.0942     88.4098
  1750.5000      0.0000    781.1527      6.1111     86.7485
  1750.7500      0.0000    772.1199      6.0636     86.8177
  1751.0000      0.0000    762.9879      5.9576     88.0595
  1751.2500      0.0000    755.8745      5.8421     91.0497
  1751.5000      0.0000    751.2128      5.7755     96.4741
  1751.7500      0.0000    747.6536      5.7799    103.4564
  1752.0000      0.0000    744.1301      5.8297    109.3475
  1752.2500      0.0000    742.1210      5.8829    111.5727
  1752.5000      0.0000    744.6003      5.9143    109.7835
  1752.7500      0.0000    751.5645      5.9186    106.1884
  1753.0000      0.0000    757.8873      5.8926    103.7770
  1753.2500      0.0000    758.0179      5.8273    104.0865
  1753.5000      0.0000    752.5484      5.7161    106.2691
  1753.7500      0.0000    747.7120      5.5685    108.1322
  1754.0000      0.0000    747.9532      5.4145    108.2893
  1754.2500      0.0000    751.3483      5.2883    107.3883
  1754.5000      0.0000    753.3180      5.2003    107.1463
  1754.7500      0.0000    752.6394      5.1294    108.5497
  1755.0000      0.0000    751.9198      5.0535    111.4277
  1755.2500      0.0000    753.5534      4.9850    115.3663
  1755.5000      0.0000    757.2531      4.9602    120.2283
  1755.7500      0.0000    760.7860      4.9925    125.6787
  1756.0000      0.0000    760.5355      5.0471    130.6886
  1756.2500      0.0000    750.5927      5.0682    133.8916
  1756.5000      0.0000    724.1432      5.0235    134.4990
  1756.7500      0.0000    679.8886      4.9207    132.9346
  1757.0000      0.0000    628.1609      4.7927    130.5404
  1757.2500      0.0000    587.8219      4.6756    128.3580
  1757.5000      0.0000    574.2327      4.5982    126.0296
  1757.7500      0.0000    589.2620      4.5786    122.1098
  1758.0000      0.0000    621.6953      4.6200    115.6591
  1758.2500      0.0000    655.6858      4.7026    107.6096
  1758.5000      0.0000    679.2007      4.7827    100.5936
  1758.7500      0.0000    687.2861      4.8108     97.3385
  1759.0000      0.0000    680.4406      4.7635     99.0365
  1759.2500      0.0000    661.0870      4.6605    104.9551
  1759.5000      0.0000    631.3529      4.5470    113.1236
  1759.7500      0.0000    594.0377      4.4604    121.3643
  1760.0000      0.0000    554.5121      4.4141    128.2642
  1760.2500      0.0000    519.4678      4.4073    133.5822
  1760.5000      0.0000    493.1817      4.4380    137.5384
  1760.7500      0.0000    476.1125      4.4996    139.7937
  1761.0000      0.0000    466.9310      4.5739    139.5786
  1761.2500      0.0000    464.1627      4.6383    136.6942
  1761.5000      0.0000    465.6864      4.6809    131.7766
  1761.7500      0.0000    468.2986      4.7049    125.6133
  1762.0000      0.0000    468.8118      4.7208    118.8752
  1762.2500      0.0000    465.5243      4.7365    112.6244
  1762.5000      0.0000    458.7645      4.7516    108.2341
  1762.7500      0.0000    450.4229      4.7569    106.3839
  1763.0000      0.0000    442.7586      4.7436    106.6328
  1763.2500      0.0000    437.1612      4.7190    108.1808
  1763.5000      0.0000    433.7533      4.7107    110.4737
  1763.7500      0.0000    431.9289      4.7478    112.8030
  1764.0000      0.0000    431.0223      4.8348    113.8650
  1764.2500      0.0000    430.5958      4.9443    112.5173
  1764.5000      0.0000    430.6657      5.0358    109.1264
  1764.7500      0.0000    432.2854      5.0764    105.6663
  1765.0000      0.0000    438.3325      5.0513    104.1309
  1765.2500      0.0000    453.4126      4.9716    104.9144
  1765.5000      0.0000    481.6038      4.8782    106.7355
  1765.7500      0.0000    522.7310      4.8261    107.8646
  1766.0000      0.0000    570.6998      4.8490    107.2128
  1766.2500      0.0000    616.4192      4.9346    104.4044
  1766.5000      0.0000    652.7548      5.0375     99.5893
  1766.7500      0.0000    676.8527      5.1133     93.9455
  1767.0000      0.0000    689.1511      5.1385     89.8012
  1767.2500      0.0000    691.8157      5.1025     88.9583
  1767.5000      0.0000    688.2581      4.9946     90.6664
  1767.7500      0.0000    682.9854      4.8108     92.0964
  1768.0000      0.0000    680.2828      4.5692     90.9257
  1768.2500      0.0000    681.6340      4.3099     86.8104
  1768.5000      0.0000    683.8982      4.0777     80.5207
  1768.7500      0.0000    680.4186      3.9049     72.8629
  1769.0000      0.0000    664.8270      3.8056     64.9761
  1769.2500      2.0000    636.0071      3.7725     58.7433
  1769.5000     -2.0000    601.8339      3.7759     55.8764
  1769.7500     -2.0000    577.2278      3.7739     56.5428
  1770.0000      2.0000    574.8177      3.7381     59.2357
  1770.2500      0.0000    595.7347      3.6799     61.9525
  1770.5000      0.0000    629.8646      3.6476     63.2903
  1770.7500      0.0000    664.1920      3.6864     62.7406
  1771.0000      0.0000    690.3674      3.7928     60.8922
  1771.2500      0.0000    706.6290      3.9134     59.7692
  1771.5000      0.0000    715.7374      3.9817     62.2467
  1771.7500      0.0000    721.8765      3.9477     70.0957
  1772.0000      0.0000    727.9717      3.7847     82.2285
  1772.2500      0.0000    734.2983      3.4980     95.2234
  1772.5000      0.0000    739.3046      3.1346    105.8414
  1772.7500      0.0000    741.9147      2.7739    112.8479
  1773.0000      0.0000    742.9080      2.4994    116.5418
  1773.2500      0.0000    744.4512      2.3670    117.3703
  1773.5000      0.0000    748.5362      2.3780    115.4727
  1773.7500      0.0000    755.2460      2.4713    111.1430
