~Version Information
VERS.                      2.0: CWLS Log ASCII Standard - VERSION 2.0
WRAP.                       NO: One line per depth step
~Well Information Block
STRT.FT                 2.0000: 
STOP.FT               698.7500: 
STEP.FT                 0.2500: 
NULL.                -999.2500: 
COMP.          XTO Energy Inc.: COMPANY
WELL.          Golden Eagle 20-14: WELL
FLD.           Purgatrorie River: FIELD
LOC.           587' FSL & 2478' FWL--: LOCATION
STAT.                       CO: State
CNTY.               Las Animas: COUNTY
CTRY. USA : Country
SECT. 20 : Section
TOWN. 33S : Township
RANG. 67W : Range
SRVC.          Patterson Wireline: SERVICE COMPANY
DATE.          Sat Dec 10 16:49:08 2005: LOG DATE
API.           05 071 08614 00: UNIQUE WELL ID
~Curve Information Block
DEPT.FT            0 000 00 00: Depth
MINMK.                        : Magnetic Mark Ticks
TEMP.degF                     : Downhole Temperature
DTMP.degF                     : Delta Temperature
~Parameter Information Block
~A  Depth      MINMK        TEMP        DTMP    
# ...
   419.5000      0.0000     61.8998      0.0251
   419.7500      0.0000     61.9059      0.0256
   420.0000      0.0000     61.9122      0.0262
   420.2500      0.0000     61.9202      0.0268
   420.5000      0.0000     61.9268      0.0274
   420.7500      0.0000     61.9335      0.0279
   421.0000      0.0000     61.9403      0.0285
   421.2500      0.0000     61.9474      0.0283
   421.5000      0.0000     61.9545      0.0288
   421.7500      0.0000     61.9618      0.0304
   422.0000      0.0000     61.9692      0.0310
   422.2500      0.0000     61.9767      0.0316
   422.5000      0.0000     61.9845      0.0321
   422.7500      0.0000     61.9943      0.0327
   423.0000      0.0000     62.0023      0.0343
   423.2500      0.0000     62.0105      0.0348
   423.5000      0.0000     62.0188      0.0353
   423.7500      0.0000     62.0272      0.0347
   424.0000      0.0000     62.0378      0.0351
   424.2500      0.0000     62.0464      0.0354
   424.5000      0.0000     62.0550      0.0358
   424.7500      0.0000     62.0638      0.0361
   425.0000      0.0000     62.0725      0.0354
   425.2500      0.0000     62.0814      0.0357
   425.5000      0.0000     62.0904      0.0361
   425.7500      0.0000     62.0994      0.0364
   426.0000      0.0000     62.1086      0.0368
   426.2500      0.0000     62.1178      0.0372
   426.5000      0.0000     62.1272      0.0388
   426.7500      0.0000     62.1366      0.0392
   427.0000      0.0000     62.1462      0.0396
   427.2500      0.0000     62.1558      0.0400
   427.5000      0.0000     62.1680      0.0403
   427.7500      0.0000     62.1778      0.0418
   428.0000      0.0000     62.1878      0.0421
   428.2500      0.0000     62.1977      0.0423
   428.5000      0.0000     62.2077      0.0412
   428.7500      0.0000     62.2203      0.0414
   429.0000      0.0000     62.2303      0.0428
   429.2500      0.0000     62.2404      0.0430
   429.5000      0.0000     62.2505      0.0431
   429.7500      0.0000     62.2607      0.0420
   430.0000      0.0000     62.2734      0.0421
   430.2500      0.0000     62.2837      0.0423
   430.5000      0.0000     62.2939      0.0424
   430.7500      0.0000     62.3042      0.0426
   431.0000      0.0000     62.3146      0.0415
   431.2500      0.0000     62.3250      0.0417
   431.5000      0.0000     62.3354      0.0420
   431.7500      0.0000     62.3459      0.0422
   432.0000      0.0000     62.3564      0.0425
   432.2500      0.0000     62.3671      0.0429
   432.5000      0.0000     62.3779      0.0446
   432.7500      0.0000     62.3886      0.0450
   433.0000      0.0000     62.3996      0.0454
   433.2500      0.0000     62.4107      0.0459
   433.5000      0.0000     62.4246      0.0464
   433.7500      0.0000     62.4359      0.0484
   434.0000      0.0000     62.4473      0.0490
   434.2500      0.0000     62.4589      0.0495
   434.5000      0.0000     62.4706      0.0487
   434.7500      0.0000     62.4855      0.0492
   435.0000      0.0000     62.4975      0.0498
   435.2500      0.0000     62.5097      0.0503
   435.5000      0.0000     62.5220      0.0526
   435.7500      0.0000     62.5344      0.0516
   436.0000      0.0000     62.5469      0.0523
   436.2500      0.0000     62.5596      0.0529
   436.5000      0.0000     62.5757      0.0535
   436.7500      0.0000     62.5888      0.0541
   437.0000      0.0000     62.6021      0.0547
   437.2500      0.0000     62.6154      0.0554
   437.5000      0.0000     62.6289      0.0543
   437.7500      0.0000     62.6426      0.0566
   438.0000      0.0000     62.6564      0.0569
   438.2500      0.0000     62.6703      0.0573
   438.5000      0.0000     62.6843      0.0577
   438.7500      0.0000     62.7019      0.0578
   439.0000      0.0000     62.7159      0.0580
   439.2500      0.0000     62.7300      0.0581
   439.5000      0.0000     62.7442      0.0581
   439.7500      0.0000     62.7583      0.0564
   440.0000      0.0000     62.7724      0.0581
   440.2500      0.0000     62.7865      0.0580
   440.5000      0.0000     62.8006      0.0579
   440.7500      0.0000     62.8146      0.0578
   441.0000      1.0000     62.8321      0.0577
   441.2500      1.0000     62.8461      0.0593
   441.5000      1.0000     62.8600      0.0592
   441.7500      1.0000     62.8739      0.0590
   442.0000      0.0000     62.8878      0.0571
   442.2500      0.0000     62.9051      0.0569
   442.5000      0.0000     62.9189      0.0567
   442.7500      0.0000     62.9327      0.0565
   443.0000      0.0000     62.9463      0.0562
   443.2500      0.0000     62.9599      0.0542
   443.5000      0.0000     62.9735      0.0540
   443.7500      0.0000     62.9869      0.0537
   444.0000      0.0000     63.0003      0.0534
   444.2500      0.0000     63.0136      0.0531
   444.5000      0.0000     63.0268      0.0544
   444.7500      0.0000     63.0400      0.0541
   445.0000      0.0000     63.0531      0.0539
   445.2500      0.0000     63.0661      0.0536
   445.5000      0.0000     63.0823      0.0533
   445.7500      0.0000     63.0952      0.0530
   446.0000      0.0000     63.1080      0.0542
   446.2500      0.0000     63.1208      0.0540
   446.5000      0.0000     63.1334      0.0521
   446.7500      0.0000     63.1460      0.0519
   447.0000      0.0000     63.1616      0.0517
   447.2500      0.0000     63.1742      0.0516
   447.5000      0.0000     63.1866      0.0532
   447.7500      0.0000     63.1990      0.0531
   448.0000      0.0000     63.2115      0.0516
   448.2500      0.0000     63.2240      0.0517
   448.5000      0.0000     63.2397      0.0519
   448.7500      0.0000     63.2522      0.0521
   449.0000      0.0000     63.2649      0.0523
   449.2500      0.0000     63.2775      0.0526
   449.5000      0.0000     63.2904      0.0514
   449.7500      0.0000     63.3032      0.0518
   450.0000      0.0000     63.3161      0.0539
   450.2500      0.0000     63.3292      0.0545
   450.5000      0.0000     63.3425      0.0550
   450.7500      0.0000     63.3558      0.0556
   451.0000      0.0000     63.3728      0.0564
   451.2500      0.0000     63.3865      0.0571
   451.5000      0.0000     63.4004      0.0580
   451.7500      0.0000     63.4145      0.0589
   452.0000      0.0000     63.4289      0.0581
   452.2500      0.0000     63.4435      0.0611
   452.5000      0.0000     63.4584      0.0622
   452.7500      0.0000     63.4736      0.0633
   453.0000      0.0000     63.4890      0.0644
   453.2500      0.0000     63.5088      0.0656
   453.5000      0.0000     63.5249      0.0666
   453.7500      0.0000     63.5411      0.0677
   454.0000      0.0000     63.5577      0.0688
   454.2500      0.0000     63.5746      0.0702
   454.5000      0.0000     63.5916      0.0712
   454.7500      0.0000     63.6090      0.0724
   455.0000      0.0000     63.6266      0.0735
   455.2500      0.0000     63.6491      0.0747
   455.5000      0.0000     63.6673      0.0760
   455.7500      0.0000     63.6858      0.0774
   456.0000      0.0000     63.7047      0.0787
   456.2500      0.0000     63.7241      0.0778
   456.5000      0.0000     63.7436      0.0819
   456.7500      0.0000     63.7637      0.0834
   457.0000      0.0000     63.7839      0.0849
   457.2500      0.0000     63.8046      0.0864
   457.5000      0.0000     63.8311      0.0880
   457.7500      0.0000     63.8526      0.0897
   458.0000      0.0000     63.8746      0.0944
   458.2500      0.0000     63.8969      0.0961
   458.5000      0.0000     63.9196      0.0954
   458.7500      0.0000     63.9430      0.0973
   459.0000      0.0000     63.9727      0.1026
   459.2500      0.0000     63.9969      0.1046
   459.5000      0.0000     64.0218      0.1033
   459.7500      0.0000     64.0472      0.1052
   460.0000      0.0000     64.0797      0.1076
   460.2500      0.0000     64.1062      0.1096
   460.5000      0.0000     64.1262      0.1114
   460.7500      0.0000     64.1534      0.1131
   461.0000      0.0000     64.1880      0.1113
