~Version Information
VERS.                      2.0: CWLS Log ASCII Standard - VERSION 2.0
WRAP.                       NO: One line per depth step
~Well Information Block
STRT.FT                -6.7500: 
STOP.FT              1250.5000: 
STEP.FT                 0.2500: 
NULL.                -999.2500: 
COMP.          Pioneer Natural Resources: COMPANY
WELL.          Irish Eyes 33-21: WELL
FLD.           Purgatorie River: FIELD
LOC.           1379' FSL & 2544' FEL--: LOCATION
PROV.                       CO: PROVINCE
CNTY.               Las Animas: COUNTRY
SRVC.          Patterson Wireline: SERVICE COMPANY
DATE.          Mon Jan 23 11:57:23 2006: LOG DATE
UWI.           05 071 08658 00: UNIQUE WELL ID
~Curve Information Block
DEPT.FT            0 000 00 00: Depth
CCL.                          : Casing Collar Locator
TT3.usec                      : CBL 3' Travel Time
AMP3.mV                       : CBL 3' Amplitude
GR.GAPI                       : Gamma Ray
~Parameter Information Block
~A  Depth       CCL         TT3         AMP3         GR     
# ...
   998.2500      0.0000    587.6199     14.8137     72.3472
   998.5000      0.0000    629.8670     14.8453     69.2140
   998.7500      0.0000    663.1293     14.9161     66.4786
   999.0000      0.0000    688.2741     15.0025     64.7337
   999.2500      0.0000    701.1358     15.0940     64.4416
   999.5000      0.0000    692.3055     15.1995     65.4995
   999.7500      0.0000    657.2847     15.3331     66.9789
  1000.0000      0.0000    604.8429     15.5024     67.6349
  1000.2500      0.0000    552.4088     15.7063     66.9422
  1000.5000      0.0000    513.4407     15.9364     65.6029
  1000.7500      0.0000    490.7491     16.1766     65.0507
  1001.0000      0.0000    480.1118     16.4041     66.3997
  1001.2500      0.0000    476.6660     16.5937     69.7169
  1001.5000      0.0000    477.3060     16.7247     74.1258
  1001.7500      0.0000    480.3025     16.7898     78.3601
  1002.0000      0.0000    485.4976     16.8004     81.1191
  1002.2500      0.0000    495.6935     16.7762     81.2799
  1002.5000      0.0000    516.8742     16.7292     78.3980
  1002.7500      0.0000    554.7203     16.6614     73.1763
  1003.0000      0.0000    608.0374     16.5775     67.2202
  1003.2500      0.0000    665.0064     16.4901     62.2334
  1003.5000      0.0000    708.6240     16.4096     59.3679
  1003.7500      0.0000    728.9075     16.3379     58.8689
  1004.0000      0.0000    730.5918     16.2774     60.0090
  1004.2500      0.0000    728.0783     16.2375     61.6670
  1004.5000      0.0000    732.4804     16.2277     63.2785
  1004.7500      0.0000    744.4053     16.2389     65.1614
  1005.0000      0.0000    758.5588     16.2368     67.8674
  1005.2500      0.0000    771.5096     16.1776     71.4885
  1005.5000      0.0000    783.1096     16.0375     75.7653
  1005.7500      0.0000    793.4223     15.8295     80.6330
  1006.0000      0.0000    801.3246     15.5897     86.1679
  1006.2500      0.0000    805.6584     15.3492     91.8161
  1006.5000      0.0000    806.2108     15.1234     96.1292
  1006.7500      0.0000    803.5971     14.9273     97.7361
  1007.0000      0.0000    798.9984     14.7925     96.3854
  1007.2500      0.0000    794.3027     14.7625     92.7197
  1007.5000      0.0000    792.6632     14.8688     87.2859
  1007.7500      0.0000    799.0469     15.1131     80.2135
  1008.0000      0.0000    819.4350     15.4667     71.7895
  1008.2500      0.0000    856.4702     15.8865     62.9024
  1008.5000      0.0000    902.5487     16.3343     54.7153
  1008.7500      0.0000    936.6288     16.7886     48.1309
  1009.0000      0.0000    931.3894     17.2441     43.8364
  1009.2500      0.0000    869.1589     17.6960     42.8378
  1009.5000      0.0000    755.8570     18.1234     46.5077
  1009.7500      0.0000    621.5221     18.4856     55.5146
  1010.0000      0.0000    504.7974     18.7341     68.5112
  1010.2500      0.0000    433.1440     18.8304     82.3008
  1010.5000      0.0000    414.5218     18.7551     93.6291
  1010.7500      0.0000    442.0815     18.5025    100.7059
  1011.0000      0.0000    501.0664     18.0640    103.2233
  1011.2500      0.0000    573.4874     17.4185    101.7038
  1011.5000      0.0000    643.0760     16.5570     97.1007
  1011.7500      0.0000    698.1435     15.5336     90.5612
  1012.0000      0.0000    729.5572     14.4841     83.1482
  1012.2500      0.0000    730.0883     13.5573     75.7274
  1012.5000      0.0000    701.6431     12.7921     69.0183
  1012.7500      0.0000    663.9240     12.0646     63.4997
  1013.0000      0.0000    649.7052     11.2106     59.1541
  1013.2500      0.0000    682.4476     10.2428     55.5959
  1013.5000      0.0000    754.7675      9.3960     52.7503
  1013.7500      0.0000    832.1063      8.9064     51.1038
  1014.0000      0.0000    880.1430      8.7946     50.9287
  1014.2500     -2.0000    888.1402      8.9100     51.6503
  1014.5000      2.0000    867.6141      9.1247     52.2941
  1014.7500      0.0000    833.9206      9.4496     52.1073
  1015.0000      0.0000    792.4523      9.9912     50.6283
  1015.2500      0.0000    741.7921     10.7928     47.8095
  1015.5000      0.0000    686.5719     11.6967     44.2893
  1015.7500      0.0000    641.4764     12.4271     40.9861
  1016.0000      0.0000    619.3195     12.8727     38.1995
  1016.2500      0.0000    619.2805     13.2036     35.5368
  1016.5000      0.0000    632.0701     13.6383     32.8409
  1016.7500      0.0000    652.2598     14.1868     30.8265
  1017.0000      0.0000    677.9113     14.6960     30.6128
  1017.2500      0.0000    700.8387     15.0554     32.9348
  1017.5000      0.0000    705.3204     15.2744     38.0960
  1017.7500      0.0000    678.6187     15.4131     46.4436
  1018.0000      0.0000    621.6836     15.5189     58.2087
  1018.2500      0.0000    549.7670     15.6289     72.4711
  1018.5000      0.0000    482.0742     15.7846     86.5814
  1018.7500      0.0000    429.8645     16.0184     97.2536
  1019.0000      0.0000    393.9862     16.3248    102.7439
  1019.2500      0.0000    370.8063     16.6534    104.0319
  1019.5000      0.0000    357.1498     16.9393    103.6981
  1019.7500      0.0000    350.9182     17.1518    103.6469
  1020.0000      0.0000    351.1033     17.3118    103.9560
  1020.2500      0.0000    359.0488     17.4611    103.5102
  1020.5000      0.0000    378.3681     17.6139    101.2292
  1020.7500      0.0000    410.7849     17.7444     96.8185
  1021.0000      0.0000    450.4076     17.8150     91.0556
  1021.2500      0.0000    484.1512     17.8116     85.6575
  1021.5000      0.0000    501.0173     17.7520     82.3505
  1021.7500      0.0000    500.4034     17.6667     81.5397
  1022.0000      0.0000    489.4407     17.5798     81.9972
  1022.2500      0.0000    474.1645     17.5077     82.1949
  1022.5000      0.0000    456.0690     17.4686     81.8870
  1022.7500      0.0000    435.7722     17.4813     82.1658
  1023.0000      0.0000    416.1925     17.5524     84.1397
  1023.2500      0.0000    400.6686     17.6631     87.8204
  1023.5000      0.0000    389.9342     17.7687     92.0619
  1023.7500      0.0000    382.9000     17.8158     95.1522
  1024.0000      0.0000    379.1268     17.7760     95.7062
  1024.2500      0.0000    378.6974     17.6716     93.6008
  1024.5000      0.0000    380.7368     17.5630     90.1644
  1024.7500      0.0000    384.4185     17.5048     87.2102
  1025.0000      0.0000    392.0025     17.5148     85.7065
  1025.2500      0.0000    409.9985     17.5789     85.2125
  1025.5000      0.0000    444.8315     17.6715     84.6345
  1025.7500      0.0000    495.0337     17.7686     83.5469
  1026.0000      0.0000    549.4553     17.8504     82.4729
  1026.2500      0.0000    596.9835     17.9004     81.8556
  1026.5000      0.0000    636.4574     17.9076     81.3065
  1026.7500      0.0000    672.9191     17.8706     80.0015
  1027.0000      0.0000    707.1293     17.7949     77.3518
  1027.2500      0.0000    734.2746     17.6832     73.1860
  1027.5000      0.0000    750.8954     17.5301     67.7958
  1027.7500      0.0000    758.2706     17.3317     62.1072
  1028.0000      0.0000    759.4888     17.0939     57.4806
  1028.2500      0.0000    755.9287     16.8292     54.9964
  1028.5000      0.0000    746.6276     16.5515     55.0360
  1028.7500      0.0000    730.2905     16.2757     57.4314
  1029.0000      0.0000    708.6405     16.0135     61.3723
  1029.2500      0.0000    688.3282     15.7642     64.9595
  1029.5000      0.0000    677.8403     15.5095     65.7131
  1029.7500      0.0000    680.7648     15.2201     62.5241
  1030.0000      0.0000    692.6351     14.8700     57.0686
  1030.2500      0.0000    705.3831     14.4486     52.6452
  1030.5000      0.0000    713.8770     13.9672     51.3753
  1030.7500      0.0000    717.7198     13.4586     52.6145
  1031.0000      0.0000    718.7868     12.9711     53.9541
  1031.2500      0.0000    718.7786     12.5524     53.4777
  1031.5000      0.0000    718.5546     12.2316     51.2274
