~Version Information
VERS.                      2.0: CWLS Log ASCII Standard - VERSION 2.0
WRAP.                       NO: One line per depth step
~Well Information Block
STRT.FT               875.0000: 
STOP.FT              2947.2000: 
STEP.FT                 0.1000: 
NULL.                -999.2500: 
COMP.          Pioneer Natural Resources: COMPANY
WELL.          Hanginstone 21-27: WELL
FLD.           Purgatoire River: FIELD
LOC.           1186' FNL & 1606' FWL--: LOCATION
PROV.                 Colorado: PROVINCE
CNTY.               Las Animas: COUNTRY
SRVC.                Patterson: SERVICE COMPANY
DATE.          Mon Jan 09 07:31:45 2006: LOG DATE
UWI.           05 071 08632 00: UNIQUE WELL ID
~Curve Information Block
DEPT.FT            0 000 00 00: Depth
DCAL.in                       : CDL Caliper
RHOB.g/cc                     : CDL Bulk Density
RHOC.g/cc                     : CDL Density Correction
DPOR.pu                       : CDL Density Porosity
NPOR.pu                       : Neutron Porosity
GR.GAPI                       : Gamma Ray
~Parameter Information Block
~A  Depth       DCAL        RHOB        RHOC        DPOR        NPOR         GR     
# ...
  1422.2000      8.0180      2.6842      0.0564     -2.0715     19.4688     93.6148
  1422.3000      8.0188      2.6862      0.0383     -2.1922     19.5685     83.7667
  1422.4000      8.0188      2.6771      0.0345     -1.6406     19.5576     73.4742
  1422.5000      8.0181      2.6646      0.0175     -0.8843     19.5051     70.9569
  1422.6000      8.0181      2.6515      0.0434     -0.0926     19.2715     75.4557
  1422.7000      8.0181      2.6458      0.0113      0.2517     18.9701     80.2223
  1422.8000      8.0148      2.6581      0.0280     -0.4912     18.8995     82.8539
  1422.9000      8.0148      2.6753      0.0611     -1.5336     19.0657     83.4889
  1423.0000      8.0127      2.6781      0.0387     -1.7060     19.2244     79.7514
  1423.1000      8.0127      2.6786      0.0326     -1.7309     19.2824     72.0809
  1423.2000      8.0127      2.6980      0.0363     -2.9087     19.3880     65.6179
  1423.3000      8.0136      2.7322      0.0865     -4.9844     19.3987     62.7913
  1423.4000      8.0136      2.7557      0.0824     -6.4032     19.1976     62.7112
  1423.5000      8.0167      2.7459      0.1071     -5.8103     18.9813     64.1166
  1423.6000      8.0167      2.7105      0.0275     -3.6637     18.9634     64.9423
  1423.7000      8.0167      2.6827      0.0447     -1.9833     19.2531     64.1260
  1423.8000      8.0182      2.6851      0.0049     -2.1263     19.5024     65.4088
  1423.9000      8.0182      2.7059      0.0762     -3.3901     19.2219     70.8735
  1424.0000      8.0163      2.7058      0.0935     -3.3829     18.8460     76.5758
  1424.1000      8.0163      2.6686      0.0214     -1.1292     18.9255     81.3353
  1424.2000      8.0163      2.6298     -0.0228      1.2253     19.2992     88.5690
  1424.3000      8.0145      2.6152      0.0541      2.1089     19.5914     97.1532
  1424.4000      8.0145      2.6112      0.0367      2.3491     19.5914     99.8951
  1424.5000      8.0151      2.6101      0.0430      2.4203     19.6937     94.0514
  1424.6000      8.0151      2.6159      0.0566      2.0657     20.2455     88.3965
  1424.7000      8.0151      2.6249      0.0861      1.5202     20.6657     91.8326
  1424.8000      8.0166      2.6385      0.0421      0.6988     20.5710    102.1010
  1424.9000      8.0166      2.6658      0.0661     -0.9568     20.3498    110.2252
  1425.0000      8.0175      2.6978      0.0697     -2.8964     20.2530    109.0861
  1425.1000      8.0175      2.7121      0.0900     -3.7629     20.2895    101.2711
  1425.2000      8.0175      2.7007      0.0504     -3.0703     20.6925     94.7783
  1425.3000      8.0192      2.6783      0.0452     -1.7175     21.4945     91.5450
  1425.4000      8.0192      2.6613      0.0419     -0.6835     22.1125     90.2581
  1425.5000      8.0207      2.6504      0.0375     -0.0238     22.0402     90.3190
  1425.6000      8.0207      2.6407      0.0069      0.5633     21.5580     89.5497
  1425.7000      8.0207      2.6301     -0.0002      1.2066     21.2497     84.6760
  1425.8000      8.0212      2.6172     -0.0192      1.9855     21.2513     77.4395
  1425.9000      8.0212      2.6046     -0.0228      2.7517     21.4693     70.5873
  1426.0000      8.0217      2.5987     -0.0408      3.1106     21.8848     64.8985
  1426.1000      8.0217      2.5988      0.0351      3.1046     22.3488     63.4778
  1426.2000      8.0217      2.6052     -0.0177      2.7139     22.7704     66.5128
  1426.3000      8.0226      2.6216      0.0553      1.7211     23.0879     70.5204
  1426.4000      8.0226      2.6348      0.0823      0.9228     23.0236     72.4243
  1426.5000      8.0222      2.6397      0.0453      0.6262     22.6593     70.5216
  1426.6000      8.0222      2.6506      0.0636     -0.0357     22.2808     67.1652
  1426.7000      8.0222      2.6692      0.0883     -1.1623     21.8837     65.7485
  1426.8000      8.0206      2.6840      0.0628     -2.0580     21.6074     64.9462
  1426.9000      8.0206      2.6851      0.0980     -2.1262     21.7236     63.1336
  1427.0000      8.0176      2.6735      0.0224     -1.4222     21.8911     60.3312
  1427.1000      8.0176      2.6668      0.0047     -1.0169     21.5786     56.8362
  1427.2000      8.0176      2.6813      0.0468     -1.8983     21.1154     53.2462
  1427.3000      8.0138      2.7153      0.0446     -3.9593     20.9506     50.7309
  1427.4000      8.0138      2.7470      0.0628     -5.8771     20.8905     51.5818
  1427.5000      8.0122      2.7460      0.0671     -5.8204     20.8002     54.9524
  1427.6000      8.0122      2.7132      0.0139     -3.8301     20.8685     58.0115
  1427.7000      8.0122      2.6810      0.0161     -1.8786     21.0494     61.3116
  1427.8000      8.0129      2.6691      0.0107     -1.1553     21.1335     67.0664
  1427.9000      8.0129      2.6679      0.0356     -1.0846     21.1206     74.5410
  1428.0000      8.0156      2.6621      0.0451     -0.7340     21.0119     78.4803
  1428.1000      8.0156      2.6495      0.0336      0.0317     21.0630     78.0979
  1428.2000      8.0156      2.6353      0.0318      0.8903     21.4900     79.3751
  1428.3000      8.0183      2.6287      0.0215      1.2899     21.9932     83.0856
  1428.4000      8.0183      2.6374     -0.0011      0.7612     22.2526     85.3947
  1428.5000      8.0199      2.6559      0.0614     -0.3587     22.0373     85.8752
  1428.6000      8.0199      2.6681      0.1032     -1.0953     21.3606     85.2090
  1428.7000      8.0199      2.6663      0.0431     -0.9850     20.9031     82.7277
  1428.8000      8.0213      2.6570      0.0825     -0.4228     21.0759     79.2032
  1428.9000      8.0213      2.6495      0.0441      0.0312     21.2189     78.8534
  1429.0000      8.0223      2.6482      0.0700      0.1086     20.8512     82.2940
  1429.1000      8.0223      2.6504      0.0118     -0.0228     20.6426     84.4588
  1429.2000      8.0223      2.6488      0.0110      0.0740     20.9436     82.9656
  1429.3000      8.0224      2.6397     -0.0042      0.6253     21.1299     82.5832
  1429.4000      8.0224      2.6380     -0.0083      0.7290     20.8796     87.4735
  1429.5000      8.0220      2.6524      0.0800     -0.1475     20.4714     94.8786
  1429.6000      8.0220      2.6604      0.0884     -0.6292     20.2507    101.6722
  1429.7000      8.0220      2.6461      0.0452      0.2368     20.2124    105.0932
  1429.8000      8.0214      2.6279      0.0295      1.3397     20.1334    102.8225
  1429.9000      8.0214      2.6257      0.0528      1.4719     19.9651     96.1333
  1430.0000      8.0200      2.6341      0.0263      0.9625     19.7493     86.8818
  1430.1000      8.0200      2.6402      0.0388      0.5934     19.4808     79.7209
  1430.2000      8.0200      2.6376      0.0314      0.7508     19.2743     80.7108
  1430.3000      8.0188      2.6246      0.0275      1.5415     19.3436     85.6581
  1430.4000      8.0188      2.6056      0.0001      2.6910     19.4911     86.2968
  1430.5000      8.0181      2.5898      0.0082      3.6492     19.4548     84.2658
  1430.6000      8.0181      2.5843      0.0335      3.9801     19.4810     86.3762
  1430.7000      8.0181      2.5835      0.0625      4.0330     19.6753     92.1065
  1430.8000      8.0165      2.5789      0.0212      4.3088     19.6535     93.2468
  1430.9000      8.0165      2.5742      0.0432      4.5965     19.2770     88.8265
  1431.0000      8.0149      2.5794      0.0561      4.2815     18.8072     87.0070
  1431.1000      8.0149      2.5987      0.0570      3.1066     18.6203     88.9637
  1431.2000      8.0149      2.6171      0.1070      1.9913     18.9034     89.5679
  1431.3000      8.0092      2.6171      0.0530      1.9969     19.1878     88.5248
  1431.4000      8.0092      2.6085      0.0327      2.5138     18.9507     88.1338
  1431.5000      8.0007      2.6100      0.0482      2.4219     18.3846     91.0961
  1431.6000      8.0007      2.6191      0.0529      1.8717     18.2465     99.3802
  1431.7000      8.0007      2.6206      0.0451      1.7809     18.7942    106.8578
