~Version Information
VERS.                      2.0: CWLS Log ASCII Standard - VERSION 2.0
WRAP.                       NO: One line per depth step
~Well Information Block
STRT.FT               197.7500: 
STOP.FT              1631.0000: 
STEP.FT                 0.2500: 
NULL.                -999.2500: 
COMP.          Petrogulf Corporation: COMPANY
WELL.             State 16-44R: WELL
FLD.           Purgatoire River: FIELD
LOC.           632' FSL & 223' FEL--: LOCATION
PROV.                 Colorado: PROVINCE
CNTY.               Las Animas: COUNTRY
SRVC.                Patterson: SERVICE COMPANY
DATE.          Fri Oct 21 11:31:17 2005: LOG DATE
UWI.           05 071 08457 00: UNIQUE WELL ID
~Curve Information Block
DEPT.FT            0 000 00 00: Depth
SP.mV                         : DIL Spontaneous Potential
RILD.Ohm-m                    : DIL Deep Resistivity
RILM.Ohm-m                    : DIL Medium Resistivity
RLL3.Ohm-m                    : DIL Shallow Resistivity
GR.GAPI                       : Gamma Ray
~Parameter Information Block
~A  Depth        SP         RILD        RILM        RLL3         GR     
# ...
  1597.7500     97.4822     16.5997     19.2530     19.2251   -999.2500
  1598.0000     97.5132     16.4372     18.9469     19.0848   -999.2500
  1598.2500     97.5101     16.2964     18.6736     19.1498   -999.2500
  1598.5000     97.5296     16.1874     18.4259     19.1956   -999.2500
  1598.7500     97.6140     16.1162     18.2051     19.0879   -999.2500
  1599.0000     97.7699     16.0853     18.0257     18.8018   -999.2500
  1599.2500     97.9656     16.0946     17.9121     18.3939   -999.2500
  1599.5000     98.1432     16.1422     17.8891     17.9716   -999.2500
  1599.7500     98.2408     16.2266     17.9721     17.6607   -999.2500
  1600.0000     98.2135     16.3485     18.1628     17.5674   -999.2500
  1600.2500     98.0458     16.5108     18.4516     17.7496   -999.2500
  1600.5000     97.7494     16.7158     18.8228     18.2143   -999.2500
  1600.7500     97.3499     16.9617     19.2598     18.9455   -999.2500
  1601.0000     96.8782     17.2406     19.7490     19.9390   -999.2500
  1601.2500     96.3776     17.5385     20.2831     21.1951   -999.2500
  1601.5000     95.9128     17.8364     20.8659     22.6599   -999.2500
  1601.7500     95.5628     18.1099     21.5114     24.1965   -999.2500
  1602.0000     95.3957     18.3294     22.2367     25.6868   -999.2500
  1602.2500     95.4384     18.4612     23.0432     27.2182   -999.2500
  1602.5000     95.6596     18.4716     23.8942     29.1213   -999.2500
  1602.7500     95.9824     18.3329     24.6912     31.6785   -999.2500
  1603.0000     96.3310     18.0308     25.2674     34.6950   -999.2500
  1603.2500     96.6773     17.5715     25.4148     37.3964   -999.2500
  1603.5000     97.0514     16.9839     24.9564     38.8401   -999.2500
  1603.7500     97.5161     16.3157     23.8387     38.4824   -999.2500
  1604.0000     98.1372     15.6207     22.1761     36.3918   -999.2500
  1604.2500     98.9679     14.9453     20.2068     33.0063   -999.2500
  1604.5000    100.0384     14.3188     18.1932     28.7723   -999.2500
  1604.7500    101.3411     13.7511     16.3399     24.0369   -999.2500
  1605.0000    102.8161     13.2357     14.7637     19.2052   -999.2500
  1605.2500    104.3488     12.7552     13.5043     14.8478   -999.2500
  1605.5000    105.7932     12.2892     12.5495     11.5374   -999.2500
  1605.7500    107.0218     11.8229     11.8573      9.5733   -999.2500
  1606.0000    107.9766     11.3517     11.3711      8.8773   -999.2500
  1606.2500    108.6805     10.8812     11.0276      9.1067   -999.2500
  1606.5000    109.2004     10.4237     10.7649      9.8250   -999.2500
  1606.7500    109.5949      9.9955     10.5307     10.6287   -999.2500
  1607.0000    109.8929      9.6134     10.2900     11.2330   -999.2500
  1607.2500    110.1071      9.2913     10.0285     11.5094   -999.2500
  1607.5000    110.2536      9.0375      9.7499     11.4549   -999.2500
  1607.7500    110.3578      8.8527      9.4682     11.1277   -999.2500
  1608.0000    110.4497      8.7307      9.2012     10.6097   -999.2500
  1608.2500    110.5533      8.6598      8.9660      9.9971   -999.2500
  1608.5000    110.6767      8.6253      8.7767      9.3849   -999.2500
  1608.7500    110.8106      8.6137      8.6429      8.8543   -999.2500
  1609.0000    110.9373      8.6140      8.5689      8.4803   -999.2500
  1609.2500    111.0446      8.6185      8.5536      8.3367   -999.2500
  1609.5000    111.1336      8.6192      8.5916      8.4718   -999.2500
  1609.7500    111.2181      8.6076      8.6739      8.8713   -999.2500
  1610.0000    111.3147      8.5762      8.7889      9.4418   -999.2500
  1610.2500    111.4331      8.5231      8.9238     10.0334   -999.2500
  1610.5000    111.5740      8.4554      9.0669     10.5005   -999.2500
  1610.7500    111.7356      8.3882      9.2097     10.7802   -999.2500
  1611.0000    111.9139      8.3395      9.3479     10.9265   -999.2500
  1611.2500    112.0954      8.3242      9.4797     11.0473   -999.2500
  1611.5000    112.2512      8.3506      9.6036     11.1923   -999.2500
  1611.7500    112.3504      8.4196      9.7169     11.3046   -999.2500
  1612.0000    112.3799      8.5276      9.8174     11.2811   -999.2500
  1612.2500    112.3506      8.6681      9.9085     11.0649   -999.2500
  1612.5000    112.2870      8.8331     10.0023     10.6899   -999.2500
  1612.7500    112.2143      9.0129     10.1201     10.2743   -999.2500
  1613.0000    112.1529      9.1983     10.2856     10.0033   -999.2500
  1613.2500    112.1147      9.3977     10.5170     10.0952   -999.2500
  1613.5000    112.0984      9.5966     10.8200     10.7186   -999.2500
  1613.7500    112.0898      9.7847     11.1858     11.8699   -999.2500
  1614.0000    112.0719      9.9871     11.5932     13.3161   -999.2500
  1614.2500    112.0337     10.2141     12.0162     14.6928   -999.2500
  1614.5000    111.9696     10.4734     12.4329     15.7019   -999.2500
  1614.7500    111.8777     10.7697     12.8343     16.2328   -999.2500
  1615.0000    111.7614     11.1050     13.2280     16.3309   -999.2500
  1615.2500    111.6287     11.4770     13.6376     16.1181   -999.2500
  1615.5000    111.4787     11.8804     14.0980     15.7864   -999.2500
  1615.7500    111.2809     12.3144     14.6467     15.6345   -999.2500
  1616.0000    110.8814     12.8031     15.3137     16.0455   -999.2500
  1616.2500    109.7567     13.4291     16.1079     17.3706   -999.2500
  1616.5000    106.6201     14.3711     17.0035     19.7827   -999.2500
  1616.7500     99.3218     15.9483     17.9283     23.1514   -999.2500
  1617.0000     85.8361     18.6362     18.7673     26.9720   -999.2500
  1617.2500     66.3067     23.4994     19.3908     30.4053   -999.2500
  1617.5000     44.2277     32.3230     19.7022     32.5021   -999.2500
  1617.7500     24.7666     48.8443     19.6791     32.5877   -999.2500
  1618.0000     11.4001     80.8072     19.3792     30.6118   -999.2500
  1618.2500      4.2483    143.2360     18.9110     27.2029   -999.2500
  1618.5000      1.2677    258.4139     18.3935     23.3361   -999.2500
  1618.7500      0.3002    437.2482     17.9266     19.8448   -999.2500
  1619.0000      0.0555    651.3969     17.5787     17.1575   -999.2500
  1619.2500      0.0074    881.3745     17.3898     15.4060   -999.2500
  1619.5000   -999.2500   1234.2551     17.3856     14.6921   -999.2500
  1619.7500   -999.2500   2378.3120     17.6036     15.2061   -999.2500
  1620.0000   -999.2500    355.9202     18.1328     17.0733   -999.2500
  1620.2500   -999.2500    457.5139     19.1655     20.0433   -999.2500
  1620.5000   -999.2500    655.5976     21.0639     23.3108   -999.2500
  1620.7500   -999.2500   1082.5326     24.4727     25.7340   -999.2500
  1621.0000   -999.2500   2200.1387     30.5649     26.4020   -999.2500
  1621.2500   -999.2500   7054.5396     41.6268     25.1350   -999.2500
  1621.5000   -999.2500 100000.0000     62.2874     22.5076   -999.2500
  1621.7500   -999.2500 100000.0000    102.0627     19.4112   -999.2500
  1622.0000   -999.2500 100000.0000    178.6180     16.5514   -999.2500
  1622.2500   -999.2500 100000.0000    313.1949     14.2357   -999.2500
  1622.5000   -999.2500 100000.0000    494.8282     12.4790   -999.2500
  1622.7500   -999.2500 100000.0000    648.4584     11.1982   -999.2500
  1623.0000   -999.2500 100000.0000    720.3408     10.3114   -999.2500
  1623.2500   -999.2500 100000.0000    733.5369      9.7397   -999.2500
  1623.5000   -999.2500 100000.0000    724.0949      9.4011   -999.2500
  1623.7500   -999.2500 100000.0000    915.4682      9.2346   -999.2500
  1624.0000   -999.2500 100000.0000    895.9063      9.2217   -999.2500
  1624.2500   -999.2500 100000.0000    884.7371      9.3779   -999.2500
  1624.5000   -999.2500 100000.0000    883.3454      9.7180   -999.2500
  1624.7500   -999.2500 100000.0000    893.6558     10.2190   -999.2500
  1625.0000   -999.2500 100000.0000    920.2095     10.7953   -999.2500
  1625.2500   -999.2500 100000.0000    972.8978     11.2817   -999.2500
  1625.5000   -999.2500 100000.0000   1070.5533     11.4089   -999.2500
