~Version Information
VERS.                      2.0: CWLS Log ASCII Standard - VERSION 2.0
WRAP.                       NO: One line per depth step
~Well Information Block
STRT.FT               240.0000: 
STOP.FT              1159.2000: 
STEP.FT                 0.1000: 
NULL.                -999.2500: 
COMP.          Pioneer Natural Resources: COMPANY
WELL.               Ryan 41-17: WELL
FLD.           Purgatoire River: FIELD
LOC.           822' FNL & 532' FEL--: LOCATION
CNTY.               Las Animas: COUNTY
SRVC.                Patterson: SERVICE COMPANY
DATE.          Fri Mar 17 07:19:36 2006: LOG DATE
UWI.           05 071 08719 00: UNIQUE WELL ID
STAT.                 Colorado: STATE
~Curve Information Block
DEPT.FT            0 000 00 00: Depth
DCAL.in                       : CDL Caliper
RHOB.g/cc                     : CDL Bulk Density
RHOC.g/cc                     : CDL Density Correction
DPOR.pu                       : CDL Density Porosity
NPOR.pu                       : Neutron Porosity
GR.GAPI                       : Gamma Ray
~Parameter Information Block
~A  Depth       DCAL        RHOB        RHOC        DPOR        NPOR         GR     
# ...
  1017.6000      7.8258      2.6211      0.1187      1.7508     22.0803     67.8687
  1017.7000      7.8258      2.6140      0.1114      2.1846     22.4107     73.6796
  1017.8000      7.8274      2.5898      0.0584      3.6481     22.9948     80.0357
  1017.9000      7.8274      2.5649      0.0354      5.1577     23.6703     84.2026
  1018.0000      7.8338      2.5494      0.0345      6.0967     23.9750     87.4829
  1018.1000      7.8338      2.5399      0.0551      6.6736     24.2182     92.0932
  1018.2000      7.8338      2.5240      0.0696      7.6357     24.5792     97.7770
  1018.3000      7.8408      2.5024      0.0315      8.9435     24.5506    100.1956
  1018.4000      7.8408      2.4893      0.0273      9.7421     24.4556     99.0256
  1018.5000      7.8458      2.4924      0.0325      9.5525     24.8824     96.5999
  1018.6000      7.8458      2.5073      0.0449      8.6512     25.2790     96.1903
  1018.7000      7.8458      2.5218      0.0481      7.7676     24.9489    101.6289
  1018.8000      7.8448      2.5255      0.0607      7.5463     24.3188    109.6087
  1018.9000      7.8448      2.5158      0.0699      8.1337     24.2835    111.1295
  1019.0000      7.8405      2.5044      0.0042      8.8246     24.7242    107.8284
  1019.1000      7.8405      2.5048      0.0728      8.7991     24.9709    107.9849
  1019.2000      7.8405      2.5111      0.0813      8.4162     24.9914    109.9689
  1019.3000      7.8384      2.5158      0.0259      8.1338     25.1653    107.9160
  1019.4000      7.8384      2.5218      0.0677      7.7726     25.5296    101.7628
  1019.5000      7.8419      2.5304      0.0447      7.2509     25.8665     98.5555
  1019.6000      7.8419      2.5419      0.0402      6.5542     26.0837    104.2406
  1019.7000      7.8419      2.5515      0.0727      5.9689     26.0993    113.4038
  1019.8000      7.8505      2.5524      0.0678      5.9154     25.6716    115.0452
  1019.9000      7.8505      2.5453      0.0473      6.3464     25.1120    109.7127
  1020.0000      7.8615      2.5354      0.0776      6.9445     25.1924    106.2289
  1020.1000      7.8615      2.5294      0.0649      7.3096     25.9272    105.8081
  1020.2000      7.8615      2.5307      0.0709      7.2284     26.5121    104.3355
  1020.3000      7.8745      2.5282      0.1050      7.3821     26.3854    103.6483
  1020.4000      7.8745      2.5132      0.0590      8.2921     25.8350    106.3381
  1020.5000      7.8936      2.5025     -0.0047      8.9399     25.5934    111.0497
  1020.6000      7.8936      2.5065      0.0687      8.6952     25.8295    112.9008
  1020.7000      7.8936      2.5121      0.0252      8.3570     26.2636    110.2093
  1020.8000      7.9100      2.5133      0.0421      8.2853     26.6976    107.1129
  1020.9000      7.9100      2.5064      0.0719      8.7040     26.9310    103.7027
  1021.0000      7.9162      2.4898      0.0300      9.7079     26.9837    105.2259
  1021.1000      7.9162      2.4794      0.0413     10.3399     26.9247    112.7479
  1021.2000      7.9162      2.4861      0.0648      9.9361     26.8194    113.1159
  1021.3000      7.9171      2.5075      0.0514      8.6345     27.0678    104.8287
  1021.4000      7.9171      2.5356      0.1316      6.9360     27.6838     99.8978
  1021.5000      7.9175      2.5529      0.1133      5.8855     28.2756    105.3265
  1021.6000      7.9175      2.5471      0.0933      6.2360     28.7077    118.2922
  1021.7000      7.9175      2.5292      0.0828      7.3204     28.8089    128.6236
  1021.8000      7.9190      2.5207      0.0276      7.8371     28.3842    130.9930
  1021.9000      7.9190      2.5230      0.0843      7.6985     27.6751    132.5502
  1022.0000      7.9218      2.5267      0.0494      7.4756     27.2219    139.0516
  1022.1000      7.9218      2.5330      0.0860      7.0884     27.2174    146.1467
  1022.2000      7.9218      2.5383      0.0970      6.7717     27.3212    148.4679
  1022.3000      7.9226      2.5391      0.0726      6.7203     27.3282    144.7959
  1022.4000      7.9226      2.5407      0.0835      6.6246     27.3382    137.9193
  1022.5000      7.9225      2.5357      0.0889      6.9259     27.4987    130.2429
  1022.6000      7.9225      2.5160      0.0643      8.1186     27.7093    126.4803
  1022.7000      7.9225      2.4940      0.0278      9.4552     27.6939    130.7101
  1022.8000      7.9260      2.4795      0.0647     10.3350     27.5568    139.2385
  1022.9000      7.9260      2.4645      0.0282     11.2408     27.8126    147.0576
  1023.0000      7.9379      2.4421      0.0314     12.6018     28.5400    153.4167
  1023.1000      7.9379      2.4023      0.0604     15.0094     29.1310    156.9059
  1023.2000      7.9379      2.3377     -0.0106     18.9267     29.3981    154.2184
  1023.3000      7.9561      2.2655     -0.0649     23.3009     29.9860    145.5976
  1023.4000      7.9561      2.2071     -0.0408     26.8409     30.9502    133.6371
  1023.5000      7.9658      2.1545     -0.0500     30.0288     31.6179    121.8535
  1023.6000      7.9658      2.0866     -0.0351     34.1459     32.0122    111.9797
  1023.7000      7.9658      2.0008     -0.0963     39.3442     32.4987    100.6711
  1023.8000      7.9651      1.9105     -0.0822     44.8173     32.8550     89.5923
  1023.9000      7.9651      1.8190     -0.0785     50.3632     32.6072     85.6219
  1024.0000      7.9600      1.7323     -0.1044     55.6169     32.0335     83.3046
  1024.1000      7.9600      1.6666     -0.0550     59.5993     31.7443     75.0264
  1024.2000      7.9600      1.6190     -0.0256     62.4859     31.7447     65.7757
  1024.3000      7.9534      1.5726     -0.0101     65.2967     31.9820     61.7249
  1024.4000      7.9534      1.5232     -0.0269     68.2906     32.4599     59.2411
  1024.5000      7.9411      1.4766     -0.0072     71.1163     32.9181     55.1714
  1024.6000      7.9411      1.4404     -0.0398     73.3087     33.1809     55.4286
  1024.7000      7.9411      1.4233      0.0045     74.3472     33.3184     62.3749
  1024.8000      7.9300      1.4254      0.0194     74.2199     33.5859     69.7235
  1024.9000      7.9300      1.4364      0.0322     73.5497     33.9451     70.4112
  1025.0000      7.9483      1.4449      0.0433     73.0382     34.1585     61.4764
  1025.1000      7.9483      1.4455      0.0642     72.9997     34.2199     49.7125
  1025.2000      7.9483      1.4379      0.0714     73.4586     34.0385     45.6610
  1025.3000      7.9924      1.4247      0.0572     74.2618     33.6894     49.1332
  1025.4000      7.9924      1.4121      0.0458     75.0256     33.5299     50.9367
  1025.5000      8.0374      1.4050      0.0419     75.4540     33.5712     47.8480
  1025.6000      8.0374      1.3986      0.0574     75.8448     33.5035     43.4990
  1025.7000      8.0374      1.3824      0.0289     76.8255     33.2301     39.6617
  1025.8000      8.0830      1.3558      0.0101     78.4365     32.9710     36.0978
  1025.9000      8.0830      1.3313     -0.0326     79.9222     32.8825     32.4267
  1026.0000      8.1285      1.3197     -0.0068     80.6269     33.0477     28.7799
  1026.1000      8.1285      1.3163      0.0397     80.8310     33.5837     25.9907
  1026.2000      8.1285      1.3133      0.0206     81.0140     34.1526     24.9702
  1026.3000      8.1224      1.3142      0.0296     80.9556     34.1578     25.0171
  1026.4000      8.1224      1.3207      0.0647     80.5635     33.7616     23.2395
  1026.5000      8.0736      1.3237      0.0673     80.3801     33.5342     18.6363
  1026.6000      8.0736      1.3189      0.0350     80.6708     33.7314     14.9464
  1026.7000      8.0736      1.3121      0.0265     81.0850     34.1851     16.7451
  1026.8000      8.0675      1.3092      0.0344     81.2589     34.3742     22.7300
  1026.9000      8.0675      1.3126      0.0287     81.0553     34.1663     27.0515
  1027.0000      8.1314      1.3205      0.0500     80.5776     34.0117     27.2170
  1027.1000      8.1314      1.3277      0.0509     80.1368     33.9367     25.5359
