~Version Information
 VERS.                                  2.0 : CWLS LAS VERSION
 WRAP.                                   NO : WRAPING MODE
 SWARE .                 MController 2.5.0N : SOFTWARE VERSION
~Well Information
 WELL.                   Old Faithful 21-02 : WELL
 COMP.    Pioneer Natural Resouces USA Inc. : COMPANY
 FLD.                      Purgatoire River : FIELD
 LOC.              NE/NW Sec 2 , T35S, R65W : LOCATION
 DATE.                             12/06/05 : DATE(S) LOGGED
 SRVC.       BLANCO Geological Services LLC : SERVICE COMPANY
 STAT.                                   CO : STATE
 CNTY.                           Las Animas : COUNTY
 CTRY.                                  USA : COUNTRY
 API.                          05-071-08617 : API NUMBER
 STRT.FT                             182.00 : START DEPTH
 STOP.FT                            1470.00 : STOP DEPTH
 STEP.FT                               1.00 : DEPTH INCREMENT
 NULL.                                -9999 : NULL VALUE
~Curve information
 DEPTH.FT                                   :
 ROP.MIN/FT                                 :
 GAS.UNITS                                  :
~ASCII Log data
# ...
       982.0         0.55         19.1 
       983.0         0.50         15.8 
       984.0         0.40         14.6 
       985.0         0.40         14.3 
       986.0         0.43         14.0 
       987.0         0.43         14.3 
       988.0         0.40         13.8 
       989.0         0.45         13.8 
       990.0         0.40         13.1 
       991.0         0.43         13.4 
       992.0         0.37         14.1 
       993.0         0.40         14.3 
       994.0         0.37         14.2 
       995.0         0.40         13.6 
       996.0         0.40         13.9 
       997.0         0.37         13.5 
       998.0         0.45         13.8 
       999.0         0.33         13.5 
      1000.0         0.30         12.9 
      1001.0         0.27         16.4 
      1002.0         0.40         17.9 
      1003.0         0.47         20.2 
      1004.0         0.40         19.5 
      1005.0         0.33         18.4 
      1006.0         0.37         16.2 
      1007.0         0.45         15.5 
      1008.0         0.40         14.6 
      1009.0         0.27         13.8 
      1010.0         0.27         14.4 
      1011.0         5.35         56.7 
      1012.0         0.58         22.7 
      1013.0         0.47         20.1 
      1014.0         0.30         17.5 
      1015.0         0.37         15.3 
      1016.0         0.33         14.5 
      1017.0         0.27         14.8 
      1018.0         0.37         20.4 
      1019.0         0.37         33.0 
      1020.0         0.30         34.7 
      1021.0         0.35         33.8 
      1022.0         0.37         32.8 
      1023.0         0.33         33.2 
      1024.0         0.37         32.1 
      1025.0         0.37         30.6 
      1026.0         0.37         29.1 
      1027.0         0.33         28.4 
      1028.0         0.37         27.1 
      1029.0         0.23         27.0 
      1030.0         0.27         27.2 
      1031.0         0.42         30.9 
      1032.0         0.37         32.0 
      1033.0         0.47         30.5 
      1034.0         0.40         30.5 
      1035.0         0.47         29.0 
      1036.0         0.33         27.7 
      1037.0         0.27         25.1 
      1038.0         0.40         24.3 
      1039.0         0.38         22.3 
      1040.0         0.03         21.4 
      1041.0         4.38        104.7 
      1042.0         0.40         36.5 
      1043.0         0.47         61.9 
      1044.0         0.33         61.2 
      1045.0         0.47         50.1 
      1046.0         0.43         41.1 
      1047.0         0.38         33.6 
      1048.0         0.40         28.8 
      1049.0         0.33         25.1 
      1050.0         0.33         23.5 
      1051.0         0.33         22.5 
      1052.0         0.23         20.9 
      1053.0         0.20         24.6 
      1054.0         0.20         26.6 
      1055.0         0.30         34.9 
      1056.0         0.27         39.2 
      1057.0         0.30         38.3 
      1058.0         0.35         36.5 
      1059.0         0.20         33.0 
      1060.0         0.20         35.2 
      1061.0         0.20         35.2 
      1062.0         0.30         42.8 
      1063.0         0.43         51.2 
      1064.0         0.27         48.1 
      1065.0         0.23         44.9 
      1066.0         0.33         39.7 
      1067.0         0.30         35.6 
      1068.0         0.23         32.6 
      1069.0         0.37         29.7 
      1070.0         0.10         25.6 
      1071.0         5.27         92.4 
      1072.0         0.33         35.8 
      1073.0         0.30         33.2 
      1074.0         0.37         32.1 
      1075.0         0.27         30.2 
      1076.0         0.25         27.4 
      1077.0         0.27         28.6 
      1078.0         0.37         27.5 
      1079.0         0.30         24.1 
      1080.0         0.20         23.9 
      1081.0         0.23         24.0 
      1082.0         0.23         25.3 
      1083.0         0.23         25.3 
      1084.0         0.23         23.7 
      1085.0         0.23         27.1 
      1086.0         0.27         34.8 
      1087.0         0.27         40.0 
      1088.0         0.33         38.4 
      1089.0         0.28         33.5 
      1090.0         0.27         29.2 
      1091.0         0.30         24.9 
      1092.0         0.27         22.8 
      1093.0         0.30         23.0 
      1094.0         0.33         21.0 
      1095.0         0.30         20.2 
      1096.0         0.33         21.1 
      1097.0         0.33         22.2 
      1098.0         0.30         21.3 
      1099.0         0.27         20.7 
      1100.0         0.17         19.4 
      1101.0         4.53         87.6 
      1102.0         0.43         28.1 
      1103.0         0.53         29.6 
      1104.0         0.50         28.9 
      1105.0         0.40         25.6 
      1106.0         0.38         21.7 
      1107.0         0.43         19.8 
      1108.0         0.37         19.1 
      1109.0         0.37         17.7 
      1110.0         0.37         17.4 
      1111.0         0.37         16.5 
      1112.0         0.37         16.8 
      1113.0         0.37         16.7 
      1114.0         0.40         16.9 
      1115.0         0.45         16.5 
      1116.0         0.37         16.1 
      1117.0         0.37         15.8 
      1118.0         0.33         14.5 
      1119.0         0.37         14.9 
      1120.0         0.37         15.0 
      1121.0         0.33         17.5 
      1122.0         0.37         19.3 
      1123.0         0.33         19.5 
      1124.0         0.38         18.3 
      1125.0         0.33         17.6 
      1126.0         0.33         19.5 
      1127.0         0.30         22.2 
      1128.0         0.30         23.1 
      1129.0         0.53         21.4 
      1130.0         0.10         15.8 
      1131.0         3.75         95.9 
      1132.0         0.47         48.1 
      1133.0         0.55         27.1 
      1134.0         0.57         24.0 
      1135.0         0.60         20.9 
      1136.0         0.60         20.1 
      1137.0         0.67         18.3 
      1138.0         0.70         17.0 
      1139.0         0.72         15.7 
      1140.0         0.77         16.5 
      1141.0         0.77         19.6 
      1142.0         0.80         20.8 
      1143.0         0.82         21.7 
      1144.0         0.83         21.3 
      1145.0         0.73         21.6 
      1146.0         0.57         22.2 
      1147.0         0.47         25.1 
      1148.0         0.42         26.4 
      1149.0         0.37         25.8 
      1150.0         0.40         23.7 
      1151.0         0.47         22.6 
      1152.0         0.40         22.3 
      1153.0         0.40         21.6 
      1154.0         0.40         20.9 
      1155.0         0.40         21.2 
      1156.0         0.43         20.7 
      1157.0         0.42         20.8 
      1158.0         0.43         20.7 
      1159.0         0.47         20.6 
      1160.0         0.27         20.8 
      1161.0         4.22        107.4 
      1162.0         0.73         43.1 
      1163.0         0.32         37.6 
      1164.0         0.40         42.1 
      1165.0         0.33         58.9 
      1166.0         0.60         58.9 
      1167.0         0.60         50.2 
      1168.0         0.43         47.2 
      1169.0         0.47         41.9 
      1170.0         0.62         30.7 
      1171.0         0.50         25.7 
      1172.0         0.50         23.6 
      1173.0         0.47         23.4 
      1174.0         0.43         24.1 
      1175.0         0.43         24.2 
      1176.0         0.40         24.8 
      1177.0         0.42         24.2 
      1178.0         0.40         24.2 
      1179.0         0.40         24.5 
      1180.0         1.13         25.0 
      1181.0         1.10         23.0 
