~Version Information
VERS.                      2.0: CWLS Log ASCII Standard - VERSION 2.0
WRAP.                       NO: One line per depth step
~Well Information Block
STRT.FT               615.0000: 
STOP.FT              1609.0000: 
STEP.FT                 0.2500: 
NULL.                -999.2500: 
COMP.          Pioneer Natural Resources: COMPANY
WELL.          Galloway 32-13 Tr: WELL
FLD.           Purgatoire River: FIELD
LOC.           1910' FNL & 2002' FEL: LOCATION
PROV.                 Colorado: PROVINCE
CNTY.               Las Animas: COUNTRY
SRVC.                Patterson: SERVICE COMPANY
DATE.          Sat Nov 12 20:19:28 2005: LOG DATE
UWI.           05 071 08608 00: UNIQUE WELL ID
~Curve Information Block
DEPT.FT            0 000 00 00: Depth
SN.Ohm-m                      : IEL Short Normal
SP.mV                         : IEL Spontaneous Potential
DIR.Ohm-m                     : IEL Induction Resistivity
GR.GAPI                       : Gamma Ray
~Parameter Information Block
~A  Depth        SN          SP         DIR          GR     
# ...
  1084.0000     21.7088     60.9776     21.6071    117.8563
  1084.2500     21.1389     60.8848     21.1490    121.4797
  1084.5000     20.7771     60.7944     20.7445    127.7036
  1084.7500     20.5467     60.7000     20.3604    131.6687
  1085.0000     20.3200     60.6069     19.9625    135.9187
  1085.2500     20.0317     60.5289     19.5180    137.0321
  1085.5000     19.6935     60.4816     19.0075    136.0989
  1085.7500     19.2694     60.4753     18.4360    134.2130
  1086.0000     18.6729     60.5084     17.8331    130.4138
  1086.2500     17.9268     60.5660     17.2445    127.6694
  1086.5000     17.2264     60.6273     16.7211    124.0989
  1086.7500     16.8028     60.6767     16.3093    122.7640
  1087.0000     16.7483     60.7101     16.0445    123.3908
  1087.2500     17.0038     60.7312     15.9473    125.7365
  1087.5000     17.4049     60.7448     16.0195    131.2552
  1087.7500     17.7320     60.7510     16.2411    135.0797
  1088.0000     17.8514     60.7445     16.5691    138.6148
  1088.2500     17.8328     60.7180     16.9438    138.6337
  1088.5000     17.8658     60.6667     17.3066    135.5251
  1088.7500     18.0739     60.5901     17.6248    132.2436
  1089.0000     18.4770     60.4885     17.9063    126.6579
  1089.2500     19.0514     60.3604     18.1934    122.8061
  1089.5000     19.7609     60.2028     18.5425    117.3843
  1089.7500     20.5915     60.0164     19.0087    114.2262
  1090.0000     21.5771     59.8091     19.6404    109.8069
  1090.2500     22.7828     59.5947     20.4826    106.7394
  1090.5000     24.2015     59.3893     21.5775    102.2769
  1090.7500     25.7060     59.2054     22.9570     99.9744
  1091.0000     27.2379     59.0472     24.6197     97.8219
  1091.2500     28.8861     58.9084     26.4943     96.7519
  1091.5000     30.6410     58.7750     28.4049     94.7540
  1091.7500     32.3475     58.6331     30.0935     93.1627
  1092.0000     33.9460     58.4774     31.3402     90.9978
  1092.2500     35.4395     58.3146     32.1135     89.8471
  1092.5000     36.7464     58.1578     32.5980     88.1077
  1092.7500     37.8488     58.0139     33.0616     86.5335
  1093.0000     38.8163     57.8761     33.6945     83.2894
  1093.2500     39.6280     57.7256     34.5356     80.9191
  1093.5000     40.2767     57.5425     35.4998     78.6380
  1093.7500     40.9079     57.3144     36.4667     78.9347
  1094.0000     41.6572     57.0398     37.3615     82.4462
  1094.2500     42.4981     56.7280     38.1736     85.9474
  1094.5000     43.2916     56.3957     38.9129     90.5042
  1094.7500     43.9501     56.0609     39.5679     91.9481
  1095.0000     44.5406     55.7367     40.1057     91.0241
  1095.2500     45.1624     55.4293     40.5051     88.5445
  1095.5000     45.8091     55.1401     40.7702     83.0371
  1095.7500     46.4405     54.8684     40.9072     78.9495
  1096.0000     47.0776     54.6097     40.8848     73.2178
  1096.2500     47.7823     54.3558     40.6190     69.8007
  1096.5000     48.5836     54.0968     40.0098     64.9040
  1096.7500     49.4090     53.8269     39.0239     61.5374
  1097.0000     50.1213     53.5486     37.7651     56.3269
  1097.2500     50.6329     53.2736     36.4657     53.1582
  1097.5000     50.9420     53.0194     35.3805     50.3272
  1097.7500     51.0413     52.8062     34.6570     50.7302
  1098.0000     50.8048     52.6537     34.2620     55.7022
  1098.2500     50.0273     52.5802     33.9989     61.4984
  1098.5000     48.6140     52.6017     33.6078     71.3782
  1098.7500     46.6321     52.7301     32.9016     76.8103
  1099.0000     44.1460     52.9740     31.8450     81.1056
  1099.2500     41.1322     53.3401     30.5256     81.7220
  1099.5000     37.6169     53.8331     29.0695     82.0454
  1099.7500     33.8404     54.4503     27.5824     83.5856
  1100.0000     30.2793     55.1718     26.1379     89.1861
  1100.2500     27.5068     55.9529     24.7860     94.7839
  1100.5000     25.8603     56.7252     23.5609    104.2624
  1100.7500     25.2108     57.4108     22.4843    110.0472
  1101.0000     25.1474     57.9468     21.5677    116.2849
  1101.2500     25.2542     58.3067     20.8151    118.7872
  1101.5000     25.1701     58.5089     20.2253    121.7331
  1101.7500     24.6719     58.6027     19.7924    124.2625
  1102.0000     23.8468     58.6452     19.5081    129.1291
  1102.2500     23.0158     58.6789     19.3630    132.2509
  1102.5000     22.4119     58.7240     19.3477    135.3585
  1102.7500     22.0528     58.7825     19.4502    136.2177
  1103.0000     21.9304     58.8492     19.6514    135.9278
  1103.2500     22.1090     58.9188     19.9252    134.5220
  1103.5000     22.5912     58.9869     20.2451    129.7316
  1103.7500     23.2535     59.0479     20.5948    124.3735
  1104.0000     24.0001     59.0965     20.9741    113.4339
  1104.2500     24.8600     59.1347     21.3968    105.0698
  1104.5000     25.9218     59.1746     21.8809     93.1274
  1104.7500     27.3008     59.2342     22.4351     86.9116
  1105.0000     29.0023     59.3293     23.0491     81.8953
  1105.2500     30.7392     59.4659     23.6910     81.7068
  1105.5000     32.0660     59.6387     24.3087     85.0173
  1105.7500     32.7478     59.8342     24.8333     88.0947
  1106.0000     32.9190     60.0379     25.1860     90.9678
  1106.2500     32.8423     60.2443     25.2933     90.5869
  1106.5000     32.6215     60.4594     25.1153     86.9695
  1106.7500     32.2024     60.6942     24.6723     83.9860
  1107.0000     31.5012     60.9559     24.0461     81.7540
  1107.2500     30.4824     61.2454     23.3466     83.0983
  1107.5000     29.1987     61.5529     22.6663     90.0265
  1107.7500     27.7533     61.8531     22.0517     97.1952
  1108.0000     26.2291     62.1131     21.5056    108.8473
  1108.2500     24.7513     62.3128     21.0038    115.0853
  1108.5000     23.5186     62.4579     20.5138    119.4862
  1108.7500     22.6283     62.5663     20.0047    118.8773
  1109.0000     22.0170     62.6487     19.4551    114.3011
  1109.2500     21.6633     62.7054     18.8578    110.1560
  1109.5000     21.6828     62.7398     18.2200    104.1904
  1109.7500     22.0801     62.7658     17.5559    101.3330
  1110.0000     22.5333     62.8006     16.8774    100.3711
  1110.2500     22.6407     62.8545     16.1894    102.5506
  1110.5000     22.2934     62.9277     15.4929    109.4539
  1110.7500     21.6615     63.0121     14.7882    115.1204
  1111.0000     20.9366     63.0941     14.0770    122.4980
  1111.2500     20.1483     63.1585     13.3619    125.8784
  1111.5000     19.1488     63.1964     12.6477    129.4758
  1111.7500     17.7696     63.2128     11.9439    132.1088
  1112.0000     16.0247     63.2263     11.2652    137.8385
  1112.2500     14.1526     63.2589     10.6294    142.6756
  1112.5000     12.4095     63.3245     10.0528    149.8120
  1112.7500     10.8874     63.4207      9.5467    153.4805
  1113.0000      9.6363     63.5252      9.1154    156.7278
  1113.2500      8.7943     63.6000      8.7573    157.7224
  1113.5000      8.4532     63.6071      8.4680    158.3933
  1113.7500      8.5131     63.5264      8.2423    158.6833
  1114.0000      8.7153     63.3634      8.0753    159.2357
  1114.2500      8.7951     63.1420      7.9618    159.6705
  1114.5000      8.6632     62.8896      7.8956    159.7769
  1114.7500      8.4334     62.6246      7.8689    158.9240
  1115.0000      8.2469     62.3525      7.8732    156.0129
  1115.2500      8.1587     62.0734      7.9005    153.5459
  1115.5000      8.2120     61.7938      7.9444    150.3359
  1115.7500      8.4582     61.5310      8.0002    148.6442
  1116.0000      8.8597     61.3056      8.0637    145.5726
  1116.2500      9.3064     61.1272      8.1292    142.3689
  1116.5000      9.7293     60.9883      8.1895    135.9648
  1116.7500     10.1075     60.8709      8.2361    131.6973
  1117.0000     10.3846     60.7605      8.2601    127.3442
  1117.2500     10.5173     60.6546      8.2542    126.2667
