~Version Information
VERS.                      2.0: CWLS Log ASCII Standard - VERSION 2.0
WRAP.                       NO: One line per depth step
~Well Information Block
STRT.FT               260.0000: 
STOP.FT              1229.5000: 
STEP.FT                 0.1000: 
NULL.                -999.2500: 
COMP.          Pioneer Natural Resources: COMPANY
WELL.             Mahalo 12-20: WELL
FLD.           Purgatoire River: FIELD
LOC.           1689' FNL & 479' FWL: LOCATION
CNTY.               Las Animas: COUNTY
SRVC.                Patterson: SERVICE COMPANY
DATE.          Mon Feb 27 07:00:19 2006: LOG DATE
UWI.           05 071 08700 00: UNIQUE WELL ID
STAT.                 Colorado: STATE
~Curve Information Block
DEPT.FT            0 000 00 00: Depth
DCAL.in                       : CDL Caliper
RHOB.g/cc                     : CDL Bulk Density
RHOC.g/cc                     : CDL Density Correction
DPOR.pu                       : CDL Density Porosity
GR.GAPI                       : Gamma Ray
NPOR.pu                       : Neutron Porosity
~Parameter Information Block
~A  Depth       DCAL        RHOB        RHOC        DPOR         GR         NPOR    
# ...
  1095.2000      7.9995      2.4903      0.1195      9.6764    101.8504     29.7892
  1095.3000      7.8086      2.5085      0.0715      8.5761    108.0334     28.2591
  1095.4000      7.8086      2.5189      0.0840      7.9432    112.9909     26.0253
  1095.5000      7.7826      2.5157      0.0221      8.1383    115.6011     24.6765
  1095.6000      7.7826      2.5135      0.0373      8.2702    117.0143     24.4217
  1095.7000      7.7826      2.5191      0.0038      7.9341    117.4864     24.7642
  1095.8000      7.7863      2.5194      0.0368      7.9152    114.7979     24.6924
  1095.9000      7.7863      2.5034      0.0306      8.8822    110.1851     23.7154
  1096.0000      7.7970      2.4791      0.0046     10.3552    107.5272     22.8760
  1096.1000      7.7970      2.4610     -0.0601     11.4563    106.8553     23.1177
  1096.2000      7.7970      2.4447      0.0175     12.4442    106.5022     24.1822
  1096.3000      7.7988      2.4126     -0.0057     14.3885    108.7023     25.0284
  1096.4000      7.7988      2.3650     -0.0228     17.2742    115.4301     25.1347
  1096.5000      7.7945      2.3163     -0.0404     20.2238    124.8634     25.2299
  1096.6000      7.7945      2.2806     -0.0631     22.3902    133.2418     25.7854
  1096.7000      7.7945      2.2726     -0.0480     22.8747    135.5904     26.2265
  1096.8000      7.7950      2.2956     -0.0062     21.4791    128.2725     26.6190
  1096.9000      7.7950      2.3419      0.0043     18.6714    115.4827     27.3888
  1097.0000      7.8086      2.4016      0.0689     15.0571    104.1116     28.1791
  1097.1000      7.8086      2.4566      0.1279     11.7207     97.4403     28.3333
  1097.2000      7.8086      2.4967      0.1281      9.2880     95.4784     27.6885
  1097.3000      7.8462      2.5247      0.1452      7.5937     95.2552     27.0480
  1097.4000      7.8462      2.5391      0.0779      6.7200     95.3293     26.8488
  1097.5000      7.8042      2.5357      0.0607      6.9270     95.8424     26.1697
  1097.6000      7.8042      2.5166      0.0305      8.0871     95.1990     24.3273
  1097.7000      7.8042      2.4988     -0.0098      9.1624     94.0149     22.4068
  1097.8000      7.7840      2.4980      0.0318      9.2093     95.0777     21.6804
  1097.9000      7.7840      2.5098      0.0078      8.4947     96.6575     21.9847
  1098.0000      7.7787      2.5279     -0.0083      7.3984     95.9810     22.6362
  1098.1000      7.7787      2.5490      0.0385      6.1202     94.8625     23.2029
  1098.2000      7.7787      2.5662      0.0619      5.0800     97.7223     23.5084
  1098.3000      7.7693      2.5737      0.0478      4.6241    106.6444     23.4210
  1098.4000      7.7693      2.5651      0.0903      5.1427    118.3565     23.1174
  1098.5000      7.7570      2.5440      0.0615      6.4248    126.6152     23.0093
  1098.6000      7.7570      2.5297      0.0159      7.2881    127.1788     23.2049
  1098.7000      7.7570      2.5306      0.0510      7.2363    119.7850     23.6773
  1098.8000      7.7603      2.5338      0.0427      7.0444    109.8076     24.3665
  1098.9000      7.7603      2.5350      0.0578      6.9692    102.1162     24.6488
  1099.0000      7.7690      2.5430      0.0380      6.4878     95.6094     23.8156
  1099.1000      7.7690      2.5552      0.0690      5.7459     90.5470     22.4984
  1099.2000      7.7690      2.5636      0.0609      5.2389     90.7440     21.4114
  1099.3000      7.7669      2.5705      0.0858      4.8211     93.0069     20.3231
  1099.4000      7.7669      2.5759      0.0937      4.4927     90.9471     19.5844
  1099.5000      7.7874      2.5758      0.0756      4.4984     86.7291     19.8931
  1099.6000      7.7874      2.5772      0.0572      4.4128     84.4481     20.9442
  1099.7000      7.7874      2.5871      0.0750      3.8100     82.4832     21.7862
  1099.8000      7.7906      2.6039      0.0373      2.7961     80.8890     21.7831
  1099.9000      7.7906      2.6215      0.0790      1.7266     80.6432     20.8707
  1100.0000      7.7989      2.6272      0.0770      1.3816     78.1804     19.2069
  1100.1000      7.7989      2.6196      0.0338      1.8454     73.8390     17.3310
  1100.2000      7.7989      2.6134      0.0279      2.2177     72.9867     16.1590
  1100.3000      7.7936      2.6136      0.0510      2.2047     75.8308     15.7476
  1100.4000      7.7936      2.6149      0.0424      2.1280     77.9524     15.3875
  1100.5000      7.7750      2.6142      0.0364      2.1677     75.2282     15.3175
  1100.6000      7.7750      2.6067      0.0473      2.6215     67.0540     16.1894
  1100.7000      7.7750      2.5888      0.0340      3.7093     59.0871     17.4653
  1100.8000      7.7741      2.5650      0.0185      5.1501     55.7828     18.1528
  1100.9000      7.7741      2.5495     -0.0354      6.0886     55.9518     18.0311
  1101.0000      7.7664      2.5506      0.0052      6.0246     58.8494     17.6528
  1101.1000      7.7664      2.5577     -0.0021      5.5911     66.1869     18.0715
  1101.2000      7.7664      2.5632      0.0260      5.2585     78.3980     19.5045
  1101.3000      7.7351      2.5713      0.0444      4.7705     92.4118     21.0109
  1101.4000      7.7351      2.5891      0.0788      3.6921    102.3551     22.0288
  1101.5000      7.7092      2.6146      0.1213      2.1437    106.1928     22.7694
  1101.6000      7.7092      2.6302      0.1588      1.1973    110.5050     23.3552
  1101.7000      7.7092      2.6156      0.1533      2.0863    118.8912     23.7599
  1101.8000      7.7548      2.5759      0.0670      4.4925    125.1637     24.1427
  1101.9000      7.7548      2.5385      0.0960      6.7570    124.9829     24.8384
  1102.0000      7.7186      2.5142      0.0986      8.2320    121.3059     26.0611
  1102.1000      7.7186      2.4974      0.0677      9.2507    118.4524     27.1889
  1102.2000      7.7186      2.4883      0.0791      9.7997    116.3654     27.3959
  1102.3000      7.7133      2.4921      0.0606      9.5704    113.4352     26.9123
  1102.4000      7.7133      2.5123      0.1078      8.3474    110.4993     26.1399
  1102.5000      7.7159      2.5436      0.1412      6.4514    111.9388     25.3829
  1102.6000      7.7159      2.5828      0.1006      4.0733    120.3768     25.0767
  1102.7000      7.7159      2.6266      0.1970      1.4205    130.0021     25.3890
  1102.8000      7.7251      2.6491      0.2186      0.0570    135.7349     26.1980
  1102.9000      7.7251      2.6324      0.1369      1.0685    138.7421     27.0716
  1103.0000      7.7538      2.5940      0.0915      3.3928    139.7451     27.7231
  1103.1000      7.7538      2.5620      0.0757      5.3303    140.1903     28.0371
  1103.2000      7.7538      2.5480      0.0624      6.1808    139.8014     27.5348
  1103.3000      7.7834      2.5484      0.0623      6.1590    136.0478     26.3286
  1103.4000      7.7834      2.5581      0.0328      5.5725    128.5186     25.6788
  1103.5000      7.8129      2.5747      0.0546      4.5618    121.1796     26.2912
  1103.6000      7.8129      2.5901      0.0548      3.6275    121.0874     27.0246
  1103.7000      7.8129      2.5951      0.0748      3.3295    127.5119     26.7171
  1103.8000      7.8234      2.5966      0.0592      3.2355    134.0784     25.9994
  1103.9000      7.8234      2.6071      0.0474      2.5994    139.2775     25.6205
  1104.0000      7.8521      2.6138      0.0938      2.1956    142.2557     25.5819
  1104.1000      7.8521      2.5955      0.0477      3.3038    140.6511     25.8475
  1104.2000      7.8521      2.5538     -0.0003      5.8301    137.5658     26.0551
  1104.3000      7.8151      2.5075     -0.0180      8.6371    134.3181     26.2133
  1104.4000      7.8151      2.4776     -0.0255     10.4504    125.6916     26.9853
  1104.5000      7.8023      2.4613     -0.0098     11.4341    113.7996     28.1751
  1104.6000      7.8023      2.4246      0.0162     13.6601    104.6399     29.0055
  1104.7000      7.8023      2.3407     -0.0215     18.7428     99.7538     29.7017
