~Version Information
VERS.                      2.0: CWLS Log ASCII Standard - VERSION 2.0
WRAP.                       NO: One line per depth step
~Well Information Block
STRT.FT                10.0000: 
STOP.FT              1380.7500: 
STEP.FT                 0.2500: 
NULL.                -999.2500: 
COMP.          Pioneer Natural Resources: COMPANY
WELL.          Baa Baa 34-1 Tr: WELL
FLD.           Purgatoire River: FIELD
LOC.           785' FSL & 2304' FEL: LOCATION
CNTY.               Las Animas: COUNTY
SRVC.                Patterson: SERVICE COMPANY
DATE.          Tue Mar 07 13:08:19 2006: LOG DATE
UWI.           05 071 08710 00: UNIQUE WELL ID
STAT.                 Colorado: STATE
~Curve Information Block
DEPT.FT            0 000 00 00: Depth
GR.GAPI                       : Gamma Ray
CCL.                          : Casing Collar Locator
TT3.usec                      : CBL 3' Travel Time
AMP3.mV                       : CBL 3' Amplitude
~Parameter Information Block
~A  Depth        GR         CCL         TT3         AMP3    
# ...
   713.5000    133.2536      0.0000    932.9850      9.8708
   713.7500    134.2549      0.0000    932.1727      9.8040
   714.0000    134.0953      0.0000    924.1440      9.7343
   714.2500    132.6961      0.0000    910.3036      9.6787
   714.5000    130.4860      0.0000    893.8879      9.6400
   714.7500    127.9591      0.0000    878.5474      9.6065
   715.0000    125.1756      0.0000    865.9718      9.5689
   715.2500    121.9988      0.0000    855.2221      9.5303
   715.5000    118.6281      0.0000    845.0066      9.4967
   715.7500    115.6203      0.0000    836.4790      9.4625
   716.0000    113.4470      0.0000    832.8960      9.4196
   716.2500    112.2313      0.0000    835.9861      9.3830
   716.5000    111.8697      0.0000    843.5137      9.3937
   716.7500    112.2010      0.0000    851.1365      9.4819
   717.0000    112.9592      0.0000    855.8317      9.6299
   717.2500    113.7269      0.0000    856.8977      9.7811
   717.5000    114.0023      0.0000    854.7079      9.8885
   717.7500    113.2128      0.0000    849.8486      9.9495
   718.0000    110.8169      0.0000    843.5275      9.9940
   718.2500    106.9217      0.0000    837.6848     10.0511
   718.5000    102.9176      0.0000    833.6774     10.1363
   718.7500    100.9628      0.0000    831.1354     10.2597
   719.0000    102.3847      0.0000    828.9671     10.4213
   719.2500    106.6337      0.0000    827.3419     10.5797
   719.5000    111.8310      0.0000    827.9555     10.6205
   719.7500    116.2146      0.0000    832.7426     10.3730
   720.0000    119.2289      0.0000    842.6640      9.7112
   720.2500    121.5994      0.0000    856.6598      8.6863
   720.5000    124.3673      0.0000    870.9573      7.5311
   720.7500    127.6939      0.0000    880.3547      6.4685
   721.0000    130.6814      0.0000    881.5258      5.5364
   721.2500    132.2590      0.0000    875.3804      4.6645
   721.5000    131.8834      0.0000    866.1287      3.8752
   721.7500    129.5723      0.0000    858.3611      3.3028
   722.0000    125.9034      0.0000    854.8487      3.0271
   722.2500    121.9812      0.0000    856.0323      2.9778
   722.5000    118.8269      3.0000    860.7375      3.0071
   722.7500    116.7713      0.0000    867.0585      3.0280
   723.0000    115.7536      0.0000    872.4202      3.0956
   723.2500    116.0525      0.0000    873.3873      3.3699
   723.5000    118.3217      0.0000    866.9579      3.9704
   723.7500    122.8650      0.0000    853.1144      4.8610
   724.0000    128.9190      0.0000    835.6852      5.9157
   724.2500    134.6298      0.0000    819.9394      7.0740
   724.5000    137.9182      0.0000    809.2690      8.3579
   724.7500    137.6134      0.0000    804.2092      9.7427
   725.0000    133.6905      0.0000    803.7069     11.0886
   725.2500    126.5927      0.0000    806.2936     12.2260
   725.5000    117.0131      0.0000    810.4067     13.0812
   725.7500    106.4559      0.0000    814.7958     13.7093
   726.0000     97.3408      0.0000    818.9580     14.2262
   726.2500     92.0493      0.0000    822.7850     14.7138
   726.5000     91.7367      0.0000    825.7626     15.1717
   726.7500     96.0244      0.0000    826.9457     15.5355
   727.0000    103.6706      0.0000    825.9039     15.7358
   727.2500    113.1563      0.0000    823.3448     15.7502
   727.5000    122.5941      0.0000    820.5228     15.6149
   727.7500    130.0168      0.0000    818.2527     15.3943
   728.0000    134.5385      0.0000    816.6758     15.1391
   728.2500    136.8552      0.0000    815.6807     14.8662
   728.5000    138.1171      0.0000    815.2075     14.5730
   728.7500    138.5451      0.0000    815.2083     14.2637
   729.0000    137.3310      0.0000    815.5364     13.9618
   729.2500    133.8570      0.0000    815.9676     13.7008
   729.5000    129.0689      0.0000    816.3193     13.5070
   729.7500    125.4107      0.0000    816.5381     13.3866
   730.0000    124.8682      0.0000    816.6508     13.3243
   730.2500    127.0643      0.0000    816.6784     13.2899
   730.5000    129.5599      0.0000    816.6429     13.2509
   730.7500    129.9385      0.0000    816.6147     13.1820
   731.0000    127.5499      0.0000    816.6734     13.0706
   731.2500    123.7618      0.0000    816.8196     12.9186
   731.5000    120.8480      0.0000    816.9650     12.7425
   731.7500    120.3279      0.0000    817.0145     12.5691
   732.0000    121.9867      0.0000    816.9387     12.4262
   732.2500    124.4821      0.0000    816.7775     12.3364
   732.5000    126.7483      0.0000    816.6000     12.3099
   732.7500    128.4851      0.0000    816.5121     12.3383
   733.0000    129.4820      0.0000    816.7589     12.3966
   733.2500    129.1495      0.0000    817.8732     12.4583
   733.5000    126.9601      0.0000    820.6835     12.5069
   733.7500    123.0486      0.0000    825.9225     12.5329
   734.0000    118.1484      0.0000    833.4703     12.5249
   734.2500    113.1155      0.0000    841.9068     12.4733
   734.5000    108.7209      0.0000    849.0743     12.3799
   734.7500    105.5955      0.0000    853.2381     12.2599
   735.0000    103.7646      0.0000    853.7579     12.1349
   735.2500    102.1769      0.0000    851.1055     12.0260
   735.5000     99.2429      0.0000    846.8226     11.9468
   735.7500     94.2184      0.0000    843.1774     11.8937
   736.0000     87.7727      0.0000    841.9291     11.8429
   736.2500     80.9938      0.0000    843.1682     11.7602
   736.5000     74.1993      0.0000    845.7877     11.6171
   736.7500     67.0784      0.0000    848.9151     11.3999
   737.0000     59.6646      0.0000    852.2979     11.1149
   737.2500     52.6211      0.0000    855.6400     10.7920
   737.5000     46.5846      0.0000    858.4307     10.4791
   737.7500     41.6852      0.0000    860.5543     10.2232
   738.0000     37.8471      0.0000    862.7512     10.0538
   738.2500     35.2147      0.0000    866.6256      9.9786
   738.5000     34.0134      0.0000    874.2440      9.9940
   738.7500     34.0565      0.0000    886.7891     10.0994
   739.0000     34.5578      0.0000    902.4534     10.3068
   739.2500     34.5568      0.0000    915.8470     10.6365
   739.5000     33.6994      0.0000    921.1759     11.1003
   739.7500     32.5954      0.0000    917.1520     11.6778
   740.0000     32.2411      0.0000    908.3871     12.2988
   740.2500     33.1731      0.0000    900.9899     12.8609
   740.5000     35.3898      0.0000    896.7369     13.2855
   740.7500     38.9526      0.0000    892.3461     13.5664
   741.0000     44.2465      0.0000    884.4602     13.7639
   741.2500     51.5495      0.0000    873.9644     13.9474
   741.5000     60.5497      0.0000    864.7230     14.1357
   741.7500     70.4017      0.0000    859.3823     14.2836
   742.0000     80.0911      0.0000    857.6064     14.3209
   742.2500     88.6922      0.0000    857.6285     14.2129
   742.5000     95.4717      0.0000    858.1599     13.9916
   742.7500     99.9524      0.0000    858.8806     13.7298
   743.0000    101.9986      0.0000    860.0544     13.4897
   743.2500    101.9734      0.0000    861.9525     13.2943
   743.5000    100.7696      0.0000    864.1981     13.1392
   743.7500     99.4826      0.0000    865.2480     13.0170
   744.0000     98.9017      0.0000    862.8318     12.9251
   744.2500     99.2606      0.0000    855.5184     12.8587
   744.5000    100.4097      0.0000    844.1783     12.8068
   744.7500    102.1255      0.0000    831.8168     12.7658
   745.0000    104.1535      0.0000    821.8712     12.7531
   745.2500    106.0137      0.0000    816.6682     12.7974
   745.5000    107.0355      0.0000    817.3188     12.9129
   745.7500    106.7376      0.0000    824.4398     13.0833
   746.0000    105.0981      0.0000    838.0898     13.2702
   746.2500    102.4668      0.0000    856.5134     13.4322
   746.5000     99.3617      0.0000    875.2546     13.5357
   746.7500     96.3085      0.0000    888.8430     13.5625
