~Version Information
VERS.                      2.0: CWLS Log ASCII Standard - VERSION 2.0
WRAP.                       NO: One line per depth step
~Well Information Block
STRT.FT               595.0000: 
STOP.FT              1693.0000: 
STEP.FT                 0.1000: 
NULL.                -999.2500: 
COMP.          Pioneer Natural Resources: COMPANY
WELL.          Rollerball 34-30: WELL
FLD.           Purgatoire River: FIELD
LOC.           893' FSL & 2408' FEL: LOCATION
CNTY.               Las Animas: COUNTY
SRVC.                Patterson: SERVICE COMPANY
DATE.          Tue Feb 14 15:43:01 2006: LOG DATE
UWI.           05 071 08581 00: UNIQUE WELL ID
STAT.                 Colorado: STATE
~Curve Information Block
DEPT.FT            0 000 00 00: Depth
DCAL.in                       : CDL Caliper
RHOB.g/cc                     : CDL Bulk Density
RHOC.g/cc                     : CDL Density Correction
DPOR.pu                       : CDL Density Porosity
GR.GAPI                       : Gamma Ray
NPOR.pu                       : Neutron Porosity
~Parameter Information Block
~A  Depth       DCAL        RHOB        RHOC        DPOR         GR         NPOR    
# ...
  1459.0000      8.0193      2.5439      0.0514      6.4288    121.1643     27.4350
  1459.1000      8.0193      2.5280      0.0551      7.3921    118.8709     27.5651
  1459.2000      8.0193      2.5135      0.0413      8.2707    120.0044     27.8308
  1459.3000      8.0206      2.4998      0.0274      9.1037    121.5749     28.2782
  1459.4000      8.0206      2.4860      0.0382      9.9415    121.4034     28.4969
  1459.5000      8.0206      2.4765      0.0170     10.5174    121.7674     28.0561
  1459.6000      8.0206      2.4837      0.0070     10.0787    121.6666     27.2368
  1459.7000      8.0206      2.5028      0.0849      8.9186    119.9846     26.7808
  1459.8000      8.0208      2.5087      0.0799      8.5649    117.1805     26.8094
  1459.9000      8.0208      2.5013      0.0083      9.0103    113.3756     26.7472
  1460.0000      8.0207      2.5039      0.0190      8.8554    110.6242     26.9842
  1460.1000      8.0207      2.5122      0.0679      8.3497    109.0487     27.6980
  1460.2000      8.0207      2.5104      0.0077      8.4580    106.8611     28.0547
  1460.3000      8.0214      2.5102      0.0095      8.4750    104.2098     27.7218
  1460.4000      8.0214      2.5191      0.0777      7.9314    101.3871     26.7612
  1460.5000      8.0204      2.5223      0.0474      7.7368    100.2528     25.2777
  1460.6000      8.0204      2.5138      0.0322      8.2565    101.8359     24.3161
  1460.7000      8.0204      2.5051     -0.0107      8.7833    102.2990     24.8209
  1460.8000      8.0212      2.5084      0.0161      8.5848    100.5178     25.8903
  1460.9000      8.0212      2.5211      0.0366      7.8108     99.2554     25.9222
  1461.0000      8.0218      2.5360     -0.0024      6.9088     98.0797     24.9905
  1461.1000      8.0218      2.5479      0.0697      6.1902     95.8449     24.6662
  1461.2000      8.0218      2.5418      0.0640      6.5598     96.1838     25.2978
  1461.3000      8.0208      2.5190     -0.0039      7.9418    100.6490     25.3460
  1461.4000      8.0208      2.5046      0.0045      8.8136    104.6432     24.7755
  1461.5000      8.0219      2.5015      0.0160      8.9972    106.3766     25.3082
  1461.6000      8.0219      2.4970     -0.0268      9.2725    108.5713     26.7613
  1461.7000      8.0219      2.4905      0.0248      9.6647    113.5460     27.5441
  1461.8000      8.0219      2.4809      0.0248     10.2493    120.0553     27.3825
  1461.9000      8.0219      2.4676      0.0115     11.0555    125.1880     27.0373
  1462.0000      8.0203      2.4599      0.0074     11.5191    128.5591     26.5876
  1462.1000      8.0203      2.4702     -0.0120     10.8941    131.0429     26.0458
  1462.2000      8.0203      2.4958      0.0312      9.3481    130.4597     25.8786
  1462.3000      8.0152      2.5190      0.0236      7.9389    127.2049     26.1348
  1462.4000      8.0152      2.5307      0.0687      7.2287    123.4781     26.4820
  1462.5000      8.0187      2.5259      0.0393      7.5210    117.2088     26.3997
  1462.6000      8.0187      2.5073      0.0556      8.6456    107.7464     26.1207
  1462.7000      8.0187      2.4946      0.0213      9.4183    100.4799     26.7097
  1462.8000      8.0168      2.5024      0.0230      8.9478     98.7733     28.3238
  1462.9000      8.0168      2.5197      0.0448      7.8946    100.8599     30.1141
  1463.0000      8.0185      2.5278      0.0574      7.4046    104.3953     30.8973
  1463.1000      8.0185      2.5257      0.0497      7.5314    107.2235     30.1335
  1463.2000      8.0185      2.5287     -0.0094      7.3489    107.1827     28.8315
  1463.3000      8.0211      2.5430      0.0543      6.4831    106.0945     28.1432
  1463.4000      8.0211      2.5526      0.0490      5.9023    108.6675     28.3260
  1463.5000      8.0247      2.5454      0.0305      6.3405    118.0100     28.7194
  1463.6000      8.0247      2.5281     -0.0019      7.3851    132.7093     28.6196
  1463.7000      8.0247      2.5158      0.0081      8.1339    145.5263     27.9516
  1463.8000      8.0220      2.5155      0.0420      8.1499    146.6847     27.1070
  1463.9000      8.0220      2.5189      0.0273      7.9465    136.3510     26.3882
  1464.0000      8.0207      2.5139      0.0212      8.2515    126.7995     25.3430
  1464.1000      8.0207      2.5000     -0.0170      9.0893    124.6656     24.3672
  1464.2000      8.0207      2.4902     -0.0023      9.6868    125.6819     24.7719
  1464.3000      8.0208      2.4948      0.0178      9.4071    125.6958     26.1325
  1464.4000      8.0208      2.5042      0.0477      8.8350    125.0235     26.8747
  1464.5000      8.0207      2.4987      0.0197      9.1718    125.5401     26.9729
  1464.6000      8.0207      2.4712      0.0396     10.8348    128.1444     27.0862
  1464.7000      8.0207      2.4314     -0.0133     13.2490    129.6123     27.2267
  1464.8000      8.0220      2.3988     -0.0461     15.2233    125.2521     27.3945
  1464.9000      8.0220      2.3800      0.0126     16.3651    116.1741     27.7179
  1465.0000      8.0228      2.3608      0.0106     17.5289    108.1538     28.2184
  1465.1000      8.0228      2.3288      0.0167     19.4671    105.0295     28.4119
  1465.2000      8.0228      2.2773      0.0389     22.5906    103.4138     27.8854
  1465.3000      8.0212      2.2032     -0.0104     27.0758    101.4310     27.3257
  1465.4000      8.0212      2.1188     -0.0286     32.1939    101.6642     27.6516
  1465.5000      8.0227      2.0384     -0.0151     37.0674    102.9664     28.7402
  1465.6000      8.0227      1.9595     -0.0271     41.8466    104.6463     29.8151
  1465.7000      8.0227      1.8738     -0.0235     47.0404    108.2127     30.3857
  1465.8000      8.0147      1.7840     -0.0691     52.4858    110.0262     30.6122
  1465.9000      8.0147      1.7020     -0.0360     57.4526    105.1150     30.8658
  1466.0000      8.0250      1.6412     -0.0546     61.1403     96.3097     30.9796
  1466.1000      8.0250      1.6102     -0.0296     63.0158     89.6704     30.8113
  1466.2000      8.0250      1.6051      0.0192     63.3254     87.5717     30.8233
  1466.3000      8.0305      1.6131      0.0380     62.8454     88.5463     31.1273
  1466.4000      8.0305      1.6262      0.0400     62.0492     89.5499     31.5375
  1466.5000      8.0325      1.6473      0.0653     60.7677     89.8803     31.9613
  1466.6000      8.0325      1.6820      0.0886     58.6678     92.2607     32.5799
  1466.7000      8.0325      1.7235      0.1306     56.1520     93.3477     33.2832
  1466.8000      8.0308      1.7571      0.1309     54.1168     86.5743     33.3850
  1466.9000      8.0308      1.7732      0.1436     53.1389     75.8731     32.6604
  1467.0000      8.0358      1.7668      0.1240     53.5275     69.3897     31.8893
  1467.1000      8.0358      1.7382      0.0766     55.2632     68.5900     31.7151
  1467.2000      8.0358      1.6963      0.0319     57.8021     73.0805     32.1211
  1467.3000      8.0303      1.6492      0.0231     60.6551     79.5784     32.9055
  1467.4000      8.0303      1.6014      0.0094     63.5537     82.0094     33.3806
  1467.5000      8.0289      1.5661     -0.0497     65.6913     79.2208     32.7234
  1467.6000      8.0289      1.5660     -0.0599     65.6977     76.3118     31.1152
  1467.7000      8.0289      1.6115     -0.0025     62.9423     80.0443     29.7142
  1467.8000      8.0314      1.6939      0.0711     57.9460     90.9994     29.4660
  1467.9000      8.0314      1.7990      0.1300     51.5734    102.8464     30.5251
  1468.0000      8.0303      1.9075      0.1810     45.0004    110.0875     32.0808
  1468.1000      8.0303      2.0029      0.1972     39.2196    112.9957     32.7318
  1468.2000      8.0303      2.0966      0.2110     33.5370    113.3561     32.4303
  1468.3000      8.0259      2.2135      0.1758     26.4542    114.9353     32.2877
  1468.4000      8.0259      2.3338      0.2616     19.1626    122.1925     32.5139
  1468.5000      8.0227      2.3987      0.2080     15.2293    133.3835     32.8698
