~Version Information
VERS.                      2.0: CWLS Log ASCII Standard - VERSION 2.0
WRAP.                       NO: One line per depth step
~Well Information Block
STRT.FT               795.0000: 
STOP.FT              2276.0000: 
STEP.FT                 0.1000: 
NULL.                -999.2500: 
COMP.          Pioneer Natural Resources: COMPANY
WELL.            Wildcard 31-5: WELL
FLD.           Purgatoire River: FIELD
LOC.           624' FNL & 1852' FEL--: LOCATION
CNTY.               Las Animas: COUNTY
SRVC.                Patterson: SERVICE COMPANY
DATE.          Tue Mar 07 07:04:10 2006: LOG DATE
UWI.           05 071 08707 00: UNIQUE WELL ID
STAT.                 Colorado: STATE
~Curve Information Block
DEPT.FT            0 000 00 00: Depth
DCAL.in                       : CDL Caliper
DPOR.pu                       : CDL Density Porosity
NPOR.pu                       : Neutron Porosity
RHOB.g/cc                     : CDL Bulk Density
RHOC.g/cc                     : CDL Density Correction
GR.GAPI                       : Gamma Ray
~Parameter Information Block
~A  Depth       DCAL        DPOR        NPOR        RHOB        RHOC         GR     
# ...
   891.0000      8.1766     -1.4334     23.5050      2.6737      0.1250    117.0041
   891.1000      8.1766      0.4111     24.4784      2.6432      0.0581    122.4116
   891.2000      8.1766      1.2734     24.8411      2.6290      0.1110    126.8899
   891.3000      8.1714      2.0753     24.5233      2.6158      0.0749    123.9450
   891.4000      8.1714      3.0130     23.9179      2.6003      0.0284    118.3855
   891.5000      8.1633      3.5757     23.5326      2.5910     -0.0018    118.5532
   891.6000      8.1633      4.1221     23.6919      2.5820      0.0176    123.0182
   891.7000      8.1633      4.6969     24.1004      2.5725     -0.0267    125.2774
   891.8000      8.1635      4.9317     24.1049      2.5686      0.0205    122.8525
   891.9000      8.1635      5.5522     23.6894      2.5584      0.0281    120.0694
   892.0000      8.1694      7.0689     23.2680      2.5334      0.0348    122.5787
   892.1000      8.1694      8.9791     22.8074      2.5018      0.0479    129.8605
   892.2000      8.1694     11.1098     22.2694      2.4667      0.0106    135.7507
   892.3000      8.1742     13.2518     21.9371      2.4313     -0.0370    133.1592
   892.4000      8.1742     14.6046     21.6198      2.4090      0.0076    121.6520
   892.5000      8.1772     14.5880     21.0598      2.4093      0.0348    108.5340
   892.6000      8.1772     13.3009     20.9044      2.4305      0.0317    101.0226
   892.7000      8.1772     11.7744     21.4901      2.4557      0.0647     99.5864
   892.8000      8.1741     11.0830     22.0722      2.4671      0.0306    101.2950
   892.9000      8.1741     11.2859     22.2051      2.4638      0.0779    102.2328
   893.0000      8.1621     11.9471     22.1846      2.4529      0.0524     99.0493
   893.1000      8.1621     12.1622     21.9671      2.4493      0.0517     94.9345
   893.2000      8.1621     11.3971     21.4876      2.4619      0.1004     95.1756
   893.3000      8.1458     10.3733     21.1726      2.4788      0.1068     97.5510
   893.4000      8.1458      9.8346     21.1113      2.4877      0.1068     97.4816
   893.5000      8.1344      9.6387     21.0393      2.4910      0.1056     97.8365
   893.6000      8.1344      9.3732     20.8977      2.4953      0.0925    102.3891
   893.7000      8.1344      8.7665     20.7252      2.5054      0.0637    105.4345
   893.8000      8.1301      7.7412     20.6570      2.5223      0.0995     99.3187
   893.9000      8.1301      6.9059     20.8434      2.5361      0.1081     88.7781
   894.0000      8.1285      6.5861     21.1368      2.5413      0.0637     84.7941
   894.1000      8.1285      5.5850     21.1342      2.5578      0.0541     86.1225
   894.2000      8.1285      3.2218     20.9026      2.5968      0.1338     84.4404
   894.3000      8.1271      0.6339     21.0057      2.6395      0.1408     79.9654
   894.4000      8.1271     -1.4064     21.5542      2.6732      0.1372     77.8031
   894.5000      8.1248     -3.1023     22.2988      2.7012      0.1392     78.3511
   894.6000      8.1248     -4.2879     23.0028      2.7208      0.1389     78.1869
   894.7000      8.1248     -4.3600     23.4581      2.7219      0.1313     76.1605
   894.8000      8.1226     -3.0355     23.8375      2.7001      0.1141     72.2977
   894.9000      8.1226     -0.7838     24.2421      2.6629      0.0460     66.9196
   895.0000      8.1211      1.4572     24.4065      2.6260      0.0752     64.0197
   895.1000      8.1211      2.8883     24.2791      2.6023     -0.0286     67.1082
   895.2000      8.1211      3.2729     24.0972      2.5960      0.0333     72.1917
   895.3000      8.1198      3.1640     23.8734      2.5978     -0.0029     75.2454
   895.4000      8.1198      2.8146     23.5037      2.6036     -0.0037     76.6828
   895.5000      8.1197      2.3079     23.0958      2.6119      0.0117     77.3108
   895.6000      8.1197      1.9464     22.6870      2.6179      0.0107     79.8608
   895.7000      8.1197      1.7259     22.2460      2.6215      0.0827     83.9418
   895.8000      8.1220      1.6865     21.9876      2.6222      0.0668     84.7310
   895.9000      8.1220      1.5322     21.9319      2.6247      0.0213     81.8212
   896.0000      8.1233      0.8633     21.8570      2.6358      0.0632     77.1894
   896.1000      8.1233      0.2864     21.7820      2.6453      0.0728     73.7924
   896.2000      8.1233      0.5711     21.7756      2.6406      0.0831     73.2105
   896.3000      8.1220      1.5143     21.8019      2.6250      0.0362     71.8664
   896.4000      8.1220      2.6812     21.7899      2.6058      0.0447     69.3467
   896.5000      8.1219      4.2555     21.6397      2.5798      0.0221     67.6016
   896.6000      8.1219      5.7914     21.5120      2.5544      0.0184     67.1020
   896.7000      8.1219      6.1492     21.6229      2.5485      0.0168     67.9571
   896.8000      8.1226      5.6362     21.8616      2.5570      0.0409     68.6429
   896.9000      8.1226      5.8566     21.8852      2.5534      0.0118     68.8791
   897.0000      8.1213      7.0526     21.7051      2.5336     -0.0277     70.1970
   897.1000      8.1213      7.7568     21.6552      2.5220     -0.0219     72.9062
   897.2000      8.1213      6.9465     21.6828      2.5354     -0.0067     74.5275
   897.3000      8.1188      5.1938     21.6933      2.5643      0.0299     74.0520
   897.4000      8.1188      3.9726     21.8821      2.5845      0.0418     73.9957
   897.5000      8.1187      3.8970     22.0140      2.5857      0.0352     75.0031
   897.6000      8.1187      4.1634     21.7199      2.5813      0.0408     75.5506
   897.7000      8.1187      4.4302     21.3039      2.5769      0.0491     74.6528
   897.8000      8.1216      5.2256     21.1448      2.5638      0.0306     73.3311
   897.9000      8.1216      6.6106     21.0231      2.5409      0.0389     74.3769
   898.0000      8.1230      7.9435     20.6806      2.5189      0.0372     76.2625
   898.1000      8.1230      8.3561     20.4213      2.5121      0.0193     76.1797
   898.2000      8.1230      7.5976     20.5100      2.5246      0.0126     76.7418
   898.3000      8.1225      6.3454     20.5572      2.5453      0.0918     79.0376
   898.4000      8.1225      5.4211     20.2803      2.5606      0.0918     80.1770
   898.5000      8.1255      4.5891     19.9836      2.5743      0.0847     79.6691
   898.6000      8.1255      3.4037     19.9144      2.5938      0.0868     76.7071
   898.7000      8.1255      2.4795     20.0094      2.6091      0.1057     71.1258
   898.8000      8.1356      2.0095     20.2465      2.6168      0.1132     65.8185
   898.9000      8.1356      1.0573     20.6477      2.6326      0.1161     62.5742
   899.0000      8.1491     -0.4056     21.1268      2.6567      0.1338     62.7002
   899.1000      8.1491     -1.5992     21.5794      2.6764      0.1054     66.4428
   899.2000      8.1491     -2.4784     22.0144      2.6909      0.1026     72.5196
   899.3000      8.1606     -2.8801     22.5863      2.6975      0.0623     77.4307
   899.4000      8.1606     -2.4349     23.3027      2.6902      0.0718     76.2745
   899.5000      8.1680     -1.3190     23.9999      2.6718      0.0511     70.6105
   899.6000      8.1680     -0.1053     24.6838      2.6517      0.0322     67.4116
   899.7000      8.1680      0.8078     25.2694      2.6367      0.0409     68.9569
   899.8000      8.1717      1.3760     25.4842      2.6273      0.0388     72.3888
   899.9000      8.1717      1.9720     25.2636      2.6175      0.0127     76.1812
   900.0000      8.1750      2.7910     24.8749      2.6039      0.0105     79.1921
   900.1000      8.1750      3.0849     24.6139      2.5991     -0.0458     80.0562
   900.2000      8.1750      2.6582     24.3957      2.6061      0.0378     81.2492
   900.3000      8.1765      2.8057     23.9292      2.6037      0.0710     85.8128
   900.4000      8.1765      3.7491     23.4187      2.5881      0.0108     90.8471
   900.5000      8.1744      4.3622     23.3527      2.5780      0.0256     94.5974
