~Version Information
VERS.                      2.0: CWLS Log ASCII Standard - VERSION 2.0
WRAP.                       NO: One line per depth step
~Well Information Block
STRT.FT               325.0000: 
STOP.FT              1013.5000: 
STEP.FT                 0.1000: 
NULL.                -999.2500: 
COMP.          Pioneer Natural Resources: COMPANY
WELL.                Doc 34-30: WELL
FLD.           Purgatoire River: FIELD
LOC.           454' FSL & 1386' FEL: LOCATION
CNTY.               Las Animas: COUNTY
SRVC.                Patterson: SERVICE COMPANY
DATE.          Thu Feb 16 07:19:58 2006: LOG DATE
UWI.           05 071 08694 00: UNIQUE WELL ID
STAT.                 Colorado: STATE
~Curve Information Block
DEPT.FT            0 000 00 00: Depth
DCAL.in                       : CDL Caliper
RHOB.g/cc                     : CDL Bulk Density
RHOC.g/cc                     : CDL Density Correction
DPOR.pu                       : CDL Density Porosity
GR.GAPI                       : Gamma Ray
NPOR.pu                       : Neutron Porosity
~Parameter Information Block
~A  Depth       DCAL        RHOB        RHOC        DPOR         GR         NPOR    
# ...
   949.0000      7.8918      2.5698      0.0328      4.8593    344.1358     23.4613
   949.1000      7.8918      2.5459     -0.0204      6.3096    325.7673     22.8873
   949.2000      7.8918      2.5267     -0.0055      7.4751    305.6729     22.9258
   949.3000      7.8920      2.5152      0.0476      8.1699    291.4456     23.1883
   949.4000      7.8920      2.5066      0.0029      8.6880    273.1930     23.1356
   949.5000      7.8932      2.5011      0.0432      9.0261    244.6667     22.7987
   949.6000      7.8932      2.4945      0.0427      9.4256    211.9146     22.6735
   949.7000      7.8932      2.4883      0.0264      9.7972    183.9569     22.8471
   949.8000      7.8956      2.4903      0.0087      9.6788    163.9193     23.0388
   949.9000      7.8956      2.4962      0.0511      9.3224    152.5605     23.2218
   950.0000      7.8986      2.4912      0.0532      9.6216    148.1868     23.1895
   950.1000      7.8986      2.4718      0.0555     10.8013    144.1772     23.1047
   950.2000      7.8986      2.4514      0.0208     12.0353    132.2961     23.2780
   950.3000      7.9009      2.4454      0.0160     12.4005    111.7909     23.2286
   950.4000      7.9009      2.4552      0.0181     11.8074     94.1858     22.8064
   950.5000      7.9013      2.4701      0.0229     10.9013     90.8763     22.4842
   950.6000      7.9013      2.4791      0.0412     10.3605     98.9407     22.4684
   950.7000      7.9013      2.4756      0.0392     10.5726    106.9139     22.3715
   950.8000      7.9000      2.4610      0.0260     11.4544    108.6573     22.0613
   950.9000      7.9000      2.4488     -0.0326     12.1938    106.2217     22.0214
   951.0000      7.8980      2.4484      0.0303     12.2194    101.6584     22.2392
   951.1000      7.8980      2.4537      0.0166     11.8949     95.7784     22.4777
   951.2000      7.8980      2.4626      0.0070     11.3584     90.2632     22.6691
   951.3000      7.8955      2.4688      0.0766     10.9800     85.5375     22.8176
   951.4000      7.8955      2.4608      0.0226     11.4683     80.4317     23.2264
   951.5000      7.8931      2.4462      0.0341     12.3521     73.7945     23.9439
   951.6000      7.8931      2.4433     -0.0319     12.5279     67.1279     24.1622
   951.7000      7.8931      2.4559      0.0268     11.7647     65.4301     23.6866
   951.8000      7.8901      2.4670      0.0436     11.0928     69.8296     23.3858
   951.9000      7.8901      2.4643      0.0222     11.2549     73.9303     23.5637
   952.0000      7.8857      2.4579     -0.0239     11.6426     72.7685     23.8128
   952.1000      7.8857      2.4630     -0.0197     11.3357     68.8707     23.8425
   952.2000      7.8857      2.4771     -0.0009     10.4812     64.0927     23.7038
   952.3000      7.8815      2.4831      0.0323     10.1126     57.1440     23.8542
   952.4000      7.8815      2.4789      0.0076     10.3723     50.2598     24.5226
   952.5000      7.8782      2.4827      0.0187     10.1396     47.8815     25.0025
   952.6000      7.8782      2.4935      0.0404      9.4862     49.9278     24.1615
   952.7000      7.8782      2.4895      0.0535      9.7243     51.9538     22.5121
   952.8000      7.8769      2.4765      0.0030     10.5137     50.0508     21.9059
   952.9000      7.8769      2.4784      0.0139     10.3990     44.8814     22.6578
   953.0000      7.8774      2.4855      0.0832      9.9704     41.5396     23.1949
   953.1000      7.8774      2.4761      0.0346     10.5414     41.5425     22.6793
   953.2000      7.8774      2.4617      0.0009     11.4107     41.7828     22.0135
   953.3000      7.8783      2.4570      0.0181     11.6958     42.0347     21.6830
   953.4000      7.8783      2.4521      0.0602     11.9969     42.7574     21.5571
   953.5000      7.8790      2.4431      0.0059     12.5409     43.6362     21.7554
   953.6000      7.8790      2.4437      0.0318     12.5019     45.6316     21.9696
   953.7000      7.8790      2.4556      0.0098     11.7846     49.4758     21.8574
   953.8000      7.8793      2.4644      0.0376     11.2480     54.7570     21.6368
   953.9000      7.8793      2.4619      0.0174     11.3998     58.1047     21.6757
   954.0000      7.8796      2.4553      0.0559     11.8014     57.4470     21.7519
   954.1000      7.8796      2.4598     -0.0036     11.5288     55.4858     21.2073
   954.2000      7.8796      2.4806      0.0543     10.2695     55.7978     20.2814
   954.3000      7.8801      2.5011      0.0367      9.0272     59.8930     19.9052
   954.4000      7.8801      2.5045      0.0619      8.8158     64.2566     20.4113
   954.5000      7.8815      2.4916      0.0715      9.6020     63.0094     21.5846
   954.6000      7.8815      2.4764      0.0180     10.5187     58.4089     22.6943
   954.7000      7.8815      2.4688      0.0090     10.9848     58.5963     22.6467
   954.8000      7.8818      2.4618      0.0174     11.4086     64.3691     21.7292
   954.9000      7.8818      2.4547      0.0049     11.8361     68.7459     21.3775
   955.0000      7.8788      2.4592      0.0131     11.5616     66.8227     21.8895
   955.1000      7.8788      2.4741      0.0382     10.6582     62.0788     22.4308
   955.2000      7.8788      2.4871      0.0401      9.8708     61.5760     22.6404
   955.3000      7.8754      2.4919      0.0583      9.5813     66.4451     22.2394
   955.4000      7.8754      2.4879      0.0255      9.8240     69.8198     20.9836
   955.5000      7.8740      2.4809      0.0187     10.2491     66.9206     19.9844
   955.6000      7.8740      2.4764      0.0630     10.5228     62.7139     20.2306
   955.7000      7.8740      2.4755      0.0357     10.5749     64.2189     20.7102
   955.8000      7.8742      2.4763      0.0288     10.5268     70.3290     20.2759
   955.9000      7.8742      2.4745      0.0394     10.6388     75.1074     19.5744
   956.0000      7.8756      2.4758     -0.0021     10.5555     76.0635     19.2627
   956.1000      7.8756      2.4896      0.0206      9.7209     75.1229     19.0584
   956.2000      7.8756      2.5021      0.0519      8.9613     75.6315     19.2540
   956.3000      7.8780      2.4921      0.0767      9.5695     77.8868     20.3693
   956.4000      7.8780      2.4635     -0.0018     11.3024     78.1672     21.7966
   956.5000      7.8798      2.4386     -0.0251     12.8148     75.2713     22.6966
   956.6000      7.8798      2.4341     -0.0173     13.0821     72.7344     23.1813
   956.7000      7.8798      2.4544     -0.0093     11.8537     73.2346     23.9208
   956.8000      7.8786      2.4846      0.0521     10.0266     74.1458     24.4404
   956.9000      7.8786      2.5017      0.0818      8.9853     72.0900     24.0159
   957.0000      7.8759      2.5063      0.0298      8.7076     69.3547     23.2229
   957.1000      7.8759      2.5109      0.0730      8.4281     68.3033     22.7276
   957.2000      7.8759      2.5090      0.0648      8.5455     68.0811     22.3413
   957.3000      7.8746      2.4933      0.0230      9.4956     68.2782     21.6887
   957.4000      7.8746      2.4690      0.0428     10.9677     68.6954     21.1852
   957.5000      7.8750      2.4383      0.0349     12.8275     69.6742     21.3727
   957.6000      7.8750      2.4090      0.0076     14.6044     72.4604     21.7460
   957.7000      7.8750      2.3967     -0.0441     15.3505     75.8816     22.3102
   957.8000      7.8749      2.4025     -0.0014     15.0002     77.3432     23.7645
   957.9000      7.8749      2.4113      0.0034     14.4656     77.0018     25.2134
   958.0000      7.8740      2.4172     -0.0018     14.1080     74.0653     24.9631
   958.1000      7.8740      2.4258      0.0083     13.5860     67.5292     23.6463
   958.2000      7.8740      2.4316      0.0397     13.2344     62.9479     23.2119
   958.3000      7.8737      2.4252      0.0345     13.6235     64.7568     23.5827
   958.4000      7.8737      2.4132      0.0197     14.3501     68.2805     23.5287
   958.5000      7.8747      2.4055      0.0474     14.8181     67.0746     22.9259
