~Version Information
VERS.                      2.0: CWLS Log ASCII Standard - VERSION 2.0
WRAP.                       NO: One line per depth step
~Well Information Block
STRT.FT               547.0000: 
STOP.FT              1685.5000: 
STEP.FT                 0.1000: 
NULL.                -999.2500: 
COMP.          Pioneer Natural Resources: COMPANY
WELL.           Pedri 42-33 Tr: WELL
FLD.           Purgatorie River: FIELD
LOC.           1933' FNL & 662' FEL: LOCATION
PROV.                 Colorado: PROVINCE
CNTY.               Las Animas: COUNTRY
SRVC.                Patterson: SERVICE COMPANY
DATE.          Mon Dec 19 13:36:44 2005: LOG DATE
UWI.                          : UNIQUE WELL ID
~Curve Information Block
DEPT.FT            0 000 00 00: Depth
DCAL.in                       : CDL Caliper
RHOB.g/cc                     : CDL Bulk Density
RHOC.g/cc                     : CDL Density Correction
DPOR.pu                       : CDL Density Porosity
GR.GAPI                       : Gamma Ray
~Parameter Information Block
~A  Depth       DCAL        RHOB        RHOC        DPOR         GR     
# ...
   625.4000      7.9741      2.5683      0.0786      4.9522     94.1191
   625.5000      7.9764      2.5458      0.0412      6.3126     95.1313
   625.6000      7.9764      2.5393      0.1066      6.7073     95.5608
   625.7000      7.9764      2.5365      0.0611      6.8766     96.1889
   625.8000      7.9464      2.5438      0.0557      6.4370     97.8498
   625.9000      7.9464      2.5661      0.1519      5.0875    101.6840
   626.0000      8.0255      2.5815      0.2141      4.1511    106.5230
   626.1000      8.0255      2.5734      0.2051      4.6453    108.7028
   626.2000      8.0255      2.5479      0.1822      6.1904    106.6740
   626.3000      7.9918      2.5247      0.1513      7.5961    102.9656
   626.4000      7.9918      2.5196      0.1794      7.9037    102.8042
   626.5000      8.0090      2.5341      0.1489      7.0232    107.9631
   626.6000      8.0090      2.5656      0.1121      5.1135    114.2701
   626.7000      8.0090      2.6051      0.1485      2.7229    117.3645
   626.8000      8.0284      2.6335      0.2024      1.0009    116.8819
   626.9000      8.0284      2.6426      0.1749      0.4469    114.8871
   627.0000      8.0829      2.6403      0.1890      0.5907    113.5711
   627.1000      8.0829      2.6383      0.1524      0.7074    114.2383
   627.2000      8.0829      2.6484      0.1396      0.0993    116.2028
   627.3000      8.1026      2.6713      0.1137     -1.2926    117.5542
   627.4000      8.1026      2.6942      0.0902     -2.6773    118.2363
   627.5000      8.1177      2.7019      0.1457     -3.1480    120.4405
   627.6000      8.1177      2.6982      0.1506     -2.9212    124.1348
   627.7000      8.1177      2.6972      0.2025     -2.8619    126.7169
   627.8000      8.1013      2.6903      0.2670     -2.4437    127.5225
   627.9000      8.1013      2.6651      0.1586     -0.9146    128.1371
   628.0000      8.0886      2.6369      0.1225      0.7927    129.2786
   628.1000      8.0886      2.6178      0.1382      1.9537    128.0309
   628.2000      8.0886      2.6030      0.0777      2.8493    124.4257
   628.3000      8.0794      2.5893      0.1302      3.6811    124.3910
   628.4000      8.0794      2.5757      0.0844      4.5010    129.2182
   628.5000      8.0772      2.5657      0.1515      5.1064    133.9094
   628.6000      8.0772      2.5611      0.1092      5.3908    136.2163
   628.7000      8.0772      2.5642      0.1032      5.2007    136.9309
   628.8000      8.0707      2.5726      0.1363      4.6918    134.7718
   628.9000      8.0707      2.5723      0.1153      4.7098    128.3412
   629.0000      8.0932      2.5615      0.0332      5.3617    121.4635
   629.1000      8.0932      2.5563      0.0198      5.6795    119.9430
   629.2000      8.0932      2.5602      0.0757      5.4423    122.6245
   629.3000      8.1809      2.5712      0.0368      4.7730    123.4530
   629.4000      8.1809      2.5896      0.1117      3.6612    121.0958
   629.5000      8.1215      2.5888      0.1514      3.7113    119.2282
   629.6000      8.1215      2.5469      0.0627      6.2502    120.8678
   629.7000      8.1215      2.4851      0.0088      9.9957    124.8645
   629.8000      8.0882      2.4300      0.0202     13.3331    128.4682
   629.9000      8.0882      2.3848     -0.0348     16.0698    130.8834
   630.0000      8.0827      2.3400     -0.0630     18.7887    131.8461
   630.1000      8.0827      2.2842     -0.0368     22.1697    130.9628
   630.2000      8.0827      2.2225     -0.0701     25.9108    129.8817
   630.3000      8.0766      2.1665     -0.0290     29.3059    129.5478
   630.4000      8.0766      2.1032      0.0391     33.1378    128.0961
   630.5000      8.0838      2.0276     -0.0003     37.7198    124.6372
   630.6000      8.0838      1.9720      0.0122     41.0939    121.1815
   630.7000      8.0838      1.9582      0.0935     41.9260    119.4707
   630.8000      8.1004      1.9729      0.1304     41.0363    119.1340
   630.9000      8.1004      2.0057      0.1149     39.0508    119.0323
   631.0000      8.0699      2.0610      0.2219     35.6949    118.5950
   631.1000      8.0699      2.1302      0.2941     31.5019    117.1310
   631.2000      8.0699      2.1934      0.2779     27.6728    113.6969
   631.3000      8.1124      2.2404      0.1987     24.8221    109.2863
   631.4000      8.1124      2.2729      0.1758     22.8543    107.6992
   631.5000      8.1194      2.2917      0.1614     21.7173    110.1427
   631.6000      8.1194      2.2958      0.0723     21.4648    114.2039
   631.7000      8.1194      2.2905      0.1194     21.7871    119.3950
   631.8000      8.1264      2.2876      0.0874     21.9606    124.9952
   631.9000      8.1264      2.3002      0.0854     21.1999    129.6787
   632.0000      8.1454      2.3257      0.0970     19.6521    133.9408
   632.1000      8.1454      2.3470      0.0711     18.3653    137.1304
   632.2000      8.1454      2.3484      0.0802     18.2817    138.2226
   632.3000      8.1184      2.3252      0.0575     19.6852    137.6095
   632.4000      8.1184      2.2847      0.1021     22.1394    136.2123
   632.5000      8.1167      2.2387      0.0903     24.9272    136.3946
   632.6000      8.1167      2.2075      0.0310     26.8172    138.0477
   632.7000      8.1167      2.2124      0.0648     26.5217    137.5744
   632.8000      8.1016      2.2538      0.0560     24.0124    135.5715
   632.9000      8.1016      2.3166      0.1149     20.2063    135.1494
   633.0000      8.0711      2.3862      0.1554     15.9875    135.2386
   633.1000      8.0711      2.4583      0.2161     11.6185    133.9599
   633.2000      8.0711      2.5263      0.3055      7.4956    131.3268
   633.3000      8.0517      2.5752      0.3324      4.5358    127.6843
   633.4000      8.0517      2.5992      0.2551      3.0772    124.5860
   633.5000      8.0612      2.6020      0.1945      2.9114    122.1313
   633.6000      8.0612      2.5901      0.0978      3.6295    117.9411
   633.7000      8.0612      2.5776      0.0318      4.3909    112.2679
   633.8000      8.0630      2.5701      0.0758      4.8426    108.0543
   633.9000      8.0630      2.5638      0.0491      5.2226    106.9067
   634.0000      7.9995      2.5611      0.0558      5.3906    109.0121
   634.1000      7.9995      2.5677      0.0501      4.9854    111.9241
   634.2000      7.9995      2.5818      0.0494      4.1361    111.8068
   634.3000      8.0003      2.5911      0.0885      3.5677    108.7971
   634.4000      8.0003      2.5886      0.0773      3.7205    106.5136
   634.5000      7.9894      2.5867      0.0122      3.8366    107.6933
   634.6000      7.9894      2.5940      0.0975      3.3954    111.7115
   634.7000      7.9894      2.5991      0.0832      3.0824    115.8800
   634.8000      8.0103      2.5976      0.1055      3.1728    118.8310
   634.9000      8.0103      2.5929      0.0946      3.4608    121.3183
   635.0000      7.9945      2.5821      0.1120      4.1170    125.5127
   635.1000      7.9945      2.5653      0.0778      5.1338    131.0896
   635.2000      7.9945      2.5542      0.0468      5.8034    134.7388
   635.3000      7.9712      2.5526      0.0651      5.9027    134.4359
   635.4000      7.9712      2.5441      0.0704      6.4154    130.1761
   635.5000      7.9947      2.5218      0.0332      7.7681    125.9762
   635.6000      7.9947      2.5003      0.0119      9.0713    126.3640
   635.7000      7.9947      2.4924      0.0121      9.5516    128.2843
   635.8000      8.0482      2.5007      0.0128      9.0460    127.2577
   635.9000      8.0482      2.5231      0.0551      7.6935    124.1713
   636.0000      8.0514      2.5520      0.0916      5.9403    119.8700
   636.1000      8.0514      2.5849      0.0687      3.9466    115.9108
   636.2000      8.0514      2.6246      0.1010      1.5408    113.9487
   636.3000      8.0060      2.6601      0.1822     -0.6136    111.2042
   636.4000      8.0060      2.6783      0.1641     -1.7156    106.1118
   636.5000      8.0027      2.6899      0.0813     -2.4187     99.4791
