~Version Information
VERS.                      2.0: CWLS Log ASCII Standard - VERSION 2.0
WRAP.                       NO: One line per depth step
~Well Information Block
STRT.FT                 8.2500: 
STOP.FT              1156.2500: 
STEP.FT                 0.2500: 
NULL.                -999.2500: 
COMP.          Pioneer Natural Resources: COMPANY
WELL.              Davida 34-8: WELL
FLD.           Purgatoire River: FIELD
LOC.           418' FSL & 1923' FEL: LOCATION
CNTY.               Las Animas: COUNTY
SRVC.                Patterson: SERVICE COMPANY
DATE.          Thu Mar 30 09:09:42 2006: LOG DATE
UWI.           05 071 08722 00: UNIQUE WELL ID
STAT.                 Colorado: STATE
~Curve Information Block
DEPT.FT            0 000 00 00: Depth
GR.GAPI                       : Gamma Ray
CCL.                          : Casing Collar Locator
TT3.usec                      : CBL 3' Travel Time
AMP3.mV                       : CBL 3' Amplitude
~Parameter Information Block
~A  Depth        GR         CCL         TT3         AMP3    
# ...
   142.2500     73.9080      0.0000    771.2598      7.4019
   142.5000     74.0399      0.0000    771.9945      7.3576
   142.7500     74.8889      0.0000    772.8815      7.3241
   143.0000     75.7559      0.0000    774.5358      7.3051
   143.2500     76.1639      0.0000    778.0060      7.2942
   143.5000     76.4543      0.0000    783.5867      7.2802
   143.7500     77.3556      0.0000    790.0159      7.2551
   144.0000     79.0460      0.0000    795.3848      7.2200
   144.2500     80.9605      0.0000    798.6613      7.1883
   144.5000     82.4910      0.0000    800.0126      7.1832
   144.7500     83.5736      0.0000    800.0141      7.2222
   145.0000     84.5301      0.0000    799.0356      7.3003
   145.2500     85.7001      0.0000    797.3909      7.3931
   145.5000     87.4567      0.0000    795.7567      7.4781
   145.7500     90.1859      0.0000    795.0585      7.5462
   146.0000     93.7351      0.0000    795.7567      7.5951
   146.2500     97.1517      0.0000    797.3929      7.6231
   146.5000     99.4868      0.0000    799.0452      7.6339
   146.7500    100.6035      0.0000    800.0597      7.6425
   147.0000    100.7320      0.0000    800.1746      7.6680
   147.2500     99.5564      0.0000    799.0952      7.7190
   147.5000     96.2985      0.0000    796.2659      7.7848
   147.7500     90.7711      0.0000    791.4340      7.8420
   148.0000     84.1614      0.0000    785.6929      7.8744
   148.2500     78.5866      0.0000    781.6202      7.8859
   148.5000     75.7183      0.0000    781.5399      7.8940
   148.7500     75.7497      0.0000    785.3272      7.9138
   149.0000     77.5779      0.0000    790.3198      7.9505
   149.2500     79.6696      0.0000    793.4861      7.9998
   149.5000     80.7777      0.0000    793.5422      8.0530
   149.7500     80.5395      0.0000    791.4354      8.1015
   150.0000     79.8928      0.0000    789.3184      8.1397
   150.2500     80.5358      0.0000    788.6976      8.1622
   150.5000     83.4315      0.0000    788.8229      8.1593
   150.7500     87.8387      0.0000    786.7566      8.1181
   151.0000     91.9118      0.0000    779.4805      8.0322
   151.2500     94.0790      0.0000    766.5078      7.9100
   151.5000     93.7813      0.0000    750.7195      7.7733
   151.7500     91.3030      0.0000    736.5496      7.6464
   152.0000     87.3764      0.0000    727.2549      7.5438
   152.2500     82.9812      0.0000    723.9771      7.4663
   152.5000     79.1881      0.0000    726.8322      7.4063
   152.7500     76.9024      0.0000    735.6744      7.3561
   153.0000     76.5343      0.0000    749.1396      7.3134
   153.2500     77.7454      0.0000    763.7502      7.2814
   153.5000     79.6131      0.0000    775.4624      7.2641
   153.7500     81.2190      0.0000    782.6290      7.2604
   154.0000     82.0624      0.0000    786.7986      7.2618
   154.2500     81.9961      0.0000    790.3614      7.2569
   154.5000     81.1347      0.0000    794.1241      7.2405
   154.7500     79.9193      0.0000    797.3998      7.2175
   155.0000     78.9806      0.0000    799.5113      7.1980
   155.2500     78.7042      0.0000    800.5185      7.1879
   155.5000     78.9540      0.0000    800.8782      7.1839
   155.7500     79.2780      0.0000    800.9702      7.1784
   156.0000     79.3542      0.0000    800.9522      7.1654
   156.2500     79.2102      0.0000    800.7675      7.1432
   156.5000     79.0351      0.0000    800.0378      7.1145
   156.7500     78.8078      0.0000    797.8671      7.0863
   157.0000     78.1121      0.0000    792.9637      7.0672
   157.2500     76.3331      0.0000    784.7369      7.0613
   157.5000     73.1852      0.0000    775.0031      7.0655
   157.7500     69.2401      0.0000    768.1454      7.0748
   158.0000     65.8561      0.0000    768.1569      7.0889
   158.2500     64.2644      0.0000    775.0275      7.1098
   158.5000     64.6481      0.0000    784.7455      7.1359
   158.7500     66.1776      0.0000    792.8993      7.1611
   159.0000     67.8237      0.0000    797.6022      7.1819
   159.2500     68.9736      0.0000    799.3057      7.2009
   159.5000     69.4588      0.0000    799.0685      7.2189
   159.7500     69.3752      0.0000    797.4056      7.2262
   160.0000     69.0053      0.0000    794.1339      7.2071
   160.2500     68.7237      0.0000    788.9315      7.1559
   160.5000     68.8510      0.0000    782.2459      7.0870
   160.7500     69.6186      0.0000    775.5815      7.0296
   161.0000     71.1402      0.0000    770.4912      7.0099
   161.2500     73.2269      0.0000    767.5611      7.0334
   161.5000     75.3891      0.0000    766.9276      7.0804
   161.7500     77.2321      0.0000    769.1984      7.1197
   162.0000     78.6786      0.0000    774.7463      7.1293
   162.2500     79.6681      0.0000    782.2341      7.1094
   162.5000     79.9711      0.0000    788.7426      7.0780
   162.7500     79.4976      0.0000    791.5954      7.0529
   163.0000     78.4727      0.0000    790.0760      7.0382
   163.2500     77.0386      0.0000    785.9374      7.0263
   163.5000     74.9705      0.0000    782.5102      7.0106
   163.7500     72.1405      0.0000    782.5109      6.9930
   164.0000     69.2081      0.0000    785.9299      6.9805
   164.2500     67.5778      0.0000    790.0616      6.9755
   164.5000     68.4562      0.0000    791.6918      6.9705
   164.7500     71.8181      0.0000    789.4294      6.9524
   165.0000     76.1980      0.0000    784.6143      6.9151
   165.2500     79.5302      0.0000    780.3749      6.8670
   165.5000     80.3840      0.0000    779.1068      6.8218
   165.7500     78.6040      0.0000    780.2776      6.7846
   166.0000     75.0508      0.0000    781.1935      6.7523
   166.2500     71.0078      0.0000    780.3144      6.7257
   166.5000     67.7275      0.0000    779.1855      6.7169
   166.7500     66.0675      0.0000    780.5605      6.7441
   167.0000     66.2461      0.0000    785.1933      6.8194
   167.2500     67.9594      0.0000    791.1992      6.9352
   167.5000     70.7488      0.0000    796.1784      7.0486
   167.7500     74.1109      0.0000    799.1258      7.0869
   168.0000     77.2838      0.0000    800.4235      6.9978
   168.2500     79.2161      0.0000    800.8483      6.8125
   168.5000     78.9337      0.0000    800.9003      6.6388
   168.7500     76.1289      0.0000    800.6888      6.5724
   169.0000     71.7727      0.0000    799.9639      6.6194
   169.2500     68.1086      0.0000    798.1622      6.7145
   169.5000     67.3132      0.0000    794.5909      6.7977
   169.7500     69.7529      0.0000    788.9188      6.8737
   170.0000     73.8766      0.0000    781.8131      7.0189
   170.2500     77.8089      0.0000    775.0879      7.3279
   170.5000     80.5383      0.0000    770.7459      7.8175
   170.7500     81.7162      0.0000    769.4400      8.3679
   171.0000     81.2588      0.0000    770.0737      8.7949
   171.2500     79.5616      0.0000    771.1281      8.9917
   171.5000     77.5058      0.0000    772.0767      8.9836
   171.7500     75.7338      0.0000    773.4091      8.8616
   172.0000     74.1249      0.0000    775.7575      8.7054
   172.2500     72.2421      0.0000    779.2546      8.5591
   172.5000     70.1401      0.0000    783.5013      8.4387
   172.7500     68.6124      0.0000    787.8228      8.3435
   173.0000     68.7571      0.0000    791.3277      8.2643
   173.2500     71.0919      0.0000    792.8805      8.1894
   173.5000     74.6527      0.0000    791.5093      8.1092
   173.7500     77.2120      0.0000    787.2551      8.0244
   174.0000     77.0061      0.0000    781.5845      7.9520
   174.2500     74.0809      0.0000    776.7961      7.9160
   174.5000     69.6664      0.0000    774.8762      7.9299
   174.7500     64.8294      0.0000    776.6417      7.9886
   175.0000     60.1999      0.0000    781.4578      8.0770
   175.2500     56.4072      0.0000    787.4552      8.1819
   175.5000     54.0367      0.0000    792.2623      8.2950
