~Version Information
VERS.                      2.0: CWLS Log ASCII Standard - VERSION 2.0
WRAP.                       NO: One line per depth step
~Well Information Block
STRT.FT                 0.0000: 
STOP.FT               712.5000: 
STEP.FT                 0.2500: 
NULL.                -999.2500: 
COMP.          Pioneer Natural Resources: COMPANY
WELL.                Mia 21-18: WELL
FLD.           Purgatorie River: FIELD
LOC.           1067' FNL & 1824' FWL: LOCATION
PROV.                 Colorado: PROVINCE
CNTY.               Las Animas: COUNTRY
SRVC.                Patterson: SERVICE COMPANY
DATE.          Mon Nov 28 13:12:22 2005: LOG DATE
UWI.           05-071-08559               : UNIQUE WELL ID
~Curve Information Block
DEPT.FT            0 000 00 00: Depth
CCL.                          : Casing Collar Locator
TT3.usec                      : CBL 3' Travel Time
AMP3.mV                       : CBL 3' Amplitude
GR.GAPI                       : Gamma Ray
~Parameter Information Block
~A  Depth       CCL         TT3         AMP3         GR     
# ...
   234.5000      0.0000    696.0278      7.5428     87.9372
   234.7500      0.0000    682.0472      7.4190     89.2743
   235.0000      0.0000    673.0713      7.3781     89.9757
   235.2500      0.0000    662.7113      7.4267     89.1668
   235.5000      0.0000    632.1414      7.5362     86.2166
   235.7500      0.0000    569.4932      7.6951     81.3482
   236.0000      0.0000    490.0234      7.8879     75.6844
   236.2500      0.0000    425.9299      8.0676     70.6389
   236.5000      0.0000    392.5893      8.2154     67.3236
   236.7500      0.0000    381.1397      8.3700     66.2695
   237.0000      0.0000    378.3826      8.5357     67.3197
   237.2500      0.0000    377.9550      8.6402     69.7998
   237.5000      0.0000    378.0659      8.6392     72.8624
   237.7500      0.0000    377.9405      8.5855     75.5821
   238.0000      0.0000    376.4255      8.5597     77.0036
   238.2500      0.0000    371.7753      8.5970     76.6031
   238.5000      0.0000    363.1776      8.6734     74.8298
   238.7500      0.0000    353.5872      8.7248     72.8699
   239.0000      0.0000    349.0655      8.7072     71.6898
   239.2500      0.0000    353.0031      8.6262     71.3046
   239.5000      0.0000    362.0689      8.4934     70.8919
   239.7500      0.0000    369.3857      8.3313     69.5004
   240.0000      0.0000    370.9519      8.2032     66.8225
   240.2500      0.0000    368.3947      8.1457     63.5554
   240.5000      0.0000    366.7493      8.1107     61.1540
   240.7500      0.0000    368.9588      8.0307     60.9949
   241.0000      0.0000    372.9071      7.8994     63.4251
   241.2500      0.0000    375.4098      7.7746     67.5169
   241.5000      0.0000    376.0780      7.7168     71.8844
   241.7500      0.0000    376.1104      7.7168     75.7835
   242.0000      0.0000    376.2438      7.7166     79.3967
   242.2500      0.0000    376.5526      7.6906     83.0993
   242.5000      0.0000    376.9370      7.6415     86.5707
   242.7500      0.0000    377.2688      7.5727     88.7150
   243.0000      0.0000    377.4409      7.5266     88.4743
   243.2500      0.0000    377.5162      7.5622     85.6681
   243.5000      0.0000    377.6065      7.6634     81.1804
   243.7500      0.0000    377.6588      7.7547     76.5753
   244.0000      0.0000    377.5620      7.7993     73.4769
   244.2500      0.0000    377.3110      7.8086     72.8699
   244.5000      0.0000    376.8437      7.7927     74.5852
   244.7500      0.0000    375.5808      7.7648     77.3951
   245.0000      0.0000    372.5281      7.7434     79.7979
   245.2500      0.0000    368.2018      7.7163     80.8704
   245.5000      0.0000    365.9070      7.6567     80.5175
   245.7500      0.0000    367.9625      7.5653     79.2100
   246.0000      0.0000    372.1570      7.4671     77.7169
   246.2500      0.0000    375.2578      7.3899     76.8638
   246.5000      0.0000    376.7446      7.3360     77.0322
   246.7500      0.0000    377.4930      7.2801     77.7900
   247.0000      0.0000    377.9396      7.2297     78.3697
   247.2500      0.0000    378.1440      7.2322     78.5812
   247.5000      0.0000    378.4151      7.2860     78.9246
   247.7500      0.0000    380.0552      7.3187     79.7794
   248.0000      0.0000    386.4741      7.2802     80.9424
   248.2500      0.0000    403.3078      7.1924     82.1859
   248.5000      0.0000    434.0186      7.1077     84.0120
   248.7500      0.0000    468.9563      7.0693     87.4419
   249.0000      0.0000    482.8036      7.1018     92.7982
   249.2500      0.0000    461.0418      7.2118     98.7913
   249.5000      0.0000    421.5643      7.3835    103.0717
   249.7500      0.0000    389.9475      7.5758    103.8501
   250.0000      0.0000    372.3204      7.7415    101.1159
   250.2500      0.0000    362.8021      7.8563     96.5526
   250.5000      0.0000    356.2631      7.9414     92.4124
   250.7500      0.0000    350.3620      8.0430     90.3247
   251.0000      0.0000    345.3745      8.1682     90.6802
   251.2500      0.0000    342.3326      8.2731     92.6167
   251.5000      0.0000    340.9453      8.3205     94.4974
   251.7500      0.0000    340.3175      8.3111     94.7703
   252.0000      0.0000    340.0037      8.2575     92.8805
   252.2500      0.0000    339.8972      8.1747     89.6940
   252.5000      0.0000    339.9900      8.0958     86.9819
   252.7500      0.0000    340.5397      8.0487     86.0981
   253.0000      0.0000    343.1407      8.0224     86.9657
   253.2500      0.0000    353.8401      7.9796     88.4365
   253.5000      0.0000    385.8489      7.8908     89.4404
   253.7500      0.0000    450.8186      7.7590     89.4174
   254.0000      0.0000    538.8068      7.6288     87.8568
   254.2500      0.0000    618.1009      7.5556     84.2009
   254.5000      0.0000    666.2410      7.5664     78.6454
   254.7500      0.0000    689.0431      7.6448     72.7374
   255.0000      0.0000    702.1667      7.7364     68.5699
   255.2500      0.0000    709.1388      7.7848     67.1714
   255.5000      0.0000    706.3884      7.7654     67.7667
   255.7500      0.0000    696.5071      7.6855     68.5613
   256.0000      0.0000    686.9493      7.5783     68.1851
   256.2500      0.0000    682.2399      7.4432     66.4672
   256.5000      0.0000    683.3033      7.1633     63.9570
   256.7500      0.0000    691.0947      6.6405     61.0970
   257.0000      0.0000    703.8537      6.0966     58.2456
   257.2500      0.0000    708.8708      5.9412     56.1713
   257.5000      0.0000    688.6286      6.2089     55.7733
   257.7500      0.0000    648.5854      6.5726     57.1520
   258.0000      0.0000    622.7869      6.8666     59.3661
   258.2500      0.0000    627.1268      7.1175     61.3479
   258.5000     -2.0000    637.6196      7.3179     62.9307
   258.7500      2.0000    643.7108      7.4464     64.9422
   259.0000      0.0000    666.6030      7.5331     68.2906
   259.2500      0.0000    694.2004      7.6178     72.6394
   259.5000      0.0000    666.7434      7.7412     75.9245
   259.7500      0.0000    566.2034      8.0684     75.8561
   260.0000      0.0000    453.2517      8.7675     72.2966
   260.2500      0.0000    384.9071      9.5628     67.6771
   260.5000      0.0000    361.8724      9.9649     64.7967
   260.7500      0.0000    363.1112      9.9369     64.6167
   261.0000      0.0000    381.7736      9.7191     66.2167
   261.2500      0.0000    422.4924      9.4458     68.2298
   261.5000      0.0000    484.6517      9.1799     70.0010
   261.7500      0.0000    553.6002      8.9592     71.7482
   262.0000      0.0000    602.6074      8.8014     73.9894
   262.2500      0.0000    611.3054      8.7215     76.8656
   262.5000      0.0000    586.0605      8.7169     79.7839
   262.7500      0.0000    546.7494      8.7529     81.5290
   263.0000      0.0000    504.5073      8.7858     80.9736
   263.2500      0.0000    472.6450      8.7869     78.0617
   263.5000      0.0000    473.8378      8.7421     74.0310
   263.7500      0.0000    514.7775      8.6568     70.3769
   264.0000      0.0000    569.9764      8.5540     67.6476
   264.2500      0.0000    596.2167      8.4513     65.3670
   264.5000      0.0000    568.3357      8.3628     62.7958
   264.7500      0.0000    515.6206      8.3085     59.4620
   265.0000      0.0000    500.2851      8.2951     55.3527
   265.2500      0.0000    543.6620      8.3144     51.0497
   265.5000      0.0000    604.7730      8.3573     47.5246
   265.7500      0.0000    640.2650      8.4081     45.4455
   266.0000      0.0000    652.0817      8.4472     44.6910
   266.2500      0.0000    661.8289      8.4704     44.7310
   266.5000      0.0000    671.7969      8.4839     45.3014
   266.7500      0.0000    670.9960      8.4882     46.4533
   267.0000      0.0000    650.8846      8.4786     48.3904
   267.2500      0.0000    609.1517      8.4655     51.7262
   267.5000      0.0000    557.4183      8.4892     57.2825
   267.7500      0.0000    516.9319      8.5838     64.9083
