~Version Information
VERS.                      2.0: CWLS Log ASCII Standard - VERSION 2.0
WRAP.                       NO: One line per depth step
~Well Information Block
STRT.FT                -8.7500: 
STOP.FT              2331.5000: 
STEP.FT                 0.2500: 
NULL.                -999.2500: 
COMP.          Pioneer Natural Resources: COMPANY
WELL.          Sparrowhawk 22-12: WELL
FLD.           Purgatorie River: FIELD
LOC.           2049' FNL & 2060' FWL--: LOCATION
CNTY.               Las Animas: COUNTY
SRVC.          Patterson Wireline: SERVICE COMPANY
DATE.          Wed Apr 12 08:53:41 2006: LOG DATE
UWI.           05 071 08484 00: UNIQUE WELL ID
STAT.                       CO: STATE
~Curve Information Block
DEPT.FT            0 000 00 00: Depth
CCL.                          : Casing Collar Locator
TT3.usec                      : CBL 3' Travel Time
AMP3.mV                       : CBL 3' Amplitude
GR.GAPI                       : Gamma Ray
~Parameter Information Block
MAXAMPL.mV              0.0000: Maximum Amplitude
~A  Depth       CCL         TT3         AMP3         GR     
# ...
  1063.2500      0.0000    264.5054     75.7625    114.4317
  1063.5000      0.0000    264.4912     75.7223    114.0345
  1063.7500      0.0000    264.4747     75.6539    114.1918
  1064.0000      0.0000    264.4596     75.5714    113.3608
  1064.2500      0.0000    264.4485     75.4979    109.7361
  1064.5000      0.0000    264.4415     75.4497    102.4518
  1064.7500      0.0000    264.4366     75.4277     92.6642
  1065.0000      0.0000    264.4319     75.4207     83.2271
  1065.2500      0.0000    264.4275     75.4163     77.0996
  1065.5000      0.0000    264.4237     75.4077     75.6884
  1065.7500      0.0000    264.4204     75.3915     78.1895
  1066.0000      0.0000    264.4162     75.3628     82.2236
  1066.2500      0.0000    264.4098     75.3174     85.3831
  1066.5000      0.0000    264.4009     75.2591     86.5869
  1066.7500      0.0000    264.3911     75.2015     86.0819
  1067.0000      0.0000    264.3823     75.1610     84.4547
  1067.2500      0.0000    264.3775     75.1522     82.1510
  1067.5000      0.0000    264.3816     75.1865     79.8691
  1067.7500      0.0000    264.4053     75.2686     78.6646
  1068.0000      0.0000    264.4683     75.3870     79.0915
  1068.2500      0.0000    264.5918     75.5092     80.4976
  1068.5000      0.0000    264.7704     75.5915     81.8996
  1068.7500      0.0000    264.9444     75.6015     83.6153
  1069.0000      0.0000    265.0223     75.5383     87.2107
  1069.2500      0.0000    264.9576     75.4330     93.5494
  1069.5000      0.0000    264.7952     75.3271    101.5782
  1069.7500      0.0000    264.6258     75.2487    109.4050
  1070.0000      0.0000    264.5092     75.2075    116.0330
  1070.2500      0.0000    264.4515     75.2048    121.6365
  1070.5000      0.0000    264.4326     75.2397    126.4596
  1070.7500      0.0000    264.4342     75.3023    130.1732
  1071.0000      0.0000    264.4458     75.3700    132.5530
  1071.2500      0.0000    264.4608     75.4160    134.3230
  1071.5000      0.0000    264.4737     75.4246    136.7688
  1071.7500      0.0000    264.4812     75.3974    140.4982
  1072.0000      0.0000    264.4834     75.3477    144.7322
  1072.2500      0.0000    264.4826     75.2931    147.8146
  1072.5000      0.0000    264.4815     75.2486    148.5552
  1072.7500      0.0000    264.4816     75.2205    147.2072
  1073.0000      0.0000    264.4836     75.2060    145.0150
  1073.2500      0.0000    264.4868     75.1984    142.9493
  1073.5000      0.0000    264.4894     75.1939    141.4341
  1073.7500      0.0000    264.4905     75.1952    141.2505
  1074.0000      0.0000    264.4920     75.2083    143.7470
  1074.2500      0.0000    264.4967     75.2358    149.4566
  1074.5000      0.0000    264.5057     75.2679    156.8334
  1074.7500      0.0000    264.5175     75.2813    162.9761
  1075.0000      0.0000    264.5324     75.2289    165.7334
  1075.2500      0.0000    264.5642     74.9797    165.2247
  1075.5000      0.0000    264.6570     74.2177    163.6130
  1075.7500      0.0000    264.8997     72.4169    163.2968
  1076.0000      0.0000    265.4142     69.1318    164.7453
  1076.2500      0.0000    266.2960     64.5424    165.9471
  1076.5000      0.0000    267.5339     59.6195    164.1942
  1076.7500      0.0000    268.9720     55.4454    158.2892
  1077.0000      0.0000    270.3535     52.4128    149.0682
  1077.2500      0.0000    271.4301     50.3231    138.5172
  1077.5000      0.0000    272.0848     49.0063    128.8851
  1077.7500      0.0000    272.3808     48.4356    122.2678
  1078.0000      0.0000    272.5190     48.4252    120.0444
  1078.2500      0.0000    272.7738     48.6314    121.9177
  1078.5000      2.0000    273.4780     48.8260    125.7260
  1078.7500      0.0000    274.9175     49.0691    128.8904
  1079.0000      0.0000    276.9510     49.7070    130.1993
  1079.2500      0.0000    278.6468     51.2003    130.0251
  1079.5000      0.0000    278.6753     53.7621    129.1460
  1079.7500      0.0000    276.4720     57.1472    127.8326
  1080.0000      0.0000    272.8902     60.9456    126.0996
  1080.2500      0.0000    269.4486     64.9060    124.5041
  1080.5000      0.0000    267.1062     68.7617    124.1914
  1080.7500      0.0000    265.8965     72.0198    125.7582
  1081.0000      0.0000    265.3990     74.2519    128.2642
  1081.2500      0.0000    265.2291     75.4627    129.8778
  1081.5000      0.0000    265.1797     76.0076    129.6203
  1081.7500      0.0000    265.1669     76.2568    128.2645
  1082.0000      0.0000    265.1641     76.4093    127.2561
  1082.2500      0.0000    265.1638     76.5273    126.8199
  1082.5000      0.0000    265.1656     76.6199    125.4364
  1082.7500      0.0000    265.1690     76.6933    121.4957
  1083.0000      0.0000    265.1722     76.7522    115.4066
  1083.2500      0.0000    265.1738     76.7949    109.5982
  1083.5000      0.0000    265.1740     76.8182    106.2242
  1083.7500      0.0000    265.1742     76.8233    105.1730
  1084.0000      0.0000    265.1748     76.8131    104.5264
  1084.2500      0.0000    265.1757     76.7883    102.7744
  1084.5000      0.0000    265.1762     76.7495    100.4312
  1084.7500      0.0000    265.1767     76.7023     99.4913
  1085.0000      0.0000    265.1776     76.6539    101.4204
  1085.2500      0.0000    265.1783     76.6021    105.7710
  1085.5000      0.0000    265.1776     76.5346    110.7191
  1085.7500      0.0000    265.1739     76.4392    114.8251
  1086.0000      0.0000    265.1674     76.3158    118.3260
  1086.2500      0.0000    265.1594     76.1786    122.8117
  1086.5000      0.0000    265.1520     76.0516    129.3822
  1086.7500      0.0000    265.1472     75.9614    136.9949
  1087.0000      0.0000    265.1464     75.9293    142.9711
  1087.2500      0.0000    265.1494     75.9601    145.4460
  1087.5000      0.0000    265.1544     76.0329    144.9717
  1087.7500      0.0000    265.1587     76.1063    143.4105
  1088.0000      0.0000    265.1609     76.1436    141.6710
  1088.2500      0.0000    265.1613     76.1392    139.2426
  1088.5000      0.0000    265.1612     76.1193    135.7886
  1088.7500      0.0000    265.1606     76.1183    132.2086
  1089.0000      0.0000    265.1589     76.1521    129.6529
  1089.2500      0.0000    265.1558     76.2087    128.1810
  1089.5000      0.0000    265.1518     76.2586    127.1296
  1089.7500      0.0000    265.1477     76.2776    126.4602
  1090.0000      0.0000    265.1441     76.2664    127.1754
  1090.2500      0.0000    265.1415     76.2525    130.3765
  1090.5000      0.0000    265.1399     76.2668    135.9801
  1090.7500      0.0000    265.1382     76.3167    142.1838
  1091.0000      0.0000    265.1354     76.3794    146.4395
  1091.2500      0.0000    265.1314     76.4219    147.5649
  1091.5000      0.0000    265.1277     76.4304    146.9169
  1091.7500      0.0000    265.1261     76.4230    146.9181
  1092.0000      0.0000    265.1276     76.4359    148.3815
  1092.2500      0.0000    265.1313     76.4925    149.7659
  1092.5000      0.0000    265.1353     76.5813    148.8869
  1092.7500      0.0000    265.1377     76.6625    144.8853
  1093.0000      0.0000    265.1381     76.6954    138.7789
  1093.2500      0.0000    265.1377     76.6624    132.8389
  1093.5000      0.0000    265.1378     76.5739    129.5032
  1093.7500      0.0000    265.1382     76.4591    130.1044
  1094.0000      0.0000    265.1381     76.3527    134.0317
  1094.2500      0.0000    265.1367     76.2817    139.1608
  1094.5000      0.0000    265.1354     76.2529    143.4270
  1094.7500      0.0000    265.1358     76.2470    146.1268
  1095.0000      0.0000    265.1390     76.2311    147.6853
  1095.2500      0.0000    265.1440     76.1841    148.2456
  1095.5000      0.0000    265.1488     76.1152    147.0464
  1095.7500      0.0000    265.1523     76.0559    143.5115
  1096.0000      0.0000    265.1546     76.0343    138.3016
  1096.2500      0.0000    265.1560     76.0521    132.6533
  1096.5000      0.0000    265.1567     76.0830    127.1758
