~Version Information
VERS.                      2.0: CWLS Log ASCII Standard - VERSION 2.0
WRAP.                       NO: One line per depth step
~Well Information Block
STRT.FT               294.3000: 
STOP.FT              1461.0000: 
STEP.FT                 0.1000: 
NULL.                -999.2500: 
COMP.          Pioneer Natural Resources: COMPANY
WELL.              Lucky 21-36: WELL
FLD.           Purgatoire River: FIELD
CDN. :
PROV. :
UWI. :
STAT. :
CNTY. :
CTRY. :
API. :
COMP. :
WELL. :
FLD. :
LOC. :
DATE. :
SRVC. :
LOC.           799' FNL & 1578' FWL--: LOCATION
CNTY.               Las Animas: COUNTY
SRVC.          Superior Well Services: SERVICE COMPANY
DATE.          Tue Jul 08 08-29-33 2008: LOG DATE
UWI.           05 071 08456 00: UNIQUE WELL ID
STAT.                 Colorado: STATE
~Curve Information Block
DEPT.FT            0 000 00 00: Depth
DCAL.in                       : CDL Caliper
RHOB.g/cc                     : CDL Bulk Density
RHOC.g/cc                     : CDL Density Correction
DPOR.pu                       : CDL Density Porosity
NPOR.pu                       : Neutron Porosity
GR.GAPI                       : Gamma Ray
~Parameter Information Block
~A  Depth       DCAL        RHOB        RHOC        DPOR        NPOR         GR     
# ...
   831.9000      8.0478      2.1817     -0.0510     28.3803     20.6645    135.2322
   832.0000      8.0610      2.0604     -0.0690     35.7304     19.5466    135.7754
   832.1000      8.0754      1.9518     -0.1280     42.3124     18.5973    131.4383
   832.2000      8.0897      1.8623     -0.1105     47.7412     17.5158    121.5066
   832.3000      8.1028      1.7960     -0.1625     51.7571     16.0107    114.8074
   832.4000      8.1135      1.7529     -0.0579     54.3705     14.1546    117.8857
   832.5000      8.1213      1.7076      0.0172     57.1168     12.3697    123.5623
   832.6000      8.1253      1.6347      0.0353     61.5340     11.1210    120.9522
   832.7000      8.1248      1.5522      0.0200     66.5355     10.3157    112.2978
   832.8000      8.1186      1.5079      0.0522     69.2198      9.6132    107.8677
   832.9000      8.1060      1.5228      0.1486     68.3126      9.0482    110.8829
   833.0000      8.0872      1.5672      0.2016     65.6245      8.5466    118.4008
   833.1000      8.0641      1.6079      0.1060     63.1547      8.1233    124.1428
   833.2000      8.0397      1.6501      0.0742     60.5979      8.1785    122.8544
   833.3000      8.0178      1.7130      0.0991     56.7874      8.6747    116.4170
   833.4000      8.0008      1.8040      0.1754     51.2716      9.3332    110.9200
   833.5000      7.9892      1.9217      0.2537     44.1405     10.3147    111.5244
   833.6000      7.9817      2.0522      0.3844     36.2277     11.6946    118.9477
   833.7000      7.9763      2.1771      0.4039     28.6603     12.9926    128.4534
   833.8000      7.9713      2.2924      0.4242     21.6755     13.9523    132.1391
   833.9000      7.9658      2.3898      0.4324     15.7680     14.8986    130.3075
   834.0000      7.9600      2.4535      0.2888     11.9066     16.0489    133.3573
   834.1000      7.9545      2.4829      0.2377     10.1299     17.2369    143.1275
   834.2000      7.9503      2.4872      0.1021      9.8689     18.1555    150.3962
   834.3000      7.9478      2.4810      0.0764     10.2431     18.7393    152.0461
   834.4000      7.9467      2.4744      0.1220     10.6452     19.1600    151.6311
   834.5000      7.9468      2.4722      0.0818     10.7767     19.5665    151.5793
   834.6000      7.9474      2.4832      0.1114     10.1085     20.2384    152.4011
   834.7000      7.9479      2.5081      0.0940      8.5990     21.4177    152.9291
   834.8000      7.9479      2.5393      0.1051      6.7121     22.8150    152.2104
   834.9000      7.9476      2.5692      0.0987      4.8972     24.0360    151.6468
   835.0000      7.9471      2.5929      0.0792      3.4593     24.8260    154.1347
   835.1000      7.9468      2.6053      0.0947      2.7112     25.1712    159.1182
   835.2000      7.9470      2.5986      0.0901      3.1145     25.5209    162.1504
   835.3000      7.9477      2.5746      0.0232      4.5679     26.0946    162.7601
   835.4000      7.9486      2.5468      0.0381      6.2541     26.6624    162.7101
   835.5000      7.9494      2.5286     -0.0079      7.3590     26.9277    160.6903
   835.6000      7.9498      2.5299      0.0114      7.2777     26.9753    158.1288
   835.7000      7.9500      2.5478      0.0548      6.1957     27.0219    159.3021
   835.8000      7.9501      2.5647      0.0240      5.1670     27.1736    162.3022
   835.9000      7.9503      2.5656      0.0353      5.1149     27.2831    162.0688
   836.0000      7.9505      2.5539      0.0235      5.8215     27.1872    159.5984
   836.1000      7.9508      2.5475      0.0284      6.2147     27.0580    160.5314
   836.2000      7.9511      2.5490      0.0364      6.1232     26.8843    162.4580
   836.3000      7.9513      2.5419      0.0514      6.5523     26.5191    158.5439
   836.4000      7.9515      2.5196      0.0037      7.9051     26.1197    152.8580
   836.5000      7.9517      2.4914      0.0359      9.6117     25.7960    151.0054
   836.6000      7.9517      2.4732     -0.0034     10.7146     25.3840    150.2237
   836.7000      7.9515      2.4783      0.0098     10.4030     24.8306    147.8821
   836.8000      7.9512      2.4896      0.0639      9.7236     24.2901    147.3899
   836.9000      7.9509      2.4745      0.0621     10.6348     23.8775    151.4938
   837.0000      7.9505      2.4255      0.0456     13.6052     23.7824    159.1386
   837.1000      7.9502      2.3516      0.0322     18.0876     23.8800    168.4302
   837.2000      7.9500      2.2715     -0.0087     22.9405     23.5189    173.6865
   837.3000      7.9501      2.2175     -0.0295     26.2139     22.5003    170.3054
   837.4000      7.9504      2.2148     -0.0590     26.3774     21.3703    163.5457
   837.5000      7.9510      2.2627      0.0254     23.4713     20.6421    159.3327
   837.6000      7.9517      2.3333      0.0715     19.1919     20.3641    156.8519
   837.7000      7.9523      2.3995      0.0959     15.1809     20.3024    154.8676
   837.8000      7.9525      2.4523      0.2010     11.9816     20.3190    157.0625
   837.9000      7.9524      2.4884      0.1830      9.7927     20.5173    162.3299
   838.0000      7.9519      2.5124      0.2086      8.3385     21.0408    165.3779
   838.1000      7.9514      2.5375      0.1711      6.8203     21.7736    166.7494
   838.2000      7.9512      2.5655      0.2449      5.1217     22.5729    167.1310
   838.3000      7.9513      2.5835      0.1950      4.0295     23.5631    163.7300
   838.4000      7.9516      2.5888      0.1478      3.7090     24.7095    156.5817
   838.5000      7.9520      2.5858      0.1103      3.8919     25.5588    150.3833
   838.6000      7.9522      2.5777      0.0597      4.3806     25.8307    148.3990
   838.7000      7.9526      2.5678      0.0787      4.9833     25.7835    150.5518
   838.8000      7.9532      2.5526      0.0626      5.9005     25.8422    156.3308
   838.9000      7.9544      2.5283      0.0359      7.3740     26.0836    161.7624
   839.0000      7.9559      2.4963      0.0119      9.3125     26.1566    163.5003
   839.1000      7.9574      2.4671     -0.0204     11.0863     25.8434    164.1875
   839.2000      7.9586      2.4555     -0.0188     11.7902     25.4843    164.9086
   839.3000      7.9591      2.4631      0.0320     11.3259     25.4569    163.4049
   839.4000      7.9589      2.4710      0.0439     10.8502     25.5350    160.2026
   839.5000      7.9581      2.4688     -0.0089     10.9831     25.4513    157.6488
   839.6000      7.9570      2.4682      0.0137     11.0210     25.2174    156.5467
   839.7000      7.9558      2.4710      0.0413     10.8476     24.8175    156.8457
   839.8000      7.9547      2.4682      0.0640     11.0200     24.2570    157.9051
   839.9000      7.9539      2.4601      0.0727     11.5081     23.6605    161.0738
   840.0000      7.9537      2.4539      0.0176     11.8839     23.3082    166.5798
   840.1000      7.9541      2.4474      0.0639     12.2800     23.3143    169.4208
   840.2000      7.9551      2.4320      0.0107     13.2107     23.5305    168.6106
   840.3000      7.9563      2.4138      0.0509     14.3166     23.7729    171.0530
   840.4000      7.9574      2.4061     -0.0038     14.7843     23.7182    178.9615
   840.5000      7.9578      2.4090      0.0635     14.6080     23.1280    185.1770
   840.6000      7.9574      2.4121      0.0455     14.4207     22.2718    181.9739
   840.7000      7.9566      2.4176      0.0485     14.0871     21.6197    173.1613
   840.8000      7.9555      2.4368      0.0596     12.9217     21.1765    168.1494
   840.9000      7.9545      2.4659      0.0876     11.1552     20.6269    167.3701
   841.0000      7.9537      2.4819      0.1405     10.1879     19.8868    168.1015
   841.1000      7.9530      2.4728      0.0923     10.7400     19.1705    167.9943
   841.2000      7.9520      2.4546      0.0804     11.8438     18.8058    164.0466
   841.3000      7.9507      2.4322      0.1375     13.2004     18.9152    160.0772
   841.4000      7.9489      2.3877      0.1214     15.8942     19.2469    160.2865
