~Version Information
VERS.                      2.0: CWLS Log ASCII Standard - VERSION 2.0
WRAP.                       NO: One line per depth step
~Well Information Block
STRT.FT               670.0000: 
STOP.FT              2108.5000: 
STEP.FT                 0.1000: 
NULL.                -999.2500: 
COMP.          Petrogulf Corporation: COMPANY
WELL.           Montoya 12-44R: WELL
FLD.           Purgatorie River: FIELD
LOC.           713' FSL & 798' FEL: LOCATION
PROV.                 Colorado: PROVINCE
CNTY.               Las Animas: COUNTRY
SRVC.                Patterson: SERVICE COMPANY
DATE.          Mon Oct 03 07:50:59 2005: LOG DATE
UWI.           05-071-08538               : UNIQUE WELL ID
~Curve Information Block
DEPT.FT            0 000 00 00: Depth
DCAL.in                       : CDL Caliper
RHOB.g/cc                     : CDL Bulk Density
RHOC.g/cc                     : CDL Density Correction
DPOR.pu                       : CDL Density Porosity
GR.GAPI                       : Gamma Ray
NPOR.pu                       : Neutron Porosity
~Parameter Information Block
~A  Depth       DCAL        RHOB        RHOC        DPOR         GR         NPOR    
# ...
  1620.4000      7.8689      2.4905      0.0460      9.6642    116.0824     25.8218
  1620.5000      7.8374      2.4921      0.0195      9.5682    114.9055     26.0190
  1620.6000      7.8374      2.4948      0.0232      9.4043    114.4338     26.4036
  1620.7000      7.8374      2.5062      0.0273      8.7129    116.0428     26.7388
  1620.8000      7.8334      2.5330      0.0226      7.0929    117.2467     26.7885
  1620.9000      7.8334      2.5714      0.0601      4.7652    115.2061     26.6082
  1621.0000      7.8338      2.6089      0.0760      2.4935    110.3450     26.4862
  1621.1000      7.8338      2.6308      0.0943      1.1650    104.1223     26.3762
  1621.2000      7.8338      2.6299      0.1028      1.2186     96.2765     25.8809
  1621.3000      7.8564      2.6111      0.0792      2.3563     89.3662     25.1978
  1621.4000      7.8564      2.5873      0.0195      3.7983     87.2801     24.8640
  1621.5000      7.8432      2.5695      0.0245      4.8768     86.8644     24.6606
  1621.6000      7.8432      2.5620      0.0347      5.3308     82.7700     24.1009
  1621.7000      7.8432      2.5656     -0.0005      5.1158     77.4681     23.3836
  1621.8000      7.8190      2.5742      0.0360      4.5965     75.1013     22.9505
  1621.9000      7.8190      2.5776      0.0469      4.3855     74.6883     23.0292
  1622.0000      7.8174      2.5788      0.0374      4.3147     73.8431     23.4451
  1622.1000      7.8174      2.5852      0.0409      3.9244     72.3636     23.7282
  1622.2000      7.8174      2.5872      0.0721      3.8061     71.6390     23.7997
  1622.3000      7.8063      2.5700      0.0524      4.8460     73.5780     23.8074
  1622.4000      7.8063      2.5478      0.0136      6.1947     77.1767     23.4653
  1622.5000      7.8105      2.5430      0.0709      6.4876     78.2515     22.6159
  1622.6000      7.8105      2.5516      0.0699      5.9644     75.8871     21.9204
  1622.7000      7.8105      2.5649      0.0529      5.1565     73.1810     21.7884
  1622.8000      7.8009      2.5807      0.0964      4.2013     73.4151     21.7950
  1622.9000      7.8009      2.5956      0.0486      3.2957     77.4100     21.7533
  1623.0000      7.8006      2.6057      0.0889      2.6841     82.4683     22.0515
  1623.1000      7.8006      2.6006      0.0544      2.9941     86.1357     22.7881
  1623.2000      7.8006      2.5814      0.0359      4.1599     87.5842     23.7260
  1623.3000      7.8260      2.5632      0.0073      5.2602     86.3487     24.3917
  1623.4000      7.8260      2.5529      0.0382      5.8833     84.7139     24.2542
  1623.5000      7.8423      2.5476      0.0338      6.2074     86.2860     23.5975
  1623.6000      7.8423      2.5503      0.0147      6.0450     90.1210     23.2403
  1623.7000      7.8423      2.5583      0.0613      5.5568     93.7393     23.3310
  1623.8000      7.8392      2.5590      0.0612      5.5124     97.1082     23.4828
  1623.9000      7.8392      2.5583      0.0434      5.5569     99.5115     23.5711
  1624.0000      7.8166      2.5684      0.0783      4.9468     98.2610     23.6746
  1624.1000      7.8166      2.5812      0.0572      4.1725     93.5487     23.5966
  1624.2000      7.8166      2.5848      0.0736      3.9528     88.5343     23.1062
  1624.3000      7.8137      2.5802      0.0644      4.2330     85.5082     22.5309
  1624.4000      7.8137      2.5738      0.0840      4.6208     85.1026     22.2752
  1624.5000      7.8397      2.5716      0.0760      4.7492     87.4572     22.1320
  1624.6000      7.8397      2.5764      0.0446      4.4613     90.4900     21.7872
  1624.7000      7.8397      2.5817      0.0865      4.1385     91.2523     21.4464
  1624.8000      7.8189      2.5873      0.0296      3.8028     92.0200     21.6696
  1624.9000      7.8189      2.6034      0.0719      2.8256     94.6499     22.7071
  1625.0000      7.8701      2.6231      0.1068      1.6308     96.2352     23.9865
  1625.1000      7.8701      2.6285      0.0990      1.3009     96.6021     24.6207
  1625.2000      7.8701      2.6189      0.0929      1.8872     97.3980     24.6162
  1625.3000      7.8405      2.6044      0.0943      2.7647     97.8238     24.4912
  1625.4000      7.8405      2.5926      0.0431      3.4801     97.2940     24.4816
  1625.5000      7.7964      2.5884      0.0363      3.7337     97.4099     24.6586
  1625.6000      7.7964      2.5916      0.0277      3.5391     99.3816     24.6361
  1625.7000      7.7964      2.5931      0.0766      3.4513    103.0540     24.1597
  1625.8000      7.8031      2.5863      0.0169      3.8606    109.2414     23.7625
  1625.9000      7.8031      2.5760      0.0363      4.4857    116.8912     23.8062
  1626.0000      7.8115      2.5626      0.0238      5.2990    122.8676     24.2933
  1626.1000      7.8115      2.5353      0.0275      6.9532    126.8920     25.0630
  1626.2000      7.8115      2.4883      0.0066      9.7988    131.5064     25.8276
  1626.3000      7.8089      2.4495     -0.0547     12.1499    138.8692     26.6798
  1626.4000      7.8089      2.4539      0.0195     11.8831    146.3822     27.4064
  1626.5000      7.8046      2.4829      0.0731     10.1260    149.7045     27.3582
  1626.6000      7.8046      2.4943      0.0851      9.4372    151.0997     26.9100
  1626.7000      7.8046      2.4902      0.0264      9.6878    153.9820     27.1369
  1626.8000      7.7978      2.5061      0.0507      8.7188    157.7623     27.9131
  1626.9000      7.7978      2.5540      0.1486      5.8156    160.3668     28.3453
  1627.0000      7.7975      2.6045      0.2589      2.7578    159.6066     28.4309
  1627.1000      7.7975      2.6250      0.2586      1.5164    157.5348     28.6384
  1627.2000      7.7975      2.6118      0.2523      2.3130    160.1478     29.0280
  1627.3000      7.8115      2.5839      0.1134      4.0086    165.6542     29.3148
  1627.4000      7.8115      2.5668      0.1032      5.0454    167.4843     29.3873
  1627.5000      7.8363      2.5697      0.1324      4.8644    167.9587     29.6301
  1627.6000      7.8363      2.5806      0.1229      4.2038    170.8096     30.1135
  1627.7000      7.8363      2.5910      0.0818      3.5748    172.5272     30.3640
  1627.8000      7.8578      2.6003      0.1272      3.0100    169.3049     30.2761
  1627.9000      7.8578      2.6019      0.1295      2.9170    161.7662     30.1085
  1628.0000      7.8614      2.5923      0.0853      3.4994    154.7139     29.8132
  1628.1000      7.8614      2.5807      0.0873      4.2015    154.2872     29.2746
  1628.2000      7.8614      2.5728      0.1130      4.6795    159.2964     28.7887
  1628.3000      7.8625      2.5663      0.0585      5.0713    163.6033     28.7849
  1628.4000      7.8625      2.5660      0.0773      5.0919    164.3490     29.1952
  1628.5000      7.8654      2.5716      0.0723      4.7508    160.6149     29.6588
  1628.6000      7.8654      2.5721      0.0912      4.7200    154.8002     29.9499
  1628.7000      7.8654      2.5661      0.0427      5.0851    152.0697     30.0612
  1628.8000      7.8397      2.5631      0.0612      5.2675    152.4184     29.8899
  1628.9000      7.8397      2.5612      0.0684      5.3812    154.6897     29.4441
  1629.0000      7.8769      2.5518      0.0547      5.9498    158.8407     29.3388
  1629.1000      7.8769      2.5399      0.0203      6.6712    160.8164     29.6899
  1629.2000      7.8769      2.5373      0.0469      6.8323    161.6655     29.7736
  1629.3000      7.8995      2.5465      0.0543      6.2738    166.8396     29.5742
  1629.4000      7.8995      2.5599      0.0883      5.4624    172.3149     29.7135
  1629.5000      7.9077      2.5639      0.0861      5.2163    172.6111     30.1551
  1629.6000      7.9077      2.5568      0.0609      5.6457    169.2278     30.3882
  1629.7000      7.9077      2.5548      0.0467      5.7721    164.7166     30.1438
  1629.8000      7.9148      2.5632      0.0604      5.2606    161.5125     29.5665
  1629.9000      7.9148      2.5673      0.0368      5.0131    161.6920     29.0482
