~Version Information
 VERS.                                  2.0 : CWLS LAS VERSION
 WRAP.                                   NO : WRAPING MODE
 SWARE .                MController 2.5.0QA : SOFTWARE VERSION
~Well Information
 WELL.                        Fleming 11-02 : WELL
 COMP.    Pioneer Natural Resources USA Inc : COMPANY
 FLD.                      Purgatoire River : FIELD
 LOC.                 NW/NW Sec02 T33S R66W : LOCATION
 DATE.                          06/25-27/06 : DATE(S) LOGGED
 SRVC.       Blanco Geological Services LLC : SERVICE COMPANY
 STAT.                             Colorado : STATE
 CNTY.                           Las Animas : COUNTY
 CTRY.                                  USA : COUNTRY
 API.                       05-071-08491-00 : API NUMBER
 STRT.FT                             347.00 : START DEPTH
 STOP.FT                            2080.00 : STOP DEPTH
 STEP.FT                               1.00 : DEPTH INCREMENT
 NULL.                                -9999 : NULL VALUE
~Curve information
 DEPTH.FT                                   :
 ROP.MIN/FT                                 :
 GAS.UNITS                                  :
~ASCII Log data
       347.0     -9999.00          1.9 
       348.0         9.65          3.9 
       349.0         1.43          4.2 
       350.0         0.10          3.9 
       351.0         0.15          3.3 
       352.0         0.13          4.1 
       353.0         0.10          3.4 
       354.0         0.10          4.3 
       355.0         0.13          3.6 
       356.0         0.10          4.4 
       357.0         0.13          3.6 
       358.0         0.10          3.4 
       359.0         0.10          3.4 
       360.0         0.13          3.7 
       361.0         0.10          3.7 
       362.0         0.10          4.1 
       363.0         0.13          4.2 
       364.0         0.10          3.9 
       365.0         0.10          3.9 
       366.0         0.13          3.8 
       367.0         0.10          4.0 
       368.0         0.10          4.1 
       369.0         0.13          4.0 
       370.0         0.10          4.0 
       371.0         0.10          4.0 
       372.0         0.13          4.4 
       373.0         0.10          4.3 
       374.0         0.13          4.1 
       375.0         0.10          4.1 
       376.0         0.13          4.1 
       377.0         0.10          4.1 
       378.0         0.13          5.0 
       379.0         0.13          4.3 
       380.0         0.15          4.3 
       381.0         0.13          4.1 
       382.0         4.45          5.5 
       383.0         0.10          5.2 
       384.0         0.20          5.4 
       385.0         0.10          1.5 
       386.0         0.13          1.5 
       387.0         0.10          1.8 
       388.0         0.13          1.8 
       389.0         0.10          2.3 
       390.0         0.13          2.5 
       391.0         0.10          1.8 
       392.0         0.13          1.9 
       393.0         0.10          1.8 
       394.0         0.13          2.5 
       395.0         0.13          1.9 
       396.0         0.10          1.9 
       397.0         0.13          2.0 
       398.0         0.10          1.8 
       399.0         0.15          2.0 
       400.0         0.13          1.8 
       401.0         0.13          1.8 
       402.0         0.10          1.8 
       403.0         0.13          1.8 
       404.0         0.13          2.1 
       405.0         0.10          1.6 
       406.0         0.13          1.6 
       407.0         0.13          1.5 
       408.0         0.13          1.5 
       409.0         0.10          1.5 
       410.0         0.13          1.5 
       411.0         0.13          1.6 
       412.0         4.32          2.4 
       413.0         0.20          1.4 
       414.0         0.20          2.2 
       415.0         0.13          1.8 
       416.0         0.13          1.8 
       417.0         0.10          1.8 
       418.0         0.15          1.5 
       419.0         0.13          1.4 
       420.0         0.13          1.1 
       421.0         0.10          2.1 
       422.0         0.13          1.9 
       423.0         0.13          1.5 
       424.0         0.10          1.4 
       425.0         0.13          2.0 
       426.0         0.13          1.1 
       427.0         0.10          1.0 
       428.0         0.13          1.8 
       429.0         0.13          1.6 
       430.0         0.10          1.6 
       431.0         0.13          1.6 
       432.0         0.13          0.7 
       433.0         0.10          1.5 
       434.0         0.13          1.4 
       435.0         0.13          1.4 
       436.0         0.10          0.9 
       437.0         0.13          0.7 
       438.0         0.13          0.7 
       439.0         0.10          1.1 
       440.0         0.13          1.1 
       441.0         0.13          0.9 
       442.0         4.03          2.4 
       443.0         0.13          2.3 
       444.0         0.10          2.5 
       445.0         0.13          2.6 
       446.0         0.13          2.6 
       447.0         0.10          2.6 
       448.0         0.13          2.6 
       449.0         0.10          2.6 
       450.0         0.13          2.6 
       451.0         0.17          3.6 
       452.0         0.30          3.2 
       453.0         0.37          3.5 
       454.0         0.27          3.3 
       455.0         0.20          2.9 
       456.0         0.27          2.0 
       457.0         0.30          2.6 
       458.0         0.35          1.8 
       459.0         0.27          2.2 
       460.0         0.27          2.1 
       461.0         0.27          1.7 
       462.0         0.30          2.2 
       463.0         0.33          2.2 
       464.0         0.30          1.7 
       465.0         0.37          1.8 
       466.0         0.37          1.9 
       467.0         0.33          2.3 
       468.0         0.33          2.3 
       469.0         0.28          2.9 
       470.0         0.27          2.4 
       471.0         0.40          2.5 
       472.0         4.75          2.4 
       473.0         0.13          3.1 
       474.0         0.17          3.7 
       475.0         0.13          3.6 
       476.0         0.17          3.6 
       477.0         0.10          3.1 
       478.0         0.17          3.1 
       479.0         0.20          3.2 
       480.0         0.22          2.3 
       481.0         0.23          2.5 
       482.0         0.27          1.6 
       483.0         0.33          2.0 
       484.0         0.30          1.9 
       485.0         0.23          1.6 
       486.0         0.17          1.8 
       487.0         0.23          1.8 
       488.0         0.23          1.5 
       489.0         0.20          2.0 
       490.0         0.13          2.0 
       491.0         0.17          2.1 
       492.0         0.13          2.3 
       493.0         0.17          1.9 
       494.0         0.17          1.8 
       495.0         0.20          1.8 
       496.0         0.28          1.9 
       497.0         0.23          2.8 
       498.0         0.20          2.3 
       499.0         0.17          2.3 
       500.0         0.17          3.3 
       501.0         0.20          4.0 
       502.0         4.72          6.4 
       503.0         0.33          6.0 
       504.0         0.13          6.0 
       505.0         0.17          6.0 
       506.0         0.25          4.8 
       507.0         0.27          4.9 
       508.0         0.23          4.2 
       509.0         0.23          3.1 
       510.0         0.30          3.8 
       511.0         0.30          3.2 
       512.0         0.33          3.2 
       513.0         0.30          2.8 
       514.0         0.30          2.9 
       515.0         0.23          3.7 
       516.0         0.27          4.7 
       517.0         0.17          4.9 
       518.0         0.13          4.2 
       519.0         0.28          4.4 
       520.0         0.27          4.2 
       521.0         0.23          3.0 
       522.0         0.30          2.8 
       523.0         0.27          3.1 
       524.0         0.30          2.9 
       525.0         0.27          2.8 
       526.0         0.23          2.9 
       527.0         0.27          3.8 
       528.0         0.27          3.0 
       529.0         0.20          3.4 
       530.0         0.13          3.3 
       531.0         0.20          3.3 
       532.0         4.37          4.0 
       533.0         0.27          3.4 
       534.0         0.27          3.3 
       535.0         0.27          3.7 
       536.0         0.27          3.6 
       537.0         0.23          2.7 
       538.0         0.20          2.6 
       539.0         0.20          2.9 
       540.0         0.20          3.3 
       541.0         0.20          2.8 
       542.0         0.20          3.1 
       543.0         0.20          3.2 
       544.0         0.22          3.2 
       545.0         0.20          3.4 
       546.0         0.23          3.7 
