~Version Information
VERS.                      2.0: CWLS Log ASCII Standard - VERSION 2.0
WRAP.                       NO: One line per depth step
~Well Information Block
STRT.FT               260.0000: 
STOP.FT               713.2500: 
STEP.FT                 0.2500: 
NULL.                -999.2500: 
COMP.          Pioneer Natural Resources: COMPANY
WELL.           Quintessa 23-7: WELL
FLD.           Purgatoire River: FIELD
LOC.           1964' FSL & 2589' FWL--: LOCATION
PROV.                 Colorado: PROVINCE
CNTY.               Las Animas: COUNTRY
SRVC.                Patterson: SERVICE COMPANY
DATE.          Fri Nov 18 16:07:34 2005: LOG DATE
UWI.           05 071 08558 00: UNIQUE WELL ID
~Curve Information Block
DEPT.FT            0 000 00 00: Depth
SN.Ohm-m                      : IEL Short Normal
SP.mV                         : IEL Spontaneous Potential
DIR.Ohm-m                     : IEL Induction Resistivity
GR.GAPI                       : Gamma Ray
~Parameter Information Block
~A  Depth        SN          SP         DIR          GR     
# ...
   293.5000   2000.0000   2100.0000      9.1630    136.3728
   293.7500   2000.0000   2100.0000      9.4373    134.9015
   294.0000   2000.0000   2100.0000      9.7206    131.0610
   294.2500   2000.0000   2100.0000      9.9986    128.2707
   294.5000   2000.0000   2100.0000     10.2575    125.8751
   294.7500   2000.0000   2100.0000     10.4852    126.2044
   295.0000   2000.0000   2100.0000     10.6747    129.2935
   295.2500   2000.0000   2100.0000     10.8274    132.2457
   295.5000   2000.0000   2100.0000     10.9550    136.2861
   295.7500   2000.0000   2100.0000     11.0776    137.9632
   296.0000   2000.0000   2100.0000     11.2196    138.3194
   296.2500   2000.0000   2100.0000     11.4048    136.8363
   296.5000   2000.0000   2100.0000     11.6536    131.0824
   296.7500   2000.0000   2100.0000     11.9815    124.3372
   297.0000   2000.0000   2100.0000     12.4013    110.4212
   297.2500   2000.0000   2100.0000     12.9246    100.2118
   297.5000   2000.0000   2100.0000     13.5633     87.0471
   297.7500   2000.0000   2100.0000     14.3283     81.0019
   298.0000   2000.0000   2100.0000     15.2227     76.0358
   298.2500   2000.0000   2100.0000     16.2338     93.3528
   298.5000   2000.0000   2100.0000     17.3246     92.6824
   298.7500   2000.0000   2100.0000     18.4317     92.6851
   299.0000   2000.0000   2100.0000     19.4733     92.6915
   299.2500   2000.0000   2100.0000     20.3698    111.3818
   299.5000   2000.0000   2100.0000     21.0730    112.5075
   299.7500   2000.0000   2100.0000     21.5857    113.7568
   300.0000   2000.0000   2100.0000     21.9582    114.9603
   300.2500   2000.0000   2100.0000     22.2599    114.3916
   300.5000   2000.0000   2100.0000     22.5470    110.9557
   300.7500   2000.0000   2100.0000     22.8447    107.2297
   301.0000   2000.0000   2100.0000     23.1449    100.3072
   301.2500   2000.0000   2100.0000     23.4156     95.3190
   301.5000   2000.0000   2100.0000     23.6159     88.1978
   301.7500   2000.0000   2100.0000     23.7156     84.1770
   302.0000   2000.0000   2100.0000     23.7122     79.7390
   302.2500   2000.0000   2100.0000     23.6340     77.8363
   302.5000   2000.0000   2100.0000     23.5256     76.0665
   302.7500   2000.0000   2100.0000     23.4276     75.2365
   303.0000   2000.0000   2100.0000     23.3642     74.1866
   303.2500   2000.0000   2100.0000     23.3451     73.6882
   303.5000   2000.0000   2100.0000     23.3740     73.6299
   303.7500   2000.0000   2100.0000     23.4526     74.2295
   304.0000   2000.0000   2100.0000     23.5756     75.9830
   304.2500   2000.0000   2100.0000     23.7224     77.4595
   304.5000   2000.0000   2100.0000     23.8556     79.7367
   304.7500   2000.0000   2100.0000     23.9306     81.2000
   305.0000   2000.0000   2100.0000     23.9109     83.3833
   305.2500   2000.0000   2100.0000     23.7848     85.1933
   305.5000   2000.0000   2100.0000     23.5742     89.8948
   305.7500   2000.0000   2100.0000     23.3335     95.2220
   306.0000   2000.0000   2100.0000     23.1367    106.3449
   306.2500   2000.0000   2100.0000     23.0572    114.4866
   306.5000   2000.0000   2100.0000     23.1488    124.7737
   306.7500   2000.0000   2100.0000     23.4359    129.2058
   307.0000   2000.0000   2100.0000     23.9144    131.5077
   307.2500   2000.0000   2100.0000     24.5598    129.8316
   307.5000   2000.0000   2100.0000     25.3366    121.6896
   307.7500   2000.0000   2100.0000     26.2067    112.4229
   308.0000   2000.0000   2100.0000     27.1374     94.4708
   308.2500   2000.0000   2100.0000     28.1131     81.8000
   308.5000   2000.0000   2100.0000     29.1465     65.3241
   308.7500   2000.0000   2100.0000     30.2795     57.3108
   309.0000   2000.0000   2100.0000     31.5612     50.1363
   309.2500   2000.0000   2100.0000     32.9990     48.1583
   309.5000   2000.0000   2100.0000     34.5066     48.3693
   309.7500   2000.0000   2100.0000     35.8896     50.0120
   310.0000   2000.0000   2100.0000     36.9105     53.7369
   310.2500   2000.0000   2100.0000     37.4163     56.5687
   310.5000   2000.0000   2100.0000     37.4250     60.6618
   310.7500     47.8217   2100.0000     37.0879     62.9810
   311.0000     47.2091   2100.0000     36.5828     65.4615
   311.2500     46.6087   2100.0000     36.0421     66.2597
   311.5000     45.8144   2100.0000     35.5499     65.9527
   311.7500     44.8197   2100.0000     35.1678     64.8632
   312.0000     43.8182   2100.0000     34.9455     62.5581
   312.2500     43.0514   2100.0000     34.9057     60.8927
   312.5000     42.6573   2100.0000     35.0246     58.2526
   312.7500     42.5846   2100.0000     35.2296     56.3741
   313.0000     42.5994   2100.0000     35.4268     53.7111
   313.2500     42.4191     66.3477     35.5449     52.3049
   313.5000     41.8964     66.8515     35.5667     50.8852
   313.7500     41.0975     67.3505     35.5232     50.3098
   314.0000     40.2455     67.8443     35.4564     49.7276
   314.2500     39.6095     68.3302     35.3844     49.2305
   314.5000     39.3722     68.8049     35.2972     47.6762
   314.7500     39.5145     69.2660     35.1774     45.9994
   315.0000     39.8217     69.7128     35.0208     43.2956
   315.2500     40.0337     70.1483     34.8377     42.0736
   315.5000     39.9876     70.5800     34.6390     41.6441
   315.7500     39.6296     71.0206     34.4281     42.0010
   316.0000     38.9760     71.4875     34.2077     42.7747
   316.2500     38.1277     72.0027     33.9897     43.3823
   316.5000     37.2810     72.5914     33.7915     44.7347
   316.7500     36.6303     73.2801     33.6200     45.9019
   317.0000     36.2296     74.0958     33.4596     47.5144
   317.2500     35.9643     75.0637     33.2755     48.2784
   317.5000     35.6631     76.2058     33.0279     49.0862
   317.7500     35.2318     77.5398     32.6794     49.5277
   318.0000     34.6947     79.0768     32.1914     50.0333
   318.2500     34.1300     80.8209     31.5200     50.2997
   318.5000     33.5631     82.7674     30.6289     50.9829
   318.7500     32.9078     84.9025     29.5126     51.8522
   319.0000     32.0246     87.2022     28.2053     53.6323
   319.2500     30.8483     89.6325     26.7659     54.8133
   319.5000     29.4351     92.1508     25.2524     56.4519
   319.7500     27.8898     94.7068     23.7118     58.0123
   320.0000     26.2747     97.2455     22.1831     62.7546
   320.2500     24.5813     99.7102     20.7003     68.3085
   320.5000     22.7680    102.0466     19.2845     80.2403
   320.7500     20.8304    104.2062     17.9396     89.6286
   321.0000     18.8392    106.1504     16.6583    102.9430
   321.2500     16.9101    107.8528     15.4383    109.5698
   321.5000     15.1556    109.3013     14.2943    114.8059
   321.7500     13.6736    110.4976     13.2554    115.8052
   322.0000     12.5462    111.4560     12.3512    116.2077
   322.2500     11.8170    112.2010     11.5978    117.0891
   322.5000     11.4587    112.7628     10.9935    119.8562
   322.7500     11.3679    113.1745     10.5219    122.1039
   323.0000     11.4054    113.4681     10.1602    125.0886
   323.2500     11.4544    113.6724      9.8864    126.7051
   323.5000     11.4576    113.8109      9.6850    128.6996
   323.7500     11.4174    113.9019      9.5488    129.5852
   324.0000     11.3716    113.9588      9.4772    129.7370
   324.2500     11.3630    113.9911      9.4720    129.0162
   324.5000     11.4127    114.0056      9.5333    127.1606
   324.7500     11.5081    114.0075      9.6569    125.6693
   325.0000     11.6150    114.0015      9.8330    123.2784
   325.2500     11.7067    113.9919     10.0460    121.7920
   325.5000     11.7842    113.9831     10.2757    120.4715
   325.7500     11.8683    113.9792     10.5001    120.6760
   326.0000     11.9762    113.9846     10.6988    122.6713
   326.2500     12.1046    114.0026     10.8568    124.4555
   326.5000     12.2299    114.0364     10.9675    126.1978
   326.7500     12.3221    114.0883     11.0337    126.3121
