~Version Information
VERS.                      2.0: CWLS Log ASCII Standard - VERSION 2.0
WRAP.                       NO: One line per depth step
~Well Information Block
STRT.FT               230.0000: 
STOP.FT              1028.0000: 
STEP.FT                 0.2500: 
NULL.                -999.2500: 
COMP.          Pioneer Natural Resources: COMPANY
WELL.              Gough 14-29: WELL
FLD.           Purgatoire River: FIELD
LOC.           1199' FSL & 676' FWL: LOCATION
PROV.                 Colorado: PROVINCE
CNTY.               Las Animas: COUNTRY
SRVC.                Patterson: SERVICE COMPANY
DATE.          Thu Dec 22 16:27:18 2005: LOG DATE
UWI.           05 071 08612 00: UNIQUE WELL ID
~Curve Information Block
DEPT.FT            0 000 00 00: Depth
SN.Ohm-m                      : IEL Short Normal
SP.mV                         : IEL Spontaneous Potential
DIR.Ohm-m                     : IEL Induction Resistivity
GR.GAPI                       : Gamma Ray
~Parameter Information Block
SNDERRM.mmho-m         10.0000: Medium Sonde Error Correction
~A  Depth        SN          SP         DIR          GR     
# ...
   297.0000   2000.0000   2000.0000     11.4192    159.4642
   297.2500   2000.0000   2000.0000     11.4020    158.9631
   297.5000   2000.0000   2000.0000     11.3837    160.0772
   297.7500   2000.0000   2000.0000     11.3805    161.6568
   298.0000   2000.0000   2000.0000     11.4061    164.3496
   298.2500   2000.0000   2000.0000     11.4716    165.8197
   298.5000   2000.0000   2000.0000     11.5870    166.4544
   298.7500   2000.0000   2000.0000     11.7618    165.2271
   299.0000   2000.0000   2000.0000     12.0026    160.6349
   299.2500   2000.0000   2000.0000     12.3076    156.2279
   299.5000   2000.0000   2000.0000     12.6638    149.0591
   299.7500   2000.0000   2000.0000     13.0493    144.6475
   300.0000   2000.0000   2000.0000     13.4428    139.1886
   300.2500   2000.0000   2000.0000     13.8340    136.3141
   300.5000   2000.0000   2000.0000     14.2280    132.7466
   300.7500   2000.0000   2000.0000     14.6392    130.5435
   301.0000   2000.0000   2000.0000     15.0799    127.2997
   301.2500   2000.0000   2000.0000     15.5508    125.4888
   301.5000   2000.0000   2000.0000     16.0377    124.1996
   301.7500   2000.0000   2000.0000     16.5189    124.4446
   302.0000   2000.0000   2000.0000     16.9758    125.6589
   302.2500   2000.0000   2000.0000     17.4037    126.4019
   302.5000   2000.0000   2000.0000     17.8162    127.0904
   302.7500   2000.0000   2000.0000     18.2388    127.5027
   303.0000   2000.0000   2000.0000     18.6955    128.4434
   303.2500   2000.0000   2000.0000     19.1928    129.1986
   303.5000   2000.0000   2000.0000     19.7139    129.7239
   303.7500   2000.0000   2000.0000     20.2293    129.0846
   304.0000   2000.0000   2000.0000     20.7191    126.4458
   304.2500   2000.0000   2000.0000     21.1843    124.1800
   304.5000   2000.0000   2000.0000     21.6299    121.3554
   304.7500   2000.0000   2000.0000     22.0338    119.9682
   305.0000   2000.0000   2000.0000     22.3388    117.3334
   305.2500   2000.0000   2000.0000     22.4906    114.2522
   305.5000   2000.0000   2000.0000     22.4912    107.2498
   305.7500   2000.0000   2000.0000     22.4112    101.8015
   306.0000   2000.0000   2000.0000     22.3466     94.9582
   306.2500   2000.0000   2000.0000     22.3632     92.7564
   306.5000   2000.0000   2000.0000     22.4706     94.5563
   306.7500   2000.0000   2000.0000     22.6289     99.2047
   307.0000   2000.0000   2000.0000     22.7716    110.0032
   307.2500   2000.0000   2000.0000     22.8277    118.4385
   307.5000   2000.0000   2000.0000     22.7316    130.4829
   307.7500   2000.0000   2000.0000     22.4278    136.8101
   308.0000   2000.0000   2000.0000     21.8874    141.9763
   308.2500   2000.0000   2000.0000     21.1404    141.9136
   308.5000   2000.0000   2000.0000     20.2912    136.8224
   308.7500   2000.0000   2000.0000     19.4857    131.3362
   309.0000   2000.0000   2000.0000     18.8530    123.3862
   309.2500   2000.0000   2000.0000     18.4662    120.1124
   309.5000   2000.0000   2000.0000     18.3402    119.8473
   309.7500   2000.0000   2000.0000     18.4517    122.7554
   310.0000   2000.0000   2000.0000     18.7647    130.1073
   310.2500   2000.0000   2000.0000     19.2439    134.8910
   310.5000   2000.0000   2000.0000     19.8500    136.9742
   310.7500   2000.0000   2000.0000     20.5202    132.7944
   311.0000   2000.0000   2000.0000     21.1567    118.3197
   311.2500   2000.0000   2000.0000     21.6427    105.5585
   311.5000   2000.0000   2000.0000     21.8889     86.9810
   311.7500   2000.0000   2000.0000     21.8738     77.0597
   312.0000   2000.0000   2000.0000     21.6408     66.6196
   312.2500   2000.0000   2000.0000     21.2570     61.9963
   312.5000   2000.0000   2000.0000     20.7737     57.6328
   312.7500   2000.0000   2000.0000     20.2181     56.4492
   313.0000   2000.0000   2000.0000     19.6126     57.6563
   313.2500   2000.0000   2000.0000     18.9956     60.5417
   313.5000   2000.0000   2000.0000     18.4216     68.2419
   313.7500   2000.0000   2000.0000     17.9402     76.0998
   314.0000   2000.0000   2000.0000     17.5753     92.7050
   314.2500   2000.0000   2000.0000     17.3204    106.4615
   314.5000   2000.0000   2000.0000     17.1492    127.8705
   314.7500   2000.0000   2000.0000     17.0324    140.1944
   315.0000   2000.0000   2000.0000     16.9475    152.9107
   315.2500   2000.0000   2000.0000     16.8759    157.0881
   315.5000   2000.0000   2000.0000     16.7964    157.0976
   315.7500   2000.0000   2000.0000     16.6850    153.1338
   316.0000   2000.0000   2000.0000     16.5263    142.2206
   316.2500   2000.0000   2000.0000     16.3277    132.9431
   316.5000   2000.0000   2000.0000     16.1249    118.9691
   316.7500   2000.0000   2000.0000     15.9733    111.1132
   317.0000   2000.0000   2000.0000     15.9319    103.3523
   317.2500   2000.0000   2000.0000     16.0499    101.7261
   317.5000   2000.0000   2000.0000     16.3567    105.7494
   317.7500   2000.0000   2000.0000     16.8536    112.6905
   318.0000   2000.0000   2000.0000     17.5036    127.3050
   318.2500   2000.0000   2000.0000     18.2237    137.6245
   318.5000   2000.0000   2000.0000     18.8937    150.3585
   318.7500   2000.0000   2000.0000     19.3908    155.9019
   319.0000   2000.0000   2000.0000     19.6397    159.7978
   319.2500   2000.0000   2000.0000     19.6429    160.0350
   319.5000   2000.0000   2000.0000     19.4663    157.8428
   319.7500   2000.0000   2000.0000     19.1997    155.1234
   320.0000   2000.0000   2000.0000     18.9217    149.9741
   320.2500   2000.0000   2000.0000     18.6880    146.3509
   320.5000   2000.0000   2000.0000     18.5313    141.3313
   320.7500   2000.0000   2000.0000     18.4634    138.5877
   321.0000   2000.0000   2000.0000     18.4750    136.0155
   321.2500   2000.0000   2000.0000     18.5391    135.5559
   321.5000   2000.0000   2000.0000     18.6194    136.3210
   321.7500   2000.0000   2000.0000     18.6825    137.2251
   322.0000   2000.0000   2000.0000     18.7135    138.7334
   322.2500   2000.0000   2000.0000     18.7255    140.2359
   322.5000   2000.0000   2000.0000     18.7540    144.2897
   322.7500   2000.0000   2000.0000     18.8309    148.3171
   323.0000   2000.0000   2000.0000     18.9532    155.0599
   323.2500   2000.0000   2000.0000     19.0704    158.6304
   323.5000   2000.0000   2000.0000     19.1077    160.3156
   323.7500   2000.0000   2000.0000     19.0093    158.4929
   324.0000   2000.0000   2000.0000     18.7651    152.6947
   324.2500   2000.0000   2000.0000     18.4013    148.5326
   324.5000   2000.0000   2000.0000     17.9547    144.5187
   324.7500   2000.0000   2000.0000     17.4609    143.7056
   325.0000   2000.0000   2000.0000     16.9605    143.9961
   325.2500   2000.0000   2000.0000     16.5023    144.4386
   325.5000   2000.0000   2000.0000     16.1298    145.7922
   325.7500   2000.0000   2000.0000     15.8601    147.9607
   326.0000   2000.0000   2000.0000     15.6723    153.6543
   326.2500   2000.0000   2000.0000     15.5134    158.4136
   326.5000   2000.0000   2000.0000     15.3229    165.0475
   326.7500   2000.0000   2000.0000     15.0616    168.2592
   327.0000   2000.0000   2000.0000     14.7291    170.8604
   327.2500   2000.0000   2000.0000     14.3599    171.5722
   327.5000   2000.0000   2000.0000     14.0013    172.9073
   327.7500   2000.0000   2000.0000     13.6875    175.0424
   328.0000   2000.0000   2000.0000     13.4248    180.1591
   328.2500   2000.0000   2000.0000     13.1916    183.5803
   328.5000   2000.0000   2000.0000     12.9552    186.3211
   328.7500   2000.0000   2000.0000     12.6961    186.1876
   329.0000   2000.0000   2000.0000     12.4237    184.0357
   329.2500   2000.0000   2000.0000     12.1710    181.9145
   329.5000   2000.0000   2000.0000     11.9711    178.2303
   329.7500   2000.0000   2000.0000     11.8349    175.7454
   330.0000   2000.0000   2000.0000     11.7445    172.1947
   330.2500   2000.0000   2000.0000     11.6651    169.1939
