~Version Information
 VERS.                                  2.0 : CWLS LAS VERSION
 WRAP.                                   NO : WRAPING MODE
 SWARE .                  MController 2.5.1 : SOFTWARE VERSION
~Well Information
 WELL.                    Sparrowhawk 22-12 : WELL
 COMP.  Pioneer Natural Resources USA, Inc. : COMPANY
 FLD.                      Purgatoire River : FIELD
 LOC.             SE/NE Sec. 12, T32S, R66W : LOCATION
 DATE.                03/22/2006-03/23/2006 : DATE(S) LOGGED
 SRVC.                  Entrada GeoSciences : SERVICE COMPANY
 STAT.                             Colorado : STATE
 CNTY.                           Las Animas : COUNTY
 CTRY.                        United States : COUNTRY
 API.                          05-071-08484 : API NUMBER
 STRT.FT                             533.00 : START DEPTH
 STOP.FT                            2380.00 : STOP DEPTH
 STEP.FT                               1.00 : DEPTH INCREMENT
 NULL.                                -9999 : NULL VALUE
~Curve information
 DEPTH.FT                                   :
 ROP.MIN/FT                                 :
 GAS.UNITS                                  :
~ASCII Log data
# ...
     1133.00         0.17          8.3 
     1134.00         0.23          9.1 
     1135.00         0.28          9.8 
     1136.00         0.50          7.7 
     1137.00         0.28          8.3 
     1138.00         0.23          8.3 
     1139.00         0.33          7.1 
     1140.00         0.27          6.4 
     1141.00         0.30          7.7 
     1142.00         0.23         11.3 
     1143.00         0.27         17.2 
     1144.00         0.23         22.3 
     1145.00         0.23         27.5 
     1146.00         0.20         33.4 
     1147.00         0.20         49.5 
     1148.00         0.20         82.0 
     1149.00         0.27        116.1 
     1150.00         0.22        123.3 
     1151.00         0.17        117.4 
     1152.00         0.20        102.1 
     1153.00         0.13         90.5 
     1154.00         0.20         74.6 
     1155.00         0.23         58.5 
     1156.00         0.30         43.8 
     1157.00         0.30         33.0 
     1158.00         0.23         27.5 
     1159.00         0.23         22.9 
     1160.00         0.17         20.1 
     1161.00         0.20         17.1 
     1162.00         0.13         16.0 
     1163.00         0.30         12.2 
     1164.00         0.33         11.0 
     1165.00         0.28          9.4 
     1166.00         0.30          8.1 
     1167.00         0.27          6.6 
     1168.00         0.38          7.1 
     1169.00         0.37          7.3 
     1170.00         0.47          5.0 
     1171.00         0.27          5.8 
     1172.00         0.20          5.8 
     1173.00         0.20          8.1 
     1174.00         0.17         11.2 
     1175.00         0.27         15.5 
     1176.00         0.23         20.8 
     1177.00         0.23         31.3 
     1178.00         0.30         55.6 
     1179.00         0.37         68.5 
     1180.00         0.32         62.9 
     1181.00         0.33         49.4 
     1182.00         0.37         36.5 
     1183.00         0.23         30.5 
     1184.00         0.23         24.8 
     1185.00         0.17         21.7 
     1186.00         0.23         19.0 
     1187.00         0.20         16.8 
     1188.00         0.20         15.2 
     1189.00         0.23         13.3 
     1190.00         0.23         11.2 
     1191.00         0.23         11.5 
     1192.00         0.27         11.1 
     1193.00         0.28          9.9 
     1194.00         0.27         10.0 
     1195.00         0.27          9.1 
     1196.00         0.23          6.8 
     1197.00         0.35          7.2 
     1198.00         0.27          6.1 
     1199.00         0.20          6.4 
     1200.00         0.13          5.7 
     1201.00         0.13          5.5 
     1202.00         0.23          7.0 
     1203.00         0.23         10.7 
     1204.00         0.30         15.9 
     1205.00         0.30         22.0 
     1206.00         0.30         37.6 
     1207.00         0.30         66.5 
     1208.00         0.30         76.9 
     1209.00         0.30         69.5 
     1210.00         0.28         54.8 
     1211.00         0.27         43.4 
     1212.00         0.27         35.6 
     1213.00         0.23         30.1 
     1214.00         0.20         27.1 
     1215.00         0.27         22.8 
     1216.00         0.23         19.7 
     1217.00         0.27         17.0 
     1218.00         0.20         15.5 
     1219.00         0.20         13.7 
     1220.00         0.10         12.9 
     1221.00         0.20         11.3 
     1222.00         0.17         11.0 
     1223.00         0.30          8.8 
     1224.00         0.17          8.3 
     1225.00         0.25          7.1 
     1226.00         0.27          8.0 
     1227.00         0.37          6.2 
     1228.00         0.33          6.3 
     1229.00         0.33          8.6 
     1230.00         0.30         13.5 
     1231.00         0.23         19.3 
     1232.00         0.33         32.8 
     1233.00         0.23         51.5 
     1234.00         0.20         61.1 
     1235.00         0.20         63.4 
     1236.00         0.20         59.3 
     1237.00         0.22         52.6 
     1238.00         0.13         47.6 
     1239.00         0.23         40.9 
     1240.00         0.23         35.1 
     1241.00         0.23         29.1 
     1242.00         0.20         26.0 
     1243.00         0.30         21.0 
     1244.00         0.27         17.6 
     1245.00         0.23         15.3 
     1246.00         0.27         13.1 
     1247.00         0.20         11.7 
     1248.00         0.23         11.1 
     1249.00         0.23         10.9 
     1250.00         0.23         10.2 
     1251.00         0.23          9.9 
     1252.00         0.22          8.5 
     1253.00         0.17          8.4 
     1254.00         0.27          7.7 
     1255.00         0.27          6.1 
     1256.00         0.27          3.8 
     1257.00         0.40          4.6 
     1258.00         0.33          6.8 
     1259.00         0.33         13.6 
     1260.00         0.27         20.4 
     1261.00         0.23         25.8 
     1262.00         0.25         31.3 
     1263.00         0.20         35.3 
     1264.00         0.20         39.2 
     1265.00         0.20         46.6 
     1266.00         0.17         65.5 
     1267.00         0.17        100.5 
     1268.00         0.17        143.3 
     1269.00         0.17        181.8 
     1270.00         0.43        227.0 
     1271.00         0.27        210.5 
     1272.00         0.17        186.2 
     1273.00         0.17        158.1 
     1274.00         0.30        111.2 
     1275.00         0.20         86.2 
     1276.00         0.27         60.4 
     1277.00         0.25         45.8 
     1278.00         0.20         36.0 
     1279.00         0.20         29.2 
     1280.00         0.20         23.6 
     1281.00         0.13         21.5 
     1282.00         0.20         17.5 
     1283.00         0.23         14.7 
     1284.00         0.27         11.4 
     1285.00         0.27          9.5 
     1286.00         0.40         41.3 
     1287.00         0.53        103.8 
     1288.00         0.43        141.1 
     1289.00         0.42        124.4 
     1290.00         0.27         98.1 
     1291.00         0.33         67.5 
     1292.00         0.37         42.8 
     1293.00         0.53         24.2 
     1294.00         0.53         15.8 
     1295.00         0.57         16.1 
     1296.00         0.45         18.2 
     1297.00         0.23         18.4 
     1298.00         0.30         17.2 
     1299.00         0.27         16.1 
     1300.00         0.27         15.0 
     1301.00         0.30         13.1 
     1302.00         0.27         12.7 
     1303.00         0.27         11.6 
     1304.00         0.23         11.5 
     1305.00         0.33         10.1 
     1306.00         0.23         10.5 
     1307.00         0.30          9.4 
     1308.00         0.20         10.4 
     1309.00         0.10          9.4 
     1310.00         0.32         10.2 
     1311.00         0.40          9.5 
     1312.00         0.27          9.0 
     1313.00         0.27          9.6 
     1314.00         0.30          9.0 
     1315.00         0.27          9.3 
     1316.00         0.33        325.5 
     1317.00         0.37        300.4 
     1318.00         0.30        235.9 
     1319.00         0.35        159.3 
     1320.00         0.23        117.1 
     1321.00         0.23         85.3 
     1322.00         0.40         51.4 
     1323.00         0.30         37.1 
     1324.00         0.40         25.8 
     1325.00         0.40         20.0 
     1326.00         0.40         15.5 
     1327.00         0.40         13.2 
     1328.00         0.33         14.3 
     1329.00         0.15         15.6 
     1330.00         0.17         16.2 
     1331.00         0.30         17.7 
     1332.00         0.33         17.1 
