~Version Information
VERS.                      2.0: CWLS Log ASCII Standard - VERSION 2.0
WRAP.                       NO: One line per depth step
~Well Information Block
STRT.FT               -16.0000: 
STOP.FT              2827.7500: 
STEP.FT                 0.2500: 
NULL.                -999.2500: 
COMP.          Pioneer Natural Resources: COMPANY
WELL.          Touchstone 11-32: WELL
FLD.           Purgatorie River: FIELD
LOC.           853' FNL & 407' FWL--: LOCATION
CNTY.               Las Animas: COUNTY
SRVC.          Patterson Wireline: SERVICE COMPANY
DATE.          Wed Mar 15 10:09:19 2006: LOG DATE
UWI.           05 071 08564 00: UNIQUE WELL ID
STAT.                       CO: STATE
~Curve Information Block
DEPT.FT            0 000 00 00: Depth
CCL.                          : Casing Collar Locator
TT3.usec                      : CBL 3' Travel Time
AMP3.mV                       : CBL 3' Amplitude
GR.GAPI                       : Gamma Ray
~Parameter Information Block
~A  Depth       CCL         TT3         AMP3         GR     
# ...
  1860.0000      0.0000    676.9817      6.2988    148.7867
  1860.2500      0.0000    683.5421      6.3306    144.9886
  1860.5000      0.0000    691.4509      6.3661    143.6672
  1860.7500      0.0000    698.9344      6.4048    143.2471
  1861.0000      0.0000    704.3408      6.4509    141.8598
  1861.2500      0.0000    707.2880      6.5058    138.9560
  1861.5000      0.0000    708.4363      6.5627    135.0873
  1861.7500      0.0000    708.6534      6.6102    130.9892
  1862.0000      0.0000    708.5411      6.6399    127.4031
  1862.2500      0.0000    708.3764      6.6520    125.4079
  1862.5000      0.0000    708.2271      6.6534    126.3292
  1862.7500      0.0000    708.0763      6.6499    130.9976
  1863.0000      0.0000    707.9043      6.6425    138.9612
  1863.2500      0.0000    707.6913      6.6306    148.4404
  1863.5000      0.0000    707.2832      6.6184    157.2432
  1863.7500      0.0000    706.0521      6.6170    163.8044
  1864.0000      0.0000    702.3734      6.6394    167.5444
  1864.2500      0.0000    693.4780      6.6915    168.6953
  1864.5000      0.0000    676.7101      6.7692    168.0315
  1864.7500      0.0000    652.1605      6.8625    166.4832
  1865.0000      0.0000    624.2004      6.9632    164.7007
  1865.2500      0.0000    599.3605      7.0653    163.1672
  1865.5000      0.0000    582.0371      7.1611    162.7893
  1865.7500      0.0000    572.3690      7.2386    164.6826
  1866.0000      0.0000    567.7626      7.2836    168.8525
  1866.2500      0.0000    565.4724      7.2857    173.4534
  1866.5000      0.0000    563.7530      7.2446    175.8890
  1866.7500      0.0000    561.6931      7.1743    174.6837
  1867.0000      0.0000    558.9432      7.0989    170.3221
  1867.2500      0.0000    555.6584      7.0415    164.5089
  1867.5000      0.0000    552.0604      7.0154    158.8966
  1867.7500      0.0000    547.6982      7.0229    154.4547
  1868.0000      0.0000    541.4783      7.0558    151.5734
  1868.2500      0.0000    532.8160      7.0975    150.2515
  1868.5000      0.0000    522.6146      7.1262    150.1523
  1868.7500      0.0000    513.2443      7.1235    150.6212
  1869.0000      0.0000    507.6053      7.0815    150.8460
  1869.2500      0.0000    507.1513      7.0103    150.4505
  1869.5000      0.0000    509.8265      6.9383    150.0977
  1869.7500      0.0000    510.8401      6.8978    151.0739
  1870.0000      0.0000    506.8239      6.8993    153.9399
  1870.2500      0.0000    498.8487      6.9219    157.7593
  1870.5000      0.0000    490.7085      6.9350    160.8902
  1870.7500      0.0000    485.3163      6.9271    162.5167
  1871.0000      0.0000    483.7643      6.9133    163.2354
  1871.2500      0.0000    487.3293      6.9175    164.0447
  1871.5000      0.0000    499.2687      6.9532    165.0658
  1871.7500      0.0000    523.6233      7.0178    165.5861
  1872.0000      0.0000    560.8550      7.1020    165.0361
  1872.2500      0.0000    604.3314      7.1993    163.4135
  1872.5000      0.0000    642.7539      7.3052    160.9108
  1872.7500      0.0000    667.4564      7.4014    157.6545
  1873.0000      0.0000    676.9734      7.4432    153.8541
  1873.2500      0.0000    674.9156      7.3690    149.9199
  1873.5000      0.0000    665.4423      7.1505    146.2530
  1873.7500      0.0000    650.9223      6.8532    143.0069
  1874.0000      0.0000    631.4283      6.6261    140.3052
  1874.2500      0.0000    605.4571      6.5895    138.5953
  1874.5000      0.0000    572.5177      6.7338    138.0480
  1874.7500      0.0000    535.7120      6.9593    137.2073
  1875.0000      0.0000    501.0868      7.1929    133.1005
  1875.2500      0.0000    473.9662      7.4251    123.7775
  1875.5000      2.0000    455.7267      7.6614    110.7702
  1875.7500     -2.0000    443.9173      7.8910     98.6344
  1876.0000      0.0000    435.3745      8.0974     92.0609
  1876.2500      0.0000    429.9113      8.2812     93.1931
  1876.5000      0.0000    431.6405      8.4697    100.6658
  1876.7500      0.0000    445.9504      8.6864    110.4975
  1877.0000      0.0000    473.5697      8.8961    118.4996
  1877.2500      0.0000    507.3106      9.0229    122.9702
  1877.5000      0.0000    535.9553      9.0598    125.3530
  1877.7500      0.0000    551.9698      9.1013    128.0547
  1878.0000      0.0000    555.0485      9.2216    131.8102
  1878.2500      0.0000    548.6676      9.3801    135.2943
  1878.5000      0.0000    534.9011      9.4861    136.7377
  1878.7500      0.0000    513.7524      9.5026    135.4541
  1879.0000      0.0000    487.4185      9.4544    132.2565
  1879.2500      0.0000    463.6834      9.3757    129.0216
  1879.5000      0.0000    452.7110      9.2842    127.6594
  1879.7500      0.0000    459.1062      9.1904    128.9110
  1880.0000      0.0000    477.7080      9.1064    132.0023
  1880.2500      0.0000    497.9657      9.0463    135.5491
  1880.5000      0.0000    512.0507      9.0198    138.6109
  1880.7500      0.0000    518.8795      9.0274    140.7490
  1881.0000      0.0000    522.1160      9.0610    141.5110
  1881.2500      0.0000    525.8511      9.1110    140.5377
  1881.5000      0.0000    531.6464      9.1728    138.3073
  1881.7500      0.0000    537.8978      9.2451    136.3140
  1882.0000      0.0000    540.8862      9.3252    136.0825
  1882.2500      0.0000    536.8398      9.4076    137.8143
  1882.5000      0.0000    524.4773      9.4877    140.0912
  1882.7500      0.0000    506.3994      9.5627    141.0911
  1883.0000      0.0000    487.2527      9.6296    140.1935
  1883.2500      0.0000    469.6460      9.6817    138.2853
  1883.5000      0.0000    452.4476      9.7100    136.5669
  1883.7500      0.0000    433.6432      9.7052    135.3699
  1884.0000      0.0000    413.9601      9.6635    134.0886
  1884.2500      0.0000    396.7524      9.5934    131.9125
  1884.5000      0.0000    385.0619      9.5180    128.6476
  1884.7500      0.0000    380.0677      9.4648    124.9540
  1885.0000      0.0000    382.5121      9.4485    121.6545
  1885.2500      0.0000    394.3651      9.4652    118.9944
  1885.5000      0.0000    417.2497      9.5041    117.1300
  1885.7500      0.0000    447.7036      9.5621    116.8518
  1886.0000      0.0000    474.6705      9.6428    118.6246
  1886.2500      0.0000    484.7811      9.7465    121.0236
  1886.5000      0.0000    472.5022      9.8643    121.3373
  1886.7500      0.0000    444.7723      9.9804    117.8803
  1887.0000      0.0000    414.9574     10.0780    111.0897
  1887.2500      0.0000    392.9318     10.1475    102.7083
  1887.5000      0.0000    380.8124     10.1911     94.8947
  1887.7500      0.0000    375.6751     10.2182     89.7778
  1888.0000      0.0000    373.9323     10.2308     88.3011
  1888.2500      0.0000    373.4079     10.2160     88.9874
  1888.5000      0.0000    373.2579     10.1560     88.8443
  1888.7500      0.0000    373.2815     10.0473     86.0989
  1889.0000      0.0000    373.4661      9.9073     81.6759
  1889.2500      0.0000    373.7942      9.7621     77.9708
  1889.5000      0.0000    374.2329      9.6277     76.7388
  1889.7500      0.0000    374.8130      9.5063     78.0800
  1890.0000      0.0000    375.9227      9.3970     80.7104
  1890.2500      0.0000    378.9710      9.3041     82.9266
  1890.5000      0.0000    387.3938      9.2316     83.7641
  1890.7500      0.0000    406.7219      9.1708     83.6521
  1891.0000      0.0000    441.3078      9.0994     83.9418
  1891.2500      0.0000    487.8402      8.9991     85.6175
  1891.5000      0.0000    532.2731      8.8768     88.3341
  1891.7500      0.0000    558.1757      8.7630     90.6404
  1892.0000      0.0000    562.2156      8.6841     91.1299
  1892.2500      0.0000    559.4996      8.6378     89.4846
  1892.5000      0.0000    569.7891      8.5947     86.6141
  1892.7500      0.0000    599.0378      8.5209     83.9776
  1893.0000      0.0000    636.5165      8.3993     82.7511
  1893.2500      0.0000    667.1123      8.2361     83.3602
