~Version Information
VERS.                      2.0: CWLS Log ASCII Standard - VERSION 2.0
WRAP.                       NO: One line per depth step
~Well Information Block
STRT.FT                -3.0000: 
STOP.FT              1123.0000: 
STEP.FT                 0.2500: 
NULL.                -999.2500: 
COMP.          Pioneer Natural Resources: COMPANY
WELL.               Ryan 41-17: WELL
FLD.           Purgatoire River: FIELD
LOC.           822' FNL & 532' FEL--: LOCATION
CNTY.               Las Animas: COUNTY
SRVC.                Patterson: SERVICE COMPANY
DATE.          Mon Mar 27 14:50:31 2006: LOG DATE
UWI.           05 071 08719 00: UNIQUE WELL ID
STAT.                 Colorado: STATE
~Curve Information Block
DEPT.FT            0 000 00 00: Depth
CCL.                          : Casing Collar Locator
TT3.usec                      : CBL 3' Travel Time
AMP3.mV                       : CBL 3' Amplitude
GR.GAPI                       : Gamma Ray
~Parameter Information Block
~A  Depth       CCL         TT3         AMP3         GR     
# ...
   868.0000      0.0000    259.8463     78.8388     64.8875
   868.2500      0.0000    259.8476     78.8275     65.4626
   868.5000      0.0000    259.8562     78.7083     68.6450
   868.7500      0.0000    259.8660     78.5724     71.5566
   869.0000      0.0000    259.8837     78.3345     74.5501
   869.2500      0.0000    259.8959     78.1839     74.6519
   869.5000      0.0000    259.9135     78.0115     72.2385
   869.7500      0.0000    259.9237     77.9515     69.6604
   870.0000      0.0000    259.9325     77.9658     65.1251
   870.2500      0.0000    259.9317     78.0377     61.7165
   870.5000      0.0000    259.9226     78.1777     56.4293
   870.7500      0.0000    259.9162     78.2432     53.5418
   871.0000      0.0000    259.9147     78.2427     51.6620
   871.2500      0.0000    259.9200     78.1726     52.2683
   871.5000      0.0000    259.9323     77.9978     54.7795
   871.7500      0.0000    259.9392     77.8717     56.4092
   872.0000      0.0000    259.9426     77.7364     57.4355
   872.2500      0.0000    259.9399     77.7100     56.9585
   872.5000      0.0000    259.9328     77.7853     54.8294
   872.7500      0.0000    259.9288     77.9175     52.8467
   873.0000      0.0000    259.9246     78.2404     49.8280
   873.2500      0.0000    259.9210     78.5174     48.3623
   873.5000      0.0000    259.9128     78.9362     47.9817
   873.7500      0.0000    259.9066     79.1572     49.1914
   874.0000      0.0000    259.9004     79.3416     52.6097
   874.2500      0.0000    259.8991     79.3688     55.2966
   874.5000      0.0000    259.9006     79.3076     59.2420
   874.7500      0.0000    259.9035     79.2229     61.8237
   875.0000      0.0000    259.9119     79.0476     65.7439
   875.2500      0.0000    259.9205     78.9055     68.0971
   875.5000      0.0000    259.9355     78.6948     69.8151
   875.7500      0.0000    259.9441     78.5973     68.7814
   876.0000      0.0000    259.9526     78.5660     63.8322
   876.2500      0.0000    259.9561     78.6111     59.7415
   876.5000      0.0000    259.9599     78.7059     56.2146
   876.7500      0.0000    259.9612     78.7545     56.8287
   877.0000      0.0000    259.9591     78.8073     60.9857
   877.2500      0.0000    259.9550     78.8488     64.0628
   877.5000      0.0000    259.9456     78.9433     66.7937
   877.7500      0.0000    259.9370     79.0303     67.2497
   878.0000      0.0000    259.9199     79.1919     67.0584
   878.2500      0.0000    259.9062     79.3158     66.9044
   878.5000      0.0000    259.8834     79.5205     67.0397
   878.7500      0.0000    259.8669     79.6687     67.8857
   879.0000      0.0000    259.8413     79.8983     71.8525
   879.2500      0.0000    259.8273     80.0363     76.6089
   879.5000      0.0000    259.8184     80.1761     84.8189
   879.7500      0.0000    259.8223     80.2066     88.8940
   880.0000      0.0000    259.8395     80.1500     90.7253
   880.2500      0.0000    259.8562     80.0455     89.6979
   880.5000      0.0000    259.8853     79.8048     88.1563
   880.7500      0.0000    259.9038     79.6122     88.7546
   881.0000      0.0000    259.9209     79.3392     91.4490
   881.2500      0.0000    259.9215     79.2056     92.3171
   881.5000      0.0000    259.9099     79.1119     89.2479
   881.7500      0.0000    259.9001     79.1113     84.6727
   882.0000      0.0000    259.8927     79.1406     78.0060
   882.2500      0.0000    259.8943     79.1358     76.0999
   882.5000      0.0000    259.9023     79.0454     77.7469
   882.7500      0.0000    259.9074     78.9303     80.0081
   883.0000      0.0000    259.9113     78.7114     81.3253
   883.2500      0.0000    259.9135     78.5567     80.2228
   883.5000      0.0000    259.9254     78.3124     77.8774
   883.7500      0.0000    259.9449     78.1235     77.6063
   884.0000      0.0000    259.9920     77.7883     80.0362
   884.2500      0.0000    260.0280     77.5515     82.5998
   884.5000      0.0000    260.0718     77.2254     85.6161
   884.7500      0.0000    260.0890     77.0306     86.6477
   885.0000      0.0000    260.1032     76.7285     88.3057
   885.2500      0.0000    260.1130     76.4963     90.9490
   885.5000      0.0000    260.1351     76.1171     98.2605
   885.7500      0.0000    260.1518     75.8858    104.5480
   886.0000      0.0000    260.1706     75.6465    113.1893
   886.2500      0.0000    260.1806     75.5663    116.8239
   886.5000      0.0000    260.2425     75.4792    118.0510
   886.7500      0.0000    260.4044     75.3465    116.7364
   887.0000      0.0000    261.2649     74.7929    114.1054
   887.2500      0.0000    262.7492     73.9784    113.2066
   887.5000      0.0000    267.4037     71.6792    113.6279
   887.7500      0.0000    272.3936     69.3343    114.4399
   888.0000      0.0000    281.6692     64.9738    115.1089
   888.2500      0.0000    287.7705     61.9237    114.8612
   888.5000      0.0000    295.1396     57.6972    113.4655
   888.7500      0.0000    298.7638     55.2765    111.9323
   889.0000      0.0000    302.8446     52.4557    108.9811
   889.2500      0.0000    304.8383     51.2110    106.5835
   889.5000      2.0000    306.7294     50.2126    101.4380
   889.7500      0.0000    307.2996     49.9378     96.4844
   890.0000      0.0000    307.2358     49.8205     88.2437
   890.2500      0.0000    306.4674     49.9398     84.3023
   890.5000      0.0000    303.6057     50.8510     83.0369
   890.7500      0.0000    300.1799     52.3562     84.6181
   891.0000      0.0000    292.7576     56.3204     87.3143
   891.2500      0.0000    286.8021     59.8115     87.6857
   891.5000      0.0000    277.7097     65.1821     85.3630
   891.7500      0.0000    272.3039     68.2311     82.6665
   892.0000      0.0000    266.1124     71.4925     79.3128
   892.2500      0.0000    263.4634     72.7835     78.7120
   892.5000      0.0000    261.3783     73.6797     80.5597
   892.7500      0.0000    260.8196     73.8296     82.7777
   893.0000      0.0000    260.5500     73.7612     85.5478
   893.2500      0.0000    260.5140     73.6560     86.2361
   893.5000      0.0000    260.5052     73.5249     85.5396
   893.7500      0.0000    260.5017     73.4893     84.4482
   894.0000      0.0000    260.4892     73.5235     82.3561
   894.2500      0.0000    260.4773     73.5806     80.2952
   894.5000      0.0000    260.4588     73.6662     75.4334
   894.7500      0.0000    260.4475     73.7147     71.3610
   895.0000      0.0000    260.4321     73.7802     65.9694
   895.2500      0.0000    260.4229     73.8065     63.8455
   895.5000      0.0000    260.4116     73.7740     63.1171
   895.7500      0.0000    260.4062     73.6985     63.8345
   896.0000      0.0000    260.4019     73.5654     66.0638
   896.2500      0.0000    260.4016     73.5117     68.1752
   896.5000      0.0000    260.4069     73.4951     71.8995
   896.7500      0.0000    260.4164     73.4729     74.1243
   897.0000      0.0000    260.4432     73.2860     75.7349
   897.2500      0.0000    260.4701     73.0084     75.5157
   897.5000      0.0000    260.5214     72.3894     74.7417
   897.7500      0.0000    260.5593     71.9064     75.0556
   898.0000      0.0000    260.6161     71.1693     77.4013
   898.2500      0.0000    260.6540     70.6712     79.7586
   898.5000      0.0000    260.7203     69.8608     83.1075
   898.7500      0.0000    260.7783     69.2683     84.1025
   899.0000      0.0000    260.8888     68.3733     81.4885
   899.2500      0.0000    260.9693     67.8444     76.3484
   899.5000      0.0000    261.0729     67.2413     64.9732
   899.7500      0.0000    261.1173     66.9699     56.9246
   900.0000      0.0000    261.1455     66.6949     47.4294
   900.2500      0.0000    261.1485     66.5538     43.8231
   900.5000      0.0000    261.1422     66.3881     42.4300
   900.7500      0.0000    261.1255     66.3591     43.5476
   901.0000      0.0000    261.0567     66.6077     47.4160
   901.2500      0.0000    260.9719     67.0639     51.3105
