~Version Information
VERS.                      2.0: CWLS Log ASCII Standard - VERSION 2.0
WRAP.                       NO: One line per depth step
~Well Information Block
STRT.FT                -8.0000: 
STOP.FT              1472.2500: 
STEP.FT                 0.2500: 
NULL.                -999.2500: 
COMP.          Pioneer Natural Resources: COMPANY
WELL.           Amore 32-09 Tr: WELL
FLD.           Purgatoire River: FIELD
LOC.           1941' FNL & 2297' FEL--: LOCATION
PROV.                       CO: PROVINCE
CNTY.               Las Animas: COUNTRY
SRVC.          Patterson Wireline: SERVICE COMPANY
DATE.          Tue Nov 22 11:37:00 2005: LOG DATE
UWI.           05 071 08584 00: UNIQUE WELL ID
~Curve Information Block
DEPT.FT            0 000 00 00: Depth
CCL.                          : Casing Collar Locator
TT3.usec                      : CBL 3' Travel Time
AMP3.mV                       : CBL 3' Amplitude
GR.GAPI                       : Gamma Ray
~Parameter Information Block
~A  Depth       CCL         TT3         AMP3         GR     
# ...
   662.0000      0.0000    742.0973      6.2645    101.7583
   662.2500      0.0000    742.0580      6.2383    107.3139
   662.5000      0.0000    742.1106      6.1947    111.5773
   662.7500      0.0000    742.2242      6.1565    113.7618
   663.0000      0.0000    742.3430      6.1451    114.6038
   663.2500      0.0000    742.4306      6.1628    114.4699
   663.5000      0.0000    742.4755      6.1988    112.7244
   663.7500      0.0000    742.4724      6.2450    108.7040
   664.0000      0.0000    742.4120      6.2986    102.5319
   664.2500      0.0000    742.2860      6.3516     95.0927
   664.5000      0.0000    742.0955      6.3859     87.6852
   664.7500      0.0000    741.8591      6.3813     81.4365
   665.0000      0.0000    741.6149      6.3280     76.6325
   665.2500      0.0000    741.4100      6.2325     72.6697
   665.5000      0.0000    741.2841      6.1108     68.6907
   665.7500      0.0000    741.2601      5.9786     64.2494
   666.0000      0.0000    741.3414      5.8469     59.6304
   666.2500      0.0000    741.5056      5.7249     55.7428
   666.5000      0.0000    741.6996      5.6256     53.4314
   666.7500      0.0000    741.8557      5.5652     52.6807
   667.0000      0.0000    741.9249      5.5537     52.6421
   667.2500      0.0000    741.8957      5.5867     52.5425
   667.5000      0.0000    741.7881      5.6458     52.3881
   667.7500      0.0000    741.6402      5.7093     52.8145
   668.0000      0.0000    741.4992      5.7643     54.5471
   668.2500      0.0000    741.4052      5.8100     57.9364
   668.5000      0.0000    741.3699      5.8553     62.6270
   668.7500      0.0000    741.3830      5.9123     67.5121
   669.0000      0.0000    741.4438      5.9902     71.2344
   669.2500      0.0000    741.5750      6.0906     72.9198
   669.5000      0.0000    741.7886      6.2050     72.6248
   669.7500      0.0000    742.0527      6.3168     71.4937
   670.0000      0.0000    742.3083      6.4078     71.5515
   670.2500      0.0000    742.5134      6.4671     74.7164
   670.5000      0.0000    742.6578      6.4945     81.3844
   670.7500      0.0000    742.7471      6.4960     89.9352
   671.0000      0.0000    742.7838      6.4758     97.7793
   671.2500      0.0000    742.7676      6.4349    102.9377
   671.5000      0.0000    742.7078      6.3779    104.7058
   671.7500      0.0000    742.6321      6.3187    103.3099
   672.0000      0.0000    742.5757      6.2754     99.6334
   672.2500      0.0000    742.5579      6.2598     95.2833
   672.5000      0.0000    742.5765      6.2737     92.1536
   672.7500      0.0000    742.6288      6.3146     91.4511
   673.0000      0.0000    742.7267      6.3775     93.3014
   673.2500      0.0000    742.8835      6.4502     97.2418
   673.5000      0.0000    743.0894      6.5120    102.6882
   673.7500      0.0000    743.3033      6.5457    108.9886
   674.0000      0.0000    743.4780      6.5494    115.4648
   674.2500      0.0000    743.5934      6.5332    121.4870
   674.5000      0.0000    743.6688      6.5078    126.4830
   674.7500      0.0000    743.7508      6.4818    129.9480
   675.0000      0.0000    743.9274      6.4638    131.3976
   675.2500      0.0000    744.3737      6.4577    130.5320
   675.5000      0.0000    745.3867      6.4550    127.7067
   675.7500      0.0000    747.2504      6.4403    123.9941
   676.0000      0.0000    749.8287      6.4112    120.4702
   676.2500      0.0000    752.2090      6.3891    117.6973
   676.5000      0.0000    753.0897      6.4078    116.0657
   676.7500      0.0000    751.9298      6.4897    116.1005
   677.0000      0.0000    749.6713      6.6356    117.8899
   677.2500      0.0000    748.1855      6.8355    120.2963
   677.5000      0.0000    749.1594      7.0755    121.1643
   677.7500      0.0000    753.3670      7.3294    118.7684
   678.0000      0.0000    760.3021      7.5525    113.3883
   678.2500      0.0000    768.2836      7.6962    107.2561
   678.5000      0.0000    775.5981      7.7388    102.4684
   678.7500      0.0000    782.3243      7.7057     98.9904
   679.0000      0.0000    790.5319      7.6548     95.2324
   679.2500      0.0000    801.1292      7.6333     90.5185
   679.5000      0.0000    810.1517      7.6483     86.2160
   679.7500      0.0000    810.4064      7.6813     84.4219
   680.0000      0.0000    798.6777      7.7194     86.3158
   680.2500      0.0000    779.8361      7.7610     91.8566
   680.5000      0.0000    762.3047      7.7954    100.1625
   680.7500      0.0000    751.0043      7.7950    109.6194
   681.0000      0.0000    745.6812      7.7312    118.0317
   681.2500      0.0000    743.9446      7.5979    123.3024
   681.5000      0.0000    744.0633      7.4211    124.4599
   681.7500      0.0000    745.4788      7.2467    122.3720
   682.0000      0.0000    747.9418      7.1188    119.2571
   682.2500      0.0000    750.6314      7.0621    116.8737
   682.5000      0.0000    752.2550      7.0751    115.0890
   682.7500      0.0000    752.1801      7.1347    112.5348
   683.0000      0.0000    751.2188      7.2082    108.5488
   683.2500      0.0000    751.0072      7.2730    104.1185
   683.5000      0.0000    752.6361      7.3325    100.9689
   683.7500      0.0000    755.9110      7.4052    100.1507
   684.0000      0.0000    759.7748      7.4936    101.5948
   684.2500      0.0000    763.3405      7.5698    104.5223
   684.5000      0.0000    766.4636      7.6015    107.8146
   684.7500      0.0000    769.2054      7.5870    110.2673
   685.0000      0.0000    770.8541      7.5567    111.2639
   685.2500      0.0000    769.9465      7.5451    111.4504
   685.5000      0.0000    765.6654      7.5667    112.3772
   685.7500      0.0000    759.0341      7.6123    115.2508
   686.0000      0.0000    752.3401      7.6558    120.0262
   686.2500      0.0000    747.4179      7.6647    125.4608
   686.5000      0.0000    744.6812      7.6161    129.7628
   686.7500      0.0000    743.5244      7.5146    131.4412
   687.0000      0.0000    743.1871      7.3965    130.0368
   687.2500      0.0000    743.1971      7.3092    126.4595
   687.5000      0.0000    743.3613      7.2735    122.6096
   687.7500      0.0000    743.6003      7.2679    120.2118
   688.0000      0.0000    743.8442      7.2572    119.5491
   688.2500      0.0000    744.0110      7.2319    119.3362
   688.5000      0.0000    744.0339      7.2101    118.0870
   688.7500      0.0000    743.8936      7.2048    115.6254
   689.0000      0.0000    743.6320      7.2022    113.1457
   689.2500      0.0000    743.3307      7.1713    111.8578
   689.5000      0.0000    743.0728      7.0978    111.9392
   689.7500      0.0000    742.9122      7.0087    112.9814
   690.0000      0.0000    742.8605      6.9570    114.9117
   690.2500      0.0000    742.8903      6.9687    117.8168
   690.5000      0.0000    742.9902      7.0092    121.1598
   690.7500      0.0000    743.2678      7.0192    123.8937
   691.0000      0.0000    744.0303      6.9822    125.2965
   691.2500      0.0000    745.6523      6.9401    125.4207
   691.5000      0.0000    748.1106      6.9401    125.0744
   691.7500      0.0000    750.5548      6.9839    125.5645
   692.0000      0.0000    751.6581      7.0349    127.7081
   692.2500      0.0000    750.7394      7.0627    130.5139
   692.5000      0.0000    748.4128      7.0716    131.4802
   692.7500      0.0000    745.9363      7.0889    129.1114
   693.0000      0.0000    744.1417      7.1335    124.9291
   693.2500      0.0000    743.1301      7.1998    122.2440
   693.5000      0.0000    742.6544      7.2733    123.0572
   693.7500      0.0000    742.4658      7.3556    126.5915
   694.0000      0.0000    742.3700      7.4646    130.2758
   694.2500      0.0000    742.1384      7.6032    131.3820
   694.5000      0.0000    741.3381      7.7305    128.3990
   694.7500      0.0000    739.1413      7.7732    122.1442
   695.0000      0.0000    734.4747      7.6705    115.5816
   695.2500      0.0000    727.4442      7.4286    111.6240
