~Version Information
VERS.                      2.0: CWLS Log ASCII Standard - VERSION 2.0
WRAP.                       NO: One line per depth step
~Well Information Block
STRT.FT               575.0000: 
STOP.FT              1557.5000: 
STEP.FT                 0.1000: 
NULL.                -999.2500: 
COMP.          Pioneer Natural Resources: COMPANY
WELL.          McClaren 13-34 Tr: WELL
FLD.           Purgatoire River: FIELD
LOC.           1934' FSL & 826' FWL: LOCATION
PROV.                 Colorado: PROVINCE
CNTY.               Las Animas: COUNTRY
SRVC.                Patterson: SERVICE COMPANY
DATE.          Tue Jul 12 07:15:27 2005: LOG DATE
UWI.           05 071 08437 00: UNIQUE WELL ID
~Curve Information Block
DEPT.FT            0 000 00 00: Depth
DCAL.in                       : CDL Caliper
RHOB.g/cc                     : CDL Bulk Density
RHOC.g/cc                     : CDL Density Correction
DPOR.pu                       : CDL Density Porosity
GR.GAPI                       : Gamma Ray
NPOR.pu                       : Neutron Porosity
~Parameter Information Block
~A  Depth       DCAL        RHOB        RHOC        DPOR         GR         NPOR    
# ...
   901.4000      7.9212      2.5508      0.2033      6.0138     49.5957     15.6122
   901.5000      7.9195      2.5183      0.1450      7.9801     45.4505     15.1081
   901.6000      7.9195      2.4876      0.0844      9.8394     46.2320     14.9925
   901.7000      7.9195      2.4831      0.0583     10.1170     52.5240     15.2293
   901.8000      7.9180      2.5104      0.0350      8.4623     57.3805     15.9386
   901.9000      7.9180      2.5650      0.0619      5.1541     56.1508     16.9565
   902.0000      7.9180      2.6253      0.1289      1.4967     52.8598     17.5431
   902.1000      7.9180      2.6634      0.1180     -0.8120     53.5420     17.5129
   902.2000      7.9180      2.6771      0.1224     -1.6410     56.7318     17.6062
   902.3000      7.9185      2.6768      0.1634     -1.6217     59.3088     18.1677
   902.4000      7.9185      2.6626      0.1256     -0.7610     62.1110     18.9341
   902.5000      7.9193      2.6342      0.0949      0.9583     64.3467     19.7117
   902.6000      7.9193      2.5925      0.0321      3.4856     64.4695     20.3391
   902.7000      7.9193      2.5404     -0.0173      6.6420     64.1327     20.7182
   902.8000      7.9198      2.4911     -0.0704      9.6305     64.2947     20.8845
   902.9000      7.9198      2.4616     -0.0322     11.4161     65.4384     20.8872
   903.0000      7.9193      2.4603     -0.0296     11.4978     69.5373     20.9654
   903.1000      7.9193      2.4828      0.0307     10.1356     75.0176     21.2312
   903.2000      7.9193      2.5122      0.0028      8.3517     78.7066     21.0721
   903.3000      7.9191      2.5327      0.0420      7.1115     82.0057     20.1415
   903.4000      7.9191      2.5410      0.0223      6.6084     86.4486     18.9360
   903.5000      7.9192      2.5404      0.0634      6.6406     91.4176     18.0281
   903.6000      7.9192      2.5330      0.0378      7.0928     96.9694     17.8747
   903.7000      7.9192      2.5251      0.0480      7.5706    101.6850     18.4400
   903.8000      7.9177      2.5232      0.0561      7.6849    102.7558     18.8908
   903.9000      7.9177      2.5231      0.0760      7.6910     98.5251     18.5494
   904.0000      7.9128      2.5139      0.0943      8.2514     90.0545     17.6793
   904.1000      7.9128      2.4879      0.0998      9.8247     81.6979     17.0229
   904.2000      7.9128      2.4556      0.0547     11.7836     78.0089     16.8160
   904.3000      7.9059      2.4425      0.0957     12.5784     77.6992     16.5207
   904.4000      7.9059      2.4541      0.0972     11.8743     76.2866     15.9785
   904.5000      7.9034      2.4719      0.1257     10.7967     74.4647     15.6205
   904.6000      7.9034      2.4816      0.1205     10.2053     73.9339     15.5106
   904.7000      7.9034      2.4882      0.0720      9.8070     73.3154     15.2941
   904.8000      7.9119      2.5006      0.1034      9.0565     70.9613     14.8478
   904.9000      7.9119      2.5141      0.1071      8.2341     65.9208     14.4645
   905.0000      7.9267      2.5226      0.1079      7.7242     60.2725     14.4586
   905.1000      7.9267      2.5270      0.1008      7.4571     58.4558     14.7538
   905.2000      7.9267      2.5271      0.1203      7.4515     59.5565     14.9696
   905.3000      7.9357      2.5229      0.1068      7.7048     58.7949     14.9012
   905.4000      7.9357      2.5173      0.0997      8.0396     56.5430     14.9673
   905.5000      7.9383      2.5118      0.0934      8.3777     56.4910     15.5678
   905.6000      7.9383      2.5081      0.0609      8.6002     58.1631     16.2609
   905.7000      7.9383      2.4981      0.0959      9.2075     57.8906     16.5576
   905.8000      7.9383      2.4700      0.0401     10.9095     55.8296     16.6275
   905.9000      7.9383      2.4397      0.0032     12.7470     55.6763     16.4989
   906.0000      7.9371      2.4283      0.0279     13.4373     58.2179     16.0320
   906.1000      7.9371      2.4303      0.0469     13.3160     61.6323     15.5817
   906.2000      7.9371      2.4314      0.0462     13.2468     62.3686     15.5413
   906.3000      7.9369      2.4345      0.0059     13.0621     57.7154     15.7456
   906.4000      7.9369      2.4527      0.0121     11.9570     51.8591     15.9677
   906.5000      7.9381      2.4807      0.0725     10.2624     50.9236     16.3130
   906.6000      7.9381      2.5001      0.0478      9.0878     54.2571     16.8050
   906.7000      7.9381      2.5080      0.0466      8.6083     56.8746     17.1705
   906.8000      7.9388      2.5102      0.0620      8.4735     55.5928     17.3806
   906.9000      7.9388      2.5097      0.0596      8.5018     53.4109     17.4038
   907.0000      7.9385      2.5083      0.0516      8.5875     54.7628     17.2779
   907.1000      7.9385      2.5031      0.0830      8.9007     56.9892     17.4034
   907.2000      7.9385      2.4919      0.0847      9.5844     55.6866     17.7741
   907.3000      7.9383      2.4772      0.0453     10.4740     52.0214     17.9660
   907.4000      7.9383      2.4625      0.0284     11.3634     50.9533     17.8132
   907.5000      7.9381      2.4551      0.0248     11.8111     53.7140     17.7185
   907.6000      7.9381      2.4623      0.0296     11.3755     57.2422     17.9231
   907.7000      7.9381      2.4814      0.0281     10.2163     59.7221     18.2641
   907.8000      7.9378      2.5051      0.0459      8.7828     59.2529     18.3177
   907.9000      7.9378      2.5280      0.0779      7.3969     54.9525     17.8817
   908.0000      7.9378      2.5462      0.0651      6.2879     50.5213     17.7017
   908.1000      7.9378      2.5600      0.1098      5.4535     50.1895     18.3255
   908.2000      7.9378      2.5679      0.1185      4.9729     54.2927     19.3943
   908.3000      7.9377      2.5654      0.0985      5.1303     59.5138     20.3531
   908.4000      7.9377      2.5576      0.0731      5.6000     64.5007     20.7836
   908.5000      7.9372      2.5521      0.0848      5.9325     67.1998     20.4144
   908.6000      7.9372      2.5420      0.0544      6.5455     64.0709     19.5753
   908.7000      7.9372      2.5176      0.0538      8.0236     59.2905     18.7894
   908.8000      7.9361      2.4862     -0.0114      9.9256     57.9182     17.9960
   908.9000      7.9361      2.4637      0.0375     11.2901     58.7913     17.4144
   909.0000      7.9345      2.4509      0.0215     12.0681     61.4594     17.5131
   909.1000      7.9345      2.4461     -0.0055     12.3605     67.9769     17.9229
   909.2000      7.9345      2.4484      0.0339     12.2165     76.3449     18.2191
   909.3000      7.9333      2.4480      0.0118     12.2436     80.5089     18.3763
   909.4000      7.9333      2.4465      0.0201     12.3344     79.9435     18.1784
   909.5000      7.9328      2.4525      0.0960     11.9671     78.0443     17.6343
   909.6000      7.9328      2.4620      0.1104     11.3919     75.9703     17.3194
   909.7000      7.9328      2.4753      0.1241     10.5904     73.4480     17.6146
   909.8000      7.9330      2.4949      0.1458      9.4026     70.6722     17.8988
   909.9000      7.9330      2.5046      0.1439      8.8144     67.6625     17.1841
   910.0000      7.9346      2.4883      0.0904      9.7979     64.1001     15.7157
   910.1000      7.9346      2.4642      0.0373     11.2630     61.4021     14.7039
   910.2000      7.9346      2.4591      0.0905     11.5674     61.3669     14.2783
   910.3000      7.9362      2.4701      0.0456     10.9032     62.6548     13.5442
   910.4000      7.9362      2.4786      0.0650     10.3871     62.6449     12.5532
   910.5000      7.9370      2.4745      0.0299     10.6353     62.7368     11.9831
   910.6000      7.9370      2.4561      0.0355     11.7543     64.3181     11.6476
   910.7000      7.9370      2.4163      0.0739     14.1660     65.7628     11.0738
   910.8000      7.9388      2.3554      0.0165     17.8575     67.3175     10.3932
   910.9000      7.9388      2.2898      0.0374     21.8297     69.7587     10.0305
