~Version Information
VERS.                      2.0: CWLS Log ASCII Standard - VERSION 2.0
WRAP.                       NO: One line per depth step
~Well Information Block
STRT.FT                -6.7500: 
STOP.FT              1121.2500: 
STEP.FT                 0.2500: 
NULL.                -999.2500: 
COMP.          Pioneer Natural Resources: COMPANY
WELL.              Draco 31-21: WELL
FLD.           Purgatorie River: FIELD
LOC.           491' FNL & 2446' FEL--: LOCATION
CNTY.               Las Animas: COUNTY
SRVC.          Patterson Wireline: SERVICE COMPANY
DATE.          Mon Feb 06 09:50:04 2006: LOG DATE
UWI.           05 071 08672 00: UNIQUE WELL ID
STAT.                       CO: STATE
~Curve Information Block
DEPT.FT            0 000 00 00: Depth
CCL.                          : Casing Collar Locator
TT3.usec                      : CBL 3' Travel Time
AMP3.mV                       : CBL 3' Amplitude
GR.GAPI                       : Gamma Ray
~Parameter Information Block
~A  Depth       CCL         TT3         AMP3         GR     
# ...
   227.7500      0.0000    726.4515     12.1095    106.5655
   228.0000      0.0000    726.9799     12.3043    105.9765
   228.2500      0.0000    724.9316     12.5212    104.6870
   228.5000      0.0000    718.1215     12.7326    103.2977
   228.7500      0.0000    703.7081     12.9227    102.5043
   229.0000      0.0000    682.1390     13.0840    102.9786
   229.2500      0.0000    660.9608     13.1993    104.5002
   229.5000      0.0000    651.8676     13.2424    105.6562
   229.7500      0.0000    660.7620     13.2063    104.8608
   230.0000      0.0000    681.8735     13.1190    101.5986
   230.2500      0.0000    703.6280     13.0201     96.7018
   230.5000      0.0000    718.5118     12.9279     91.6500
   230.7500      0.0000    726.0006     12.8355     87.5177
   231.0000      0.0000    728.9085     12.7334     84.3745
   231.2500      0.0000    729.7034     12.6269     81.7325
   231.5000      0.0000    729.2849     12.5331     79.4696
   231.7500      0.0000    726.7424     12.4623     77.9740
   232.0000      0.0000    718.9893     12.4064     77.4255
   232.2500      0.0000    701.4251     12.3517     77.4167
   232.5000      0.0000    671.5276     12.3064     77.4801
   232.7500      0.0000    633.6877     12.3089     77.6643
   233.0000      0.0000    598.3173     12.3951     78.2302
   233.2500      0.0000    572.8013     12.5559     78.9040
   233.5000      0.0000    554.6888     12.7355     78.7991
   233.7500      0.0000    536.9604     12.8748     77.2128
   234.0000      0.0000    517.7035     12.9561     74.2437
   234.2500      0.0000    500.9656     13.0113     70.5615
   234.5000      0.0000    490.3586     13.0929     66.9683
   234.7500      0.0000    485.5107     13.2361     64.3243
   235.0000      0.0000    483.7120     13.4379     63.3801
   235.2500      0.0000    482.3442     13.6672     64.1477
   235.5000      0.0000    479.4989     13.8913     65.5717
   235.7500      0.0000    473.8157     14.0939     66.3379
   236.0000      0.0000    464.9359     14.2691     66.0735
   236.2500      0.0000    453.9809     14.4060     65.3529
   236.5000      0.0000    442.2837     14.4944     64.5982
   236.7500      0.0000    429.1315     14.5452     63.4501
   237.0000      0.0000    412.4013     14.5932     61.1794
   237.2500      0.0000    392.3322     14.6723     57.4208
   237.5000      0.0000    373.3004     14.7942     52.6497
   237.7500      0.0000    361.5313     14.9423     48.1413
   238.0000      0.0000    363.2029     15.0609     45.2169
   238.2500      0.0000    384.9125     15.0567     44.3314
   238.5000      0.0000    431.8176     14.8479     44.9537
   238.7500      0.0000    501.2708     14.4326     46.2010
   239.0000      0.0000    579.2012     13.8994     47.3991
   239.2500      0.0000    646.7110     13.3694     48.1857
   239.5000      0.0000    691.5720     12.9332     48.3698
   239.7500      0.0000    712.4070     12.6285     47.8959
   240.0000      0.0000    712.8661     12.4531     47.0878
   240.2500      0.0000    695.0581     12.3875     46.7155
   240.5000      0.0000    661.0995     12.4038     47.3671
   240.7500      0.0000    620.7047     12.4539     48.7318
   241.0000      0.0000    592.8546     12.4655     49.7901
   241.2500      0.0000    593.9664     12.3750     49.6554
   241.5000      0.0000    623.3795     12.1711     48.0093
   241.7500      0.0000    664.0748     11.8986     44.9945
   242.0000      0.0000    697.9934     11.6209     41.1610
   242.2500      0.0000    717.9643     11.3896     37.4423
   242.5000      0.0000    726.6665     11.2411     34.7729
   242.7500      0.0000    729.5049     11.2005     33.6349
   243.0000      0.0000    730.1880     11.2743     34.0918
   243.2500      0.0000    730.3083     11.4368     36.0176
   243.5000      0.0000    730.3310     11.6338     38.9296
   243.7500      0.0000    730.3580     11.8124     41.7929
   244.0000      0.0000    730.4105     11.9582     43.5742
   244.2500      0.0000    730.4783     12.0958     44.0378
   244.5000      0.0000    730.5455     12.2469     43.6542
   244.7500      0.0000    730.6050     12.3953     42.9262
   245.0000      0.0000    730.6502     12.5037     42.1687
   245.2500      0.0000    730.6536     12.5549     41.6126
   245.5000      0.0000    730.5494     12.5644     41.2453
   245.7500      0.0000    730.2181     12.5546     40.7748
   246.0000      0.0000    729.2132     12.5325     40.1099
   246.2500      0.0000    725.9580     12.4969     39.6368
   246.5000      0.0000    716.4395     12.4543     39.7029
   246.7500      0.0000    693.7919     12.4235     40.0250
   247.0000      0.0000    651.3043     12.4269     39.9348
   247.2500      0.0000    588.9212     12.4781     39.0782
   247.5000      0.0000    517.5817     12.5678     37.5370
   247.7500      0.0000    455.2109     12.6667     35.3777
   248.0000      0.0000    417.2941     12.7451     32.6340
   248.2500      0.0000    410.8658     12.7889     29.8090
   248.5000      0.0000    433.3491     12.7954     27.8269
   248.7500      0.0000    471.7769     12.7636     27.2961
   249.0000      0.0000    505.1728     12.7005     28.1005
   249.2500      0.0000    516.6144     12.6299     29.7237
   249.5000      0.0000    506.4960     12.5841     31.6627
   249.7500      0.0000    489.2190     12.5834     33.4596
   250.0000      0.0000    475.2830     12.6316     34.6702
   250.2500      0.0000    461.9716     12.7256     35.1369
   250.5000      0.0000    442.7628     12.8642     35.2179
   250.7500      0.0000    418.8156     13.0477     35.4698
   251.0000      0.0000    396.9810     13.2756     36.1017
   251.2500      0.0000    381.1777     13.5445     37.1128
   251.5000      0.0000    370.4991     13.8451     39.1018
   251.7500      0.0000    363.9363     14.1532     43.3938
   252.0000      0.0000    363.8385     14.4261     50.8629
   252.2500      0.0000    374.2291     14.6152     60.8284
   252.5000      0.0000    395.3593     14.7010     71.3998
   252.7500      0.0000    419.1683     14.7301     80.6341
   253.0000      0.0000    431.9412     14.8157     87.2272
   253.2500      0.0000    424.7231     15.0759     90.6886
   253.5000      0.0000    400.9884     15.5436     91.2474
   253.7500      0.0000    372.7949     16.1210     89.3351
   254.0000      0.0000    350.8814     16.6267     85.0987
   254.2500      0.0000    339.7017     16.8940     78.7293
   254.5000      0.0000    339.7065     16.8408     71.1254
   254.7500      0.0000    351.6557     16.4788     63.7345
   255.0000      0.0000    377.8398     15.8923     57.6460
   255.2500      0.0000    417.8847     15.2102     53.1719
   255.5000      0.0000    462.1834     14.5710     50.3341
   255.7500      0.0000    492.2011     14.0783     49.3264
   256.0000      0.0000    492.9426     13.7614     50.2240
   256.2500      0.0000    466.3704     13.5679     52.4347
   256.5000      0.0000    429.5391     13.4058     54.8146
   256.7500      0.0000    399.7257     13.2140     56.3961
   257.0000      0.0000    384.4365     12.9975     56.8704
   257.2500      0.0000    384.8370     12.7962     56.3512
   257.5000      0.0000    403.2062     12.6273     54.8746
   257.7500      0.0000    442.5374     12.4673     52.4286
   258.0000      0.0000    498.1396     12.2854     49.4996
   258.2500      0.0000    553.3096     12.0825     47.2061
   258.5000      0.0000    588.3606     11.8887     46.5132
   258.7500      0.0000    595.9580     11.7202     47.4222
   259.0000      0.0000    586.2130     11.5434     49.2194
   259.2500      0.0000    577.1257     11.3061     51.4722
   259.5000      0.0000    581.8888     11.0144     54.5522
   259.7500      0.0000    603.5698     10.7397     59.1466
   260.0000      0.0000    637.1729     10.5179     65.2566
   260.2500      0.0000    674.1631     10.2910     71.6514
   260.5000      0.0000    706.0908      9.9960     76.4279
   260.7500      0.0000    727.3917      9.6651     78.3704
   261.0000      0.0000    737.7659      9.3930     78.0402
