~Version Information
 VERS.                                  2.0 : CWLS LAS VERSION
 WRAP.                                   NO : WRAPING MODE
 SWARE .                 MController 2.5.0J : SOFTWARE VERSION
~Well Information
 WELL.                  Lorencito 8-1-34-67 : WELL
 COMP.                              Pioneer : COMPANY
 FLD.                      Purgatoire River : FIELD
 LOC.                    1567 FNL & 500 FEL : LOCATION
 DATE.                                  N/A : DATE(S) LOGGED
 SRVC.                                  N/A : SERVICE COMPANY
 STAT.                             Colorado : STATE
 CNTY.                           Las Animas : COUNTY
 CTRY.                                 USA  : COUNTRY
 API.                           05-071-08506 : API NUMBER
 STRT.FT                             201.00 : START DEPTH
 STOP.FT                            1673.00 : STOP DEPTH
 STEP.FT                               1.00 : DEPTH INCREMENT
 NULL.                                -9999 : NULL VALUE
~Curve information
 DEPTH.FT                                   :
 ROP.MIN/FT                                 :
 GAS.UNITS                                  :
~ASCII Log data
# ...
       601.0         0.50         27.5 
       602.0         0.53         28.5 
       603.0         0.70         27.8 
       604.0         0.88         27.0 
       605.0         0.73         26.2 
       606.0         0.57         25.9 
       607.0         0.53         26.1 
       608.0         0.53         26.3 
       609.0         0.43         26.3 
       610.0         0.38         26.3 
       611.0         0.57         26.0 
       612.0         0.97         25.7 
       613.0         0.57         25.0 
       614.0         0.80         26.3 
       615.0         0.78         32.7 
       616.0         0.37         31.0 
       617.0         0.40         26.0 
       618.0         0.27         24.1 
       619.0         0.27         26.3 
       620.0         0.27         31.4 
       621.0       181.60       8763.1 
       622.0         0.33         36.3 
       623.0         0.27         36.0 
       624.0         0.23         35.1 
       625.0         0.17         32.9 
       626.0         0.10         32.2 
       627.0         0.10         31.7 
       628.0         0.20         30.8 
       629.0         0.17         31.3 
       630.0         0.23         31.3 
       631.0         0.95         40.5 
       632.0         0.43         38.8 
       633.0         0.40         32.8 
       634.0         0.30         27.2 
       635.0         0.33         29.8 
       636.0         0.27         32.4 
       637.0         0.17         33.7 
       638.0         0.20         33.4 
       639.0         0.23         34.1 
       640.0         0.20         33.4 
       641.0         0.27         32.3 
       642.0         0.28         31.1 
       643.0         0.20         30.4 
       644.0         0.23         30.1 
       645.0         0.23         29.9 
       646.0         0.27         29.6 
       647.0         0.23         29.3 
       648.0         0.27         29.1 
       649.0         0.30         29.1 
       650.0         0.17         28.9 
       651.0         5.43        101.3 
       652.0         0.30         36.5 
       653.0         0.20         34.1 
       654.0         0.27         34.7 
       655.0         0.23         34.8 
       656.0         0.20         33.7 
       657.0         0.13         32.9 
       658.0         0.63         32.6 
       659.0         0.27         29.9 
       660.0         0.48         27.7 
       661.0         0.33         26.2 
       662.0         0.23         30.0 
       663.0         0.30         32.7 
       664.0         0.30         33.7 
       665.0         0.23         33.4 
       666.0         0.17         31.8 
       667.0         0.33         30.4 
       668.0         0.37         29.3 
       669.0         0.20         30.5 
       670.0         0.30         38.4 
       671.0         0.32         41.4 
       672.0         0.40         41.2 
       673.0         0.53         39.3 
       674.0         0.53         35.9 
       675.0         0.50         34.8 
       676.0         0.53         34.3 
       677.0         0.50         33.2 
       678.0         0.52         32.8 
       679.0         0.37         31.7 
       680.0         0.40         31.8 
       681.0         5.73        156.3 
       682.0         0.57        208.9 
       683.0         0.53        123.8 
       684.0         0.30         55.8 
       685.0         0.27         46.2 
       686.0         0.30         43.6 
       687.0         0.27         38.6 
       688.0         0.27         35.4 
       689.0         0.27         35.1 
       690.0         0.27         34.4 
       691.0         0.28         33.6 
       692.0         0.27         32.6 
       693.0         0.27         32.0 
       694.0         0.23         31.5 
       695.0         0.27         31.2 
       696.0         0.33         30.7 
       697.0         0.17         30.4 
       698.0         0.17         30.7 
       699.0         0.23         30.7 
       700.0         0.23         30.4 
       701.0         0.37         28.3 
       702.0         0.17         26.2 
       703.0         0.20         26.1 
       704.0         0.35         27.5 
       705.0         4.82         42.6 
       706.0         0.30         43.9 
       707.0         0.33         42.8 
       708.0         0.30         36.9 
       709.0         0.30         33.5 
       710.0         0.33         32.7 
       711.0         7.25        100.4 
       712.0         0.37         35.2 
       713.0         0.33         32.4 
       714.0         0.33         36.0 
       715.0         0.37         38.1 
       716.0         0.33         37.7 
       717.0         0.37         34.8 
       718.0         0.30         32.5 
       719.0         0.40         30.8 
       720.0         0.32         30.2 
       721.0         0.37         29.4 
       722.0         0.30         28.9 
       723.0         0.30         29.3 
       724.0         0.33         29.8 
       725.0         0.40         29.6 
       726.0         0.30         28.9 
       727.0         0.27         29.3 
       728.0         0.30         29.7 
       729.0         0.33         29.3 
       730.0         0.38         28.6 
       731.0         0.37         28.3 
       732.0         0.30         29.2 
       733.0         0.30         29.4 
       734.0         0.40         29.4 
       735.0         0.33         28.9 
       736.0         0.27         28.3 
       737.0         0.30         29.4 
       738.0         0.33         29.4 
       739.0         0.33         28.9 
       740.0         0.32         28.1 
       741.0         6.67        100.2 
       742.0         0.30         35.3 
       743.0         0.20         37.7 
       744.0         0.23         40.0 
       745.0         0.20         40.3 
       746.0         0.20         38.9 
       747.0         0.17         36.6 
       748.0         0.17         34.9 
       749.0         0.20         33.8 
       750.0         0.23         33.1 
       751.0         0.27         32.0 
       752.0         0.23         32.4 
       753.0         0.23         34.9 
       754.0         0.23         36.5 
       755.0         0.25         36.6 
       756.0         0.27         35.6 
       757.0         0.27         33.2 
       758.0         0.27         31.8 
       759.0         0.27         30.4 
       760.0         0.30         29.5 
       761.0         0.23         29.3 
       762.0         0.30         28.8 
       763.0         0.23         28.9 
       764.0         0.27         28.6 
       765.0         0.30         28.4 
       766.0         0.30         28.3 
       767.0         0.28         28.2 
       768.0         0.40         28.3 
       769.0         0.33         28.0 
       770.0         0.33         28.2 
       771.0         3.15         61.9 
       772.0         0.47         43.9 
       773.0         0.33         43.0 
       774.0         0.37         37.9 
       775.0         0.37         34.4 
       776.0         0.33         33.6 
       777.0         0.30         33.3 
       778.0         0.32         31.4 
       779.0         0.30         30.2 
       780.0         0.27         28.8 
       781.0         0.33         29.3 
       782.0         0.27         29.3 
       783.0         0.30         29.1 
       784.0         0.30         28.8 
       785.0         0.30         28.4 
       786.0         0.30         28.0 
       787.0         0.30         27.6 
       788.0         0.32         27.3 
       789.0         0.30         27.0 
       790.0         0.30         26.7 
       791.0         0.27         26.9 
       792.0         0.30         26.9 
       793.0         0.27         27.2 
       794.0         0.30         27.3 
       795.0         0.23         27.1 
       796.0         0.25         27.4 
       797.0         0.27         27.5 
       798.0         0.27         27.5 
       799.0         0.27         27.2 
       800.0         0.37         26.6 
