~Version Information
VERS.                      2.0: CWLS Log ASCII Standard - VERSION 2.0
WRAP.                       NO: One line per depth step
~Well Information Block
STRT.FT                -7.7500: 
STOP.FT              1420.5000: 
STEP.FT                 0.2500: 
NULL.                -999.2500: 
COMP.          Pioneer Natural Resources: COMPANY
WELL.          Parklane 43-34 Tr: WELL
FLD.           Purgatorie River: FIELD
LOC.           1643' FSL & 966' FEL--: LOCATION
PROV.                       CO: PROVINCE
CNTY.               Las Animas: COUNTRY
SRVC.          Patterson Wireline: SERVICE COMPANY
DATE.          Tue Aug 02 11:35:27 2005: LOG DATE
UWI.           05 071 08452 00: UNIQUE WELL ID
~Curve Information Block
DEPT.FT            0 000 00 00: Depth
CCL.                          : Casing Collar Locator
TT3.usec                      : CBL 3' Travel Time
AMP3.mV                       : CBL 3' Amplitude
GR.GAPI                       : Gamma Ray
~Parameter Information Block
~A  Depth       CCL         TT3         AMP3         GR     
# ...
  1030.7500      0.0000    511.4958     10.2854     55.2066
  1031.0000      0.0000    529.4177     10.1579     55.7357
  1031.2500      0.0000    569.6867     10.0273     55.6117
  1031.5000      0.0000    626.4883      9.8958     54.3734
  1031.7500      0.0000    680.1766      9.7750     52.1505
  1032.0000      0.0000    715.6766      9.6793     49.4353
  1032.2500      0.0000    731.9602      9.6132     46.5662
  1032.5000      0.0000    736.5227      9.5674     43.6501
  1032.7500      0.0000    736.3901      9.5269     40.9614
  1033.0000      0.0000    735.1200      9.4844     39.0947
  1033.2500      0.0000    734.3992      9.4455     38.5889
  1033.5000      0.0000    735.3268      9.4201     39.5257
  1033.7500      0.0000    738.0103      9.4136     41.5768
  1034.0000      0.0000    741.4084      9.4276     44.4005
  1034.2500      0.0000    744.2327      9.4685     48.0469
  1034.5000      0.0000    745.8581      9.5473     53.0235
  1034.7500      0.0000    746.3170      9.6697     59.9059
  1035.0000      0.0000    745.8948      9.8273     68.7584
  1035.2500      0.0000    745.0649      9.9977     78.6266
  1035.5000      0.0000    744.6379     10.1528     87.3858
  1035.7500      0.0000    745.4121     10.2663     92.4664
  1036.0000      0.0000    747.2004     10.3198     92.3396
  1036.2500      0.0000    748.4625     10.3097     87.6221
  1036.5000      0.0000    747.6771     10.2520     80.8887
  1036.7500      0.0000    745.2180     10.1784     75.5950
  1037.0000      0.0000    743.1732     10.1216     74.7289
  1037.2500      0.0000    743.0860     10.1018     79.3708
  1037.5000      0.0000    744.4649     10.1227     87.8120
  1037.7500      0.0000    745.5453     10.1779     96.5696
  1038.0000      0.0000    744.8120     10.2585    103.1233
  1038.2500      0.0000    741.7515     10.3552    107.6665
  1038.5000      0.0000    736.9816     10.4537    111.8012
  1038.7500      0.0000    732.0105     10.5342    115.9658
  1039.0000      0.0000    728.3220     10.5788    118.8652
  1039.2500      0.0000    726.2081     10.5820    119.1700
  1039.5000      0.0000    724.6956     10.5502    117.0260
  1039.7500      0.0000    722.7883     10.4924    113.9929
  1040.0000      0.0000    720.5010     10.4125    112.0483
  1040.2500      0.0000    718.5646     10.3125    112.5496
  1040.5000      0.0000    717.5864     10.1989    115.6448
  1040.7500      0.0000    717.8850     10.0845    120.3770
  1041.0000      0.0000    719.9999      9.9819    125.1504
  1041.2500      0.0000    724.9811      9.8948    128.3147
  1041.5000      0.0000    733.7188      9.8173    128.9046
  1041.7500      0.0000    745.5627      9.7399    127.2075
  1042.0000      0.0000    757.7516      9.6582    124.4641
  1042.2500      0.0000    766.7042      9.5767    121.8579
  1042.5000      0.0000    769.8998      9.5104    119.8348
  1042.7500      0.0000    766.5276      9.4807    118.3701
  1043.0000      0.0000    757.3854      9.5045    117.6549
  1043.2500      0.0000    744.9976      9.5810    118.2159
  1043.5000      0.0000    732.9787      9.6883    120.2974
  1043.7500      0.0000    724.1031      9.7948    123.3319
  1044.0000      0.0000    718.8787      9.8722    126.0377
  1044.2500      0.0000    715.9855      9.9012    126.8408
  1044.5000      0.0000    713.7330      9.8688    124.5049
  1044.7500      0.0000    711.3412      9.7669    119.0189
  1045.0000      0.0000    709.5267      9.5976    111.9402
  1045.2500      0.0000    710.0303      9.3805    105.4667
  1045.5000      0.0000    713.9648      9.1475    101.1068
  1045.7500      0.0000    720.2061      8.9234     99.0355
  1046.0000      0.0000    726.0273      8.7106     98.0610
  1046.2500      0.0000    730.5722      8.4884     96.1791
  1046.5000      0.0000    737.7031      8.2301     91.8588
  1046.7500      0.0000    753.3453      7.9322     85.2706
  1047.0000      0.0000    778.7377      7.6392     78.2044
  1047.2500      0.0000    807.6568      7.4247     72.5790
  1047.5000      0.0000    831.2332      7.3257     69.0589
  1047.7500      0.0000    844.3398      7.3006     67.2954
  1048.0000      2.0000    847.0479      7.2699     67.2826
  1048.2500      0.0000    842.0752      7.2080     69.7900
  1048.5000      0.0000    832.3237      7.2074     75.3437
  1048.7500      0.0000    819.7110      7.4360     83.3461
  1049.0000      0.0000    804.8989      7.9769     92.4309
  1049.2500      0.0000    788.3013      8.6902    101.2349
  1049.5000      0.0000    771.4174      9.2909    108.6542
  1049.7500      0.0000    756.8428      9.6057    113.8345
  1050.0000      0.0000    747.2649      9.7063    116.3958
  1050.2500      0.0000    744.1786      9.7694    116.7429
  1050.5000      0.0000    746.2414      9.8729    115.9409
  1050.7500      0.0000    748.8640      9.9699    114.9103
  1051.0000      0.0000    747.1521      9.9999    113.5453
  1051.2500      0.0000    739.9919      9.9694    110.9557
  1051.5000      0.0000    730.6163      9.9386    106.6632
  1051.7500      0.0000    723.4084      9.9607    101.1074
  1052.0000      0.0000    721.1093     10.0424     95.0714
  1052.2500      0.0000    724.6393     10.1535     89.3236
  1052.5000      0.0000    733.5081     10.2630     84.8227
  1052.7500      0.0000    744.9581     10.3577     82.3982
  1053.0000      0.0000    753.6299     10.4314     81.9123
  1053.2500      0.0000    754.4703     10.4710     82.2676
  1053.5000      0.0000    747.2928     10.4601     82.5800
  1053.7500      0.0000    737.7665     10.3966     82.9929
  1054.0000      0.0000    733.0784     10.3076     83.9937
  1054.2500      0.0000    736.3400     10.2434     85.0184
  1054.5000      0.0000    744.7152     10.2446     84.0388
  1054.7500      0.0000    752.7272     10.3105     78.9476
  1055.0000      0.0000    757.7422     10.3999     69.5688
  1055.2500      0.0000    761.8307     10.4650     58.1490
  1055.5000      0.0000    767.1206     10.4923     47.6896
  1055.7500      0.0000    769.9317     10.5261     39.9527
  1056.0000      0.0000    762.0367     10.6549     35.0752
  1056.2500      0.0000    738.8399     10.9464     32.5231
  1056.5000      0.0000    705.0344     11.3693     31.8170
  1056.7500      0.0000    671.6072     11.7921     32.4700
  1057.0000      0.0000    648.4150     12.0785     33.8323
  1057.2500      0.0000    640.0909     12.1805     35.3583
  1057.5000      0.0000    646.9062     12.1337     36.9694
  1057.7500      0.0000    666.4761     11.9875     38.9378
  1058.0000      0.0000    694.1838     11.7617     41.3908
  1058.2500      0.0000    724.3231     11.4631     44.0864
  1058.5000      0.0000    752.4905     11.1209     46.7509
  1058.7500      0.0000    776.2618     10.7915     49.5564
  1059.0000      0.0000    793.7036     10.5247     53.1722
  1059.2500      0.0000    803.1677     10.3271     58.3025
  1059.5000      0.0000    804.7006     10.1644     65.2857
  1059.7500      0.0000    799.8374      9.9981     74.2036
  1060.0000      0.0000    789.8350      9.8186     85.0441
  1060.2500      0.0000    775.7933      9.6479     97.4155
  1060.5000      0.0000    760.5220      9.5198    110.1193
  1060.7500      0.0000    748.0828      9.4607    121.1594
  1061.0000      0.0000    740.3914      9.4813    128.4548
  1061.2500      0.0000    735.6409      9.5687    130.9891
  1061.5000      0.0000    730.9504      9.6827    129.4269
  1061.7500      0.0000    725.5375      9.7721    125.4328
  1062.0000      0.0000    720.6147      9.8033    120.4477
  1062.2500      0.0000    717.3101      9.7733    115.4001
  1062.5000      0.0000    715.6375      9.6987    111.3343
  1062.7500      0.0000    714.9727      9.6008    109.5641
  1063.0000      0.0000    714.7495      9.5029    110.8893
  1063.2500      0.0000    714.7137      9.4290    114.8254
  1063.5000      0.0000    714.8349      9.3921    119.7655
  1063.7500      0.0000    715.1733      9.3849    123.9140
  1064.0000      0.0000    715.8953      9.3872    126.2476
