~Version Information
VERS.                      2.0: CWLS Log ASCII Standard - VERSION 2.0
WRAP.                       NO: One line per depth step
~Well Information Block
STRT.FT                -7.5000: 
STOP.FT              1572.0000: 
STEP.FT                 0.2500: 
NULL.                -999.2500: 
COMP.          Pioneer Natural Resources: COMPANY
WELL.          Galloway 32-13 Tr: WELL
FLD.           Purgatoire River: FIELD
LOC.           --1910' FNL & 2002' FEL----: LOCATION
PROV.                       CO: PROVINCE
CNTY.               Las Animas: COUNTRY
SRVC.          Patterson Wireline: SERVICE COMPANY
DATE.          Thu Nov 17 12:46:45 2005: LOG DATE
UWI.           05 071 08608 00: UNIQUE WELL ID
~Curve Information Block
DEPT.FT            0 000 00 00: Depth
CCL.                          : Casing Collar Locator
TT3.usec                      : CBL 3' Travel Time
AMP3.mV                       : CBL 3' Amplitude
GR.GAPI                       : Gamma Ray
~Parameter Information Block
~A  Depth       CCL         TT3         AMP3         GR     
# ...
   394.5000      0.0000    284.1226     43.0678     55.0569
   394.7500      0.0000    284.1289     43.2246     55.3166
   395.0000      0.0000    284.1219     43.5018     54.7253
   395.2500      0.0000    284.1101     43.8112     53.3996
   395.5000      0.0000    284.0887     44.0909     51.9347
   395.7500      0.0000    284.0461     44.3308     51.1608
   396.0000      0.0000    283.9745     44.5643     51.4409
   396.2500      0.0000    283.8778     44.8281     52.1819
   396.5000      0.0000    283.7701     45.1263     52.3147
   396.7500      0.0000    283.6680     45.4281     51.3381
   397.0000      0.0000    283.5832     45.6956     49.7841
   397.2500      0.0000    283.5202     45.9095     48.7599
   397.5000      0.0000    283.4786     46.0760     49.2304
   397.7500      0.0000    283.4580     46.2084     51.4473
   398.0000      0.0000    283.4623     46.2949     54.6031
   398.2500      0.0000    283.5049     46.2838     57.1313
   398.5000      0.0000    283.6373     46.1059     57.9020
   398.7500      0.0000    284.0309     45.6934     57.2434
   399.0000      0.0000    285.0930     44.9410     56.4416
   399.2500      0.0000    287.4665     43.6567     56.2601
   399.5000      0.0000    291.6670     41.6652     56.3391
   399.7500      0.0000    297.4888     39.0716     55.9088
   400.0000      0.0000    303.9185     36.3632     54.6007
   400.2500      0.0000    309.9478     34.0819     52.7046
   400.5000      0.0000    315.3279     32.3967     50.9826
   400.7500      0.0000    320.2256     31.1248     50.0571
   401.0000      0.0000    324.4626     30.0867     49.7401
   401.2500      0.0000    327.5666     29.2631     49.1217
   401.5000      0.0000    329.3661     28.6764     47.5739
   401.7500      2.0000    330.1252     28.3065     45.6471
   402.0000      0.0000    330.1514     28.1222     44.7012
   402.2500      0.0000    329.4478     28.1438     45.4410
   402.5000      0.0000    327.7234     28.4705     47.0216
   402.7500      0.0000    324.7422     29.2198     47.9279
   403.0000      0.0000    320.6857     30.3952     47.6603
   403.2500      0.0000    316.0025     31.8745     47.2505
   403.5000      0.0000    310.8338     33.5739     48.2754
   403.7500      0.0000    304.9886     35.4830     51.6072
   404.0000      0.0000    298.7021     37.4714     56.7659
   404.2500      0.0000    292.9680     39.2405     62.0066
   404.5000      0.0000    288.7911     40.5609     65.2219
   404.7500      0.0000    286.3898     41.4369     65.3640
   405.0000      0.0000    285.2782     42.0094     63.2637
   405.2500      0.0000    284.8394     42.4012     60.8478
   405.5000      0.0000    284.6756     42.6681     59.4037
   405.7500      0.0000    284.6119     42.8234     58.7320
   406.0000      0.0000    284.5911     42.8673     57.9252
   406.2500      0.0000    284.5943     42.8135     56.5358
   406.5000      0.0000    284.6107     42.6977     54.8754
   406.7500      0.0000    284.6327     42.5663     53.5342
   407.0000      0.0000    284.6545     42.4563     52.7962
   407.2500      0.0000    284.6734     42.3829     52.4123
   407.5000      0.0000    284.6880     42.3415     51.8543
   407.7500      0.0000    284.6971     42.3155     50.7801
   408.0000      0.0000    284.7012     42.2810     49.2879
   408.2500      0.0000    284.7036     42.2120     47.7972
   408.5000      0.0000    284.7098     42.0941     46.8659
   408.7500      0.0000    284.7228     41.9422     47.1460
   409.0000      0.0000    284.7383     41.8007     49.1847
   409.2500      0.0000    284.7470     41.7195     52.8542
   409.5000      0.0000    284.7405     41.7290     57.0286
   409.7500      0.0000    284.7161     41.8340     60.2562
   410.0000      0.0000    284.6754     42.0240     61.9944
   410.2500      0.0000    284.6231     42.2758     63.1414
   410.5000      0.0000    284.5666     42.5492     65.2869
   410.7500      0.0000    284.5150     42.7941     69.3780
   411.0000      0.0000    284.4742     42.9766     75.0016
   411.2500      0.0000    284.4433     43.1013     80.7584
   411.5000      0.0000    284.4161     43.2072     85.0616
   411.7500      0.0000    284.3853     43.3421     86.7760
   412.0000      0.0000    284.3462     43.5388     85.6832
   412.2500      0.0000    284.2973     43.8081     82.5481
   412.5000      0.0000    284.2409     44.1418     78.5988
   412.7500      0.0000    284.1849     44.5093     75.0185
   413.0000      0.0000    284.1424     44.8546     72.9235
   413.2500      0.0000    284.1249     45.1137     73.1638
   413.5000      0.0000    284.1330     45.2521     75.6942
   413.7500      0.0000    284.1532     45.2905     79.5391
   414.0000      0.0000    284.1660     45.2929     83.6697
   414.2500      0.0000    284.1564     45.3311     87.5955
   414.5000      0.0000    284.1206     45.4525     91.1599
   414.7500      0.0000    284.0642     45.6719     94.3978
   415.0000      0.0000    283.9940     45.9825     97.5124
   415.2500      0.0000    283.9147     46.3613    100.2691
   415.5000      0.0000    283.8326     46.7641    101.4521
   415.7500      0.0000    283.7567     47.1384     99.6527
   416.0000      0.0000    283.6940     47.4601     94.8396
   416.2500      0.0000    283.6414     47.7562     88.9139
   416.5000      0.0000    283.5879     48.0787     84.5881
   416.7500      0.0000    283.5237     48.4544     83.6735
   417.0000      0.0000    283.4476     48.8630     86.1728
   417.2500      0.0000    283.3669     49.2574     90.5527
   417.5000      0.0000    283.2917     49.6014     94.8356
   417.7500      0.0000    283.2283     49.8896     97.8910
   418.0000      0.0000    283.1772     50.1372    100.1470
   418.2500      0.0000    283.1358     50.3502    103.0710
   418.5000      0.0000    283.1030     50.5128    107.6011
   418.7500      0.0000    283.0808     50.6028    112.8360
   419.0000      0.0000    283.0725     50.6160    116.5157
   419.2500      0.0000    283.0792     50.5716    117.0300
   419.5000      0.0000    283.0987     50.5005    114.6644
   419.7500      0.0000    283.1272     50.4301    110.7383
   420.0000      0.0000    283.1604     50.3721    106.2399
   420.2500      0.0000    283.1945     50.3181    101.7777
   420.5000      0.0000    283.2262     50.2456     98.1552
   420.7500      0.0000    283.2533     50.1340     96.1597
   421.0000      0.0000    283.2774     49.9710     95.8154
   421.2500      0.0000    283.3046     49.7484     96.2150
   421.5000      0.0000    283.3413     49.4620     96.2619
   421.7500      0.0000    283.3897     49.1164     95.6284
   422.0000      0.0000    283.4482     48.7209     94.8841
   422.2500      0.0000    283.5140     48.2855     94.6530
   422.5000      0.0000    283.5838     47.8301     94.9624
   422.7500      0.0000    283.6533     47.3964     95.6006
   423.0000      0.0000    283.7173     47.0346     96.6828
   423.2500      0.0000    283.7727     46.7597     98.3332
   423.5000      0.0000    283.8241     46.5220    100.0023
   423.7500      0.0000    283.8838     46.2273    100.7145
   424.0000      0.0000    283.9647     45.7964    100.1804
   424.2500      0.0000    284.0719     45.2151     99.2283
   424.5000      0.0000    284.1984     44.5482     98.8835
   424.7500      0.0000    284.3280     43.9064     99.2742
   425.0000      0.0000    284.4445     43.3810     99.6359
   425.2500      0.0000    284.5396     42.9943     99.1335
   425.5000      0.0000    284.6160     42.7057     97.4328
   425.7500      0.0000    284.6831     42.4603     94.7982
   426.0000      0.0000    284.7493     42.2271     92.0467
   426.2500      0.0000    284.8177     42.0021     90.2264
   426.5000      0.0000    284.8835     41.7947     89.7981
   426.7500      0.0000    284.9362     41.6204     89.9798
   427.0000      0.0000    284.9661     41.4985     89.1816
   427.2500      0.0000    284.9701     41.4485     86.3771
   427.5000      0.0000    284.9523     41.4858     82.1092
   427.7500      0.0000    284.9194     41.6137     78.1582
