~Version Information
VERS.                      2.0: CWLS Log ASCII Standard - VERSION 2.0
WRAP.                       NO: One line per depth step
~Well Information Block
STRT.FT               315.0000: 
STOP.FT              1292.5000: 
STEP.FT                 0.1000: 
NULL.                -999.2500: 
COMP.          Pioneer Natural Resources: COMPANY
WELL.          Hot Tomatoes 22-20: WELL
FLD.           Purgatoire River: FIELD
LOC.           2120' FNL & 2585' FWL: LOCATION
CNTY.               Las Animas: COUNTY
SRVC.                Patterson: SERVICE COMPANY
DATE.          Mon Feb 27 07:06:41 2006: LOG DATE
UWI.           05 071 08701 00: UNIQUE WELL ID
STAT.                 Colorado: STATE
~Curve Information Block
DEPT.FT            0 000 00 00: Depth
DCAL.in                       : CDL Caliper
RHOB.g/cc                     : CDL Bulk Density
RHOC.g/cc                     : CDL Density Correction
DPOR.pu                       : CDL Density Porosity
GR.GAPI                       : Gamma Ray
NPOR.pu                       : Neutron Porosity
~Parameter Information Block
~A  Depth       DCAL        RHOB        RHOC        DPOR         GR         NPOR    
# ...
  1150.2000      7.7950      2.5680      0.0619      4.9688     98.3677     26.8570
  1150.3000      7.8004      2.5890      0.1269      3.6980     92.6149     26.9635
  1150.4000      7.8004      2.5856      0.0947      3.9056     87.5172     27.6333
  1150.5000      7.8248      2.5563      0.0556      5.6798     85.7661     28.3412
  1150.6000      7.8248      2.5229      0.0908      7.7007     89.6703     28.6231
  1150.7000      7.8248      2.4953      0.0404      9.3732     95.4915     28.5344
  1150.8000      7.8269      2.4734      0.0524     10.7031     97.7908     28.4531
  1150.9000      7.8269      2.4589     -0.0021     11.5799     96.5442     28.5003
  1151.0000      7.8254      2.4573      0.0109     11.6758     94.1161     28.7500
  1151.1000      7.8254      2.4776     -0.0192     10.4480     93.4422     29.3408
  1151.2000      7.8254      2.5218      0.0425      7.7669     92.8982     29.9988
  1151.3000      7.8233      2.5620      0.1445      5.3314     89.5441     30.0751
  1151.4000      7.8233      2.5712      0.1089      4.7761     86.9544     29.5266
  1151.5000      7.7825      2.5639      0.0883      5.2185     87.6808     28.8043
  1151.6000      7.7825      2.5614      0.1112      5.3672     89.3716     27.9660
  1151.7000      7.7825      2.5618      0.1123      5.3426     88.1524     27.1550
  1151.8000      7.7757      2.5597      0.0662      5.4708     84.5612     26.5645
  1151.9000      7.7757      2.5595      0.0497      5.4851     84.1848     25.7773
  1152.0000      7.7641      2.5645      0.0693      5.1807     86.2390     24.8546
  1152.1000      7.7641      2.5734      0.0368      4.6402     84.8997     24.6458
  1152.2000      7.7641      2.5806      0.0890      4.2072     79.4092     24.9859
  1152.3000      7.8046      2.5740      0.0802      4.6067     72.3648     24.8895
  1152.4000      7.8046      2.5586      0.0400      5.5421     65.3421     24.2864
  1152.5000      7.9093      2.5530      0.0182      5.8763     58.7747     23.4655
  1152.6000      7.9093      2.5576      0.0320      5.6016     53.2603     22.5699
  1152.7000      7.9093      2.5569      0.0653      5.6444     50.3611     21.7515
  1152.8000      7.9248      2.5481      0.0060      6.1731     49.6703     21.4385
  1152.9000      7.9248      2.5385      0.0661      6.7573     50.3544     22.0208
  1153.0000      7.9291      2.5288      0.0632      7.3466     52.9524     22.9454
  1153.1000      7.9291      2.5268     -0.0352      7.4695     56.1166     23.3916
  1153.2000      7.9291      2.5366      0.0555      6.8733     54.8159     22.8192
  1153.3000      7.9348      2.5441      0.0249      6.4189     48.3652     21.9198
  1153.4000      7.9348      2.5400      0.0531      6.6660     43.7052     21.8116
  1153.5000      7.9270      2.5272      0.0091      7.4405     44.5588     22.2928
  1153.6000      7.9270      2.5231     -0.0258      7.6900     47.1002     22.5535
  1153.7000      7.9270      2.5401      0.0618      6.6628     47.9543     22.6067
  1153.8000      7.8819      2.5596      0.0717      5.4796     49.0779     23.0588
  1153.9000      7.8819      2.5608      0.0584      5.4056     52.9242     23.6057
  1154.0000      7.8362      2.5458      0.0906      6.3172     58.3462     23.6711
  1154.1000      7.8362      2.5274      0.0486      7.4328     60.8848     23.5518
  1154.2000      7.8362      2.5183      0.0707      7.9825     58.4026     23.2765
  1154.3000      7.8303      2.5256      0.0033      7.5381     55.0540     23.0390
  1154.4000      7.8303      2.5460      0.0878      6.3018     53.2179     23.0689
  1154.5000      7.8241      2.5607      0.1000      5.4140     50.5456     22.8051
  1154.6000      7.8241      2.5559      0.0475      5.7041     46.7313     22.1756
  1154.7000      7.8241      2.5388      0.0461      6.7411     44.3778     21.9639
  1154.8000      7.8265      2.5245      0.0148      7.6033     41.9349     22.6707
  1154.9000      7.8265      2.5267      0.0168      7.4756     38.0139     23.3078
  1155.0000      7.8297      2.5451      0.0518      6.3598     37.6111     22.8220
  1155.1000      7.8297      2.5618      0.0686      5.3478     42.3154     21.8191
  1155.2000      7.8297      2.5637      0.0516      5.2290     46.0435     20.5671
  1155.3000      7.8272      2.5599      0.0158      5.4588     45.9153     18.9888
  1155.4000      7.8272      2.5636      0.0507      5.2349     46.3486     17.8485
  1155.5000      7.8285      2.5717      0.0561      4.7474     49.4523     17.5012
  1155.6000      7.8285      2.5666      0.0865      5.0563     50.8424     17.9425
  1155.7000      7.8285      2.5423      0.0410      6.5261     48.3738     19.2954
  1155.8000      7.8239      2.5199      0.0195      7.8854     46.7458     20.9209
  1155.9000      7.8239      2.5118      0.0871      8.3776     48.7634     21.9756
  1156.0000      7.8201      2.5024      0.0096      8.9457     52.4655     22.6397
  1156.1000      7.8201      2.4803     -0.0048     10.2873     56.4571     23.5038
  1156.2000      7.8201      2.4504     -0.0089     12.0958     61.7663     24.4064
  1156.3000      7.8324      2.4298     -0.0418     13.3457     67.9912     24.7796
  1156.4000      7.8324      2.4355     -0.0121     12.9997     71.7556     24.4951
  1156.5000      7.8515      2.4711     -0.0097     10.8447     72.6231     24.3117
  1156.6000      7.8515      2.5233      0.0862      7.6812     74.7614     24.9665
  1156.7000      7.8515      2.5643      0.1332      5.1962     80.1992     25.8892
  1156.8000      7.8703      2.5808      0.1623      4.1938     84.4067     26.4758
  1156.9000      7.8703      2.5831      0.1661      4.0569     84.5190     26.7833
  1157.0000      7.8332      2.5862      0.1089      3.8685     81.0074     26.5732
  1157.1000      7.8332      2.6001      0.1273      3.0259     74.9700     25.6346
  1157.2000      7.8332      2.6186      0.1115      1.9036     68.1637     24.3815
  1157.3000      7.7906      2.6321      0.1059      1.0854     63.2424     23.1100
  1157.4000      7.7906      2.6429      0.0947      0.4293     61.8278     21.9946
  1157.5000      7.7923      2.6460      0.1257      0.2422     61.6991     21.3886
  1157.6000      7.7923      2.6252      0.1429      1.5013     59.8738     21.6133
  1157.7000      7.7923      2.5894      0.0570      3.6721     56.4016     22.4793
  1157.8000      7.8344      2.5624      0.0216      5.3085     52.5963     23.5883
  1157.9000      7.8344      2.5458      0.0503      6.3126     49.0653     24.5346
  1158.0000      7.8554      2.5343      0.0210      7.0106     47.6275     24.3178
  1158.1000      7.8554      2.5323      0.0109      7.1351     49.2052     22.7248
  1158.2000      7.8554      2.5407      0.0350      6.6255     53.0151     21.3505
  1158.3000      7.8681      2.5504      0.0698      6.0381     57.3275     21.3848
  1158.4000      7.8681      2.5502      0.0325      6.0509     58.5279     22.4565
  1158.5000      7.8770      2.5387      0.0339      6.7433     55.1948     23.7018
  1158.6000      7.8770      2.5232      0.0133      7.6837     51.0430     24.5494
  1158.7000      7.8770      2.5092      0.0182      8.5358     50.7624     25.0355
  1158.8000      7.8715      2.4930      0.0428      9.5144     53.9323     25.3639
  1158.9000      7.8715      2.4681      0.0220     11.0247     56.3567     25.3365
  1159.0000      7.8735      2.4396     -0.0231     12.7501     58.1014     24.9593
  1159.1000      7.8735      2.4150      0.0329     14.2406     61.8961     24.7126
  1159.2000      7.8735      2.3960     -0.0170     15.3942     67.5785     24.6684
  1159.3000      7.8942      2.3898      0.0017     15.7705     72.5029     24.5805
  1159.4000      7.8942      2.3990     -0.0125     15.2131     76.2820     24.3965
  1159.5000      7.8954      2.4164      0.0442     14.1549     82.2661     24.0854
  1159.6000      7.8954      2.4327      0.1032     13.1715     91.9280     23.6412
  1159.7000      7.8954      2.4469      0.0930     12.3108     99.4994     23.0051
