~Version Information
VERS.                      2.0: CWLS Log ASCII Standard - VERSION 2.0
WRAP.                       NO: One line per depth step
~Well Information Block
STRT.FT               890.0000: 
STOP.FT              2097.0000: 
STEP.FT                 0.2500: 
NULL.                -999.2500: 
COMP.          Pioneer Natural Resources: COMPANY
WELL.          Greenwood 43-29 Tr: WELL
FLD.           Purgatoire River: FIELD
LOC.           1478' FSL & 744' FEL: LOCATION
STAT.                 Colorado: State
CNTY.               Las Animas: COUNTY
CTRY. USA : Country
SECT. 29 : Section
TOWN. 32S : Township
RANG. 67W : Range
SRVC.                Patterson: SERVICE COMPANY
DATE.          Wed Aug 31 08:07:28 2005: LOG DATE
API.           05 071 08478 00: UNIQUE WELL ID
~Curve Information Block
DEPT.FT            0 000 00 00: Depth
SN.Ohm-m                      : IEL Short Normal
SP.mV                         : IEL Spontaneous Potential
DIR.Ohm-m                     : IEL Induction Resistivity
GR.GAPI                       : Gamma Ray
~Parameter Information Block
~A  Depth        SN          SP         DIR          GR     
# ...
  1292.0000     19.6111   -140.8227     14.7455    118.4062
  1292.2500     19.2105   -141.6134     14.3438    120.1043
  1292.5000     18.8203   -142.3776     13.9602    124.6266
  1292.7500     18.3076   -143.0739     13.5821    128.7733
  1293.0000     17.6382   -143.6900     13.2069    135.1982
  1293.2500     16.8404   -144.2396     12.8453    138.5233
  1293.5000     15.9598   -144.7472     12.5178    140.9406
  1293.7500     15.0941   -145.2241     12.2468    140.9181
  1294.0000     14.3763   -145.6532     12.0507    139.5027
  1294.2500     13.8917   -146.0006     11.9422    138.3158
  1294.5000     13.6573   -146.2458     11.9289    136.6744
  1294.7500     13.6933   -146.4024     12.0151    135.5273
  1295.0000     14.0805   -146.5082     12.2004    133.4278
  1295.2500     14.8290   -146.6010     12.4776    131.9777
  1295.5000     15.7399   -146.7019     12.8317    130.6130
  1295.7500     16.5721   -146.8118     13.2429    130.5957
  1296.0000     17.2801   -146.9123     13.6948    131.6071
  1296.2500     18.0027   -146.9746     14.1830    132.3303
  1296.5000     18.8583   -146.9780     14.7165    132.3403
  1296.7500     19.8076   -146.9237     15.3113    131.3927
  1297.0000     20.7658   -146.8292     15.9837    128.8385
  1297.2500     21.7314   -146.7115     16.7447    126.5378
  1297.5000     22.7085   -146.5785     17.5972    122.3388
  1297.7500     23.6812   -146.4307     18.5312    119.5175
  1298.0000     24.6842   -146.2700     19.5221    116.7192
  1298.2500     25.7449   -146.1051     20.5401    116.2473
  1298.5000     26.8792   -145.9504     21.5649    116.6249
  1298.7500     28.1759   -145.8184     22.5898    116.4183
  1299.0000     29.7001   -145.7102     23.6036    114.0667
  1299.2500     31.3568   -145.6177     24.5688    111.1832
  1299.5000     32.9543   -145.5359     25.4233    105.8038
  1299.7500     34.3348   -145.4717     26.1061    101.9593
  1300.0000     35.4040   -145.4377     26.5807     96.0204
  1300.2500     36.1199   -145.4416     26.8378     92.0977
  1300.5000     36.4759   -145.4845     26.8942     87.3759
  1300.7500     36.4589   -145.5616     26.7997     86.1013
  1301.0000     36.0502   -145.6613     26.6363     88.5588
  1301.2500     35.2752   -145.7668     26.4894     93.1719
  1301.5000     34.2269   -145.8665     26.4077    102.8968
  1301.7500     33.0701   -145.9603     26.3786    109.7361
  1302.0000     32.0057   -146.0580     26.3322    118.2753
  1302.2500     31.1235   -146.1760     26.1764    122.0194
  1302.5000     30.3854   -146.3301     25.8515    124.1358
  1302.7500     29.8334   -146.5235     25.3768    123.3968
  1303.0000     29.5919   -146.7374     24.8552    120.3972
  1303.2500     29.6204   -146.9410     24.4235    118.1910
  1303.5000     29.6670   -147.1124     24.1895    115.8190
  1303.7500     29.5230   -147.2511     24.1982    115.0518
  1304.0000     29.2564   -147.3733     24.4331    114.9393
  1304.2500     29.1457   -147.4983     24.8368    115.4053
  1304.5000     29.3701   -147.6376     25.3297    116.6061
  1304.7500     29.8328   -147.7939     25.8270    117.3998
  1305.0000     30.2835   -147.9652     26.2559    117.6907
  1305.2500     30.5790   -148.1499     26.5713    116.8866
  1305.5000     30.8274   -148.3445     26.7547    114.3370
  1305.7500     31.2483   -148.5370     26.7986    112.1607
  1306.0000     31.9162   -148.7075     26.7002    108.5254
  1306.2500     32.7098   -148.8391     26.4797    105.7582
  1306.5000     33.4492   -148.9299     26.2026    101.3924
  1306.7500     33.9922   -148.9962     25.9705     99.1759
  1307.0000     34.2612   -149.0672     25.8801     98.8218
  1307.2500     34.2797   -149.1766     25.9817    101.1368
  1307.5000     34.1561   -149.3525     26.2632    107.4101
  1307.7500     33.9401   -149.6048     26.6607    112.0098
  1308.0000     33.6032   -149.9184     27.0880    117.4424
  1308.2500     33.2176   -150.2601     27.4699    119.7636
  1308.5000     32.9755   -150.5964     27.7617    121.4701
  1308.7500     33.1060   -150.9044     27.9491    121.0788
  1309.0000     33.8293   -151.1712     28.0430    116.9361
  1309.2500     35.1850   -151.3889     28.0836    111.6508
  1309.5000     36.9791   -151.5482     28.1401    101.6031
  1309.7500     39.0241   -151.6304     28.2841     94.9905
  1310.0000     41.2369   -151.6046     28.5406     87.1251
  1310.2500     43.5092   -151.4391     28.8508     83.7703
  1310.5000     45.7090   -151.1207     29.0794     81.8157
  1310.7500     47.7326   -150.6626     29.0719     82.4196
  1311.0000     49.3594   -150.0935     28.7420     85.3998
  1311.2500     50.1680   -149.4434     28.1266     88.1664
  1311.5000     49.7658   -148.7375     27.3628     92.7480
  1311.7500     47.9713   -148.0000     26.5973     95.9387
  1312.0000     44.8048   -147.2538     25.8998    100.9671
  1312.2500     40.6735   -146.5168     25.2421    104.4674
  1312.5000     36.3986   -145.7986     24.5470    109.3769
  1312.7500     32.5897   -145.1025     23.7641    111.7744
  1313.0000     29.2695   -144.4295     22.9099    113.2846
  1313.2500     26.3399   -143.7782     22.0436    113.1786
  1313.5000     23.8853   -143.1424     21.2193    112.8559
  1313.7500     21.9285   -142.5150     20.4620    113.2339
  1314.0000     20.4135   -141.8978     19.7768    114.4549
  1314.2500     19.4260   -141.3092     19.1670    114.9827
  1314.5000     19.1015   -140.7800     18.6403    114.6066
  1314.7500     19.3852   -140.3358     18.2031    113.8499
  1315.0000     20.0319   -139.9790     17.8535    112.9784
  1315.2500     20.7643   -139.6898     17.5820    112.8854
  1315.5000     21.3904   -139.4472     17.3747    113.0687
  1315.7500     21.8147   -139.2457     17.2143    112.9016
  1316.0000     22.0044   -139.0935     17.0782    111.8420
  1316.2500     22.0094   -139.0003     16.9386    110.8843
  1316.5000     21.9341   -138.9683     16.7712    109.9119
  1316.7500     21.7984   -138.9868     16.5640    109.9271
  1317.0000     21.5253   -139.0326     16.3203    111.3462
  1317.2500     21.0951   -139.0789     16.0529    113.3979
  1317.5000     20.5642   -139.1086     15.7740    117.8770
  1317.7500     19.9717   -139.1206     15.4898    121.1196
  1318.0000     19.3662   -139.1262     15.2016    124.9139
  1318.2500     18.7966   -139.1397     14.9112    126.2758
  1318.5000     18.2292   -139.1692     14.6256    126.8702
  1318.7500     17.6098   -139.2153     14.3574    126.8593
  1319.0000     16.9667   -139.2754     14.1200    126.9809
  1319.2500     16.3666   -139.3472     13.9240    127.1741
  1319.5000     15.8845   -139.4273     13.7747    127.3388
  1319.7500     15.6144   -139.5055     13.6716    127.4125
  1320.0000     15.5967   -139.5605     13.6080    127.9514
  1320.2500     15.7779   -139.5607     13.5745    128.7028
  1320.5000     16.0711   -139.4743     13.5650    129.7739
  1320.7500     16.3807   -139.2873     13.5812    129.8035
  1321.0000     16.5504   -139.0172     13.6335    128.2480
  1321.2500     16.4030   -138.7073     13.7350    126.5342
  1321.5000     15.9542   -138.4027     13.8955    124.5629
  1321.7500     15.5158   -138.1255     14.1163    124.5074
  1322.0000     15.4778   -137.8664     14.3924    126.7615
  1322.2500     16.0499   -137.5990     14.7203    129.4774
  1322.5000     17.1770   -137.3021     15.1041    134.1665
  1322.7500     18.5942   -136.9772     15.5532    136.9171
  1323.0000     20.0236   -136.6508     16.0749    139.5486
  1323.2500     21.3700   -136.3646     16.6721    140.0481
  1323.5000     22.7159   -136.1559     17.3510    138.2451
  1323.7500     24.2215   -136.0383     18.1310    134.6381
  1324.0000     26.0322   -135.9960     19.0400    124.9529
  1324.2500     28.2034   -135.9970     20.0933    116.1956
  1324.5000     30.7767   -136.0140     21.2674    101.6984
  1324.7500     33.8476   -136.0373     22.4917     92.3230
  1325.0000     37.3888   -136.0715     23.6678     80.1727
  1325.2500     41.1478   -136.1267     24.7058     73.8871
