~Version Information
VERS.                      2.0: CWLS Log ASCII Standard - VERSION 2.0
WRAP.                       NO: One line per depth step
~Well Information Block
STRT.FT               309.8000: 
STOP.FT              2184.7000: 
STEP.FT                 0.1000: 
NULL.                -999.2500: 
COMP.          Pioneer Natural Resources: COMPANY
WELL.             AMX 13-13 Tr: WELL
FLD.           Purgatoire River: FIELD
LOC.           2401' FSL & 895' FWL--: LOCATION
PROV.                 Colorado: PROVINCE
CNTY.               Las Animas: COUNTRY
SRVC.                Patterson: SERVICE COMPANY
DATE.          Thu Dec 22 15:57:57 2005: LOG DATE
UWI.           05 071 08631 00: UNIQUE WELL ID
~Curve Information Block
DEPT.FT            0 000 00 00: Depth
DCAL.in                       : CDL Caliper
RHOB.g/cc                     : CDL Bulk Density
RHOC.g/cc                     : CDL Density Correction
DPOR.pu                       : CDL Density Porosity
GR.GAPI                       : Gamma Ray
~Parameter Information Block
~A  Depth       DCAL        RHOB        RHOC        DPOR         GR     
# ...
   937.0000      8.1246      2.6007      0.0698      2.9857     85.9127
   937.1000      8.1246      2.5923      0.0830      3.4984     92.9915
   937.2000      8.1246      2.5686      0.0560      4.9317    105.1808
   937.3000      8.1226      2.5377      0.0386      6.8084    117.6882
   937.4000      8.1226      2.5220      0.0258      7.7548    126.3003
   937.5000      8.1222      2.5327      0.0681      7.1089    132.4829
   937.6000      8.1222      2.5517      0.0793      5.9569    140.0821
   937.7000      8.1222      2.5575      0.0802      5.6072    149.0386
   937.8000      8.1226      2.5449      0.0726      6.3679    153.7309
   937.9000      8.1226      2.5271      0.0207      7.4513    150.9793
   938.0000      8.1215      2.5192      0.0554      7.9283    144.5103
   938.1000      8.1215      2.5175      0.0602      8.0280    137.2950
   938.2000      8.1215      2.5175      0.0535      8.0313    133.2204
   938.3000      8.1195      2.5193      0.0791      7.9183    135.4697
   938.4000      8.1195      2.5049      0.1274      8.7916    139.4384
   938.5000      8.1174      2.4645      0.0584     11.2439    142.1119
   938.6000      8.1174      2.4249      0.0551     13.6427    144.3425
   938.7000      8.1174      2.4149      0.0283     14.2477    143.8622
   938.8000      8.1147      2.4297      0.1198     13.3491    140.7109
   938.9000      8.1147      2.4457      0.1313     12.3848    139.9812
   939.0000      8.1129      2.4624      0.1477     11.3721    141.4841
   939.1000      8.1129      2.4963      0.1258      9.3133    141.2332
   939.2000      8.1129      2.5396      0.2102      6.6919    139.1166
   939.3000      8.1127      2.5705      0.1778      4.8169    135.5687
   939.4000      8.1127      2.5960      0.1894      3.2757    130.7886
   939.5000      8.1103      2.6351      0.2552      0.9044    127.4728
   939.6000      8.1103      2.6782      0.3198     -1.7104    126.5833
   939.7000      8.1103      2.6973      0.2459     -2.8671    125.5098
   939.8000      8.1031      2.6909      0.1477     -2.4792    124.0316
   939.9000      8.1031      2.6755      0.1742     -1.5460    123.4066
   940.0000      8.0938      2.6459      0.1311      0.2458    121.6085
   940.1000      8.0938      2.6011      0.0513      2.9648    114.9943
   940.2000      8.0938      2.5676      0.0017      4.9940    103.9580
   940.3000      8.0895      2.5647      0.0217      5.1695     94.8217
   940.4000      8.0895      2.5836      0.0573      4.0269     90.6786
   940.5000      8.0932      2.6123      0.0733      2.2868     86.7505
   940.6000      8.0932      2.6436      0.1200      0.3864     78.8856
   940.7000      8.0932      2.6621      0.1282     -0.7341     72.2198
   940.8000      8.1032      2.6569      0.0657     -0.4205     72.2365
   940.9000      8.1032      2.6374      0.0081      0.7636     75.8087
   941.0000      8.1139      2.6164      0.0686      2.0360     78.3990
   941.1000      8.1139      2.5984      0.0177      3.1285     78.6624
   941.2000      8.1139      2.5825      0.0404      4.0881     78.0410
   941.3000      8.1181      2.5690      0.0083      4.9111     77.2197
   941.4000      8.1181      2.5631      0.0063      5.2668     76.0660
   941.5000      8.1170      2.5674      0.0308      5.0054     77.7408
   941.6000      8.1170      2.5739      0.0505      4.6104     83.7284
   941.7000      8.1170      2.5715      0.0503      4.7590     91.4933
   941.8000      8.1161      2.5622      0.0207      5.3225     98.9800
   941.9000      8.1161      2.5564      0.0211      5.6726    105.8624
   942.0000      8.1176      2.5466      0.0805      6.2662    112.5607
   942.1000      8.1176      2.5204      0.0532      7.8548    118.3499
   942.2000      8.1176      2.4845      0.0440     10.0295    120.0065
   942.3000      8.1189      2.4546      0.0111     11.8441    116.6438
   942.4000      8.1189      2.4428      0.0143     12.5598    110.3336
   942.5000      8.1179      2.4489      0.0364     12.1862    104.6870
   942.6000      8.1179      2.4718     -0.0169     10.7980    102.2633
   942.7000      8.1179      2.5134      0.0419      8.2812    101.8287
   942.8000      8.1165      2.5588      0.1188      5.5258    100.1611
   942.9000      8.1165      2.5958      0.1186      3.2858     97.9977
   943.0000      8.1172      2.6272      0.1451      1.3848     97.9680
   943.1000      8.1172      2.6468      0.1505      0.1923     98.1488
   943.2000      8.1172      2.6496      0.1261      0.0238     97.8763
   943.3000      8.1200      2.6444      0.1077      0.3417     99.4255
   943.4000      8.1200      2.6368      0.0932      0.8023    102.9725
   943.5000      8.1267      2.6247      0.0643      1.5340    108.4073
   943.6000      8.1267      2.6083      0.0474      2.5295    113.2505
   943.7000      8.1267      2.5971     -0.0183      3.2072    112.8372
   943.8000      8.1346      2.6015      0.0043      2.9372    108.7219
   943.9000      8.1346      2.6144      0.0434      2.1581    108.9799
   944.0000      8.1354      2.6258      0.0441      1.4642    116.3752
   944.1000      8.1354      2.6398      0.0184      0.6161    124.0494
   944.2000      8.1354      2.6561      0.0399     -0.3688    127.5483
   944.3000      8.1298      2.6591      0.0340     -0.5529    129.8979
   944.4000      8.1298      2.6428      0.0105      0.4384    130.8217
   944.5000      8.1238      2.6245     -0.0120      1.5477    126.7574
   944.6000      8.1238      2.6196      0.0266      1.8414    120.8624
   944.7000      8.1238      2.6238      0.0411      1.5855    117.5299
   944.8000      8.1210      2.6261      0.0526      1.4485    116.2053
   944.9000      8.1210      2.6222      0.0306      1.6848    116.5396
   945.0000      8.1219      2.6129      0.0402      2.2464    117.2509
   945.1000      8.1219      2.5962      0.0447      3.2596    115.6517
   945.2000      8.1219      2.5791      0.0301      4.2954    112.0600
   945.3000      8.1243      2.5748      0.0378      4.5586    109.7521
   945.4000      8.1243      2.5801      0.0307      4.2351    110.9760
   945.5000      8.1257      2.5895      0.0047      3.6652    112.4967
   945.6000      8.1257      2.6071     -0.0011      2.6008    111.2048
   945.7000      8.1257      2.6290      0.0687      1.2752    110.6000
   945.8000      8.1263      2.6494      0.0810      0.0372    110.6063
   945.9000      8.1263      2.6737      0.0513     -1.4337    107.2804
   946.0000      8.1264      2.6924      0.0827     -2.5672    101.7639
   946.1000      8.1264      2.6837      0.0596     -2.0448     97.9934
   946.2000      8.1264      2.6620     -0.0052     -0.7297     98.1404
   946.3000      8.1254      2.6558      0.0444     -0.3532    102.6707
   946.4000      8.1254      2.6564      0.0691     -0.3894    110.1846
   946.5000      8.1258      2.6452      0.0609      0.2893    117.0570
   946.6000      8.1258      2.6279      0.0259      1.3372    119.8263
   946.7000      8.1258      2.6139      0.0357      2.1905    118.4490
   946.8000      8.1274      2.6039      0.0103      2.7969    116.4972
   946.9000      8.1274      2.6025     -0.0144      2.8763    115.3478
   947.0000      8.1283      2.6028      0.0869      2.8610    113.9576
   947.1000      8.1283      2.5847      0.0253      3.9589    114.1070
   947.2000      8.1283      2.5502     -0.0102      6.0513    117.1500
   947.3000      8.1278      2.5211     -0.0175      7.8122    121.6844
   947.4000      8.1278      2.5200     -0.0177      7.8763    126.3574
   947.5000      8.1264      2.5539     -0.0028      5.8227    129.8066
   947.6000      8.1264      2.5951      0.0879      3.3286    130.3223
   947.7000      8.1264      2.6066      0.0229      2.6285    127.1309
   947.8000      8.1257      2.5961      0.0177      3.2664    123.7044
   947.9000      8.1257      2.5957      0.0513      3.2886    122.3318
   948.0000      8.1257      2.6074      0.0354      2.5820    119.7777
   948.1000      8.1257      2.6015      0.1188      2.9415    115.1246
