~Version Information
VERS.                      2.0: CWLS Log ASCII Standard - VERSION 2.0
WRAP.                       NO: One line per depth step
~Well Information Block
STRT.FT               555.0000: 
STOP.FT              2283.0000: 
STEP.FT                 0.2500: 
NULL.                -999.2500: 
COMP.          Pioneer Natural Resources: COMPANY
WELL.          Roadster 41-33 Kv: WELL
FLD.           Purgatoire River: FIELD
LOC.           903' FNL & 248' FEL: LOCATION
PROV.                 Colorado: PROVINCE
CNTY.               Las Animas: COUNTRY
SRVC.                Patterson: SERVICE COMPANY
DATE.          Wed Dec 14 23:52:42 2005: LOG DATE
UWI.           05 071 08615 00: UNIQUE WELL ID
~Curve Information Block
DEPT.FT            0 000 00 00: Depth
SN.Ohm-m                      : IEL Short Normal
SP.mV                         : IEL Spontaneous Potential
DIR.Ohm-m                     : IEL Induction Resistivity
GR.GAPI                       : Gamma Ray
~Parameter Information Block
~A  Depth        SN          SP         DIR          GR     
# ...
  1928.5000     18.6253     38.3435     15.7652     80.9254
  1928.7500     18.9424     38.3325     15.3004     79.2270
  1929.0000     19.1425     38.3364     14.6587     76.1657
  1929.2500     19.2083     38.3734     13.8904     74.3399
  1929.5000     19.0547     38.4593     13.0631     73.1505
  1929.7500     18.5441     38.5988     12.2409     73.9173
  1930.0000     17.5815     38.7810     11.4685     77.6719
  1930.2500     16.2315     38.9832     10.7673     81.7248
  1930.5000     14.7331     39.1796     10.1429     89.3915
  1930.7500     13.3542     39.3490      9.5953     94.9524
  1931.0000     12.2332     39.4814      9.1244    102.7546
  1931.2500     11.3647     39.5829      8.7300    106.9805
  1931.5000     10.6776     39.6787      8.4094    111.5848
  1931.7500     10.1042     39.8059      8.1560    113.9549
  1932.0000      9.6186     39.9976      7.9618    117.5996
  1932.2500      9.2348     40.2719      7.8197    120.3929
  1932.5000      8.9692     40.6328      7.7245    124.6035
  1932.7500      8.8133     41.0794      7.6719    126.6927
  1933.0000      8.7353     41.6160      7.6565    127.3422
  1933.2500      8.6893     42.2566      7.6722    125.4318
  1933.5000      8.6419     43.0241      7.7150    118.2924
  1933.7500      8.6072     43.9440      7.7854    110.7527
  1934.0000      8.6157     45.0308      7.8903     97.2303
  1934.2500      8.6772     46.2732      8.0401     89.0545
  1934.5000      8.8421     47.6271      8.2442     82.1253
  1934.7500      9.2224     49.0205      8.5083     82.0206
  1935.0000      9.8548     50.3663      8.8333     86.9569
  1935.2500     10.6133     51.5769      9.2177     91.6463
  1935.5000     11.3357     52.5842      9.6573     98.0994
  1935.7500     11.9715     53.3567     10.1406    101.4833
  1936.0000     12.5555     53.9038     10.6432    105.2662
  1936.2500     13.1101     54.2613     11.1277    106.7906
  1936.5000     13.6254     54.4705     11.5560    106.5909
  1936.7500     14.0923     54.5682     11.9091    104.2588
  1937.0000     14.5157     54.5872     12.1991     97.7483
  1937.2500     14.8996     54.5597     12.4624     92.3852
  1937.5000     15.2441     54.5159     12.7408     84.9263
  1937.7500     15.5631     54.4810     13.0616     81.2586
  1938.0000     15.8780     54.4723     13.4229     78.4200
  1938.2500     16.1828     54.4967     13.7902     78.2740
  1938.5000     16.4373     54.5503     14.1098     79.9789
  1938.7500     16.6015     54.6201     14.3371     81.7868
  1939.0000     16.6641     54.6912     14.4582     84.6470
  1939.2500     16.6341     54.7522     14.4849     86.4082
  1939.5000     16.5190     54.7999     14.4311     88.8037
  1939.7500     16.3019     54.8394     14.2984     90.4016
  1940.0000     15.9505     54.8826     14.0820     93.2089
  1940.2500     15.4844     54.9442     13.7844     95.4608
  1940.5000     14.9839     55.0366     13.4229     99.1678
  1940.7500     14.5184     55.1660     13.0254    101.5790
  1941.0000     14.1275     55.3310     12.6226    104.7416
  1941.2500     13.8144     55.5226     12.2397    106.4832
  1941.5000     13.5252     55.7219     11.8939    108.6998
  1941.7500     13.2103     55.9017     11.5937    110.1318
  1942.0000     12.8836     56.0368     11.3419    112.6698
  1942.2500     12.5799     56.1197     11.1384    114.8057
  1942.5000     12.3089     56.1643     10.9825    118.6043
  1942.7500     12.0769     56.1936     10.8745    121.1545
  1943.0000     11.9052     56.2257     10.8155    123.7694
  1943.2500     11.8075     56.2668     10.8063    123.8169
  1943.5000     11.7875     56.3107     10.8445    120.2642
  1943.7500     11.8594     56.3400     10.9240    115.6073
  1944.0000     12.0325     56.3341     11.0380    107.0448
  1944.2500     12.2769     56.2776     11.1838    101.8053
  1944.5000     12.5534     56.1654     11.3657     96.3137
  1944.7500     12.8702     56.0002     11.5931     94.3010
  1945.0000     13.2558     55.7876     11.8725     93.1481
  1945.2500     13.7208     55.5332     12.2030     93.2415
  1945.5000     14.2660     55.2425     12.5766     93.7310
  1945.7500     14.8659     54.9239     12.9841     93.5197
  1946.0000     15.4454     54.5925     13.4195     91.6386
  1946.2500     15.9197     54.2708     13.8796     89.6882
  1946.5000     16.2985     53.9815     14.3598     87.0991
  1946.7500     16.7251     53.7355     14.8530     86.1404
  1947.0000     17.3557     53.5261     15.3540     85.7409
  1947.2500     18.2181     53.3321     15.8641     85.7417
  1947.5000     19.1936     53.1286     16.3923     85.3846
  1947.7500     20.0945     52.8997     16.9498     84.5329
  1948.0000     20.7679     52.6456     17.5427     81.8664
  1948.2500     21.1975     52.3791     18.1643     79.2133
  1948.5000     21.5452     52.1156     18.7910     74.9912
  1948.7500     22.0457     51.8647     19.3836     72.9858
  1949.0000     22.8122     51.6304     19.8964     72.0945
  1949.2500     23.7541     51.4153     20.2897     72.4621
  1949.5000     24.6632     51.2242     20.5423     72.7196
  1949.7500     25.3304     51.0638     20.6580     72.0914
  1950.0000     25.6330     50.9427     20.6647     70.5377
  1950.2500     25.5978     50.8699     20.6089     69.9928
  1950.5000     25.3806     50.8507     20.5460     71.1627
  1950.7500     25.1397     50.8802     20.5259     73.4934
  1951.0000     24.9140     50.9388     20.5771     78.7458
  1951.2500     24.6482     50.9976     20.6975     82.5618
  1951.5000     24.3204     51.0289     20.8554     86.7261
  1951.7500     23.9929     51.0173     21.0051     87.3582
  1952.0000     23.7338     50.9637     21.1097     84.1448
  1952.2500     23.5740     50.8807     21.1600     79.4189
  1952.5000     23.5714     50.7820     21.1806     69.9196
  1952.7500     23.8062     50.6728     21.2158     63.2567
  1953.0000     24.2864     50.5472     21.3016     54.9929
  1953.2500     24.9217     50.3951     21.4386     51.4991
  1953.5000     25.5608     50.2150     21.5848     49.4529
  1953.7500     26.0297     50.0217     21.6796     49.6784
  1954.0000     26.1992     49.8412     21.6864     51.2470
  1954.2500     26.0672     49.6986     21.6181     52.7394
  1954.5000     25.7740     49.6080     21.5238     55.5678
  1954.7500     25.5051     49.5685     21.4543     57.7320
  1955.0000     25.3469     49.5653     21.4370     60.5408
  1955.2500     25.2382     49.5750     21.4728     61.5095
  1955.5000     25.0442     49.5740     21.5476     61.4532
  1955.7500     24.6917     49.5480     21.6467     61.0038
  1956.0000     24.2835     49.4978     21.7638     60.8557
  1956.2500     24.0562     49.4377     21.9016     61.1354
  1956.5000     24.1979     49.3876     22.0625     60.9754
  1956.7500     24.7206     49.3646     22.2374     59.8273
  1957.0000     25.4574     49.3791     22.4006     56.6882
  1957.2500     26.1563     49.4361     22.5203     54.3629
  1957.5000     26.6398     49.5359     22.5747     51.5978
  1957.7500     26.9004     49.6748     22.5611     50.3782
  1958.0000     27.0569     49.8442     22.4858     49.2897
  1958.2500     27.2360     50.0340     22.3456     49.0615
  1958.5000     27.4671     50.2379     22.1150     49.6551
  1958.7500     27.6585     50.4575     21.7519     50.5499
  1959.0000     27.6778     50.6980     21.2219     51.7862
  1959.2500     27.4542     50.9620     20.5268     52.0500
  1959.5000     26.9701     51.2451     19.7157     51.6301
  1959.7500     26.1558     51.5376     18.8664     51.3305
  1960.0000     24.8795     51.8279     18.0502     52.1098
  1960.2500     23.1226     52.1040     17.3092     54.2237
  1960.5000     21.1290     52.3505     16.6562     60.8517
  1960.7500     19.2821     52.5476     16.0876     67.5925
  1961.0000     17.8291     52.6737     15.5953     79.5942
  1961.2500     16.7768     52.7154     15.1682     87.3224
  1961.5000     16.0098     52.6736     14.7912     96.2371
  1961.7500     15.4311     52.5602     14.4469     99.7975
