~Version Information
VERS.                      2.0: CWLS Log ASCII Standard - VERSION 2.0
WRAP.                       NO: One line per depth step
~Well Information Block
STRT.FT                 0.0000: 
STOP.FT               787.2500: 
STEP.FT                 0.2500: 
NULL.                -999.2500: 
COMP.          Pioneer Natural Resources: COMPANY
WELL.             Veedol 34-28: WELL
FLD.           Purgatorie River: FIELD
LOC.           357' FSL & 2520' FEL: LOCATION
PROV.                 Colorado: PROVINCE
CNTY.               Las Animas: COUNTRY
SRVC.                Patterson: SERVICE COMPANY
DATE.          Wed Dec 28 10:10:37 2005: LOG DATE
UWI.                          : UNIQUE WELL ID
~Curve Information Block
DEPT.FT            0 000 00 00: Depth
CCL.                          : Casing Collar Locator
TT3.usec                      : CBL 3' Travel Time
AMP3.mV                       : CBL 3' Amplitude
GR.GAPI                       : Gamma Ray
~Parameter Information Block
~A  Depth       CCL         TT3         AMP3         GR     
# ...
   234.5000      0.0000    725.3510     13.3178     70.3578
   234.7500      0.0000    725.4017     13.2209     71.7419
   235.0000      0.0000    725.3655     13.0243     73.2949
   235.2500      0.0000    725.2159     12.7323     74.6353
   235.5000      0.0000    724.9973     12.4353     75.0209
   235.7500      0.0000    724.7941     12.2866     74.0023
   236.0000      0.0000    724.6707     12.3913     72.0437
   236.2500      0.0000    724.6270     12.6978     70.1692
   236.5000      0.0000    724.6125     13.0154     69.1249
   236.7500      0.0000    724.5690     13.1718     69.0592
   237.0000      0.0000    724.4659     13.1351     69.8765
   237.2500      0.0000    724.3283     12.9804     71.6177
   237.5000      0.0000    724.2275     12.7974     74.3212
   237.7500      0.0000    724.2104     12.6369     77.4458
   238.0000      0.0000    724.2465     12.5078     79.6269
   238.2500      0.0000    724.2738     12.4158     79.5172
   238.5000      0.0000    724.2741     12.3681     77.1163
   238.7500      0.0000    724.2713     12.3425     74.0672
   239.0000      0.0000    724.1072     12.2971     72.4541
   239.2500      0.0000    723.0388     12.2281     73.2807
   239.5000      0.0000    719.9756     12.2008     75.9858
   239.7500      0.0000    715.5389     12.2679     79.0742
   240.0000      0.0000    713.3168     12.3787     80.9922
   240.2500      0.0000    715.7252     12.4449     80.6677
   240.5000      0.0000    720.2209     12.4536     77.8926
   240.7500      0.0000    723.2053     12.4553     73.5928
   241.0000      0.0000    724.2013     12.4751     69.4552
   241.2500      0.0000    724.4347     12.5030     66.8543
   241.5000      0.0000    724.6142     12.5456     66.0641
   241.7500      0.0000    724.7849     12.6059     66.4673
   242.0000      0.0000    724.8836     12.6422     67.1998
   242.2500      0.0000    724.9576     12.6152     67.5789
   242.5000      0.0000    725.0588     12.5511     67.3623
   242.7500      0.0000    725.1492     12.5238     66.8013
   243.0000      0.0000    725.1703     12.5902     66.2049
   243.2500      0.0000    725.1219     12.7479     65.4641
   243.5000      0.0000    725.0483     12.9275     64.2526
   243.7500      0.0000    725.0099     13.0278     62.5637
   244.0000      0.0000    725.0503     12.9844     60.7412
   244.2500      0.0000    725.1530     12.8294     59.0589
   244.5000      0.0000    725.2584     12.6901     57.5431
   244.7500      0.0000    725.3371     12.6861     56.1926
   245.0000      0.0000    725.4099     12.8012     55.1069
   245.2500      0.0000    725.4689     12.9113     54.2310
   245.5000      0.0000    725.4368     12.9454     53.1069
   245.7500      0.0000    725.2717     12.9319     51.0988
   246.0000      0.0000    725.0500     12.9230     47.9587
   246.2500      0.0000    724.8884     12.9592     44.1943
   246.5000      0.0000    724.8459     13.0413     40.8574
   246.7500      0.0000    724.9141     13.1083     38.8985
   247.0000      0.0000    725.0444     13.0986     38.5791
   247.2500      0.0000    725.1774     13.0113     39.3940
   247.5000      0.0000    725.2474     12.9070     40.5030
   247.7500      0.0000    724.9819     12.8690     41.2962
   248.0000      0.0000    722.7126     12.9249     41.7066
   248.2500      0.0000    712.8194     13.0264     42.1022
   248.5000      0.0000    687.1014     13.1287     42.8971
   248.7500      0.0000    648.7827     13.2412     44.2364
   249.0000      0.0000    618.5042     13.4087     45.8747
   249.2500      0.0000    601.6938     13.6648     47.1832
   249.5000      0.0000    576.2706     13.9601     47.4297
   249.7500      0.0000    547.2936     14.1407     46.3219
   250.0000      0.0000    556.7596     14.0894     44.2766
   250.2500      0.0000    612.5173     13.8684     41.9754
   250.5000      0.0000    671.5057     13.6487     39.7386
   250.7500      0.0000    696.4932     13.5448     37.5429
   251.0000      0.0000    681.0185     13.5603     35.4702
   251.2500      0.0000    637.9552     13.6492     33.8017
   251.5000      0.0000    592.7569     13.7590     32.7659
   251.7500      0.0000    565.7613     13.8507     32.4944
   252.0000      0.0000    558.0347     13.9506     33.1944
   252.2500      0.0000    565.6441     14.1329     35.0533
   252.5000      0.0000    590.4526     14.3818     37.7808
   252.7500      0.0000    624.0508     14.5115     40.4376
   253.0000      0.0000    633.0220     14.2823     42.0537
   253.2500      0.0000    593.3822     13.5641     42.4666
   253.5000      0.0000    536.8339     12.4569     42.3220
   253.7500      0.0000    525.6591     11.4593     42.2035
   254.0000      0.0000    580.2868     11.0805     42.0527
   254.2500      0.0000    664.1282     11.0045     41.5873
   254.5000      0.0000    734.5217     10.5883     40.9834
   254.7500      0.0000    775.8912      9.9608     40.8315
   255.0000      0.0000    797.0812      9.5572     41.5735
   255.2500     -2.0000    819.7460      9.4129     43.3575
   255.5000      2.0000    850.0534      9.3976     46.4160
   255.7500      0.0000    860.0413      9.4235     51.0787
   256.0000      0.0000    822.6354      9.4435     57.0344
   256.2500      0.0000    743.1744      9.6108     62.8876
   256.5000      0.0000    641.9838     10.3991     66.9530
   256.7500      0.0000    554.2150     12.0715     68.4401
   257.0000      0.0000    528.8111     13.9051     67.6855
   257.2500      0.0000    574.8528     14.8997     65.6254
   257.5000      0.0000    643.4844     15.0260     63.3603
   257.7500      0.0000    686.3416     14.7572     61.8139
   258.0000      0.0000    697.6252     14.3220     61.4313
   258.2500      0.0000    698.4382     13.8725     62.3378
   258.5000      0.0000    704.5422     13.5624     64.7705
   258.7500      0.0000    714.1594     13.3986     68.9249
   259.0000      0.0000    719.3109     13.2690     74.3491
   259.2500      0.0000    717.1127     13.0909     79.8189
   259.5000      0.0000    710.7420     12.8849     83.9006
   259.7500      0.0000    707.2764     12.7259     85.6475
   260.0000      0.0000    710.9705     12.6562     84.9592
   260.2500      0.0000    718.0795     12.6605     82.4381
   260.5000      0.0000    723.0519     12.6994     78.9861
   260.7500      0.0000    724.9305     12.7320     75.7261
   261.0000      0.0000    725.3693     12.7331     74.2848
   261.2500      0.0000    725.4773     12.7217     76.4816
   261.5000      0.0000    725.4968     12.7575     82.9534
   261.7500      0.0000    725.4113     12.8691     92.0062
   262.0000      0.0000    725.2674     12.9918    100.4089
   262.2500      0.0000    725.1489     13.0205    105.6768
   262.5000      0.0000    725.0601     12.9146    107.4561
   262.7500      0.0000    724.9553     12.7415    106.6948
   263.0000      0.0000    724.8629     12.6214    104.0968
   263.2500      0.0000    724.8770     12.6212     99.8995
   263.5000      0.0000    724.9982     12.7052     94.8813
   263.7500      0.0000    724.9390     12.7810     90.6678
   264.0000      0.0000    723.8972     12.7768     88.4898
   264.2500      0.0000    720.8075     12.6848     88.0746
   264.5000      0.0000    716.0629     12.5586     88.3448
   264.7500      0.0000    712.1824     12.4622     88.8864
   265.0000      0.0000    709.7567     12.3997     90.0988
   265.2500      0.0000    705.8688     12.3055     92.0789
   265.5000      0.0000    700.3873     12.1249     94.0418
   265.7500      0.0000    696.7083     11.8803     94.9840
   266.0000      0.0000    694.4490     11.6551     94.6396
   266.2500      0.0000    690.5048     11.5305     93.7173
   266.5000      0.0000    685.5245     11.5242     93.3831
   266.7500      0.0000    682.1481     11.5902     94.4218
   267.0000      0.0000    680.8344     11.6781     96.5997
   267.2500      0.0000    680.7748     11.7593     98.7617
   267.5000      0.0000    682.0222     11.8083     99.8084
   267.7500      0.0000    685.6215     11.8170     99.6932
