~Version Information
VERS.                      2.0: CWLS Log ASCII Standard - VERSION 2.0
WRAP.                       NO: One line per depth step
~Well Information Block
STRT.FT                 0.0000: 
STOP.FT              1877.2500: 
STEP.FT                 0.2500: 
NULL.                -999.2500: 
COMP.          Pioneer Natural Resources: COMPANY
WELL.            Corazon 13-10: WELL
FLD.           Purgatoire River: FIELD
LOC.           2510' FSL & 439' FWL--------: LOCATION
PROV.                 Colorado: PROVINCE
CNTY.               Las Animas: COUNTRY
SRVC.                         : SERVICE COMPANY
DATE.          Mon Dec 19 14:34:49 2005: LOG DATE
UWI.                          : UNIQUE WELL ID
~Curve Information Block
DEPT.FT            0 000 00 00: Depth
CCL.                          : Casing Collar Locator
TT3.usec                      : CBL 3' Travel Time
AMP3.mV                       : CBL 3' Amplitude
AMP5.mV                       : CBL 5' Amplitude
GR.GAPI                       : Gamma Ray
~Parameter Information Block
~A  Depth       CCL         TT3         AMP3        AMP5         GR     
# ...
   112.0000      0.0000    570.6765     24.6199      6.8393     89.0923
   112.2500      0.0000    503.4084     24.5652      6.5937     89.9866
   112.5000      0.0000    437.6743     24.5551      6.2974     91.0528
   112.7500      0.0000    384.7664     24.5957      5.9980     92.3954
   113.0000      0.0000    354.2759     24.6766      5.7530     93.8849
   113.2500      0.0000    350.1340     24.7781      5.6197     95.8590
   113.5000      0.0000    366.9099     24.8892      5.6325     98.7794
   113.7500      0.0000    389.4445     25.0153      5.7871    102.2630
   114.0000      0.0000    399.5087     25.1661      6.0460    105.0133
   114.2500      0.0000    388.1905     25.3378      6.3576    105.9361
   114.5000      0.0000    362.1187     25.5120      6.6723    104.9388
   114.7500      0.0000    335.5123     25.6698      6.9482    102.3261
   115.0000      0.0000    317.6065     25.8034      7.1515     97.9311
   115.2500      0.0000    308.9272     25.9166      7.2575     91.6588
   115.5000      0.0000    305.7925     26.0164      7.2543     84.8103
   115.7500      0.0000    304.9450     26.1061      7.1454     79.9239
   116.0000      0.0000    304.7872     26.1865      6.9534     78.7307
   116.2500      0.0000    304.7768     26.2616      6.7184     80.5748
   116.5000      0.0000    304.7907     26.3393      6.4902     83.0182
   116.7500      0.0000    304.7947     26.4278      6.3192     83.7387
   117.0000      0.0000    304.7841     26.5332      6.2501     81.8512
   117.2500      0.0000    304.7498     26.6542      6.3093     77.8989
   117.5000      0.0000    304.6909     26.7776      6.4836     72.9846
   117.7500      0.0000    304.6225     26.8813      6.7060     67.9209
   118.0000      0.0000    304.5674     26.9440      6.8718     63.0263
   118.2500      0.0000    304.5478     26.9481      6.8929     58.4732
   118.5000      0.0000    304.5807     26.8809      6.7619     54.5048
   118.7500      0.0000    304.6685     26.7474      6.5712     51.3322
   119.0000      0.0000    304.7872     26.5824      6.4525     49.1524
   119.2500      0.0000    304.8955     26.4390      6.4764     48.3732
   119.5000      0.0000    304.9642     26.3553      6.5984     49.4768
   119.7500      0.0000    304.9948     26.3324      6.7012     52.3328
   120.0000      0.0000    305.0056     26.3412      6.6943     55.8287
   120.2500      0.0000    305.0065     26.3534      6.5867     58.5891
   120.5000      0.0000    304.9913     26.3693      6.4749     60.1153
   120.7500      0.0000    304.9545     26.4174      6.4624     60.9510
   121.0000      0.0000    304.9085     26.5218      6.5771     61.6865
   121.2500      0.0000    304.8827     26.6671      6.7507     62.0722
   121.5000      0.0000    304.8969     26.8000      6.8748     61.2888
   121.7500      0.0000    304.9320     26.8714      6.8904     59.0280
   122.0000      0.0000    304.9284     26.8800      6.8387     56.1574
   122.2500      0.0000    304.8256     26.8766      6.8243     54.1692
   122.5000      0.0000    304.6114     26.9264      6.9187     53.9192
   122.7500      0.0000    304.3281     27.0629      7.0939     54.9114
   123.0000      0.0000    304.0325     27.2682      7.2492     55.7573
   123.2500      0.0000    303.7576     27.4948      7.3032     55.4023
   123.5000      0.0000    303.5117     27.7028      7.2642     53.9732
   123.7500      0.0000    303.3027     27.8820      7.2168     52.3632
   124.0000      0.0000    303.1516     28.0396      7.2451     51.0596
   124.2500      0.0000    303.0826     28.1717      7.3616     49.7310
   124.5000      0.0000    303.1010     28.2519      7.4989     48.1105
   124.7500      0.0000    303.1804     28.2495      7.5699     47.0033
   125.0000      0.0000    303.2730     28.1593      7.5471     48.0790
   125.2500      0.0000    303.3323     28.0140      7.4882     52.5492
   125.5000      0.0000    303.3321     27.8696      7.4743     60.1357
   125.7500      0.0000    303.2751     27.7764      7.5249     69.2403
   126.0000      0.0000    303.1879     27.7549      7.5841     77.8061
   126.2500      0.0000    303.1020     27.7918      7.5942     84.1261
   126.5000      0.0000    303.0342     27.8576      7.5618     87.5852
   126.7500      0.0000    302.9817     27.9298      7.5379     89.0290
   127.0000      0.0000    302.9348     27.9986      7.5473     90.0067
   127.2500      0.0000    302.8929     28.0550      7.5715     91.4272
   127.5000      0.0000    302.8640     28.0863      7.5946     93.0649
   127.7500      0.0000    302.8524     28.0935      7.6283     94.0407
   128.0000      0.0000    302.8499     28.0990      7.6735     93.4058
   128.2500      0.0000    302.8412     28.1197      7.6982     90.6321
   128.5000      0.0000    302.8179     28.1362      7.6822     86.1451
   128.7500      0.0000    302.7850     28.1060      7.6590     81.5174
   129.0000      0.0000    302.7546     28.0141      7.6789     78.8212
   129.2500      0.0000    302.7331     27.9050      7.7493     79.3168
   129.5000      0.0000    302.7128     27.8543      7.8367     82.4266
   129.7500      0.0000    302.6771     27.9052      7.9127     85.9818
   130.0000      0.0000    302.6199     28.0317      7.9692     87.7704
   130.2500      0.0000    302.5601     28.1635      7.9999     87.1993
   130.5000      0.0000    302.5307     28.2422      7.9926     85.6611
   130.7500      0.0000    302.5518     28.2500      7.9373     85.1785
   131.0000      0.0000    302.6201     28.1923      7.8393     86.6063
   131.2500      0.0000    302.7213     28.0753      7.7318     89.2936
   131.5000      0.0000    302.8389     27.9166      7.6669     92.2954
   131.7500      0.0000    302.9485     27.7607      7.6693     95.3417
   132.0000      0.0000    303.0178     27.6658      7.7067     98.4856
   132.2500      0.0000    303.0246     27.6727      7.7335    101.3255
   132.5000      0.0000    302.9734     27.7857      7.7462    102.9616
   132.7500      0.0000    302.8898     27.9794      7.7686    102.6577
   133.0000      0.0000    302.7995     28.2148      7.8042    100.4372
   133.2500      0.0000    302.7167     28.4488      7.8401     97.1726
   133.5000      0.0000    302.6469     28.6388      7.8786     94.2497
   133.7500      0.0000    302.5923     28.7584      7.9258     92.9576
   134.0000      0.0000    302.5536     28.8113      7.9645     93.7292
   134.2500      0.0000    302.5317     28.8179      7.9740     95.8440
   134.5000      0.0000    302.5259     28.7860      7.9571     98.0553
   134.7500      0.0000    302.5604     28.7134      7.9137     99.3825
   135.0000      0.0000    302.7649     28.6113      7.7847     99.2716
   135.2500      0.0000    303.7698     28.4977      7.4447     97.6145
   135.5000      0.0000    307.7408     28.3468      6.7740     95.0674
   135.7500      0.0000    319.7490     28.0413      5.7729     92.9916
   136.0000      0.0000    347.5873     27.3727      4.6179     92.5376
   136.2500      0.0000    397.0894     26.1276      3.5741     93.6365
   136.5000      0.0000    464.9908     24.2462      2.8333     94.9278
   136.7500      0.0000    539.1547     21.9151      2.4314     94.9169
   137.0000      0.0000    610.5142     19.4623      2.2851     93.3965
   137.2500      0.0000    682.1230     17.1675      2.2759     91.6104
   137.5000      0.0000    760.1885     15.2147      2.3169     90.8519
   137.7500      0.0000    839.0679     13.7433      2.3693     91.0268
   138.0000      0.0000    902.3533     12.8219      2.4161     90.6496
   138.2500      0.0000    937.2411     12.3808      2.4430     88.2751
   138.5000     -2.0000    942.5554     12.2405      2.4463     84.0340
   138.7500      0.0000    923.6274     12.2152      2.4406     79.6918
   139.0000      0.0000    882.7878     12.2135      2.4485     76.9917
   139.2500      0.0000    816.8341     12.3276      2.4813     76.1015
   139.5000      0.0000    725.6128     12.8783      2.5286     75.9755
   139.7500      0.0000    621.5259     14.2851      2.5740     75.9979
