~Version Information
VERS.                      2.0: CWLS Log ASCII Standard - VERSION 2.0
WRAP.                       NO: One line per depth step
~Well Information Block
STRT.FT                -8.5000: 
STOP.FT              1945.2500: 
STEP.FT                 0.2500: 
NULL.                -999.2500: 
COMP.          Pioneer Natural Resources: COMPANY
WELL.          Flying Horse 12-11 Tr: WELL
FLD.           Purgatorie River: FIELD
LOC.           2459' FNL & 410' FWL: LOCATION
STAT.                       CO: PROVINCE
CNTY.               Las Animas: COUNTY
CTRY.        USA : Country
SECT. 11 : Section
TOWN. 32S : Township
RANG. 66W : Range
SRVC.          Patterson Wireline: SERVICE COMPANY
DATE.          Thu Sep 08 15:44:22 2005: LOG DATE
API.           05 071 08485 00: UNIQUE WELL ID
~Curve Information Block
DEPT.FT            0 000 00 00: Depth
CCL.                          : Casing Collar Locator
TT3.usec                      : CBL 3' Travel Time
AMP3.mV                       : CBL 3' Amplitude
GR.GAPI                       : Gamma Ray
~Parameter Information Block
~A  Depth       CCL         TT3         AMP3         GR     
# ...
   628.0000      0.0000    315.2965     29.1096    155.6088
   628.2500      0.0000    320.9191     28.8649    159.9852
   628.5000      0.0000    324.8846     28.6146    161.1235
   628.7500      0.0000    325.4130     28.4262    159.6886
   629.0000      0.0000    322.8661     28.3471    157.6262
   629.2500      0.0000    319.7696     28.3754    156.3607
   629.5000      0.0000    319.3715     28.4717    155.8300
   629.7500      0.0000    323.6086     28.5901    155.1718
   630.0000      0.0000    331.3389     28.7085    153.9497
   630.2500      0.0000    338.3128     28.8436    152.4158
   630.5000      0.0000    339.8986     29.0345    150.7677
   630.7500      0.0000    334.6989     29.3019    148.5420
   631.0000      0.0000    325.4545     29.6196    144.9380
   631.2500      0.0000    316.4060     29.9274    139.6898
   631.5000      0.0000    310.1804     30.1720    133.7641
   631.7500      0.0000    306.9751     30.3377    129.2236
   632.0000      0.0000    305.7206     30.4428    127.8619
   632.2500      0.0000    305.3539     30.5134    129.5027
   632.5000      0.0000    305.2872     30.5628    131.9295
   632.7500      0.0000    305.3131     30.5923    132.8834
   633.0000      0.0000    305.4196     30.6023    131.9063
   633.2500      0.0000    305.7444     30.5945    130.0071
   633.5000      0.0000    306.6617     30.5641    128.2143
   633.7500      0.0000    308.8163     30.4976    127.1596
   634.0000      0.0000    312.8239     30.3875    127.5442
   634.2500      0.0000    318.6513     30.2492    129.8031
   634.5000      0.0000    325.2592     30.1178    133.1584
   634.7500      0.0000    331.1378     30.0216    135.8258
   635.0000      0.0000    335.3817     29.9588    136.5573
   635.2500      0.0000    338.2477     29.9016    135.6363
   635.5000      0.0000    340.6885     29.8232    134.3162
   635.7500      0.0000    343.3298     29.7181    133.4937
   636.0000      0.0000    345.8057     29.6013    132.7823
   636.2500      0.0000    347.2050     29.4900    130.6626
   636.5000      0.0000    347.4072     29.3850    125.7928
   636.7500      0.0000    347.8280     29.2685    118.5085
   637.0000      0.0000    350.4550     29.1213    111.1522
   637.2500      0.0000    356.0417     28.9415    106.7842
   637.5000      0.0000    363.3598     28.7429    107.0045
   637.7500      0.0000    370.2003     28.5389    110.5432
   638.0000      0.0000    374.9649     28.3309    114.2516
   638.2500      0.0000    377.2851     28.1155    115.8271
   638.5000      0.0000    377.3875     27.9050    115.5258
   638.7500      0.0000    375.2516     27.7346    115.2873
   639.0000      0.0000    370.5846     27.6473    116.3960
   639.2500      0.0000    363.6037     27.6693    117.7934
   639.5000      0.0000    355.6038     27.8015    116.7357
   639.7500      0.0000    348.4385     28.0329    111.4349
   640.0000      0.0000    343.3532     28.3561    102.8362
   640.2500      0.0000    340.4094     28.7626     93.5960
   640.5000      0.0000    338.8910     29.2285     86.0290
   640.7500      0.0000    337.9411     29.7124     81.4770
   641.0000      0.0000    336.7716     30.1740     80.7111
   641.2500      0.0000    334.5815     30.5964     83.7804
   641.5000      0.0000    330.6803     30.9992     89.4277
   641.7500      0.0000    324.9787     31.4367     95.2335
   642.0000      0.0000    318.3510     31.9745     98.7594
   642.2500      0.0000    312.2675     32.6442     98.8438
   642.5000      0.0000    307.9327     33.4011     96.0633
   642.7500      0.0000    305.8480     34.1233     92.0165
   643.0000      0.0000    306.1843     34.6119     88.2268
   643.2500      0.0000    309.3020     34.5394     85.5359
   643.5000      0.0000    316.0082     33.4916     84.0301
   643.7500      0.0000    327.6674     31.2950     83.1585
   644.0000      0.0000    346.6324     28.3656     82.0870
   644.2500      0.0000    375.5069     25.5302     80.2851
   644.5000     -2.0000    412.8431     23.4159     77.7465
   644.7500      2.0000    448.1103     22.1102     74.6144
   645.0000      0.0000    465.1660     21.3740     70.9542
   645.2500      0.0000    455.5615     20.9996     67.0699
   645.5000      0.0000    426.6799     20.9749     63.6670
   645.7500      0.0000    393.7100     21.4540     61.4653
   646.0000      0.0000    366.3655     22.5902     60.7728
   646.2500      0.0000    345.7391     24.2801     61.4396
   646.5000      0.0000    329.9355     26.0736     63.0023
   646.7500      0.0000    318.2823     27.4550     64.7890
   647.0000      0.0000    310.9892     28.2071     66.3616
   647.2500      0.0000    307.8446     28.4459     68.3594
   647.5000      0.0000    308.4459     28.3985     72.4693
   647.7500      0.0000    312.9821     28.2447     79.7358
   648.0000      0.0000    322.0671     28.0876     89.1384
   648.2500      0.0000    335.2940     27.9670     98.5634
   648.5000      0.0000    350.2188     27.8895    106.8526
   648.7500      0.0000    363.3221     27.8625    114.0637
   649.0000      0.0000    372.1982     27.9023    120.1061
   649.2500      0.0000    376.6295     28.0097    124.3490
   649.5000      0.0000    377.7761     28.1601    126.5215
   649.7500      0.0000    376.9448     28.3209    126.9882
   650.0000      0.0000    375.6393     28.4770    126.2019
   650.2500      0.0000    376.6632     28.6236    124.6509
   650.5000      0.0000    384.6994     28.7369    123.2345
   650.7500      0.0000    404.1646     28.7785    123.1812
   651.0000      0.0000    433.8644     28.7366    125.3961
   651.2500      0.0000    462.8753     28.6496    129.5893
   651.5000      0.0000    475.2577     28.5791    133.8819
   651.7500      0.0000    462.8021     28.5721    135.7028
   652.0000      0.0000    432.1554     28.6502    133.5602
   652.2500      0.0000    397.6370     28.8107    128.0253
   652.5000      0.0000    369.7390     29.0141    121.0594
   652.7500      0.0000    351.8639     29.1786    114.6588
   653.0000      0.0000    343.6071     29.2148    110.0926
   653.2500      0.0000    343.0587     29.0834    107.7885
   653.5000      0.0000    346.8021     28.8312    107.5039
   653.7500      0.0000    350.2702     28.5791    108.6508
   654.0000      0.0000    349.4221     28.4672    110.3661
   654.2500      0.0000    342.6941     28.5845    111.2719
   654.5000      0.0000    331.8826     28.9309    109.8803
   654.7500      0.0000    320.7625     29.4395    105.8301
   655.0000      0.0000    312.3929     30.0209    100.4792
   655.2500      0.0000    307.5499     30.5815     95.9221
   655.5000      0.0000    305.3205     31.0292     93.3566
   655.7500      0.0000    304.4794     31.3105     92.1841
   656.0000      0.0000    304.2229     31.4550     90.3811
   656.2500      0.0000    304.1613     31.5645     85.8582
   656.5000      0.0000    304.1267     31.7467     77.9828
   656.7500      0.0000    304.0524     32.0552     68.2571
   657.0000      0.0000    303.9286     32.4747     59.5379
   657.2500      0.0000    303.7830     32.9415     54.1540
   657.5000      0.0000    303.6514     33.3770     52.3566
   657.7500      0.0000    303.5487     33.7226     52.5220
   658.0000      0.0000    303.4592     33.9679     52.8021
   658.2500      0.0000    303.3534     34.1582     52.3700
   658.5000      0.0000    303.2151     34.3666     51.3596
   658.7500      0.0000    303.0524     34.6459     50.3545
   659.0000      0.0000    302.8871     34.9952     50.2808
   659.2500      0.0000    302.7386     35.3650     52.2904
   659.5000      0.0000    302.6164     35.6952     57.0661
   659.7500      0.0000    302.5210     35.9568     63.9611
   660.0000      0.0000    302.4490     36.1642     70.8102
   660.2500      0.0000    302.3976     36.3464     74.7783
   660.5000      0.0000    302.3660     36.5072     73.9129
   660.7500      0.0000    302.3530     36.6181     68.5107
   661.0000      0.0000    302.3559     36.6535     61.2451
   661.2500      0.0000    302.3694     36.6339     55.6243
