~Version Information
 VERS.                                  2.0 : CWLS LAS VERSION
 WRAP.                                   NO : WRAPING MODE
 SWARE .                 MController 2.5.0J : SOFTWARE VERSION
~Well Information
 WELL.                     Galloway 32-13Tr : WELL
 COMP.    Pioneer Natural Resources USA Inc : COMPANY
 FLD.                      Purgatoire River : FIELD
 LOC.                  SW/NE SEC13 32S R66W : LOCATION
 DATE.                             11/12/05 : DATE(S) LOGGED
 SRVC.       Blanco Geological Services LLC : SERVICE COMPANY
 STAT.                             Colorado : STATE
 CNTY.                           Las Animas : COUNTY
 CTRY.                                  USA : COUNTRY
 API.                       05-071-08608-00 : API NUMBER
 STRT.FT                             530.00 : START DEPTH
 STOP.FT                            1619.00 : STOP DEPTH
 STEP.FT                               1.00 : DEPTH INCREMENT
 NULL.                                -9999 : NULL VALUE
~Curve information
 DEPTH.FT                                   :
 ROP.MIN/FT                                 :
 GAS.UNITS                                  :
~ASCII Log data
# ...
      1130.0         0.27         31.3 
      1131.0         0.27         30.9 
      1132.0         0.27         31.5 
      1133.0         0.30         32.5 
      1134.0         0.32         32.4 
      1135.0         0.73         32.2 
      1136.0         2.27        347.7 
      1137.0         0.48        142.6 
      1138.0         0.37         63.0 
      1139.0         0.27         47.5 
      1140.0         0.13         45.4 
      1141.0         0.20         40.5 
      1142.0         0.23         39.3 
      1143.0         0.23         39.6 
      1144.0         0.27         39.8 
      1145.0         0.33         41.9 
      1146.0         0.33         41.8 
      1147.0         0.30         37.6 
      1148.0         0.35         37.4 
      1149.0         0.37         36.7 
      1150.0         0.23         35.7 
      1151.0         0.27         34.4 
      1152.0         0.33         34.3 
      1153.0         0.37         34.7 
      1154.0         0.37         36.9 
      1155.0         0.37         74.0 
      1156.0         0.30        130.7 
      1157.0         0.33        202.4 
      1158.0         0.30        283.0 
      1159.0         0.52        444.6 
      1160.0         0.37       1214.5 
      1161.0         0.43       1331.9 
      1162.0         0.27       1374.7 
      1163.0         0.23       1374.7 
      1164.0         0.27       1404.6 
      1165.0         0.27       1398.2 
      1166.0         1.85       3255.9 
      1167.0         0.40       3507.9 
      1168.0         0.30       3572.6 
      1169.0         0.40       3561.2 
      1170.0         0.37       3042.6 
      1171.0         0.30       2927.1 
      1172.0         0.33       2623.0 
      1173.0         0.33       2233.3 
      1174.0         0.35       2219.0 
      1175.0         0.33       2186.3 
      1176.0         0.37       2120.0 
      1177.0         0.33       1981.9 
      1178.0         0.37       1865.4 
      1179.0         0.37       1715.6 
      1180.0         0.40       1526.1 
      1181.0         0.30       1388.1 
      1182.0         0.37       1369.0 
      1183.0         0.32       1174.5 
      1184.0         0.33       1114.2 
      1185.0         0.30       1113.5 
      1186.0         0.33       1140.5 
      1187.0         0.30       1169.4 
      1188.0         0.20       1183.0 
      1189.0         0.17       1183.0 
      1190.0         0.17       1155.1 
      1191.0         0.13       1180.8 
      1192.0         0.37       1240.8 
      1193.0         0.40       1317.9 
      1194.0         0.47       1306.5 
      1195.0         0.55       1242.7 
      1196.0         1.83       2786.1 
      1197.0         0.73       2941.7 
      1198.0         0.58       2733.1 
      1199.0         0.50       2290.7 
      1200.0         0.57       2002.8 
      1201.0         0.40       1687.7 
      1202.0         0.40       1655.6 
      1203.0         0.50       1541.0 
      1204.0         0.47       1453.4 
      1205.0         0.68       1422.7 
      1206.0         0.50       1428.7 
      1207.0         0.47       1450.6 
      1208.0         0.40       1545.2 
      1209.0         0.33       1629.0 
      1210.0         0.37       1643.9 
      1211.0         0.37       1622.3 
      1212.0         0.40       1575.0 
      1213.0         0.45       1526.8 
      1214.0         0.37       1473.4 
      1215.0         0.40       1434.4 
      1216.0         0.47       1395.4 
      1217.0         0.47       1370.9 
      1218.0         0.43       1379.2 
      1219.0         0.37       1390.3 
      1220.0         0.43       1402.7 
      1221.0         0.38       1409.3 
      1222.0         0.37       1417.3 
      1223.0         0.33       1432.8 
      1224.0         0.33       1419.5 
      1225.0         0.33       1413.5 
      1226.0         2.98       2717.3 
      1227.0         0.47       2551.6 
      1228.0         0.40       2264.7 
      1229.0         0.40       1949.2 
      1230.0         0.37       1832.7 
      1231.0         0.37       1816.2 
      1232.0         0.38       1718.1 
      1233.0         0.33       1647.7 
      1234.0         0.33       1528.0 
      1235.0         0.37       1492.2 
      1236.0         0.30       1460.1 
      1237.0         0.27       1438.8 
      1238.0         0.37       1435.4 
      1239.0         0.37       1422.0 
      1240.0         0.37       1454.1 
      1241.0         0.33       1470.3 
      1242.0         0.35       1482.3 
      1243.0         0.30       1489.9 
      1244.0         0.30       1491.9 
      1245.0         0.30       1491.9 
      1246.0         0.30       1490.9 
      1247.0         0.30       1488.0 
      1248.0         0.30       1490.9 
      1249.0         0.30       1492.5 
      1250.0         0.33       1496.6 
      1251.0         0.13       1496.6 
      1252.0         0.30       1507.4 
      1253.0         0.32       1486.8 
      1254.0         0.40       1416.9 
      1255.0         0.13       1047.2 
      1256.0         3.62       4836.1 
      1257.0         0.67       2372.9 
      1258.0         0.50       2094.6 
      1259.0         0.47       1930.5 
      1260.0         0.40       1768.3 
      1261.0         0.45       1653.1 
      1262.0         0.43       1509.9 
      1263.0         0.33       1451.9 
      1264.0         0.47       1428.7 
      1265.0         0.30       1375.4 
      1266.0         0.23       1297.9 
      1267.0         0.17       1220.8 
      1268.0         0.17       1220.8 
      1269.0         0.13       1241.1 
      1270.0         0.23       1259.8 
      1271.0         0.33       1365.5 
      1272.0         0.33       1424.9 
      1273.0         0.35       1500.7 
      1274.0         0.33       1515.3 
      1275.0         0.37       1515.0 
      1276.0         0.40       1514.1 
      1277.0         0.37       1476.3 
      1278.0         0.27       1444.2 
      1279.0         0.30       1434.7 
      1280.0         0.33       1428.7 
      1281.0         0.37       1426.5 
      1282.0         0.42       1423.0 
      1283.0         0.23       1406.2 
      1284.0         0.23       1364.9 
      1285.0         0.83       1569.9 
      1286.0         2.35       2436.1 
      1287.0         0.33       2331.3 
      1288.0         0.40       2165.3 
      1289.0         0.37       2043.1 
      1290.0         0.37       1850.8 
      1291.0         0.33       1682.9 
      1292.0         0.23       1648.0 
      1293.0         0.17       1609.6 
      1294.0         0.20       1521.1 
      1295.0         0.27       1481.7 
      1296.0         0.28       1463.9 
      1297.0         0.27       1427.4 
      1298.0         0.27       1425.2 
      1299.0         0.27       1427.4 
      1300.0         0.23       1446.8 
      1301.0         0.23       1448.4 
      1302.0         0.27       1442.3 
      1303.0         0.23       1441.1 
      1304.0         0.20       1436.9 
      1305.0         0.13       1418.5 
      1306.0         0.17       1403.3 
      1307.0         0.17       1403.3 
      1308.0         0.27       1416.9 
      1309.0         0.30       1432.8 
      1310.0         7.38       1596.6 
      1311.0         0.23       1655.9 
      1312.0         0.10       1655.9 
      1313.0         0.07       1655.9 
      1314.0         0.40       1986.0 
      1315.0         0.43       2082.5 
      1316.0         1.20       2018.4 
      1317.0         0.58       2821.4 
      1318.0         0.37       3469.5 
      1319.0         0.80       3744.6 
      1320.0         0.67       3127.0 
      1321.0         0.50       2782.0 
      1322.0         0.27       1958.7 
      1323.0         0.27       1932.1 
      1324.0         0.30       1685.1 
      1325.0         0.32       1606.1 
      1326.0         0.30       1568.7 
      1327.0         0.30       1485.8 
      1328.0         0.40       1478.5 
      1329.0         0.37       1378.2 
