~Version Information
VERS.                      2.0: CWLS Log ASCII Standard - VERSION 2.0
WRAP.                       NO: One line per depth step
~Well Information Block
STRT.FT               240.0000: 
STOP.FT               940.5000: 
STEP.FT                 0.1000: 
NULL.                -999.2500: 
COMP.          Pioneer Natural Resources: COMPANY
WELL.               Ernie 31-6: WELL
FLD.           Purgatoire River: FIELD
LOC.           681' FNL & 2138' FEL: LOCATION
CNTY.               Las Animas: COUNTY
SRVC.                Patterson: SERVICE COMPANY
DATE.          Tue May 30 07:05:10 2006: LOG DATE
UWI.           05 071 08716 00: UNIQUE WELL ID
STAT.                 Colorado: STATE
~Curve Information Block
DEPT.FT            0 000 00 00: Depth
DCAL.in                       : CDL Caliper
RHOB.g/cc                     : CDL Bulk Density
RHOC.g/cc                     : CDL Density Correction
DPOR.pu                       : CDL Density Porosity
GR.GAPI                       : Gamma Ray
NPOR.pu                       : Neutron Porosity
~Parameter Information Block
~A  Depth       DCAL        RHOB        RHOC        DPOR         GR         NPOR    
# ...
   748.8000      7.9074      2.5459      0.0695      6.3118    111.5837     22.4421
   748.9000      7.9074      2.5501      0.1027      6.0555    118.0451     22.7162
   749.0000      7.9069      2.5365      0.0847      6.8775    115.5553     22.2477
   749.1000      7.9069      2.5134      0.0530      8.2815    106.3323     21.1902
   749.2000      7.9069      2.4946      0.0694      9.4194     99.8449     20.3065
   749.3000      7.9085      2.4768      0.0389     10.5000     99.7776     20.3471
   749.4000      7.9085      2.4572      0.0187     11.6842    101.7234     21.1156
   749.5000      7.9083      2.4478     -0.0068     12.2536    100.9078     21.8876
   749.6000      7.9083      2.4553      0.0330     11.7970     98.6286     22.2282
   749.7000      7.9083      2.4660      0.0390     11.1529     99.1926     21.9991
   749.8000      7.9077      2.4678      0.0265     11.0415    103.8973     21.4511
   749.9000      7.9077      2.4738      0.0362     10.6779    108.7631     20.9488
   750.0000      7.9058      2.5007      0.0624      9.0471    111.0963     20.5216
   750.1000      7.9058      2.5440      0.1502      6.4240    112.8186     20.1465
   750.2000      7.9058      2.5847      0.1876      3.9574    113.1334     20.0014
   750.3000      7.9035      2.6105      0.1976      2.3944    110.0373     20.3312
   750.4000      7.9035      2.6196      0.2006      1.8409    104.1477     21.0868
   750.5000      7.9070      2.6189      0.1393      1.8855     99.6327     21.7085
   750.6000      7.9070      2.6151      0.1322      2.1164     97.9875     21.8589
   750.7000      7.9070      2.6023      0.1356      2.8891     95.4726     21.7883
   750.8000      7.9084      2.5803      0.1092      4.2231     92.7218     21.5068
   750.9000      7.9084      2.5647      0.0813      5.1702     94.7299     21.1000
   751.0000      7.9104      2.5599      0.0934      5.4617    101.0630     21.0498
   751.1000      7.9104      2.5522      0.0892      5.9258    105.5357     21.4893
   751.2000      7.9104      2.5309      0.0935      7.2152    105.2017     21.8358
   751.3000      7.9106      2.5068     -0.0077      8.6786    103.8380     21.5403
   751.4000      7.9106      2.5031      0.0277      8.9003    105.5059     20.8387
   751.5000      7.9106      2.5171      0.0598      8.0571    105.1687     20.5099
   751.6000      7.9106      2.5217      0.0632      7.7731    101.0786     20.7644
   751.7000      7.9106      2.5104      0.0456      8.4618    102.6066     21.1485
   751.8000      7.9104      2.5038      0.0300      8.8592    111.3576     21.4939
   751.9000      7.9104      2.5143      0.0514      8.2251    115.8440     21.8281
   752.0000      7.9115      2.5304      0.0649      7.2482    110.9095     21.7630
   752.1000      7.9115      2.5369      0.0917      6.8555    101.8859     21.1345
   752.2000      7.9115      2.5335      0.0971      7.0576     93.2399     20.5869
   752.3000      7.9118      2.5341      0.0636      7.0237     85.1225     20.2634
   752.4000      7.9118      2.5467      0.0876      6.2606     80.2620     19.8797
   752.5000      7.9108      2.5607      0.0949      5.4135     80.0511     19.7413
   752.6000      7.9108      2.5661      0.0619      5.0869     80.1679     19.9907
   752.7000      7.9108      2.5642      0.0829      5.2003     77.3337     20.1958
   752.8000      7.9103      2.5592      0.0565      5.5003     73.3526     19.9789
   752.9000      7.9103      2.5579      0.0918      5.5814     70.4516     19.5017
   753.0000      7.9084      2.5629      0.0833      5.2815     68.6928     19.1727
   753.1000      7.9084      2.5706      0.1256      4.8113     66.8504     19.0088
   753.2000      7.9084      2.5782      0.1022      4.3494     63.2607     18.7006
   753.3000      7.9102      2.5871      0.0843      3.8103     61.0507     18.3642
   753.4000      7.9102      2.5959      0.0921      3.2787     64.6142     18.4114
   753.5000      7.9097      2.6040      0.0956      2.7905     69.1461     18.4732
   753.6000      7.9097      2.6171      0.1350      1.9943     68.1248     18.1462
   753.7000      7.9097      2.6300      0.1704      1.2117     63.7516     17.9352
   753.8000      7.9091      2.6240      0.1855      1.5734     62.3852     18.1589
   753.9000      7.9091      2.5969      0.1258      3.2196     65.5113     18.4348
   754.0000      7.9108      2.5701      0.0677      4.8436     68.3708     18.6757
   754.1000      7.9108      2.5569      0.0707      5.6395     67.8476     18.9453
   754.2000      7.9108      2.5485      0.0798      6.1539     64.8159     19.0127
   754.3000      7.9107      2.5329      0.0356      7.0992     60.0049     18.8698
   754.4000      7.9107      2.5129      0.0183      8.3076     54.1313     18.7163
   754.5000      7.9107      2.4988      0.0057      9.1609     49.0987     18.7107
   754.6000      7.9107      2.4929      0.0444      9.5217     47.2248     18.6529
   754.7000      7.9107      2.4906      0.0652      9.6626     48.9777     18.2345
   754.8000      7.9113      2.4974      0.0123      9.2469     53.6814     18.0421
   754.9000      7.9113      2.5202      0.0685      7.8695     61.2429     18.4082
   755.0000      7.9100      2.5504      0.0606      6.0354     67.3893     18.5732
   755.1000      7.9100      2.5795      0.0810      4.2745     64.8388     17.9589
   755.2000      7.9100      2.6005      0.1262      3.0028     55.5669     17.1336
   755.3000      7.9108      2.6094      0.1031      2.4587     49.1589     16.9450
   755.4000      7.9108      2.6119      0.1266      2.3096     49.4480     17.6433
   755.5000      7.9104      2.6073      0.1485      2.5850     53.0805     18.6726
   755.6000      7.9104      2.5972      0.0980      3.1994     55.4815     19.0854
   755.7000      7.9104      2.5955      0.0724      3.3049     54.7914     18.8730
   755.8000      7.9144      2.6045      0.0898      2.7594     50.4455     18.5635
   755.9000      7.9144      2.6147      0.0697      2.1416     43.4353     18.0766
   756.0000      7.9160      2.6197      0.1247      1.8361     41.9224     17.4119
   756.1000      7.9160      2.6139      0.1104      2.1870     50.9191     16.9343
   756.2000      7.9160      2.5946      0.0903      3.3578     60.3584     16.6478
   756.3000      7.9151      2.5681      0.0796      4.9607     61.3318     16.6051
   756.4000      7.9151      2.5481      0.0497      6.1749     56.7503     17.0465
   756.5000      7.9130      2.5450      0.0687      6.3658     52.1255     17.8453
   756.6000      7.9130      2.5567      0.0738      5.6564     51.0878     18.6888
   756.7000      7.9130      2.5718      0.0775      4.7416     54.0999     19.1972
   756.8000      7.9148      2.5821      0.0459      4.1155     61.3265     19.0156
   756.9000      7.9148      2.5899      0.0691      3.6416     69.0921     18.4866
   757.0000      7.9161      2.5934      0.0833      3.4312     70.6454     17.8994
   757.1000      7.9161      2.5816      0.0851      4.1449     68.9548     17.1383
   757.2000      7.9161      2.5582      0.0322      5.5614     69.7279     16.6445
   757.3000      7.9133      2.5401      0.0660      6.6613     72.5330     16.8982
   757.4000      7.9133      2.5289      0.0792      7.3376     75.1628     17.5557
   757.5000      7.9126      2.5198      0.0505      7.8931     75.0287     17.8606
   757.6000      7.9126      2.5143      0.0326      8.2222     72.6681     17.5209
   757.7000      7.9126      2.5147      0.0092      8.2000     73.5677     17.0568
   757.8000      7.9130      2.5209      0.0247      7.8234     78.2883     17.1644
   757.9000      7.9130      2.5277      0.0606      7.4146     80.9006     17.6216
   758.0000      7.9137      2.5337      0.0011      7.0464     78.9605     18.2092
   758.1000      7.9137      2.5475      0.0580      6.2138     74.1389     18.9012
   758.2000      7.9137      2.5688      0.0562      4.9232     68.8054     18.8129
   758.3000      7.9158      2.5894      0.0932      3.6708     64.5775     17.8286
