~Version Information
VERS.                      2.0: CWLS Log ASCII Standard - VERSION 2.0
WRAP.                       NO: One line per depth step
~Well Information Block
STRT.FT                -8.0000: 
STOP.FT              1472.2500: 
STEP.FT                 0.2500: 
NULL.                -999.2500: 
COMP.          Pioneer Natural Resources: COMPANY
WELL.           Amore 32-09 Tr: WELL
FLD.           Purgatoire River: FIELD
LOC.           1941' FNL & 2297' FEL--: LOCATION
PROV.                       CO: PROVINCE
CNTY.               Las Animas: COUNTRY
SRVC.          Patterson Wireline: SERVICE COMPANY
DATE.          Tue Nov 22 11:37:00 2005: LOG DATE
UWI.           05 071 08584 00: UNIQUE WELL ID
~Curve Information Block
DEPT.FT            0 000 00 00: Depth
CCL.                          : Casing Collar Locator
TT3.usec                      : CBL 3' Travel Time
AMP3.mV                       : CBL 3' Amplitude
GR.GAPI                       : Gamma Ray
~Parameter Information Block
~A  Depth       CCL         TT3         AMP3         GR     
# ...
  1231.5000      0.0000    732.7213      7.5283    137.4085
  1231.7500      0.0000    731.5015      7.7274    141.6075
  1232.0000      0.0000    729.4971      7.9385    145.6450
  1232.2500      0.0000    726.9148      8.0826    147.4443
  1232.5000      0.0000    723.3990      8.1145    145.0829
  1232.7500      0.0000    716.1660      8.0566    137.7511
  1233.0000      0.0000    699.8000      7.9697    126.7232
  1233.2500      0.0000    670.9278      7.8902    115.0429
  1233.5000      0.0000    635.6810      7.8027    105.9793
  1233.7500      0.0000    610.6494      7.6752    101.5866
  1234.0000      0.0000    611.3949      7.5050    102.2073
  1234.2500      0.0000    638.6033      7.3010    106.7243
  1234.5000      0.0000    678.4965      7.0277    113.2454
  1234.7500      0.0000    717.0847      6.6228    120.1473
  1235.0000      0.0000    751.0029      6.1027    126.7627
  1235.2500      0.0000    784.6309      5.6111    132.7377
  1235.5000      0.0000    820.3505      5.3231    136.7812
  1235.7500      0.0000    853.8409      5.3108    136.8859
  1236.0000      0.0000    877.9893      5.5123    132.2470
  1236.2500     -2.0000    889.2137      5.7959    124.4980
  1236.5000      2.0000    888.9717      6.0350    116.5156
  1236.7500      0.0000    880.6945      6.1638    110.0246
  1237.0000      0.0000    867.0036      6.2177    104.5464
  1237.2500      0.0000    849.3348      6.3249     98.6145
  1237.5000      0.0000    828.9982      6.6179     91.7566
  1237.7500      0.0000    808.1846      7.1118     85.0332
  1238.0000      0.0000    789.5367      7.6596     79.8951
  1238.2500      0.0000    774.6937      8.0508     76.9540
  1238.5000      0.0000    763.6262      8.1706     75.5958
  1238.7500      0.0000    755.3078      8.0675     74.3699
  1239.0000      0.0000    748.7863      7.8944     72.1046
  1239.2500      0.0000    743.7294      7.7991     68.9179
  1239.5000      0.0000    740.2060      7.8453     65.8253
  1239.7500      0.0000    738.1645      8.0032     63.3752
  1240.0000      0.0000    737.2296      8.1959     61.1631
  1240.2500      0.0000    736.9230      8.3559     58.8052
  1240.5000      0.0000    736.8892      8.4467     56.9222
  1240.7500      0.0000    736.9351      8.4555     56.6130
  1241.0000      0.0000    736.9565      8.3867     58.0083
  1241.2500      0.0000    736.8837      8.2624     59.9190
  1241.5000      0.0000    736.6882      8.1165     61.3175
  1241.7500      0.0000    736.4209      7.9767     63.0384
  1242.0000      0.0000    736.1967      7.8556     67.6470
  1242.2500      0.0000    736.1271      7.7616     77.2345
  1242.5000      0.0000    736.2552      7.7089     91.0605
  1242.7500      0.0000    736.5311      7.7027    105.4243
  1243.0000      0.0000    736.8293      7.7228    116.1761
  1243.2500      0.0000    737.0032      7.7407    121.3512
  1243.5000      0.0000    736.9577      7.7525    121.3428
  1243.7500      0.0000    736.6958      7.7812    117.3154
  1244.0000      0.0000    736.3099      7.8403    110.3289
  1244.2500      0.0000    735.9357      7.8991    101.6767
  1244.5000      0.0000    735.6908      7.8944     93.1682
  1244.7500      0.0000    735.6134      7.7888     86.9191
  1245.0000      0.0000    735.6441      7.6191     85.0471
  1245.2500      0.0000    735.6956      7.4726     88.7838
  1245.5000      0.0000    735.7471      7.4128     96.9410
  1245.7500      0.0000    735.8423      7.4383    105.6431
  1246.0000      0.0000    736.0031      7.5072    110.8111
  1246.2500      0.0000    736.2293      7.5761    111.3450
  1246.5000      0.0000    736.6298      7.6117    109.3658
  1246.7500      0.0000    737.5289      7.5889    107.2943
  1247.0000      0.0000    739.3158      7.5005    105.5098
  1247.2500      0.0000    742.0027      7.3784    102.9612
  1247.5000      0.0000    744.9213      7.2983     99.1042
  1247.7500      0.0000    747.2124      7.3420     94.6388
  1248.0000      0.0000    748.8528      7.5407     90.7914
  1248.2500      0.0000    750.7206      7.8624     88.5155
  1248.5000      0.0000    753.1358      8.2487     88.4401
  1248.7500      0.0000    754.7817      8.6435     91.1277
  1249.0000      0.0000    753.8415      8.9815     96.8292
  1249.2500      0.0000    750.0927      9.1752    104.6974
  1249.5000      0.0000    745.3008      9.1449    112.5349
  1249.7500      0.0000    741.6890      8.8758    117.8816
  1250.0000      0.0000    740.4468      8.4467    119.7642
  1250.2500      0.0000    741.3311      7.9882    119.4641
  1250.5000      0.0000    742.8867      7.6026    119.3870
  1250.7500      0.0000    743.0443      7.3226    121.0277
  1251.0000      0.0000    740.0406      7.1390    124.0435
  1251.2500      0.0000    733.0011      7.0521    126.9289
  1251.5000      0.0000    721.9599      7.0797    128.2094
  1251.7500      0.0000    708.1893      7.2193    127.2563
  1252.0000      0.0000    694.8599      7.4174    124.5023
  1252.2500      0.0000    686.4521      7.5892    121.0870
  1252.5000      0.0000    686.3551      7.6732    118.3867
  1252.7500      0.0000    694.4839      7.6632    117.8178
  1253.0000      0.0000    707.1279      7.5964    120.3794
  1253.2500      0.0000    719.2727      7.5258    125.6575
  1253.5000      0.0000    727.4169      7.4918    131.4574
  1253.7500      0.0000    730.5943      7.5016    135.0072
  1254.0000      0.0000    729.5308      7.5311    134.7962
  1254.2500      0.0000    725.7842      7.5564    131.3976
  1254.5000      0.0000    721.6633      7.5808    126.8250
  1254.7500      0.0000    719.7037      7.6241    123.1868
  1255.0000      0.0000    721.0892      7.6911    121.5326
  1255.2500      0.0000    724.7453      7.7573    121.3934
  1255.5000      0.0000    728.4423      7.7818    121.2906
  1255.7500      0.0000    730.4551      7.7366    120.0077
  1256.0000      0.0000    729.8422      7.6329    117.6829
  1256.2500      0.0000    725.7681      7.5208    115.7091
  1256.5000      0.0000    717.6555      7.4536    115.5651
  1256.7500      0.0000    706.6398      7.4539    117.7736
  1257.0000      0.0000    696.5511      7.5136    121.6859
  1257.2500      0.0000    692.2428      7.6157    125.9393
  1257.5000      0.0000    695.9185      7.7421    129.1868
  1257.7500      0.0000    705.0623      7.8615    130.5576
  1258.0000      0.0000    714.4425      7.9197    129.6621
  1258.2500      0.0000    720.1852      7.8550    126.5364
  1258.5000      0.0000    721.8474      7.6375    121.5028
  1258.7500      0.0000    720.8997      7.3064    114.6971
  1259.0000      0.0000    717.8610      6.9579    106.0085
  1259.2500      0.0000    711.5668      6.6820     95.8792
  1259.5000      0.0000    701.4601      6.5053     85.6654
  1259.7500      0.0000    690.0533      6.3956     76.7274
  1260.0000      0.0000    682.3057      6.3134     69.5908
  1260.2500      0.0000    681.9982      6.2525     64.2403
  1260.5000      0.0000    688.2621      6.2408     60.7897
  1260.7500      0.0000    694.8167      6.3129     59.6672
  1261.0000      0.0000    692.9860      6.4818     61.1397
  1261.2500      0.0000    677.2901      6.7255     64.4464
  1261.5000      0.0000    650.0450      6.9929     67.5801
  1261.7500      0.0000    620.4919      7.2278     68.5822
  1262.0000      0.0000    598.8074      7.3915     67.2997
  1262.2500      0.0000    591.0823      7.4705     65.5396
  1262.5000      0.0000    599.0932      7.4687     65.4064
  1262.7500      0.0000    621.4761      7.4025     67.7703
  1263.0000      0.0000    653.0190      7.2978     72.2405
  1263.2500      0.0000    685.0251      7.1846     77.9437
  1263.5000      0.0000    709.5873      7.0870     83.9841
  1263.7500      0.0000    723.9809      7.0208     89.5376
  1264.0000      0.0000    730.4342      6.9992     94.0202
  1264.2500      0.0000    732.6347      7.0335     97.4930
  1264.5000      0.0000    733.1995      7.1217    101.0451
  1264.7500      0.0000    733.2906      7.2390    106.6241
