~Version Information
VERS.                      2.0: CWLS Log ASCII Standard - VERSION 2.0
WRAP.                       NO: One line per depth step
~Well Information Block
STRT.FT                -8.7500: 
STOP.FT              1525.0000: 
STEP.FT                 0.2500: 
NULL.                -999.2500: 
COMP.          Pioneer Natural Resources: COMPANY
WELL.          Grand Prix 13-12 Tr: WELL
FLD.           Purgatorie River: FIELD
LOC.           2595' FSL & 1277' FWL--: LOCATION
CNTY.               Las Animas: COUNTY
SRVC.          Patterson Wireline: SERVICE COMPANY
DATE.          Thu Apr 13 10:28:30 2006: LOG DATE
UWI.           05 071 08711 00: UNIQUE WELL ID
STAT.                       CO: STATE
~Curve Information Block
DEPT.FT            0 000 00 00: Depth
CCL.                          : Casing Collar Locator
TT3.usec                      : CBL 3' Travel Time
AMP3.mV                       : CBL 3' Amplitude
GR.GAPI                       : Gamma Ray
~Parameter Information Block
~A  Depth       CCL         TT3         AMP3         GR     
# ...
  1096.7500      0.0000    679.0535      3.5175    139.4306
  1097.0000      0.0000    679.0253      3.4635    132.3196
  1097.2500      0.0000    678.9894      3.4198    126.0887
  1097.5000      0.0000    678.9648      3.3928    122.1422
  1097.7500      0.0000    678.9532      3.3950    120.2441
  1098.0000      0.0000    678.9592      3.4334    119.0773
  1098.2500      0.0000    679.0038      3.4978    117.7636
  1098.5000      0.0000    679.1422      3.5624    116.6288
  1098.7500      0.0000    679.4979      3.6019    116.6421
  1099.0000      0.0000    680.3356      3.6097    118.2799
  1099.2500      0.0000    682.0541      3.6027    120.8510
  1099.5000      0.0000    684.9473      3.6072    123.1172
  1099.7500      0.0000    688.7100      3.6355    124.7734
  1100.0000      0.0000    691.8930      3.6764    126.9849
  1100.2500      0.0000    691.5264      3.7105    131.1232
  1100.5000      0.0000    683.4962      3.7311    137.4834
  1100.7500      0.0000    665.1753      3.7470    145.4207
  1101.0000      0.0000    639.6125      3.7658    153.8418
  1101.2500      0.0000    616.2219      3.7768    161.0495
  1101.5000      0.0000    604.7143      3.7573    164.8852
  1101.7500      0.0000    608.0657      3.7005    163.9689
  1102.0000      0.0000    622.1604      3.6352    158.7840
  1102.2500      0.0000    640.4297      3.6095    151.0875
  1102.5000      0.0000    657.3283      3.6501    142.3872
  1102.7500      0.0000    669.5334      3.7389    133.4087
  1103.0000      0.0000    676.3623      3.8343    124.7017
  1103.2500      0.0000    679.1745      3.9113    116.9973
  1103.5000      0.0000    679.8790      3.9752    110.8436
  1103.7500      0.0000    679.8202      4.0362    106.5676
  1104.0000      0.0000    679.6304      4.0839    105.0526
  1104.2500      0.0000    679.5322      4.0918    107.8241
  1104.5000      0.0000    679.5594      4.0450    115.3794
  1104.7500      0.0000    679.6136      3.9612    125.5730
  1105.0000      0.0000    679.3458      3.8818    134.5918
  1105.2500      0.0000    677.9113      3.8428    139.8114
  1105.5000      0.0000    673.4907      3.8516    141.4168
  1105.7500      0.0000    663.0679      3.8914    141.4636
  1106.0000      0.0000    643.8984      3.9432    141.9182
  1106.2500      0.0000    617.1621      3.9973    143.4991
  1106.5000      0.0000    590.5601      4.0479    145.7800
  1106.7500      0.0000    575.0719      4.0877    147.9202
  1107.0000      0.0000    577.0262      4.1129    149.2740
  1107.2500      0.0000    593.6008      4.1285    149.6494
  1107.5000      0.0000    616.4763      4.1426    149.2415
  1107.7500      0.0000    638.4380      4.1587    148.1452
  1108.0000      0.0000    655.7665      4.1767    145.6544
  1108.2500      0.0000    666.0476      4.1972    140.4249
  1108.5000      0.0000    665.7061      4.2206    132.0301
  1108.7500      0.0000    650.6444      4.2439    122.2662
  1109.0000      0.0000    620.1775      4.2605    114.3434
  1109.2500      0.0000    580.5270      4.2620    110.8344
  1109.5000      0.0000    542.8410      4.2416    112.4630
  1109.7500      0.0000    516.2801      4.1963    118.1102
  1110.0000      0.0000    502.8735      4.1302    125.3856
  1110.2500      0.0000    498.5186      4.0533    131.6018
  1110.5000      0.0000    497.5888      3.9776    135.0078
  1110.7500      0.0000    496.4099      3.9133    135.4322
  1111.0000      0.0000    493.9721      3.8698    133.6259
  1111.2500      0.0000    490.8208      3.8549    130.0647
  1111.5000      0.0000    487.6655      3.8731    124.8687
  1111.7500      0.0000    485.0579      3.9217    118.9613
  1112.0000      0.0000    484.1067      3.9889    114.4942
  1112.2500      0.0000    486.0892      4.0580    113.3165
  1112.5000      0.0000    489.8694      4.1144    115.1175
  1112.7500      0.0000    490.2740      4.1529    117.7802
  1113.0000      0.0000    481.0235      4.1765    119.7351
  1113.2500      0.0000    460.2444      4.1906    121.2870
  1113.5000      0.0000    432.7532      4.1969    123.2007
  1113.7500      0.0000    406.6396      4.1939    124.8079
  1114.0000      0.0000    387.7139      4.1814    124.5617
  1114.2500      0.0000    376.9866      4.1608    122.1729
  1114.5000      0.0000    372.2314      4.1364    119.0566
  1114.7500      0.0000    370.6892      4.1163    116.3468
  1115.0000      0.0000    370.4886      4.1135    113.3362
  1115.2500      0.0000    370.7431      4.1401    108.7523
  1115.5000      0.0000    371.2888      4.1947    103.1936
  1115.7500      0.0000    372.3685      4.2589     99.1520
  1116.0000      0.0000    374.1133      4.3089     98.5060
  1116.2500      0.0000    376.0280      4.3317    100.8055
  1116.5000      0.0000    377.1639      4.3306    104.0204
  1116.7500      0.0000    377.1428      4.3153    106.3014
  1117.0000      0.0000    377.0974      4.2915    107.0334
  1117.2500      0.0000    379.6361      4.2595    106.7084
  1117.5000      0.0000    388.2059      4.2180    106.1504
  1117.7500      0.0000    406.3284      4.1676    106.0728
  1118.0000      0.0000    436.3627      4.1107    107.4215
  1118.2500      0.0000    477.6415      4.0513    111.6114
  1118.5000      0.0000    525.3777      3.9935    119.5618
  1118.7500      0.0000    572.1102      3.9403    130.0712
  1119.0000      0.0000    611.1877      3.8921    139.5007
  1119.2500      0.0000    639.4198      3.8462    143.9795
  1119.5000      0.0000    656.9068      3.7945    142.4686
  1119.7500      0.0000    665.1816      3.7222    137.4465
  1120.0000      0.0000    666.2455      3.6159    132.4897
  1120.2500      0.0000    663.0887      3.4853    129.6523
  1120.5000      0.0000    659.8536      3.3745    129.1652
  1120.7500      0.0000    660.1956      3.3369    130.6367
  1121.0000      0.0000    665.1421      3.3894    133.5544
  1121.2500      0.0000    672.7489      3.5005    136.7064
  1121.5000      0.0000    679.9543      3.6206    138.0915
  1121.7500      0.0000    684.9124      3.7147    136.2686
  1122.0000      2.0000    688.1033      3.7718    131.8571
  1122.2500     -2.0000    691.3530      3.7991    127.1623
  1122.5000      0.0000    695.2813      3.8071    124.1348
  1122.7500      0.0000    697.6706      3.7944    122.8602
  1123.0000      0.0000    695.1163      3.7519    121.9818
  1123.2500      0.0000    686.5655      3.6840    120.3985
  1123.5000      0.0000    674.6586      3.6210    118.5289
  1123.7500      0.0000    663.5996      3.6033    118.0655
  1124.0000      0.0000    656.3970      3.6546    120.5648
  1124.2500      0.0000    653.8548      3.7650    126.1603
  1124.5000      0.0000    654.8837      3.8923    133.4458
  1124.7500      0.0000    657.1805      3.9856    140.4639
  1125.0000      0.0000    657.8991      4.0181    145.7688
  1125.2500      0.0000    654.3284      4.0021    148.7385
  1125.5000      0.0000    645.3285      3.9703    149.4373
  1125.7500      0.0000    632.9404      3.9428    148.6984
  1126.0000      0.0000    621.4796      3.9192    148.0606
  1126.2500      0.0000    613.9445      3.8985    148.7715
  1126.5000      0.0000    609.9416      3.8941    150.7096
  1126.7500      0.0000    607.8491      3.9230    152.7135
  1127.0000      0.0000    607.7670      3.9827    153.8994
  1127.2500      0.0000    610.3062      4.0446    154.0509
  1127.5000      0.0000    612.8896      4.0721    152.6810
  1127.7500      0.0000    609.9736      4.0463    148.5440
  1128.0000      0.0000    597.4069      3.9785    140.7213
  1128.2500      0.0000    574.6903      3.9000    130.0621
  1128.5000      0.0000    543.6872      3.8409    119.3495
  1128.7500      0.0000    508.6736      3.8108    112.1577
  1129.0000      0.0000    477.9615      3.7995    111.2841
  1129.2500      0.0000    461.4268      3.7907    117.1437
  1129.5000      0.0000    463.3870      3.7754    126.7830
  1129.7500      0.0000    478.9170      3.7549    135.0858
  1130.0000      0.0000    498.8567      3.7331    138.3763
