~Version Information
 VERS.                                  2.0 : CWLS LAS VERSION
 WRAP.                                   NO : WRAPING MODE
 SWARE .                 MController 2.5.0E : SOFTWARE VERSION
~Well Information
 WELL.                      Black Cat 13-23 : WELL
 COMP.     Pioneer Natural Resources USA Inc: COMPANY
 FLD.                      Purgatorie River : FIELD
 LOC.                 NW/SW Sec32 T32S R67W : LOCATION
 DATE.                           7/30-31/05 : DATE(S) LOGGED
 SRVC.       Blanco Geological Services LLC : SERVICE COMPANY
 STAT.                                   CO : STATE
 CNTY.                           Las Animas : COUNTY
 CTRY.                                  USA : COUNTRY
 API.                       05-071-08450-00 : API NUMBER
 STRT.FT                             327.00 : START DEPTH
 STOP.FT                            2850.00 : STOP DEPTH
 STEP.FT                               1.00 : DEPTH INCREMENT
 NULL.                                -9999 : NULL VALUE
~Curve information
 DEPTH.FT                                   :
 ROP.MIN/FT                                 :
 GAS.UNITS                                  :
~ASCII Log data
# ...
       927.0         0.25          5.9 
       928.0         0.20          5.6 
       929.0         0.17          5.8 
       930.0         0.13          5.8 
       931.0         0.13          6.4 
       932.0         7.17         38.6 
       933.0         0.10         46.5 
       934.0         0.10         46.5 
       935.0         0.10         46.5 
       936.0         0.13         54.0 
       937.0         0.20         66.5 
       938.0         0.27         67.1 
       939.0         0.20         65.7 
       940.0         0.17         54.7 
       941.0         0.10         47.4 
       942.0         0.20         41.1 
       943.0         0.23         36.6 
       944.0         0.20         22.5 
       945.0         0.25         13.2 
       946.0         0.20         11.3 
       947.0         0.13          4.3 
       948.0         0.17          3.0 
       949.0         0.20          3.8 
       950.0         0.23          4.0 
       951.0         0.20          4.0 
       952.0         0.20          3.2 
       953.0         0.10          3.8 
       954.0         0.17          3.8 
       955.0         0.37          3.2 
       956.0         0.17          3.5 
       957.0         0.17          3.4 
       958.0         0.20          3.4 
       959.0         0.23          3.0 
       960.0         0.27          3.3 
       961.0         5.43          4.9 
       962.0         0.07          3.1 
       963.0         0.23          3.8 
       964.0         0.33          2.8 
       965.0         0.27          2.7 
       966.0         0.40          2.6 
       967.0         0.42          3.1 
       968.0         0.20          2.7 
       969.0         0.27          4.5 
       970.0         0.47          6.4 
       971.0         0.43          9.1 
       972.0         0.43         15.3 
       973.0         0.53         20.4 
       974.0         0.57         35.7 
       975.0         0.35         42.5 
       976.0         0.23         47.2 
       977.0         0.20         47.2 
       978.0         0.17         54.1 
       979.0         0.27         60.4 
       980.0         0.40         56.6 
       981.0         0.33         37.8 
       982.0         0.43         29.0 
       983.0         0.20          8.5 
       984.0         0.17          4.7 
       985.0         0.20          5.1 
       986.0         0.23          4.1 
       987.0         0.30          2.4 
       988.0         0.28          2.3 
       989.0         0.30          3.2 
       990.0         0.83          3.8 
       991.0         6.13          5.0 
       992.0         0.73          7.8 
       993.0         0.30          8.8 
       994.0         0.63          7.2 
       995.0         0.53          8.2 
       996.0         0.37         11.2 
       997.0         0.25         12.8 
       998.0         0.20         17.1 
       999.0         0.50         22.6 
      1000.0         0.27         29.2 
      1001.0         0.20         35.9 
      1002.0         0.23         42.3 
      1003.0         0.27         46.4 
      1004.0         0.37         52.3 
      1005.0         0.37         63.1 
      1006.0         0.40         65.1 
      1007.0         0.10         46.3 
      1008.0         0.20         42.3 
      1009.0         0.22         31.0 
      1010.0         0.20         18.9 
      1011.0         0.20         13.5 
      1012.0         0.27          6.1 
      1013.0         0.43          5.1 
      1014.0         0.23          2.9 
      1015.0         0.20          3.1 
      1016.0         0.10          3.7 
      1017.0         0.10          4.0 
      1018.0         0.13          4.0 
      1019.0         0.17          4.1 
      1020.0         0.17          3.9 
      1021.0         2.68          4.1 
      1022.0         3.82          5.5 
      1023.0         0.60          6.2 
      1024.0         0.20          9.0 
      1025.0         0.27         11.5 
      1026.0         0.32         14.4 
      1027.0         0.30         16.5 
      1028.0         0.33         20.6 
      1029.0         0.33         28.6 
      1030.0         0.33         33.1 
      1031.0         0.33         35.2 
      1032.0         0.27         37.1 
      1033.0         0.27         41.7 
      1034.0         0.27         41.4 
      1035.0         0.20         26.7 
      1036.0         0.20         25.7 
      1037.0         0.13         20.8 
      1038.0         0.17         20.2 
      1039.0         0.15         13.6 
      1040.0         0.13         11.7 
      1041.0         0.10          7.8 
      1042.0         0.17          7.7 
      1043.0         0.17          4.3 
      1044.0         0.27          3.1 
      1045.0         0.23          2.1 
      1046.0         0.20          3.3 
      1047.0         0.23          3.2 
      1048.0         0.20          3.1 
      1049.0         0.13          4.0 
      1050.0         0.23          3.4 
      1051.0         6.47          5.0 
      1052.0         0.10          4.0 
      1053.0         0.10          4.0 
      1054.0         0.20          5.2 
      1055.0         0.30          5.6 
      1056.0         0.27          6.1 
      1057.0         0.10          6.1 
      1058.0         0.23          7.4 
      1059.0         0.22          8.8 
      1060.0         0.23          9.6 
      1061.0         0.27         12.4 
      1062.0         0.33         15.7 
      1063.0         0.37         19.7 
      1064.0         0.40         22.7 
      1065.0         0.30         25.0 
      1066.0         0.27         26.9 
      1067.0         0.30         27.8 
      1068.0         0.30         24.9 
      1069.0         0.27         22.2 
      1070.0         0.28         15.9 
      1071.0         0.27         12.7 
      1072.0         0.30          8.1 
      1073.0         0.27          9.1 
      1074.0         0.30          4.0 
      1075.0         0.30          2.7 
      1076.0         0.37          2.2 
      1077.0         0.33          3.5 
      1078.0         0.23          4.3 
      1079.0         0.27          5.1 
      1080.0         0.27          4.5 
      1081.0         6.47         26.5 
      1082.0         0.57          9.3 
      1083.0         0.42         12.9 
      1084.0         0.50         17.9 
      1085.0         0.37         20.3 
      1086.0         0.33         28.4 
      1087.0         0.27         31.7 
      1088.0         0.23         35.7 
      1089.0         0.17         35.7 
      1090.0         0.40         37.1 
      1091.0         0.27         35.8 
      1092.0         0.30         31.8 
      1093.0         0.22         25.8 
      1094.0         0.27         16.6 
      1095.0         0.30         12.7 
      1096.0         0.13         12.1 
      1097.0         0.07         10.8 
      1098.0         0.10          8.8 
      1099.0         0.10          8.4 
      1100.0         0.13          4.6 
      1101.0         0.07          4.6 
      1102.0         0.10          4.0 
      1103.0         0.23          3.7 
      1104.0         0.20          3.1 
      1105.0         0.20          3.2 
      1106.0         0.20          3.7 
      1107.0         0.23          4.6 
      1108.0         0.23          5.2 
      1109.0         0.27          5.2 
      1110.0         1.58          6.5 
      1111.0         6.00          9.0 
      1112.0         0.07          6.3 
      1113.0         0.20          6.3 
      1114.0         0.33          6.5 
      1115.0         0.30          7.1 
      1116.0         0.33          6.4 
      1117.0         0.60          7.8 
      1118.0         0.37          8.3 
      1119.0         0.37         10.0 
      1120.0         0.33         12.2 
      1121.0         0.35         14.9 
      1122.0         0.10         14.9 
      1123.0         0.13         15.8 
      1124.0         0.20         18.4 
      1125.0         0.23         21.1 
      1126.0         0.20         23.3 
