~Version Information
VERS.                      2.0: CWLS Log ASCII Standard - VERSION 2.0
WRAP.                       NO: One line per depth step
~Well Information Block
STRT.FT               460.0000: 
STOP.FT              3058.5000: 
STEP.FT                 0.1000: 
NULL.                -999.2500: 
COMP.          Pioneer Natural Resources: COMPANY
WELL.            Cleaver 24-12: WELL
FLD.           Purgatoire River: FIELD
LOC.           204' FSL & 2351' FWL: LOCATION
PROV.                 Colorado: PROVINCE
CNTY.               Las Animas: COUNTRY
SRVC.                Patterson: SERVICE COMPANY
DATE.          Mon Jan 09 13:49:27 2006: LOG DATE
UWI.           05 071 08634 00: UNIQUE WELL ID
~Curve Information Block
DEPT.FT            0 000 00 00: Depth
DCAL.in                       : CDL Caliper
RHOB.g/cc                     : CDL Bulk Density
RHOC.g/cc                     : CDL Density Correction
DPOR.pu                       : CDL Density Porosity
GR.GAPI                       : Gamma Ray
NPOR.pu                       : Neutron Porosity
~Parameter Information Block
~A  Depth       DCAL        RHOB        RHOC        DPOR         GR         NPOR    
   460.0000      4.4000      1.0547      0.0908     96.6820    123.3891     21.5614
   460.1000      4.4000      0.8762      0.0325    107.5013    125.8294     21.4234
   460.2000      4.4000      0.7881      0.1353    112.8444    123.6157     21.1082
   460.3000      4.3985      0.7631      0.2456    114.3558    121.8667     20.9245
   460.4000      4.3985      0.7414      0.2586    115.6755    115.4731     21.1567
   460.5000      4.3933      0.6897      0.1238    118.8036    111.3466     21.5920
   460.6000      4.3933      0.6126     -0.0093    123.4787    112.2384     22.4159
   460.7000      4.3933      0.5313     -0.2491    128.4045    113.9543     23.4894
   460.8000      4.3882      0.4857     -0.4612    131.1719    114.2918     23.4598
   460.9000      4.3882      0.5292     -0.6298    128.5336    114.6893     21.9510
   461.0000      4.3969      0.6837     -0.5231    119.1679    117.8695     20.6639
   461.1000      4.3969      0.9136     -0.3937    105.2381    123.5346     20.8801
   461.2000      4.3969      1.1765     -0.2741     89.3023    112.6939     22.0276
   461.3000      4.3996      1.4643     -0.0719     71.8634    111.3858     22.9389
   461.4000      4.3996      1.7890      0.1750     52.1835    111.6559     23.1206
   461.5000      4.3989      2.1763      0.3810     28.7108    112.4301     23.0175
   461.6000      4.3989      2.6293      0.6286      1.2551    110.2115     23.3200
   461.7000      4.3989      3.0547      0.8807    -24.5244    104.6621     23.6923
   461.8000      4.7973      3.3158      1.0099    -40.3502     98.7577     23.5914
   461.9000      4.7973      3.3855      0.9089    -44.5732     96.6219     23.6547
   462.0000      7.7308      3.3237      0.8851    -40.8323     98.9751     24.3909
   462.1000      7.7308      3.1337      0.8349    -29.3126    101.6487     25.2365
   462.2000      7.7308      2.7935      0.4354     -8.6997     90.8974     25.6774
   462.3000      8.1282      2.4008     -0.3380     15.1002     90.4892     25.8052
   462.4000      8.1282      2.1127     -0.4925     32.5657     86.8232     25.4327
   462.5000      8.1293      1.9731     -0.6151     41.0220     83.1191     24.2822
   462.6000      8.1293      1.9265     -0.5470     43.8479     81.2588     23.1150
   462.7000      8.1293      1.9215     -0.5660     44.1495     78.2618     22.9057
   462.8000      8.1329      1.9406     -0.5265     42.9939     74.2215     23.4230
   462.9000      8.1329      1.9650     -0.4467     41.5123     70.3935     23.9454
   463.0000      8.1306      1.9681     -0.5520     41.3262     69.8255     24.1866
   463.1000      8.1306      1.9479     -0.5491     42.5511     75.0405     23.8925
   463.2000      8.1306      1.9288     -0.6061     43.7074     71.6688     23.4568
   463.3000      8.1297      1.9305     -0.5659     43.6078     73.5421     23.4542
   463.4000      8.1297      1.9552     -0.5817     42.1121     68.6595     23.1500
   463.5000      8.1350      1.9956     -0.5430     39.6617     64.5185     22.1112
   463.6000      8.1350      2.0366     -0.5332     37.1761     66.4859     21.5914
   463.7000      8.1350      2.0685     -0.5593     35.2441     70.6104     22.3621
   463.8000      8.1307      2.0934     -0.4820     33.7335     73.0538     23.3553
   463.9000      8.1307      2.1179     -0.4907     32.2487     72.5804     23.8122
   464.0000      8.1340      2.1460     -0.4631     30.5447     69.9053     24.2937
   464.1000      8.1340      2.1625     -0.4084     29.5458     68.4329     24.7228
   464.2000      8.1340      2.1465     -0.4539     30.5122     69.5403     24.6977
   464.3000      8.1285      2.1087     -0.4954     32.8083     71.7435     24.6873
   464.4000      8.1285      2.0751     -0.4901     34.8452     75.3688     24.7484
   464.5000      8.1239      2.0533     -0.5449     36.1635     80.8480     24.5588
   464.6000      8.1239      2.0346     -0.5346     37.2946     86.0357     24.4467
   464.7000      8.1239      2.0148     -0.5622     38.4985     88.1708     24.1782
   464.8000      8.1216      2.0104     -0.6160     38.7660     86.3629     23.3106
   464.9000      8.1216      2.0360     -0.5264     37.2121     82.3250     22.4141
   465.0000      8.1208      2.0742     -0.5762     34.8988     77.9812     22.6035
   465.1000      8.1208      2.0989     -0.5211     33.3991     74.1788     24.0537
   465.2000      8.1208      2.1066     -0.5754     32.9346     72.6267     25.1312
   465.3000      8.1207      2.1096     -0.5596     32.7487     74.8021     24.4166
   465.4000      8.1207      2.1099     -0.4280     32.7304     77.4090     22.5971
   465.5000      8.1263      2.1139     -0.6175     32.4884     76.7630     21.4358
   465.6000      8.1263      2.1403     -0.4763     30.8918     76.2457     21.9103
   465.7000      8.1263      2.1765     -0.4597     28.6974     78.3702     23.4384
   465.8000      8.1268      2.1997     -0.4340     27.2920     81.3841     24.5084
   465.9000      8.1268      2.2204     -0.4591     26.0392     85.7927     24.4666
   466.0000      8.1238      2.2458     -0.3862     24.4963     91.6294     24.3424
   466.1000      8.1238      2.2410     -0.3616     24.7884     94.8111     24.6778
   466.2000      8.1238      2.1978     -0.4942     27.4087     92.0769     24.7859
   466.3000      8.1190      2.1693     -0.5024     29.1320     83.8607     24.4140
   466.4000      8.1190      2.1771     -0.4435     28.6615     73.0750     23.7452
   466.5000      8.1234      2.1831     -0.4074     28.2962     65.8785     22.8682
   466.6000      8.1234      2.1754     -0.5080     28.7636     68.6869     22.0439
   466.7000      8.1234      2.1816     -0.4951     28.3905     79.2430     21.7227
   466.8000      8.1205      2.2048     -0.4665     26.9802     89.0639     22.0740
   466.9000      8.1205      2.2237     -0.4206     25.8368     92.5797     22.8176
   467.0000      8.1242      2.2302     -0.4610     25.4443     89.0442     23.6123
   467.1000      8.1242      2.2283     -0.4384     25.5597     82.7522     23.8672
   467.2000      8.1242      2.2061     -0.3955     26.9017     79.5602     23.1720
   467.3000      8.1177      2.1587     -0.4707     29.7728     81.6161     21.7732
   467.4000      8.1177      2.1219     -0.5989     32.0073     86.8176     20.1927
   467.5000      8.1190      2.1231     -0.4641     31.9346     90.5138     19.0393
   467.6000      8.1190      2.1493     -0.5188     30.3473     88.2993     18.8461
   467.7000      8.1190      2.1869     -0.5047     28.0643     80.0332     19.6555
   467.8000      8.1195      2.2231     -0.4298     25.8731     71.5354     20.5835
   467.9000      8.1195      2.2477     -0.5106     24.3841     69.3363     20.9019
   468.0000      8.1174      2.2698     -0.4703     23.0423     73.9063     21.2609
   468.1000      8.1174      2.2797     -0.4148     22.4437     80.6835     21.8975
   468.2000      8.1174      2.2654     -0.4397     23.3108     85.8143     21.7932
   468.3000      8.1147      2.2513     -0.4912     24.1629     86.6924     21.2215
   468.4000      8.1147      2.2527     -0.4428     24.0779     83.2752     20.9864
   468.5000      8.1162      2.2654     -0.5106     23.3117     78.8994     20.6814
   468.6000      8.1162      2.2995     -0.4973     21.2450     77.0359     20.1375
   468.7000      8.1162      2.3457     -0.4820     18.4396     78.5546     19.8879
   468.8000      8.1190      2.3749     -0.4350     16.6721     78.8373     20.4417
   468.9000      8.1190      2.3837     -0.5154     16.1405     74.2442     21.1457
   469.0000      8.1134      2.3819     -0.4982     16.2483     70.0799     21.0663
   469.1000      8.1134      2.3691     -0.4981     17.0224     72.6817     20.3258
   469.2000      8.1134      2.3547     -0.5682     17.8990     79.7685     19.5210
   469.3000      8.1162      2.3553     -0.4896     17.8587     81.9093     18.9528
   469.4000      8.1162      2.3811     -0.4878     16.2960     75.8366     18.6389
   469.5000      8.1120      2.4305     -0.4552     13.3004     68.9740     18.4416
