~Version Information
VERS.                      2.0: CWLS Log ASCII Standard - VERSION 2.0
WRAP.                       NO: One line per depth step
~Well Information Block
STRT.FT               230.0000: 
STOP.FT               707.5000: 
STEP.FT                 0.2500: 
NULL.                -999.2500: 
COMP.          Pioneer Natural Resources: COMPANY
WELL.          Razor Clam 23-27: WELL
FLD.           Purgatoire River: FIELD
LOC.           2499' FSL & 2636' FWL: LOCATION
CNTY.               Las Animas: COUNTY
SRVC.                Patterson: SERVICE COMPANY
DATE.          Sun Feb 12 15:35:16 2006: LOG DATE
UWI.           05 071 08667 00: UNIQUE WELL ID
STAT.                 Colorado: STATE
~Curve Information Block
DEPT.FT            0 000 00 00: Depth
SN.Ohm-m                      : IEL Short Normal
SP.mV                         : IEL Spontaneous Potential
DIR.Ohm-m                     : IEL Induction Resistivity
GR.GAPI                       : Gamma Ray
~Parameter Information Block
~A  Depth        SN          SP         DIR          GR     
# ...
   598.5000     21.2193     -1.5874     21.2220     65.1182
   598.7500     21.3265     -5.1392     21.0178     63.4078
   599.0000     21.4107     -9.3237     20.7818     61.6055
   599.2500     21.3479    -14.0251     20.4741     61.3999
   599.5000     21.1785    -18.9139     20.0833     63.0492
   599.7500     20.9909    -23.4226     19.6328     65.1557
   600.0000     20.7474    -26.8375     19.1628     68.7702
   600.2500     20.3479    -28.5455     18.7076     71.0849
   600.5000     19.7897    -28.3237     18.2870     74.4588
   600.7500     19.1979    -26.4367     17.9130     76.7648
   601.0000     18.7151    -23.4274     17.6003     80.0066
   601.2500     18.3673    -19.7867     17.3693     81.5615
   601.5000     18.0389    -15.7924     17.2391     82.4306
   601.7500     17.5997    -11.5932     17.2164     82.2976
   602.0000     17.0513     -7.3595     17.2887     82.6395
   602.2500     16.5636     -3.3240     17.4271     84.2142
   602.5000     16.3765      0.2873     17.5979     88.7039
   602.7500     16.6089      3.3266     17.7779     92.0602
   603.0000     17.1556      5.7441     17.9632     95.3480
   603.2500     17.7921      7.5734     18.1679     95.6606
   603.5000     18.3443      8.9102     18.4117     93.5918
   603.7500     18.7690      9.8857     18.7043     91.2014
   604.0000     19.1508     10.6289     19.0396     87.3202
   604.2500     19.6324     11.2329     19.4039     85.0782
   604.5000     20.2820     11.7422     19.7903     82.9002
   604.7500     21.0299     12.1643     20.2054     82.4436
   605.0000     21.7437     12.4920     20.6632     83.0166
   605.2500     22.3223     12.7190     21.1721     83.7886
   605.5000     22.7308     12.8469     21.7242     84.8787
   605.7500     22.9513     12.8912     22.2915     85.5398
   606.0000     22.9625     12.8869     22.8302     86.6793
   606.2500     22.8196     12.8848     23.2894     87.3772
   606.5000     22.6440     12.9322     23.6235     87.2813
   606.7500     22.5181     13.0527     23.8072     85.8583
   607.0000     22.4490     13.2389     23.8478     81.8119
   607.2500     22.3799     13.4609     23.7842     78.6310
   607.5000     22.2536     13.6837     23.6664     74.6548
   607.7500     22.1059     13.8828     23.5310     72.9766
   608.0000     22.0359     14.0495     23.3906     71.9375
   608.2500     22.0671     14.1868     23.2448     72.0720
   608.5000     22.1346     14.3042     23.0976     73.0048
   608.7500     22.1996     14.4143     22.9635     73.6775
   609.0000     22.2496     14.5274     22.8584     74.4475
   609.2500     22.2424     14.6468     22.7889     75.1632
   609.5000     22.1373     14.7704     22.7493     77.3484
   609.7500     21.9515     14.8974     22.7278     79.3999
   610.0000     21.7584     15.0282     22.7149     82.0545
   610.2500     21.6320     15.1549     22.7074     82.9616
   610.5000     21.5845     15.2559     22.7060     83.4140
   610.7500     21.5541     15.3049     22.7116     83.7891
   611.0000     21.4825     15.2870     22.7212     85.0836
   611.2500     21.3450     15.2039     22.7249     86.2800
   611.5000     21.1524     15.0669     22.7050     88.0216
   611.7500     21.0157     14.8897     22.6397     88.9959
   612.0000     21.0375     14.6893     22.5142     90.3139
   612.2500     21.1446     14.4896     22.3302     91.2262
   612.5000     21.1813     14.3190     22.1064     92.6656
   612.7500     21.0816     14.2004     21.8709     93.6125
   613.0000     20.8882     14.1403     21.6532     94.8610
   613.2500     20.6652     14.1285     21.4777     95.3602
   613.5000     20.4230     14.1482     21.3582     95.1566
   613.7500     20.1256     14.1836     21.2934     94.3955
   614.0000     19.7385     14.2185     21.2672     92.9043
   614.2500     19.2423     14.2320     21.2565     91.9577
   614.5000     18.6203     14.2017     21.2414     90.3405
   614.7500     17.9247     14.1130     21.2118     88.6647
   615.0000     17.3480     13.9642     21.1656     84.7171
   615.2500     17.0701     13.7645     21.1011     81.2662
   615.5000     17.0374     13.5259     21.0117     75.6930
   615.7500     17.0288     13.2612     20.8886     72.2001
   616.0000     16.8739     12.9864     20.7303     67.7194
   616.2500     16.5196     12.7178     20.5504     65.3234
   616.5000     16.0097     12.4587     20.3767     62.7702
   616.7500     15.4967     12.1950     20.2425     61.8144
   617.0000     15.1546     11.9110     20.1752     61.3445
   617.2500     15.0223     11.6101     20.1876     61.5226
   617.5000     15.0237     11.3206     20.2769     62.3271
   617.7500     15.0653     11.0790     20.4300     63.0809
   618.0000     15.0566     10.9091     20.6347     64.3663
   618.2500     14.9713     10.8134     20.8899     65.5070
   618.5000     14.8686     10.7809     21.2117     68.3726
   618.7500     14.8008     10.7985     21.6289     71.2397
   619.0000     14.7896     10.8535     22.1643     76.3378
   619.2500     14.8793     10.9317     22.8084     79.6518
   619.5000     15.1103     11.0199     23.5010     83.8538
   619.7500     15.4247     11.1167     24.1393     86.0145
   620.0000     15.6873     11.2392     24.6188     88.1517
   620.2500     15.8461     11.4148     24.8776     88.9291
   620.5000     15.9736     11.6617     24.9141     90.1133
   620.7500     16.1342     11.9743     24.7694     91.8461
   621.0000     16.3149     12.3268     24.4967     96.8840
   621.2500     16.4740     12.6906     24.1393    101.6595
   621.5000     16.5836     13.0422     23.7301    109.5783
   621.7500     16.6460     13.3596     23.3119    114.5333
   622.0000     16.7567     13.6235     22.9551    120.6295
   622.2500     17.1117     13.8294     22.7476    123.5951
   622.5000     17.7948     13.9925     22.7528    126.1946
   622.7500     18.6110     14.1329     22.9682    126.6290
   623.0000     19.3025     14.2536     23.3142    125.6412
   623.2500     19.8196     14.3384     23.6680    124.3928
   623.5000     20.2321     14.3685     23.9299    122.5506
   623.7500     20.5696     14.3455     24.0723    121.6197
   624.0000     20.8135     14.3013     24.1298    120.6593
   624.2500     20.9271     14.2869     24.1419    120.0812
   624.5000     20.9519     14.3487     24.1096    118.6704
   624.7500     21.0175     14.5106     24.0073    117.1583
   625.0000     21.1605     14.7675     23.8329    114.4834
   625.2500     21.2941     15.0916     23.6403    112.9709
   625.5000     21.3639     15.4441     23.5171    111.5887
   625.7500     21.3729     15.7908     23.5230    111.0421
   626.0000     21.3674     16.1157     23.6425    109.8931
   626.2500     21.4262     16.4264     23.7907    108.4633
   626.5000     21.5634     16.7489     23.8716    105.3321
   626.7500     21.6933     17.1137     23.8460    103.1582
   627.0000     21.7233     17.5371     23.7450    101.1976
   627.2500     21.6723     18.0056     23.6256    101.3152
   627.5000     21.6513     18.4759     23.5196    103.4929
   627.7500     21.7227     18.8856     23.4240    105.6562
   628.0000     21.8311     19.1696     23.3260    108.6190
   628.2500     21.8713     19.2756     23.2278    109.7801
   628.5000     21.8312     19.1782     23.1475    109.8520
   628.7500     21.8077     18.8873     23.1006    108.9516
   629.0000     21.8358     18.4478     23.0886    107.1426
   629.2500     21.8373     17.9305     23.1012    106.3515
   629.5000     21.7689     17.4159     23.1295    106.4494
   629.7500     21.6904     16.9749     23.1711    107.1516
   630.0000     21.7016     16.6488     23.2237    108.1842
   630.2500     21.8551     16.4386     23.2728    108.4251
   630.5000     22.0881     16.3092     23.2875    108.1573
   630.7500     22.2595     16.2090     23.2342    107.9820
   631.0000     22.2917     16.0961     23.1076    108.3392
   631.2500     22.2297     15.9529     22.9531    108.8633
   631.5000     22.1686     15.7815     22.8570    109.1898
   631.7500     22.1810     15.5896     22.9040    108.7374
