~Version Information
VERS.                      2.0: CWLS Log ASCII Standard - VERSION 2.0
WRAP.                       NO: One line per depth step
~Well Information Block
STRT.FT               322.3000: 
STOP.FT              1375.0000: 
STEP.FT                 0.1000: 
NULL.                -999.2500: 
COMP.          Pioneer Natural Resources: COMPANY
WELL.          Buffet 41-36 Tr: WELL
FLD.           Purgatoire River: FIELD
LOC.           119' FNL & 271' FEL: LOCATION
PROV.                 Colorado: PROVINCE
CNTY.               Las Animas: COUNTRY
SRVC.                Patterson: SERVICE COMPANY
DATE.          Thu Dec 29 07:13:13 2005: LOG DATE
UWI.           05 071 08627 00: UNIQUE WELL ID
~Curve Information Block
DEPT.FT            0 000 00 00: Depth
DCAL.in                       : CDL Caliper
RHOB.g/cc                     : CDL Bulk Density
RHOC.g/cc                     : CDL Density Correction
DPOR.pu                       : CDL Density Porosity
GR.GAPI                       : Gamma Ray
~Parameter Information Block
~A  Depth       DCAL        RHOB        RHOC        DPOR         GR     
# ...
   960.7000      8.0413      2.5283      0.0602      7.3737    134.0643
   960.8000      8.0412      2.5300      0.0778      7.2738    130.0921
   960.9000      8.0412      2.5315      0.0975      7.1821    124.3294
   961.0000      8.0411      2.5245      0.0606      7.6042    118.5341
   961.1000      8.0411      2.5125      0.0509      8.3351    113.5180
   961.2000      8.0411      2.5011      0.0375      9.0261    111.3294
   961.3000      8.0404      2.4925      0.0088      9.5485    110.5276
   961.4000      8.0404      2.4891      0.0027      9.7538    109.2781
   961.5000      8.0387      2.4939      0.0055      9.4609    111.1929
   961.6000      8.0387      2.5112     -0.0233      8.4096    115.3082
   961.7000      8.0387      2.5392      0.0194      6.7165    114.7002
   961.8000      8.0385      2.5628      0.0646      5.2847    109.7644
   961.9000      8.0385      2.5707      0.0224      4.8033    108.1154
   962.0000      8.0397      2.5609      0.0408      5.4008    112.1029
   962.1000      8.0397      2.5380      0.0182      6.7858    115.3058
   962.2000      8.0397      2.5197     -0.0055      7.8988    113.6726
   962.3000      8.0385      2.5165      0.0107      8.0898    113.4923
   962.4000      8.0385      2.5191      0.0221      7.9359    119.3501
   962.5000      8.0379      2.5184      0.0219      7.9774    127.6550
   962.6000      8.0379      2.5150      0.0566      8.1818    133.9526
   962.7000      8.0379      2.5090      0.0355      8.5442    135.7194
   962.8000      8.0382      2.5000      0.0258      9.0918    135.4104
   962.9000      8.0382      2.4948      0.0090      9.4042    138.1828
   963.0000      8.0382      2.4988      0.0228      9.1636    141.2736
   963.1000      8.0382      2.5002      0.0528      9.0800    141.1871
   963.2000      8.0382      2.4877      0.0232      9.8339    140.6664
   963.3000      8.0408      2.4657      0.0159     11.1725    141.9119
   963.4000      8.0408      2.4402     -0.0212     12.7176    144.0655
   963.5000      8.0433      2.4165     -0.0150     14.1527    145.6208
   963.6000      8.0433      2.3992     -0.0210     15.1992    145.2280
   963.7000      8.0433      2.3923     -0.0184     15.6189    141.1301
   963.8000      8.0431      2.4000     -0.0376     15.1505    132.9624
   963.9000      8.0431      2.4211     -0.0209     13.8730    125.7910
   964.0000      8.0416      2.4479      0.0292     12.2490    124.7410
   964.1000      8.0416      2.4791      0.0056     10.3561    125.6258
   964.2000      8.0416      2.5214      0.0241      7.7947    120.6086
   964.3000      8.0388      2.5727      0.0762      4.6852    107.7654
   964.4000      8.0388      2.6206      0.0939      1.7845     92.9737
   964.5000      8.0342      2.6546      0.0567     -0.2793     85.8127
   964.6000      8.0342      2.6659      0.0834     -0.9616     87.9674
   964.7000      8.0342      2.6430      0.0302      0.4242     93.9775
   964.8000      8.0309      2.5951     -0.0349      3.3270    102.2174
   964.9000      8.0309      2.5522     -0.0407      5.9279    109.5726
   965.0000      8.0298      2.5326     -0.0613      7.1174    110.0642
   965.1000      8.0298      2.5292     -0.0468      7.3204    104.6116
   965.2000      8.0298      2.5305     -0.0314      7.2399    100.2301
   965.3000      8.0300      2.5320     -0.0007      7.1520     99.5327
   965.4000      8.0300      2.5343      0.0391      7.0143     99.8390
   965.5000      8.0309      2.5437      0.0109      6.4448    102.0173
   965.6000      8.0309      2.5591      0.0773      5.5081    108.9161
   965.7000      8.0309      2.5628      0.0538      5.2831    116.0245
   965.8000      8.0324      2.5482      0.0118      6.1673    117.1686
   965.9000      8.0324      2.5318      0.0237      7.1659    118.0579
   966.0000      8.0345      2.5238      0.0270      7.6514    125.7139
   966.1000      8.0345      2.5191      0.0075      7.9327    134.2039
   966.2000      8.0345      2.5158     -0.0067      8.1325    137.2361
   966.3000      8.0365      2.5174     -0.0093      8.0381    136.2082
   966.4000      8.0365      2.5202      0.0317      7.8651    132.4619
   966.5000      8.0388      2.5198     -0.0008      7.8901    128.4533
   966.6000      8.0388      2.5141      0.0273      8.2363    128.0603
   966.7000      8.0388      2.4993      0.0071      9.1357    129.0618
   966.8000      8.0409      2.4806     -0.0143     10.2647    129.7901
   966.9000      8.0409      2.4699     -0.0258     10.9154    137.0380
   967.0000      8.0415      2.4707     -0.0129     10.8671    151.8721
   967.1000      8.0415      2.4780     -0.0024     10.4240    163.6703
   967.2000      8.0415      2.4843     -0.0284     10.0450    165.3067
   967.3000      8.0408      2.4832     -0.0192     10.1090    157.4025
   967.4000      8.0408      2.4738     -0.0163     10.6801    144.6841
   967.5000      8.0393      2.4680     -0.0550     11.0284    137.7320
   967.6000      8.0393      2.4685      0.0300     11.0010    143.1572
   967.7000      8.0393      2.4582     -0.0014     11.6216    149.8844
   967.8000      8.0374      2.4399     -0.0047     12.7348    147.5447
   967.9000      8.0374      2.4331     -0.0392     13.1483    143.8929
   968.0000      8.0365      2.4441      0.0072     12.4802    144.9521
   968.1000      8.0365      2.4627     -0.0010     11.3489    145.9452
   968.2000      8.0365      2.4842      0.0055     10.0493    144.9224
   968.3000      8.0367      2.5134      0.0068      8.2773    144.9923
   968.4000      8.0367      2.5385      0.0728      6.7589    145.8601
   968.5000      8.0371      2.5352      0.0406      6.9547    144.3591
   968.6000      8.0371      2.5025      0.0394      8.9371    141.7199
   968.7000      8.0371      2.4613     -0.0055     11.4367    142.6896
   968.8000      8.0379      2.4331     -0.0091     13.1465    145.6722
   968.9000      8.0379      2.4247     -0.0077     13.6563    145.7583
   969.0000      8.0397      2.4261      0.0098     13.5689    143.4272
   969.1000      8.0397      2.4267     -0.0318     13.5336    141.4949
   969.2000      8.0397      2.4319     -0.0491     13.2171    141.6688
   969.3000      8.0409      2.4422      0.0308     12.5954    143.2047
   969.4000      8.0409      2.4403      0.0246     12.7097    142.7184
   969.5000      8.0392      2.4291     -0.0311     13.3882    138.5158
   969.6000      8.0392      2.4288      0.0099     13.4090    132.2347
   969.7000      8.0392      2.4352      0.0570     13.0203    129.9270
   969.8000      8.0378      2.4311      0.0249     13.2693    135.5944
   969.9000      8.0378      2.4112      0.0793     14.4733    144.6240
   970.0000      8.0402      2.3816      0.0017     16.2668    150.0957
   970.1000      8.0402      2.3625     -0.0394     17.4223    150.4645
   970.2000      8.0402      2.3676      0.0161     17.1171    149.4155
   970.3000      8.0426      2.3869      0.0061     15.9432    150.2691
   970.4000      8.0426      2.4034      0.0215     14.9464    151.7683
   970.5000      8.0436      2.3958      0.0678     15.4062    149.6013
   970.6000      8.0436      2.3576      0.0107     17.7183    146.0935
   970.7000      8.0436      2.3212     -0.0325     19.9254    149.7485
   970.8000      8.0438      2.3197      0.0387     20.0209    159.1614
   970.9000      8.0438      2.3492      0.0570     18.2293    164.1087
   971.0000      8.0438      2.3906      0.0514     15.7193    160.4969
   971.1000      8.0438      2.4273      0.0921     13.4965    152.2914
   971.2000      8.0438      2.4507      0.0903     12.0814    144.2169
   971.3000      8.0455      2.4683      0.0885     11.0121    139.3790
   971.4000      8.0455      2.4896      0.0816      9.7231    138.8410
   971.5000      8.0474      2.5082      0.1184      8.5960    142.4187
   971.6000      8.0474      2.5122      0.1289      8.3525    147.0819
   971.7000      8.0474      2.5065      0.1104      8.6986    145.6650
   971.8000      8.0453      2.5029      0.0681      8.9145    135.8625
