~Version Information
VERS.                      2.0: CWLS Log ASCII Standard - VERSION 2.0
WRAP.                       NO: One line per depth step
~Well Information Block
STRT.FT               345.0000: 
STOP.FT              2167.7000: 
STEP.FT                 0.1000: 
NULL.                -999.2500: 
COMP.          Pioneer Natural Resources: COMPANY
WELL.          Hemisphere 32-24: WELL
FLD.           Purgatoire River: FIELD
LOC.           1850' FNL & 2284' FEL--: LOCATION
PROV.                 Colorado: PROVINCE
CNTY.               Las Animas: COUNTRY
SRVC.                Patterson: SERVICE COMPANY
DATE.          Mon Aug 15 07:19:13 2005: LOG DATE
UWI.           05 071 08440 00: UNIQUE WELL ID
~Curve Information Block
DEPT.FT            0 000 00 00: Depth
DCAL.in                       : CDL Caliper
RHOB.g/cc                     : CDL Bulk Density
RHOC.g/cc                     : CDL Density Correction
DPOR.pu                       : CDL Density Porosity
NPOR.pu                       : Neutron Porosity
GR.GAPI                       : Gamma Ray
~Parameter Information Block
~A  Depth       DCAL        RHOB        RHOC        DPOR        NPOR         GR     
# ...
   940.2000      7.9892      2.2391      0.1529     24.9007     13.2119     93.0254
   940.3000      7.9833      2.3291      0.2114     19.4514     13.5554     96.7791
   940.4000      7.9833      2.4109      0.2205     14.4913     13.8790    103.1062
   940.5000      7.9749      2.4848      0.1836     10.0149     14.5005    107.9439
   940.6000      7.9749      2.5511      0.2106      5.9944     15.7080    105.7947
   940.7000      7.9749      2.6024      0.1889      2.8858     17.1881     98.8504
   940.8000      7.9681      2.6285      0.1332      1.3013     18.6724     96.7919
   940.9000      7.9681      2.6290      0.0630      1.2718     20.2806    100.0849
   941.0000      7.9634      2.6169     -0.0273      2.0062     21.7530    101.7572
   941.1000      7.9634      2.5995      0.0195      3.0626     22.7562    101.3881
   941.2000      7.9634      2.5747      0.0048      4.5650     23.5443    101.5378
   941.3000      7.9614      2.5555     -0.0392      5.7247     24.5457    104.0242
   941.4000      7.9614      2.5539      0.0006      5.8245     25.5951    108.7103
   941.5000      7.9611      2.5579      0.0175      5.5810     26.3051    111.3944
   941.6000      7.9611      2.5563     -0.0129      5.6791     26.6782    110.7041
   941.7000      7.9611      2.5481      0.0251      6.1788     26.6484    109.8051
   941.8000      7.9582      2.5393     -0.0566      6.7093     26.3085    111.9769
   941.9000      7.9582      2.5384      0.0155      6.7615     26.0398    119.0330
   942.0000      7.9538      2.5373      0.0231      6.8312     25.9029    127.2969
   942.1000      7.9538      2.5349     -0.0046      6.9735     25.8173    129.7101
   942.2000      7.9538      2.5395      0.0351      6.6946     25.6365    125.3783
   942.3000      7.9521      2.5421      0.0426      6.5364     25.3615    119.5885
   942.4000      7.9521      2.5386      0.0039      6.7501     25.2588    116.1824
   942.5000      7.9534      2.5385      0.0043      6.7595     25.4138    114.0879
   942.6000      7.9534      2.5434      0.0223      6.4584     25.5612    111.4120
   942.7000      7.9534      2.5442      0.0418      6.4099     25.6676    109.1915
   942.8000      7.9560      2.5278      0.0592      7.4084     25.8219    108.5121
   942.9000      7.9560      2.4888      0.0458      9.7676     25.5617    109.1046
   943.0000      7.9584      2.4381      0.0053     12.8419     24.7509    109.9234
   943.1000      7.9584      2.3949     -0.0088     15.4591     23.9184    111.6700
   943.2000      7.9584      2.3670      0.0079     17.1525     23.2345    115.4884
   943.3000      7.9584      2.3449     -0.0079     18.4879     22.4598    118.9278
   943.4000      7.9584      2.3213     -0.0485     19.9242     21.6646    119.9122
   943.5000      7.9564      2.2974     -0.0303     21.3675     21.0591    118.8172
   943.6000      7.9564      2.2828     -0.0421     22.2575     20.4548    115.1389
   943.7000      7.9564      2.2877      0.0117     21.9552     19.7697    111.9671
   943.8000      7.9534      2.3099      0.0619     20.6147     19.2341    114.8534
   943.9000      7.9534      2.3374      0.0898     18.9446     18.8289    120.5453
   944.0000      7.9505      2.3717      0.0806     16.8691     18.3483    121.5339
   944.1000      7.9505      2.4230      0.1248     13.7585     17.8657    117.1752
   944.2000      7.9505      2.4771      0.1811     10.4806     17.7649    110.4024
   944.3000      7.9451      2.5083      0.1646      8.5898     17.9506    104.3811
   944.4000      7.9451      2.5235      0.1347      7.6643     18.1678    102.1471
   944.5000      7.9366      2.5517      0.0888      5.9600     18.6024    105.8012
   944.6000      7.9366      2.5981      0.1359      3.1441     19.3732    114.0676
   944.7000      7.9366      2.6394      0.1539      0.6400     20.4727    119.4896
   944.8000      7.9333      2.6570      0.1375     -0.4237     21.8422    116.0885
   944.9000      7.9333      2.6534      0.1049     -0.2069     23.0202    106.0657
   945.0000      7.9355      2.6438      0.0391      0.3763     23.5970     99.0161
   945.1000      7.9355      2.6324      0.0566      1.0692     23.7560     99.7125
   945.2000      7.9355      2.6003      0.0845      3.0128     23.9502    104.4838
   945.3000      7.9375      2.5493     -0.0276      6.1006     24.1582    110.6776
   945.4000      7.9375      2.5223     -0.0660      7.7367     24.1008    113.2505
   945.5000      7.9395      2.5420     -0.0103      6.5455     23.8831    106.9730
   945.6000      7.9395      2.5814      0.0450      4.1546     23.6511     95.6524
   945.7000      7.9395      2.6049      0.0584      2.7342     23.5432     88.6798
   945.8000      7.9378      2.6076      0.0198      2.5692     23.7596     88.8107
   945.9000      7.9378      2.6015      0.0770      2.9405     24.0755     88.1827
   946.0000      7.9269      2.5888      0.0225      3.7102     24.2604     81.3809
   946.1000      7.9269      2.5828      0.0153      4.0719     24.2705     74.0320
   946.2000      7.9269      2.5961      0.1099      3.2636     23.9477     70.9723
   946.3000      7.9107      2.6195      0.1134      1.8461     23.3955     71.5461
   946.4000      7.9107      2.6522      0.0721     -0.1360     22.8749     75.0386
   946.5000      7.9018      2.7004      0.1782     -3.0538     22.4882     79.4480
   946.6000      7.9018      2.7535      0.1826     -6.2700     22.2594     80.8776
   946.7000      7.9018      2.7942      0.2479     -8.7394     22.1051     78.5768
   946.8000      7.9055      2.8104      0.2154     -9.7226     22.1276     75.1672
   946.9000      7.9055      2.8100      0.1738     -9.6989     22.4570     72.3229
   947.0000      7.9129      2.8101      0.1579     -9.7017     23.0582     70.8218
   947.1000      7.9129      2.8145      0.1173     -9.9681     23.6933     71.0452
   947.2000      7.9129      2.8128      0.1381     -9.8668     24.0872     72.6645
   947.3000      7.9209      2.7873      0.1065     -8.3239     24.1862     73.8548
   947.4000      7.9209      2.7420      0.0029     -5.5779     24.0657     72.5296
   947.5000      7.9294      2.7114      0.0256     -3.7185     23.8843     69.9176
   947.6000      7.9294      2.7116      0.0420     -3.7338     23.7825     68.7635
   947.7000      7.9294      2.7290      0.0686     -4.7861     23.8864     67.9672
   947.8000      7.9353      2.7526      0.0387     -6.2179     24.0772     65.2742
   947.9000      7.9353      2.7718      0.0914     -7.3819     24.1684     62.1558
   948.0000      7.9388      2.7604      0.1350     -6.6901     24.4114     61.4955
   948.1000      7.9388      2.7092      0.0902     -3.5857     24.9473     65.1896
   948.2000      7.9388      2.6490     -0.0083      0.0628     25.4453     70.7834
   948.3000      7.9389      2.6129      0.0112      2.2490     25.6302     72.3067
   948.4000      7.9389      2.6045     -0.0074      2.7594     25.5924     71.0276
   948.5000      7.9369      2.6065      0.0638      2.6377     25.6996     74.0955
   948.6000      7.9369      2.6004      0.0265      3.0059     26.0066     81.4429
   948.7000      7.9369      2.5858      0.0110      3.8925     26.1014     87.8004
   948.8000      7.9365      2.5688      0.0490      4.9225     25.6878     92.9599
   948.9000      7.9365      2.5509      0.0273      6.0065     24.9236     97.5217
   949.0000      7.9368      2.5388      0.0112      6.7398     24.1978     98.6690
   949.1000      7.9368      2.5357      0.0007      6.9250     23.8836     96.1825
   949.2000      7.9368      2.5403      0.0379      6.6500     23.9538     93.1995
   949.3000      7.9355      2.5553      0.0390      5.7423     23.9063     94.0791
   949.4000      7.9355      2.5714      0.0964      4.7643     23.3016    100.6513
   949.5000      7.9340      2.5647      0.0781      5.1671     22.5066    105.9716
   949.6000      7.9340      2.5249      0.0322      7.5823     22.3776    103.5713
   949.7000      7.9340      2.4702     -0.0195     10.8987     22.9585     99.0313
