~Version Information
VERS.                      2.0: CWLS Log ASCII Standard - VERSION 2.0
WRAP.                       NO: One line per depth step
~Well Information Block
STRT.FT                -8.5000: 
STOP.FT              2591.0000: 
STEP.FT                 0.2500: 
NULL.                -999.2500: 
COMP.          Pioneer Natural Resources: COMPANY
WELL.             Aviator 12-4: WELL
FLD.           Purgatorie River: FIELD
LOC.           1969' FNL & 732' FWL--: LOCATION
CNTY.               Las Animas: COUNTY
SRVC.          Patterson Wireline: SERVICE COMPANY
DATE.          Wed Apr 19 09:09:26 2006: LOG DATE
UWI.           05 071 08714 00: UNIQUE WELL ID
STAT.                       CO: STATE
~Curve Information Block
DEPT.FT            0 000 00 00: Depth
CCL.                          : Casing Collar Locator
TT3.usec                      : CBL 3' Travel Time
AMP3.mV                       : CBL 3' Amplitude
GR.GAPI                       : Gamma Ray
~Parameter Information Block
~A  Depth       CCL         TT3         AMP3         GR     
    -8.5000   -999.2500   -999.2500   -999.2500     59.1445
    -8.2500   -999.2500   -999.2500   -999.2500     56.6419
    -8.0000   -999.2500   -999.2500   -999.2500     57.6308
    -7.7500   -999.2500   -999.2500   -999.2500     61.4368
    -7.5000   -999.2500   -999.2500   -999.2500     65.7185
    -7.2500   -999.2500   -999.2500   -999.2500     68.5260
    -7.0000   -999.2500   -999.2500   -999.2500     69.3923
    -6.7500   -999.2500   -999.2500   -999.2500     68.8592
    -6.5000   -999.2500   -999.2500   -999.2500     67.8042
    -6.2500   -999.2500   -999.2500   -999.2500     67.1288
    -6.0000   -999.2500   -999.2500   -999.2500     67.2763
    -5.7500   -999.2500   -999.2500   -999.2500     67.8192
    -5.5000   -999.2500   -999.2500   -999.2500     67.7834
    -5.2500   -999.2500   -999.2500   -999.2500     66.4368
    -5.0000   -999.2500   -999.2500   -999.2500     63.9552
    -4.7500   -999.2500   -999.2500   -999.2500     61.6743
    -4.5000   -999.2500   -999.2500   -999.2500     61.4864
    -4.2500   -999.2500   -999.2500   -999.2500     64.3646
    -4.0000   -999.2500   -999.2500   -999.2500     69.3484
    -3.7500   -999.2500   1161.0000      1.0360     74.3011
    -3.5000   -999.2500   1161.0000      1.0386     77.6487
    -3.2500   -999.2500   1161.0000      1.0385     79.2115
    -3.0000   -999.2500   1161.0000      1.0344     79.5079
    -2.7500   -999.2500   1161.0000      1.0256     78.6029
    -2.5000   -999.2500   1161.0000      1.0160     75.8828
    -2.2500   -999.2500   1161.0000      1.0123     71.0342
    -2.0000   -999.2500   1161.0000      1.0181     64.8676
    -1.7500   -999.2500   1161.0000      1.0293     58.7093
    -1.5000   -999.2500   1161.0000      1.0378     53.2445
    -1.2500   -999.2500   1161.0000      1.0392     48.4734
    -1.0000   -999.2500   1161.0000      1.0356     44.5409
    -0.7500   -999.2500   1161.0000      1.0322     41.8311
    -0.5000   -999.2500   1161.0000      1.0330     40.1145
    -0.2500   -999.2500   1161.0000      1.0378     38.3044
     0.0000   -999.2500   1161.0000      1.0453     32.2950
     0.2500   -999.2500   1161.0000      1.0441     30.1521
     0.5000   -999.2500   1161.0000      1.0415     30.5113
     0.7500   -999.2500   1161.0000      1.0393     33.6050
     1.0000   -999.2500   1161.0000      1.0382     38.4497
     1.2500   -999.2500   1161.0000      1.0378     43.5076
     1.5000      0.0000   1161.0000      1.0377     47.4713
     1.7500      0.0000   1161.0000      1.0378     49.7415
     2.0000      0.0000   1161.0000      1.0382     50.5551
     2.2500      0.0000   1161.0000      1.0396     50.7657
     2.5000      0.0000   1161.0000      1.0427     51.2084
     2.7500      0.0000   1161.0000      1.0478     52.1180
     3.0000      0.0000   1161.0000      1.0543     53.2924
     3.2500      0.0000   1161.0000      1.0599     54.6970
     3.5000      0.0000   1161.0000      1.0625     56.4258
     3.7500      0.0000   1161.0000      1.0616     57.9268
     4.0000      0.0000   1161.0000      1.0584     57.8722
     4.2500      0.0000   1161.0000      1.0550     55.3989
     4.5000      0.0000   1161.0000      1.0510     51.3487
     4.7500      0.0000   1161.0000      1.0438     47.7854
     5.0000      0.0000   1161.0000      1.0317     46.2679
     5.2500      0.0000   1161.0000      1.0167     46.8263
     5.5000      0.0000   1161.0000      1.0043     48.5214
     5.7500      0.0000   1161.0000      0.9986     50.6523
     6.0000      2.0000   1161.0000      0.9997     53.1756
     6.2500      0.0000   1161.0000      1.0055     56.0759
     6.5000      0.0000   1161.0000      1.0136     58.8186
     6.7500      0.0000   1161.0000      1.0211     60.6427
     7.0000      0.0000   1161.0000      1.0245     61.0763
     7.2500      0.0000   1161.0000      1.0212     60.1052
     7.5000      0.0000   1161.0000      1.0134     58.1891
     7.7500      0.0000   1161.0000      1.0071     56.1708
     8.0000      0.0000   1161.0000      1.0074     54.8848
     8.2500      0.0000   1160.9725      1.0138     54.7120
     8.5000      0.0000   1160.7969      1.0219     55.5598
     8.7500      0.0000   1159.8732      1.0323     57.1317
     9.0000      0.0000   1156.1506      1.0670     58.9108
     9.2500      0.0000   1144.3077      1.2301     59.8696
     9.5000      0.0000   1114.3329      1.8587     58.7650
     9.7500      0.0000   1053.3307      3.7569     55.2331
    10.0000      0.0000    952.2367      8.2459     50.4182
    10.2500      0.0000    814.1428     16.5534     46.1965
    10.5000      0.0000    657.4689     28.5633     43.9065
    10.7500      0.0000    509.8558     42.1054     43.8189
    11.0000     -2.0000    395.2647     53.9999     45.3172
    11.2500     -2.0000    322.8599     62.1282     47.2476
    11.5000      0.0000    286.0888     66.4481     48.3264
    11.7500      0.0000    271.2351     68.2413     47.7060
    12.0000      0.0000    266.4980     68.8368     45.5371
    12.2500      0.0000    265.3099     69.0087     43.0699
    12.5000      0.0000    265.0778     69.0571     41.9103
    12.7500      0.0000    265.0403     69.0584     42.8029
    13.0000      0.0000    265.0410     69.0118     45.1163
    13.2500      0.0000    265.0427     68.9072     47.5958
    13.5000      0.0000    265.0414     68.7683     49.5234
    13.7500      0.0000    265.0348     68.6769     51.1376
    14.0000      0.0000    265.0244     68.7437     53.2471
    14.2500      0.0000    265.0148     69.0246     56.5076
    14.5000      0.0000    265.0101     69.4353     60.7041
    14.7500      0.0000    265.0107     69.7556     64.6446
    15.0000      0.0000    265.0134     69.7739     67.1902
    15.2500      0.0000    265.0148     69.4642     68.4658
    15.5000      0.0000    265.0142     69.0103     69.7425
    15.7500      0.0000    265.0138     68.6509     72.0339
    16.0000      0.0000    265.0150     68.5132     74.8726
    16.2500      0.0000    265.0175     68.5759     76.5285
    16.5000      0.0000    265.0208     68.7457     75.5230
    16.7500      0.0000    265.0244     68.9355     71.8689
    17.0000      0.0000    265.0269     69.0859     66.8577
    17.2500      0.0000    265.0249     69.1687     62.0321
    17.5000      0.0000    265.0173     69.2048     58.5563
    17.7500      0.0000    265.0071     69.2656     56.9841
    18.0000      0.0000    265.0011     69.4200     56.9804
    18.2500      0.0000    265.0047     69.6731     57.4440
    18.5000      0.0000    265.0173     69.9681     57.4729
    18.7500      0.0000    265.0333     70.2371     57.2478
    19.0000      0.0000    265.0463     70.4379     57.6551
    19.2500      0.0000    265.0531     70.5600     59.0134
    19.5000      0.0000    265.0541     70.6267     60.5038
    19.7500      0.0000    265.0524     70.6890     60.9996
    20.0000      0.0000    265.0517     70.7903     60.3764
    20.2500      0.0000    265.0543     70.9281     59.8952
    20.5000      0.0000    265.0591     71.0613     61.0931
    20.7500      0.0000    265.0638     71.1543     64.1064
    21.0000      0.0000    265.0667     71.2031     67.2866
    21.2500      0.0000    265.0671     71.2214     68.6502
    21.5000      0.0000    265.0652     71.2175     67.5448
    21.7500      0.0000    265.0626     71.1933     64.7877
    22.0000      0.0000    265.0620     71.1583     61.5306
    22.2500      0.0000    265.0649     71.1290     58.4051
    22.5000      0.0000    265.0709     71.1111     55.7041
    22.7500      0.0000    265.0789     71.0894     53.9146
    23.0000      0.0000    265.0887     71.0453     53.7458
    23.2500      0.0000    265.0999     70.9830     55.5665
    23.5000      0.0000    265.1114     70.9306     58.8007
    23.7500      0.0000    265.1208     70.9238     62.1467
    24.0000      0.0000    265.1268     70.9977     64.6957
    24.2500      0.0000    265.1295     71.1737     66.6419
    24.5000      0.0000    265.1311     71.4162     68.5783
    24.7500      0.0000    265.1337     71.6116     70.4259
