~Version Information
VERS.                      2.0: CWLS Log ASCII Standard - VERSION 2.0
WRAP.                       NO: One line per depth step
~Well Information Block
STRT.FT               430.0000: 
STOP.FT              2074.0000: 
STEP.FT                 0.1000: 
NULL.                -999.2500: 
COMP.          Pioneer Natural Resources: COMPANY
WELL.             Fleming 11-2: WELL
FLD.           Purgatoire River: FIELD
LOC.           534' FNL & 160' FWL: LOCATION
CNTY.               Las Animas: COUNTY
SRVC.                Patterson: SERVICE COMPANY
DATE.          Tue Jun 27 10:07:47 2006: LOG DATE
UWI.           05 071 08491 00: UNIQUE WELL ID
STAT.                 Colorado: STATE
~Curve Information Block
DEPT.FT            0 000 00 00: Depth
DCAL.in                       : CDL Caliper
RHOB.g/cc                     : CDL Bulk Density
RHOC.g/cc                     : CDL Density Correction
DPOR.pu                       : CDL Density Porosity
GR.GAPI                       : Gamma Ray
NPOR.pu                       : Neutron Porosity
~Parameter Information Block
~A  Depth       DCAL        RHOB        RHOC        DPOR         GR         NPOR    
# ...
   535.6000      8.1403      2.5694      0.0313      4.8863    104.3367     28.0493
   535.7000      8.1403      2.5681      0.0540      4.9640    113.4430     27.9145
   535.8000      8.1603      2.5688      0.0516      4.9223    116.0625     27.9836
   535.9000      8.1603      2.5726      0.0560      4.6904    117.7797     27.7595
   536.0000      8.1760      2.5822      0.0697      4.1100    120.4824     27.5067
   536.1000      8.1760      2.6029      0.0719      2.8542    118.9073     27.6373
   536.2000      8.1760      2.6290      0.1025      1.2729    114.2933     27.7414
   536.3000      8.1885      2.6386      0.1530      0.6922    111.8338     27.3406
   536.4000      8.1885      2.6221      0.0902      1.6929    110.3433     26.6471
   536.5000      8.2007      2.5942      0.0759      3.3802    108.4465     26.2888
   536.6000      8.2007      2.5724      0.0329      4.7008    110.0082     26.4190
   536.7000      8.2007      2.5686      0.0510      4.9315    116.3337     26.7103
   536.8000      8.2108      2.5830      0.0769      4.0614    119.7672     27.1302
   536.9000      8.2108      2.6018      0.0752      2.9209    114.5341     27.7814
   537.0000      8.2166      2.6127      0.0518      2.2596    106.0514     28.3421
   537.1000      8.2166      2.6111      0.0878      2.3600    102.6540     28.4542
   537.2000      8.2166      2.5988      0.0525      3.1059    106.1311     28.0645
   537.3000      8.2200      2.5886      0.0549      3.7228    111.7017     27.6335
   537.4000      8.2200      2.5909      0.0671      3.5805    116.5254     27.6911
   537.5000      8.2238      2.5980      0.0804      3.1510    122.4378     28.2366
   537.6000      8.2238      2.5971      0.0389      3.2075    129.2998     28.8468
   537.7000      8.2238      2.5848      0.0546      3.9522    134.9301     28.9914
   537.8000      8.2282      2.5674     -0.0160      5.0042    137.4240     28.5777
   537.9000      8.2282      2.5586     -0.0013      5.5394    135.0925     28.2875
   538.0000      8.2320      2.5612      0.0346      5.3840    130.5093     28.5777
   538.1000      8.2320      2.5684     -0.0107      4.9474    128.6282     28.8088
   538.2000      8.2320      2.5768      0.0244      4.4387    129.4281     28.5423
   538.3000      8.2345      2.5766      0.0142      4.4465    129.5441     28.4023
   538.4000      8.2345      2.5622      0.0032      5.3201    127.3666     29.0625
   538.5000      8.2378      2.5400      0.0137      6.6649    123.8685     29.7127
   538.6000      8.2378      2.5217     -0.0059      7.7784    120.4942     28.9428
   538.7000      8.2378      2.5185     -0.0172      7.9675    119.7677     27.2061
   538.8000      8.2425      2.5250      0.0097      7.5733    123.5257     26.1018
   538.9000      8.2425      2.5222     -0.0017      7.7465    129.3003     25.9719
   539.0000      8.2474      2.5078     -0.0527      8.6172    132.6664     26.2385
   539.1000      8.2474      2.4944     -0.0315      9.4315    132.8936     26.5345
   539.2000      8.2474      2.4840     -0.0298     10.0610    134.4789     26.6376
   539.3000      8.2523      2.4729     -0.0138     10.7356    140.2047     26.5921
   539.4000      8.2523      2.4622     -0.0099     11.3836    146.3546     26.4847
   539.5000      8.2569      2.4534      0.0012     11.9145    149.2353     26.1261
   539.6000      8.2569      2.4428      0.0001     12.5568    148.7507     25.3063
   539.7000      8.2569      2.4246      0.0008     13.6585    145.3425     24.5263
   539.8000      8.2606      2.3974     -0.0148     15.3090    141.7411     24.2534
   539.9000      8.2606      2.3671     -0.0469     17.1464    140.6079     24.1762
   540.0000      8.2625      2.3443     -0.0288     18.5289    140.3958     24.3023
   540.1000      8.2625      2.3395     -0.0201     18.8177    139.8054     24.7248
   540.2000      8.2625      2.3543      0.0076     17.9189    138.1670     25.2249
   540.3000      8.2641      2.3801      0.0098     16.3567    134.2904     25.8516
   540.4000      8.2641      2.4118      0.0566     14.4352    130.3931     26.6556
   540.5000      8.2684      2.4465      0.0784     12.3331    129.8140     26.9730
   540.6000      8.2684      2.4809      0.1233     10.2476    134.3966     26.7299
   540.7000      8.2684      2.5111      0.2153      8.4180    140.2025     26.9590
   540.8000      8.2753      2.5374      0.1917      6.8259    138.2765     27.7005
   540.9000      8.2753      2.5618      0.2755      5.3477    128.7140     27.8869
   541.0000      8.2637      2.5600      0.2839      5.4521    120.4715     27.3121
   541.1000      8.2637      2.5034      0.1592      8.8876    118.1754     26.4835
   541.2000      8.2637      2.4131      0.0157     14.3580    117.7637     25.8455
   541.3000      8.2139      2.3495     -0.0567     18.2098    116.6480     25.5554
   541.4000      8.2139      2.3457     -0.0264     18.4406    118.6017     25.2296
   541.5000      8.1576      2.3749      0.0460     16.6746    126.1085     24.6191
   541.6000      8.1576      2.3973      0.0013     15.3143    132.3832     24.0569
   541.7000      8.1576      2.4154     -0.0022     14.2196    127.3591     23.6974
   541.8000      8.1300      2.4570      0.0822     11.6982    115.6619     23.2985
   541.9000      8.1300      2.5291      0.2533      7.3273    109.9358     23.0589
   542.0000      8.1239      2.6102      0.3430      2.4120    110.4153     23.5777
   542.1000      8.1239      2.6707      0.4488     -1.2528    112.3188     24.3849
   542.2000      8.1239      2.6954      0.3447     -2.7533    116.8652     24.4093
   542.3000      8.1249      2.7020      0.2546     -3.1537    123.4500     23.9310
   542.4000      8.1249      2.7044      0.2600     -3.2969    125.1453     23.9503
   542.5000      8.1260      2.6823      0.2643     -1.9579    121.8206     24.7847
   542.6000      8.1260      2.6297      0.1524      1.2322    121.3182     26.0911
   542.7000      8.1260      2.5826      0.1222      4.0823    123.6322     27.2874
   542.8000      8.1263      2.5614      0.1808      5.3724    123.4189     27.9886
   542.9000      8.1263      2.5448      0.1487      6.3781    121.3127     28.2581
   543.0000      8.1265      2.5190      0.0511      7.9395    122.0309     28.2215
   543.1000      8.1265      2.4959      0.0041      9.3401    127.6652     27.5853
   543.2000      8.1265      2.4896      0.0065      9.7207    134.1542     25.8967
   543.3000      8.1259      2.5040     -0.0020      8.8461    135.0003     23.5401
   543.4000      8.1259      2.5285      0.0260      7.3631    128.5777     21.9510
   543.5000      8.1249      2.5389      0.0385      6.7334    119.5023     21.7456
   543.6000      8.1249      2.5258     -0.0109      7.5301    115.9593     22.0597
   543.7000      8.1249      2.5039     -0.0135      8.8573    121.4648     22.1144
   543.8000      8.1250      2.4789     -0.0154     10.3694    127.6606     21.8814
   543.9000      8.1250      2.4450     -0.0183     12.4256    125.5467     21.8260
   544.0000      8.1269      2.4112     -0.0386     14.4749    119.2761     22.1439
   544.1000      8.1269      2.3898     -0.0344     15.7679    117.1245     22.5471
   544.2000      8.1269      2.3793     -0.0283     16.4069    118.2870     22.8714
   544.3000      8.1288      2.3753     -0.0169     16.6486    118.1463     23.2695
   544.4000      8.1288      2.3746     -0.0242     16.6925    116.1691     23.7839
   544.5000      8.1293      2.3692     -0.0001     17.0170    113.9619     24.1993
   544.6000      8.1293      2.3583     -0.0139     17.6766    112.8300     24.4256
   544.7000      8.1293      2.3551     -0.0224     17.8734    113.7399     24.2975
   544.8000      8.1291      2.3632      0.0320     17.3822    117.5411     23.8757
   544.9000      8.1291      2.3713      0.0326     16.8893    125.6308     23.9467
   545.0000      8.1277      2.3769      0.0548     16.5538    137.2776     24.8987
   545.1000      8.1277      2.3872      0.0812     15.9297    146.6699     26.0513
