~Version Information
VERS.                      2.0: CWLS Log ASCII Standard - VERSION 2.0
WRAP.                       NO: One line per depth step
~Well Information Block
STRT.FT                -8.5000: 
STOP.FT              1945.2500: 
STEP.FT                 0.2500: 
NULL.                -999.2500: 
COMP.          Pioneer Natural Resources: COMPANY
WELL.          Flying Horse 12-11 Tr: WELL
FLD.           Purgatorie River: FIELD
LOC.           2459' FNL & 410' FWL: LOCATION
STAT.                       CO: PROVINCE
CNTY.               Las Animas: COUNTY
CTRY.        USA : Country
SECT. 11 : Section
TOWN. 32S : Township
RANG. 66W : Range
SRVC.          Patterson Wireline: SERVICE COMPANY
DATE.          Thu Sep 08 15:44:22 2005: LOG DATE
API.           05 071 08485 00: UNIQUE WELL ID
~Curve Information Block
DEPT.FT            0 000 00 00: Depth
CCL.                          : Casing Collar Locator
TT3.usec                      : CBL 3' Travel Time
AMP3.mV                       : CBL 3' Amplitude
GR.GAPI                       : Gamma Ray
~Parameter Information Block
~A  Depth       CCL         TT3         AMP3         GR     
# ...
   996.5000      0.0000    383.0109     28.7004    129.9204
   996.7500      0.0000    463.8099     28.2663    128.7465
   997.0000      0.0000    560.7389     27.8317    126.9670
   997.2500      0.0000    631.7466     27.4353    123.9933
   997.5000      0.0000    637.4081     27.1431    120.1562
   997.7500      0.0000    576.2980     26.9952    116.4072
   998.0000      0.0000    486.3568     26.9613    113.6542
   998.2500      0.0000    410.3602     26.9612    112.5416
   998.5000      0.0000    366.2329     26.9258    113.4391
   998.7500      0.0000    347.6905     26.8400    116.1303
   999.0000      0.0000    341.1233     26.7322    119.6357
   999.2500      0.0000    336.9453     26.6362    122.7828
   999.5000      0.0000    331.2401     26.5695    125.0541
   999.7500      0.0000    323.8563     26.5405    126.6520
  1000.0000      0.0000    316.4527     26.5591    127.6315
  1000.2500      0.0000    310.7476     26.6307    127.2597
  1000.5000      0.0000    307.3506     26.7476    124.6036
  1000.7500      0.0000    305.7682     26.8935    119.7639
  1001.0000      0.0000    305.1866     27.0560    114.2005
  1001.2500      0.0000    305.0229     27.2350    109.5953
  1001.5000      0.0000    304.9959     27.4360    106.5418
  1001.7500      0.0000    304.9924     27.6488    104.6773
  1002.0000      0.0000    304.9901     27.8329    104.1142
  1002.2500      0.0000    305.0027     27.9348    106.0720
  1002.5000      0.0000    305.0348     27.9322    111.3471
  1002.7500      0.0000    305.0538     27.8617    118.2385
  1003.0000      0.0000    305.0166     27.7966    122.9938
  1003.2500      0.0000    304.9192     27.7904    123.1943
  1003.5000      0.0000    304.8132     27.8389    120.3457
  1003.7500      0.0000    304.7748     27.8924    118.2058
  1004.0000      0.0000    304.8537     27.9021    118.6792
  1004.2500      0.0000    305.0733     27.8607    120.2245
  1004.5000      0.0000    305.4953     27.8002    120.2206
  1004.7500      0.0000    306.6246     27.7499    117.9630
  1005.0000      0.0000    310.2332     27.6767    115.1851
  1005.2500      0.0000    320.2216     27.4378    114.3469
  1005.5000      0.0000    341.5274     26.7827    116.6160
  1005.7500      0.0000    374.9670     25.5097    121.0618
  1006.0000      0.0000    411.4477     23.7524    125.4435
  1006.2500      0.0000    434.8934     22.0582    127.8093
  1006.5000      0.0000    435.7110     20.9831    127.7621
  1006.7500      0.0000    420.0409     20.5973    126.5121
  1007.0000      0.0000    402.2784     20.5536    125.7186
  1007.2500      0.0000    390.6691     20.5687    126.4495
  1007.5000      0.0000    383.8972     20.6206    129.0572
  1007.7500      2.0000    379.5266     20.7343    132.9710
  1008.0000      0.0000    381.2928     20.8047    136.0863
  1008.2500      0.0000    396.4249     20.6719    135.5807
  1008.5000      0.0000    425.6258     20.3309    130.5216
  1008.7500      0.0000    456.1118     20.0740    123.0646
  1009.0000      0.0000    467.8387     20.3683    116.1932
  1009.2500      0.0000    450.3280     21.4739    110.8956
  1009.5000      0.0000    411.9130     23.2047    106.4086
  1009.7500      0.0000    370.6021     25.1732    102.4221
  1010.0000      0.0000    339.0372     27.1506     99.7218
  1010.2500      0.0000    319.6967     29.0566     98.9124
  1010.5000      0.0000    309.5509     30.7648     99.5971
  1010.7500      0.0000    304.9245     32.1195    100.9032
  1011.0000      0.0000    303.1695     33.0833    102.2768
  1011.2500      0.0000    302.6941     33.7817    103.8001
  1011.5000      0.0000    302.6818     34.4461    106.0604
  1011.7500      0.0000    302.7332     35.3299    109.6860
  1012.0000      0.0000    302.6794     36.6054    114.6986
  1012.2500      0.0000    302.4773     38.2677    120.1890
  1012.5000      0.0000    302.1631     40.1308    124.5653
  1012.7500      0.0000    301.8123     41.9219    126.1588
  1013.0000      0.0000    301.4962     43.4059    123.9717
  1013.2500      0.0000    301.2580     44.4658    118.2523
  1013.5000      0.0000    301.1092     45.1087    110.5975
  1013.7500      0.0000    301.0419     45.4202    103.6628
  1014.0000      0.0000    301.0435     45.5033    100.4314
  1014.2500      0.0000    301.1021     45.4399    102.6924
  1014.5000      0.0000    301.1999     45.2913    109.5882
  1014.7500      0.0000    301.3060     45.1320    118.1315
  1015.0000      0.0000    301.3774     45.0823    125.6747
  1015.2500      0.0000    301.3709     45.2888    131.6710
  1015.5000      0.0000    301.2655     45.8410    136.8745
  1015.7500      0.0000    301.0813     46.6792    141.4084
  1016.0000      0.0000    300.8773     47.5962    144.1340
  1016.2500      0.0000    300.7183     48.3552    143.6417
  1016.5000      0.0000    300.6370     48.8286    139.4579
  1016.7500      0.0000    300.6256     49.0375    132.4094
  1017.0000      0.0000    300.6563     49.0849    124.0666
  1017.2500      0.0000    300.7040     49.0707    115.8239
  1017.5000      0.0000    300.7545     49.0484    108.3695
  1017.7500      0.0000    300.7997     49.0235    101.8359
  1018.0000      0.0000    300.8334     48.9748     96.1979
  1018.2500      0.0000    300.8522     48.8805     91.4804
  1018.5000      0.0000    300.8577     48.7303     87.8938
  1018.7500      0.0000    300.8595     48.5192     85.9339
  1019.0000      0.0000    300.8739     48.2392     86.0512
  1019.2500      0.0000    300.9155     47.8799     87.8436
  1019.5000      0.0000    300.9863     47.4385     89.6628
  1019.7500      0.0000    301.0735     46.9337     89.5658
  1020.0000      0.0000    301.1584     46.4104     86.8163
  1020.2500      0.0000    301.2294     45.9224     82.1295
  1020.5000      0.0000    301.2856     45.5041     76.6445
  1020.7500      0.0000    301.3306     45.1574     71.3438
  1021.0000      0.0000    301.3658     44.8621     67.4022
  1021.2500      0.0000    301.3899     44.5919     66.1086
  1021.5000      0.0000    301.4025     44.3208     67.7326
  1021.7500      0.0000    301.4068     44.0265     70.7193
  1022.0000      0.0000    301.4091     43.6988     72.6783
  1022.2500      0.0000    301.4160     43.3430     72.4983
  1022.5000      0.0000    301.4337     42.9716     71.3142
  1022.7500      0.0000    301.4672     42.6018     71.2103
  1023.0000      0.0000    301.5137     42.2667     73.0566
  1023.2500      0.0000    301.5587     42.0179     75.7605
  1023.5000      0.0000    301.5826     41.8955     77.4433
  1023.7500      0.0000    301.5777     41.8849     76.9810
  1024.0000      0.0000    301.5567     41.9103     74.5333
  1024.2500      0.0000    301.5422     41.8803     71.3578
  1024.5000      0.0000    301.5500     41.7484     69.6206
  1024.7500      0.0000    301.5836     41.5320     71.8246
  1025.0000      0.0000    301.6412     41.2821     79.4508
  1025.2500      0.0000    301.7202     41.0391     91.9187
  1025.5000      0.0000    301.8145     40.8176    107.0781
  1025.7500      0.0000    301.9090     40.6254    122.5536
  1026.0000      0.0000    301.9820     40.4842    136.4837
  1026.2500      0.0000    302.0154     40.4166    147.6174
  1026.5000      0.0000    302.0057     40.4130    155.4814
  1026.7500      0.0000    301.9709     40.4137    160.3698
  1027.0000      0.0000    301.9891     40.3242    162.8672
  1027.2500      0.0000    302.3396     40.0363    163.6080
  1027.5000      0.0000    304.1322     39.4241    163.3700
  1027.7500      0.0000    310.7203     38.3254    162.7561
  1028.0000      0.0000    329.5964     36.5614    161.6481
  1028.2500      0.0000    372.3572     34.0320    159.2962
  1028.5000      0.0000    449.4561     30.8466    154.9984
  1028.7500      0.0000    561.1756     27.3791    148.6237
  1029.0000      0.0000    693.5119     24.1579    140.5496
  1029.2500      0.0000    825.0183     21.6321    131.3107
  1029.5000      0.0000    937.8671     19.9796    121.5057
  1029.7500      0.0000   1022.0506     19.0951    112.0070
