~Version Information
VERS.                      2.0: CWLS Log ASCII Standard - VERSION 2.0
WRAP.                       NO: One line per depth step
~Well Information Block
STRT.FT                 0.0000: 
STOP.FT              1426.7500: 
STEP.FT                 0.2500: 
NULL.                -999.2500: 
COMP.          Pioneer Natural Resources: COMPANY
WELL.            Bordeaux 42-2: WELL
FLD.           Purgatorie River: FIELD
LOC.           1963' FNL & 1148' FEL: LOCATION
PROV.                 Colorado: PROVINCE
CNTY.               Las Animas: COUNTRY
SRVC.                Patterson: SERVICE COMPANY
DATE.          Fri Dec 02 09:28:20 2005: LOG DATE
UWI.                          : UNIQUE WELL ID
~Curve Information Block
DEPT.FT            0 000 00 00: Depth
CCL.                          : Casing Collar Locator
TT3.usec                      : CBL 3' Travel Time
AMP3.mV                       : CBL 3' Amplitude
GR.GAPI                       : Gamma Ray
~Parameter Information Block
~A  Depth       CCL         TT3         AMP3         GR     
# ...
  1206.0000      0.0000    687.6514     10.7904     63.0589
  1206.2500      0.0000    695.4658     10.7586     60.5766
  1206.5000      0.0000    706.3315     10.8097     59.2953
  1206.7500      0.0000    712.7945     10.9680     59.9433
  1207.0000      0.0000    714.9584     11.2011     62.1725
  1207.2500      0.0000    715.4630     11.4633     65.3501
  1207.5000      0.0000    715.7360     11.7215     69.2630
  1207.7500      0.0000    716.1231     11.9081     73.6662
  1208.0000      0.0000    716.6213     11.9047     77.4294
  1208.2500      0.0000    717.0637     11.6331     78.8898
  1208.5000      0.0000    717.1317     11.1295     77.3788
  1208.7500      0.0000    716.3676     10.5033     73.9834
  1209.0000      0.0000    713.9272      9.8705     70.3260
  1209.2500      0.0000    708.4681      9.3481     66.8700
  1209.5000      0.0000    700.0305      9.0553     63.0281
  1209.7500      0.0000    692.8674      9.0596     58.7117
  1210.0000      0.0000    692.5134      9.3258     54.9271
  1210.2500      0.0000    697.8009      9.7446     52.8265
  1210.5000      0.0000    699.8124     10.2422     52.9531
  1210.7500      0.0000    687.6135     10.8720     55.4598
  1211.0000      0.0000    649.7468     11.7683     60.1981
  1211.2500      0.0000    579.3160     12.9993     66.2859
  1211.5000      0.0000    490.2159     14.4842     72.2059
  1211.7500      0.0000    414.3690     16.0371     76.6915
  1212.0000      0.0000    371.8455     17.4563     79.2966
  1212.2500      0.0000    358.0514     18.6109     80.1430
  1212.5000      0.0000    357.1612     19.4719     79.4901
  1212.7500      0.0000    359.0657     19.9836     77.6781
  1213.0000      0.0000    370.2084     19.9886     75.3250
  1213.2500      0.0000    407.8840     19.4365     73.4520
  1213.5000      0.0000    478.4786     18.5241     73.2091
  1213.7500      0.0000    561.8447     17.4979     75.1139
  1214.0000      0.0000    625.5110     16.4667     78.4385
  1214.2500      0.0000    656.2440     15.4641     81.5720
  1214.5000      0.0000    666.8084     14.5400     83.1608
  1214.7500      0.0000    675.9038     13.7380     82.9470
  1215.0000      0.0000    690.2291     13.0664     81.7619
  1215.2500      0.0000    703.5244     12.5100     80.8522
  1215.5000      0.0000    708.9389     12.0371     80.9299
  1215.7500      0.0000    707.5327     11.5978     81.5733
  1216.0000      0.0000    705.5145     11.1628     81.6471
  1216.2500      0.0000    706.3721     10.7732     80.3850
  1216.5000      0.0000    707.1713     10.5082     78.0847
  1216.7500      0.0000    704.4052     10.3962     76.1121
  1217.0000      0.0000    699.6078     10.3916     76.3056
  1217.2500      0.0000    695.9189     10.4210     79.6629
  1217.5000      0.0000    693.5829     10.4248     85.0059
  1217.7500      0.0000    691.6355     10.3661     89.2153
  1218.0000      0.0000    692.0009     10.2328     89.4562
  1218.2500      0.0000    699.3149     10.0481     85.4339
  1218.5000      0.0000    713.8398      9.8628     79.3963
  1218.7500      0.0000    728.1012      9.7423     74.0275
  1219.0000      0.0000    735.0193      9.7572     70.5702
  1219.2500      0.0000    735.0369      9.9372     68.7563
  1219.5000      0.0000    732.5424     10.2155     67.9186
  1219.7500      0.0000    731.2469     10.4646     67.8966
  1220.0000      0.0000    733.5872     10.6157     69.1831
  1220.2500      0.0000    738.2693     10.7147     72.4440
  1220.5000      0.0000    741.0035     10.8263     77.7303
  1220.7500      0.0000    740.0175     10.9424     83.9053
  1221.0000      0.0000    735.8937     11.0195     88.9331
  1221.2500      0.0000    728.6655     11.0395     91.0645
  1221.5000      0.0000    718.4402     11.0163     90.0739
  1221.7500      0.0000    705.7828     10.9803     87.3432
  1222.0000      0.0000    693.0065     10.9596     84.6322
  1222.2500      0.0000    684.7445     10.9640     82.8703
  1222.5000      0.0000    684.4156     10.9859     82.1696
  1222.7500      0.0000    691.6161     11.0140     82.4572
  1223.0000      0.0000    702.2529     11.0504     83.7115
  1223.2500      0.0000    710.9952     11.1215     86.0026
  1223.5000      0.0000    715.4639     11.2535     89.4915
  1223.7500      0.0000    716.9738     11.4319     93.7562
  1224.0000      0.0000    717.5413     11.6029     97.1961
  1224.2500      0.0000    717.8250     11.6883     98.1000
  1224.5000      0.0000    716.8301     11.5645     96.4460
  1224.7500      0.0000    711.3736     11.1110     93.7971
  1225.0000      0.0000    695.9833     10.4731     91.2639
  1225.2500      0.0000    668.8645     10.1501     88.2399
  1225.5000      0.0000    646.3687     10.2789     83.3349
  1225.7500      0.0000    661.4698     10.1424     76.0970
  1226.0000      0.0000    720.2233      9.3094     67.6447
  1226.2500      0.0000    777.6099      8.4272     59.8593
  1226.5000      0.0000    793.3415      8.0757     54.2470
  1226.7500      0.0000    778.2609      8.0536     51.5975
  1227.0000      2.0000    764.0593      8.0179     52.3297
  1227.2500     -2.0000    767.9659      7.8519     56.4485
  1227.5000      0.0000    787.0178      7.4872     62.8855
  1227.7500      0.0000    796.9342      7.0288     69.4375
  1228.0000      0.0000    774.4466      7.0781     74.1363
  1228.2500      0.0000    728.9957      8.1689     76.7244
  1228.5000      0.0000    691.2283      9.7476     78.4311
  1228.7500      0.0000    679.6684     10.8013     80.4297
  1229.0000      0.0000    688.6699     11.2213     82.9015
  1229.2500      0.0000    700.8571     11.4560     85.3657
  1229.5000      0.0000    707.1434     11.6736     87.3724
  1229.7500      0.0000    710.0938     11.8415     88.6967
  1230.0000      0.0000    710.9658     11.9451     88.8714
  1230.2500      0.0000    707.1965     11.9875     86.8024
  1230.5000      0.0000    703.4520     11.9999     81.5197
  1230.7500      0.0000    709.8195     12.0343     73.6559
  1231.0000      0.0000    726.7081     12.1012     65.6736
  1231.2500      0.0000    742.3538     12.1514     60.1193
  1231.5000      0.0000    745.8596     12.1444     57.7288
  1231.7500      0.0000    737.6552     12.0947     57.3405
  1232.0000      0.0000    726.7003     12.0331     57.3815
  1232.2500      0.0000    719.7158     11.9567     57.1234
  1232.5000      0.0000    716.9125     11.8303     56.7285
  1232.7500      0.0000    716.1371     11.6388     56.6492
  1233.0000      0.0000    716.1478     11.4350     57.2365
  1233.2500      0.0000    716.4888     11.3002     58.6646
  1233.5000      0.0000    716.8333     11.2562     61.0056
  1233.7500      0.0000    717.0486     11.2532     64.3667
  1234.0000      0.0000    717.3439     11.2329     68.7824
  1234.2500      0.0000    718.2021     11.1572     73.7031
  1234.5000      0.0000    720.2835     10.9966     77.7299
  1234.7500      0.0000    723.1033     10.7483     79.2273
  1235.0000      0.0000    723.5252     10.4669     77.3772
  1235.2500      0.0000    718.7135     10.2370     72.8119
  1235.5000      0.0000    711.1467     10.0900     67.3759
  1235.7500      0.0000    707.4335      9.9918     63.0547
  1236.0000      0.0000    711.2464      9.9279     60.7738
  1236.2500      0.0000    718.8427      9.9343     60.1488
  1236.5000      0.0000    722.6132     10.0371     60.3223
  1236.7500      0.0000    718.6693     10.2092     60.8206
  1237.0000      0.0000    710.5941     10.4104     61.6710
  1237.2500      0.0000    705.5548     10.6334     62.9946
  1237.5000      0.0000    706.7454     10.8744     64.5608
  1237.7500      0.0000    711.0367     11.1068     65.7424
  1238.0000      0.0000    714.3328     11.3026     66.0693
  1238.2500      0.0000    715.9095     11.4489     65.6775
  1238.5000      0.0000    717.3752     11.5464     64.9095
  1238.7500      0.0000    720.5412     11.5933     63.7313
  1239.0000      0.0000    725.8391     11.6001     61.9195
  1239.2500      0.0000    731.5518     11.6018     59.5381
