~Version Information
VERS.                      2.0: CWLS Log ASCII Standard - VERSION 2.0
WRAP.                       NO: One line per depth step
~Well Information Block
STRT.FT               545.0000: 
STOP.FT              1452.5000: 
STEP.FT                 0.1000: 
NULL.                -999.2500: 
COMP.          Pioneer Natural Resources: COMPANY
WELL.          Parklane 43-34 Tr: WELL
FLD.           Purgatoire River: FIELD
LOC.           1643' FSL & 966' FEL: LOCATION
PROV.                 Colorado: PROVINCE
CNTY.               Las Animas: COUNTRY
SRVC.                Patterson: SERVICE COMPANY
DATE.          Fri Jul 29 07:27:28 2005: LOG DATE
UWI.           05 071 08452 00: UNIQUE WELL ID
~Curve Information Block
DEPT.FT            0 000 00 00: Depth
DCAL.in                       : CDL Caliper
RHOB.g/cc                     : CDL Bulk Density
RHOC.g/cc                     : CDL Density Correction
DPOR.pu                       : CDL Density Porosity
GR.GAPI                       : Gamma Ray
NPOR.pu                       : Neutron Porosity
~Parameter Information Block
~A  Depth       DCAL        RHOB        RHOC        DPOR         GR         NPOR    
# ...
   900.2000      7.9364      2.8848      0.2784    -14.2281     97.6349     26.6185
   900.3000      7.8390      2.8650      0.2122    -13.0277     94.3199     26.4557
   900.4000      7.8390      2.8340      0.1320    -11.1501     86.9789     26.5447
   900.5000      7.8401      2.8081      0.0616     -9.5831     82.0330     26.6803
   900.6000      7.8401      2.7991      0.0584     -9.0365     82.4995     26.6634
   900.7000      7.8401      2.7942      0.0843     -8.7412     84.7102     26.6616
   900.8000      7.8918      2.7869      0.0729     -8.2964     83.1057     26.6956
   900.9000      7.8918      2.7922      0.0747     -8.6188     80.0513     26.4773
   901.0000      7.9584      2.8141      0.0541     -9.9461     81.1136     26.0043
   901.1000      7.9584      2.8352      0.0909    -11.2225     86.2290     25.4301
   901.2000      7.9584      2.8380      0.0500    -11.3932     88.5546     24.8120
   901.3000      7.9415      2.8199      0.0732    -10.2977     85.5502     24.4484
   901.4000      7.9415      2.7934      0.0810     -8.6925     83.8873     24.4344
   901.5000      7.9016      2.7707      0.0981     -7.3172     86.2152     24.3098
   901.6000      7.9016      2.7418      0.1113     -5.5625     88.4803     23.6842
   901.7000      7.9016      2.7003      0.0150     -3.0512     89.8117     22.7635
   901.8000      7.8885      2.6675      0.0211     -1.0596     92.6017     22.0225
   901.9000      7.8885      2.6451      0.0574      0.2949     97.8637     21.6279
   902.0000      7.8934      2.6191      0.0075      1.8742    105.1078     21.4622
   902.1000      7.8934      2.5929      0.0198      3.4581    112.6837     21.6392
   902.2000      7.8934      2.5696      0.0529      4.8713    118.9831     22.2434
   902.3000      7.9497      2.5470      0.0912      6.2420    122.5200     22.9117
   902.4000      7.9497      2.5300      0.1003      7.2727    122.3706     23.5120
   902.5000      7.9729      2.5175      0.1239      8.0300    121.2279     24.1835
   902.6000      7.9729      2.5071      0.1196      8.6612    124.1897     24.6817
   902.7000      7.9729      2.5142      0.0703      8.2331    131.0442     24.8270
   902.8000      7.9797      2.5481      0.0789      6.1734    138.9992     24.9299
   902.9000      7.9797      2.5883      0.1671      3.7389    147.8865     25.0748
   903.0000      7.9721      2.6126      0.1664      2.2674    155.6124     25.1339
   903.1000      7.9721      2.6200      0.1796      1.8187    159.1593     25.1246
   903.2000      7.9721      2.6153      0.1866      2.1032    159.4822     25.0419
   903.3000      7.9777      2.6014      0.1569      2.9432    160.5153     24.9928
   903.4000      7.9777      2.5842      0.1108      3.9886    162.1321     25.1056
   903.5000      7.9822      2.5689      0.1074      4.9161    162.3611     25.3465
   903.6000      7.9822      2.5566      0.0732      5.6589    161.3896     25.6196
   903.7000      7.9822      2.5447      0.0930      6.3827    158.5099     25.9091
   903.8000      8.0193      2.5329      0.0264      7.0955    155.6156     26.2885
   903.9000      8.0193      2.5312      0.0527      7.2004    155.2915     26.4878
   904.0000      8.0311      2.5400      0.0753      6.6689    153.7878     26.1679
   904.1000      8.0311      2.5465      0.1240      6.2749    148.3042     25.7658
   904.2000      8.0311      2.5492      0.0792      6.1074    142.1885     25.8747
   904.3000      8.0469      2.5605      0.0977      5.4239    137.9291     26.2917
   904.4000      8.0469      2.5819      0.1238      4.1303    131.8124     26.5609
   904.5000      8.0382      2.5922      0.1537      3.5036    124.4733     26.6209
   904.6000      8.0382      2.5769      0.0722      4.4305    121.9705     26.5536
   904.7000      8.0382      2.5553      0.0298      5.7421    123.2993     26.1280
   904.8000      8.0314      2.5485      0.0363      6.1523    125.8823     25.5328
   904.9000      8.0314      2.5523      0.0656      5.9219    130.3409     25.4662
   905.0000      8.0492      2.5528      0.0539      5.8929    134.7072     25.6883
   905.1000      8.0492      2.5371      0.1145      6.8448    138.2463     25.5800
   905.2000      8.0492      2.5054      0.0674      8.7616    143.0499     25.1808
   905.3000      8.0531      2.4782      0.0505     10.4095    147.7009     24.7271
   905.4000      8.0531      2.4727      0.0231     10.7432    149.0315     24.4264
   905.5000      8.0288      2.4826      0.0676     10.1461    146.3902     24.3812
   905.6000      8.0288      2.4869      0.0646      9.8856    142.9398     24.4882
   905.7000      8.0288      2.4857      0.0309      9.9602    143.7808     24.6852
   905.8000      8.0222      2.5020      0.0171      8.9725    148.9510     24.9422
   905.9000      8.0222      2.5379      0.0641      6.7958    149.5391     25.3395
   906.0000      8.0262      2.5699      0.0728      4.8530    140.5730     26.0895
   906.1000      8.0262      2.5875      0.0507      3.7877    130.0271     26.8845
   906.2000      8.0262      2.5922      0.0942      3.5038    123.3555     27.0736
   906.3000      8.0334      2.5821      0.0979      4.1129    119.4715     26.8201
   906.4000      8.0334      2.5629      0.0963      5.2812    117.4949     26.7112
   906.5000      8.0532      2.5490      0.0496      6.1189    116.2675     26.8012
   906.6000      8.0532      2.5532      0.0206      5.8684    114.6313     26.7621
   906.7000      8.0532      2.5710      0.0471      4.7906    113.3456     26.5781
   906.8000      8.1363      2.5868      0.0018      3.8305    113.7396     26.2950
   906.9000      8.1363      2.6035     -0.0138      2.8162    113.4861     25.8643
   907.0000      8.1250      2.6428      0.0041      0.4354    111.1704     25.4639
   907.1000      8.1250      2.6999      0.0687     -3.0250    111.4860     25.1710
   907.2000      8.1250      2.7295      0.0976     -4.8209    116.8072     24.8265
   907.3000      8.0934      2.7073      0.0451     -3.4718    121.7953     24.3627
   907.4000      8.0934      2.6617      0.0034     -0.7115    120.8689     23.9862
   907.5000      8.0062      2.6206      0.0482      1.7792    115.9393     23.7856
   907.6000      8.0062      2.5851     -0.0053      3.9345    113.2898     23.4806
   907.7000      8.0062      2.5558     -0.0167      5.7096    114.7543     23.0498
   907.8000      8.0730      2.5412     -0.0151      6.5927    117.1640     22.8013
   907.9000      8.0730      2.5422      0.0095      6.5362    118.6364     23.0430
   908.0000      8.1218      2.5460      0.0109      6.3057    119.8952     23.7475
   908.1000      8.1218      2.5494     -0.0236      6.0975    120.9359     24.3590
   908.2000      8.1218      2.5581      0.0269      5.5669    121.9297     24.5271
   908.3000      8.1591      2.5630      0.0514      5.2706    122.9782     24.4508
   908.4000      8.1591      2.5509      0.0231      6.0059    125.6407     24.4914
   908.5000      8.1584      2.5216      0.0062      7.7833    130.7417     24.6366
   908.6000      8.1584      2.4921     -0.0473      9.5698    133.5219     24.5424
   908.7000      8.1584      2.4888     -0.0544      9.7676    131.7864     24.3076
   908.8000      8.1345      2.5117      0.0218      8.3842    129.1626     24.3639
   908.9000      8.1345      2.5327      0.0424      7.1062    129.7191     24.6473
   909.0000      8.1515      2.5381      0.0537      6.7791    130.9046     24.6172
   909.1000      8.1515      2.5345      0.0282      7.0020    128.3238     24.2699
   909.2000      8.1515      2.5328      0.0435      7.1024    125.2707     24.1451
   909.3000      8.0629      2.5395      0.0518      6.6989    127.0159     24.2664
   909.4000      8.0629      2.5536      0.0435      5.8407    130.0529     24.3852
   909.5000      8.0409      2.5706      0.0453      4.8103    127.9876     24.6938
   909.6000      8.0409      2.5909      0.0357      3.5830    122.8824     25.1266
   909.7000      8.0409      2.6132      0.0731      2.2327    117.9357     25.0644
