~Version Information
 VERS.                                  2.0 : CWLS LAS VERSION
 WRAP.                                   NO : WRAPING MODE
 SWARE .                 MController 2.5.0N : SOFTWARE VERSION
~Well Information
 WELL.                          Gough 14-29 : WELL
 COMP.    Pioneer Natural Resouces USA Inc. : COMPANY
 FLD.                      Purgatoire River : FIELD
 LOC.             SW/SW Sec 29, T33S, R65W  : LOCATION
 DATE.                             12/22/05 : DATE(S) LOGGED
 SRVC.       BLANCO Geological Services LLC : SERVICE COMPANY
 STAT.                                   CO : STATE
 CNTY.                           Las Animas : COUNTY
 CTRY.                                  USA : COUNTRY
 API.                          05-071-08612 : API NUMBER
 STRT.FT                             190.00 : START DEPTH
 STOP.FT                            1026.00 : STOP DEPTH
 STEP.FT                               1.00 : DEPTH INCREMENT
 NULL.                                -9999 : NULL VALUE
~Curve information
 DEPTH.FT                                   :
 ROP.MIN/FT                                 :
 GAS.UNITS                                  :
~ASCII Log data
       190.0     -9999.00          4.6 
       191.0         2.38          6.8 
       192.0         0.07          6.3 
       193.0         1.10          6.6 
       194.0         0.37          7.2 
       195.0         0.70          7.3 
       196.0         0.40          7.3 
       197.0         3.05          8.0 
       198.0        59.27         13.3 
       199.0         0.03          5.6 
       200.0         0.20          4.8 
       201.0         0.20          4.4 
       202.0         0.17          4.2 
       203.0         0.20          3.5 
       204.0         0.17          3.6 
       205.0         0.17          3.8 
       206.0         0.17          3.7 
       207.0         0.08          3.9 
       208.0         0.10          3.9 
       209.0         0.17          4.4 
       210.0         0.20          4.2 
       211.0         0.17          4.3 
       212.0         0.17          4.3 
       213.0         0.17          4.1 
       214.0         0.17          4.1 
       215.0         0.17          4.1 
       216.0         0.17          4.7 
       217.0         0.20          5.4 
       218.0         0.17          4.8 
       219.0         0.17          4.8 
       220.0         0.17          4.2 
       221.0         0.20          4.1 
       222.0         0.17          4.1 
       223.0         0.20          4.3 
       224.0         0.17          4.8 
       225.0         0.17          4.8 
       226.0         0.20          4.0 
       227.0         0.18          5.2 
       228.0         0.20          5.2 
       229.0         0.20          4.4 
       230.0         0.43          5.0 
       231.0         9.22          6.9 
       232.0         0.33          6.3 
       233.0         0.13          6.3 
       234.0         0.13          6.1 
       235.0         0.10          6.3 
       236.0         0.13          6.3 
       237.0         0.13          6.0 
       238.0         0.10          6.0 
       239.0         0.13          5.7 
       240.0         0.13          5.7 
       241.0         0.13          5.4 
       242.0         0.10          5.4 
       243.0         0.13          5.4 
       244.0         0.13          5.2 
       245.0         0.10          5.2 
       246.0         0.10          5.9 
       247.0         0.13          5.9 
       248.0         0.10          5.8 
       249.0         0.13          5.8 
       250.0         0.17          5.4 
       251.0         0.13          5.4 
       252.0         0.13          5.5 
       253.0         0.13          5.5 
       254.0         0.13          4.9 
       255.0         0.15          4.9 
       256.0         0.13          5.6 
       257.0         0.13          5.3 
       258.0         0.13          4.9 
       259.0         0.40          5.2 
       260.0         0.23          5.2 
       261.0         2.98          7.2 
       262.0         0.33          5.7 
       263.0         0.30          6.3 
       264.0         0.23          6.2 
       265.0         0.20          5.9 
       266.0         0.20          6.0 
       267.0         0.23          6.0 
       268.0         0.23          5.5 
       269.0         0.17          6.5 
       270.0         0.27          6.8 
       271.0         0.30          5.6 
       272.0         0.25          6.1 
       273.0         0.23          5.5 
       274.0         0.17          5.8 
       275.0         0.27          6.9 
       276.0         0.17          6.9 
       277.0         0.23          5.8 
       278.0         0.30          5.5 
       279.0         0.23          5.8 
       280.0         0.20          5.8 
       281.0         0.20          5.8 
       282.0         0.27          5.7 
       283.0         0.27          5.4 
       284.0         0.33          5.9 
       285.0         0.27          6.1 
       286.0         0.32          6.4 
       287.0         0.30          5.6 
       288.0         0.30          6.7 
       289.0         0.27          6.2 
       290.0         0.33          6.4 
       291.0         2.08          6.1 
       292.0         0.23          6.2 
       293.0         0.47          6.0 
       294.0         0.30          6.0 
       295.0         0.33          6.2 
       296.0         0.30          5.6 
       297.0         0.27          6.0 
       298.0         0.23          6.1 
       299.0         0.27          6.1 
       300.0         0.20          6.3 
       301.0         0.20          5.9 
       302.0         0.30          6.1 
       303.0         0.25          6.2 
       304.0         0.37          5.9 
       305.0         0.23          6.3 
       306.0         0.27          5.7 
       307.0         0.33          5.7 
       308.0         0.23          5.8 
       309.0         0.20          5.7 
       310.0         0.33          6.0 
       311.0         0.23          6.1 
       312.0         0.23          6.0 
       313.0         0.27          5.9 
       314.0         0.23          6.1 
       315.0         0.20          6.1 
       316.0         0.22          6.0 
       317.0         0.17          6.6 
       318.0         0.17          6.3 
       319.0         0.33          6.3 
       320.0         0.27          6.4 
       321.0         4.38          6.8 
       322.0         0.23          6.3 
       323.0         0.33          6.5 
       324.0         0.30          5.8 
       325.0         0.27          6.4 
       326.0         0.28          6.7 
       327.0         0.27          6.3 
       328.0         0.30          6.4 
       329.0         0.27          6.3 
       330.0         0.23          6.6 
       331.0         0.23          6.3 
       332.0         0.30          6.0 
       333.0         0.27          6.6 
       334.0         0.27          6.3 
       335.0         0.30          6.6 
       336.0         0.27          6.8 
       337.0         0.20          6.5 
       338.0         0.32          6.3 
       339.0         0.30          6.0 
       340.0         0.27          6.3 
       341.0         0.27          6.8 
       342.0         0.27          6.2 
       343.0         0.27          7.0 
       344.0         0.20          6.0 
       345.0         0.20          6.0 
       346.0         0.33          6.5 
       347.0         0.27          6.8 
       348.0         0.33          6.3 
       349.0         0.30          6.2 
       350.0         0.68          6.7 
       351.0         2.63          6.8 
       352.0         0.38          6.4 
       353.0         0.40          6.6 
       354.0         0.30          6.9 
       355.0         0.27          6.3 
       356.0         0.27          6.4 
       357.0         0.17          6.0 
       358.0         0.20          6.6 
       359.0         0.20          6.2 
       360.0         0.27          6.2 
       361.0         0.27          6.6 
       362.0         0.47          6.4 
       363.0         0.23          6.3 
       364.0         0.20          7.1 
       365.0         0.18          6.3 
       366.0         0.40          6.4 
       367.0         0.23          6.0 
       368.0         0.20          6.3 
       369.0         0.27          6.4 
       370.0         0.37          6.3 
       371.0         0.30          6.8 
       372.0         0.27          6.8 
       373.0         0.20          6.8 
       374.0         0.23          6.4 
       375.0         0.23          6.4 
       376.0         0.20          6.4 
       377.0         0.20          6.7 
       378.0         0.32          6.0 
       379.0         0.43          6.7 
       380.0         0.10          6.4 
       381.0         3.38          6.9 
       382.0         0.37          6.5 
       383.0         0.33          6.7 
       384.0         0.33          6.5 
       385.0         0.23          6.3 
       386.0         0.37          6.5 
       387.0         0.37          6.1 
       388.0         0.30          6.4 
       389.0         0.28          6.3 
