~Version Information
VERS.                      2.0: CWLS Log ASCII Standard - VERSION 2.0
WRAP.                       NO: One line per depth step
~Well Information Block
STRT.FT               595.0000: 
STOP.FT              1693.0000: 
STEP.FT                 0.1000: 
NULL.                -999.2500: 
COMP.          Pioneer Natural Resources: COMPANY
WELL.          Rollerball 34-30: WELL
FLD.           Purgatoire River: FIELD
LOC.           893' FSL & 2408' FEL: LOCATION
CNTY.               Las Animas: COUNTY
SRVC.                Patterson: SERVICE COMPANY
DATE.          Tue Feb 14 15:43:01 2006: LOG DATE
UWI.           05 071 08581 00: UNIQUE WELL ID
STAT.                 Colorado: STATE
~Curve Information Block
DEPT.FT            0 000 00 00: Depth
DCAL.in                       : CDL Caliper
RHOB.g/cc                     : CDL Bulk Density
RHOC.g/cc                     : CDL Density Correction
DPOR.pu                       : CDL Density Porosity
GR.GAPI                       : Gamma Ray
NPOR.pu                       : Neutron Porosity
~Parameter Information Block
~A  Depth       DCAL        RHOB        RHOC        DPOR         GR         NPOR    
   595.0000      7.9963      2.4111     -0.3557     14.4788    118.1360     24.1512
   595.1000      7.9963      2.3398     -0.3884     18.8003    123.9318     24.6416
   595.2000      7.9963      2.3153     -0.3934     20.2830    124.1766     24.8281
   595.3000      7.9931      2.3022     -0.3585     21.0775    117.7325     24.3246
   595.4000      7.9931      2.2881     -0.3541     21.9353    112.2875     23.5511
   595.5000      7.9818      2.2780     -0.4081     22.5464    115.1810     22.9988
   595.6000      7.9818      2.2845     -0.3748     22.1505    121.4693     22.7229
   595.7000      7.9818      2.3031     -0.3631     21.0261    122.9841     22.6891
   595.8000      7.9980      2.3162     -0.3491     20.2320    122.7025     23.0995
   595.9000      7.9980      2.3200     -0.3766     19.9992    122.5829     23.5299
   596.0000      7.9976      2.3284     -0.3442     19.4921    116.8696     23.6809
   596.1000      7.9976      2.3452     -0.3106     18.4703    106.7828     24.0906
   596.2000      7.9976      2.3534     -0.3230     17.9763    100.9989     24.6907
   596.3000      7.9904      2.3399     -0.3592     18.7942    102.3035     24.8457
   596.4000      7.9904      2.3198     -0.4137     20.0091    103.5346     24.5054
   596.5000      7.9956      2.3138     -0.3591     20.3745    100.7623     24.0056
   596.6000      7.9956      2.3205     -0.3421     19.9707     95.7505     23.3836
   596.7000      7.9956      2.3361     -0.3588     19.0213     89.7663     23.1142
   596.8000      7.9972      2.3669     -0.3809     17.1568     85.9186     23.7826
   596.9000      7.9972      2.4085     -0.3307     14.6371     86.5469     24.9920
   597.0000      8.0002      2.4397     -0.3380     12.7455     90.8803     25.7320
   597.1000      8.0002      2.4469     -0.2826     12.3097     99.8425     25.2869
   597.2000      8.0002      2.4290     -0.3354     13.3943    110.6888     24.2724
   597.3000      7.9973      2.3948     -0.3489     15.4653    113.7588     23.8948
   597.4000      7.9973      2.3562     -0.3877     17.8066    108.0736     24.2394
   597.5000      7.9972      2.3248     -0.4093     19.7063    103.3190     24.3073
   597.6000      7.9972      2.3100     -0.3953     20.6053    101.4096     23.3073
   597.7000      7.9972      2.3024     -0.3561     21.0663    101.4755     21.9632
   597.8000      7.9974      2.2877     -0.4085     21.9555    107.3458     21.5851
   597.9000      7.9974      2.2687     -0.4059     23.1104    115.9824     22.2793
   598.0000      7.9966      2.2479     -0.4260     24.3720    120.3012     23.2711
   598.1000      7.9966      2.2208     -0.3883     26.0124    118.4721     24.1264
   598.2000      7.9966      2.1902     -0.4038     27.8680    115.3077     24.5025
   598.3000      7.9969      2.1698     -0.4401     29.1059    118.9698     24.4783
   598.4000      7.9969      2.1634     -0.3880     29.4887    129.9895     24.6404
   598.5000      7.9976      2.1552     -0.3864     29.9860    139.9002     25.0680
   598.6000      7.9976      2.1423     -0.4377     30.7698    141.2367     25.5180
   598.7000      7.9976      2.1305     -0.3793     31.4846    135.3156     25.6390
   598.8000      7.9988      2.1122     -0.4225     32.5931    130.4433     25.2836
   598.9000      7.9988      2.0966     -0.4903     33.5396    131.9763     24.9296
   599.0000      8.0025      2.1069     -0.4471     32.9172    138.5349     24.9613
   599.1000      8.0025      2.1410     -0.3941     30.8482    142.2942     24.7289
   599.2000      8.0025      2.1786     -0.3747     28.5710    137.9865     23.6398
   599.3000      7.9999      2.2001     -0.3158     27.2655    130.4914     22.5461
   599.4000      7.9999      2.1996     -0.4031     27.2957    126.3059     22.6050
   599.5000      7.9990      2.1856     -0.4205     28.1439    128.0505     23.6331
   599.6000      7.9990      2.1533     -0.4164     30.1005    133.9794     24.5228
   599.7000      7.9990      2.0932     -0.4300     33.7439    138.7081     25.1694
   599.8000      7.9974      2.0197     -0.5065     38.2007    140.6162     25.9866
   599.9000      7.9974      1.9469     -0.5007     42.6097    141.7066     26.6569
   600.0000      7.9995      1.8702     -0.5699     47.2592    140.5595     26.9475
   600.1000      7.9995      1.7930     -0.5923     51.9368    135.4481     26.9318
   600.2000      7.9995      1.7347     -0.6886     55.4724    130.7110     26.2828
   600.3000      7.9987      1.7101     -0.6577     56.9647    131.2402     25.0710
   600.4000      7.9987      1.7134     -0.6382     56.7653    133.3236     24.3189
   600.5000      7.9997      1.7331     -0.6781     55.5711    131.3965     24.6234
   600.6000      7.9997      1.7705     -0.6414     53.3060    127.2538     25.4491
   600.7000      7.9997      1.8335     -0.6745     49.4862    127.2363     25.9496
   600.8000      7.9987      1.9136     -0.5216     44.6313    134.6126     25.9488
   600.9000      7.9987      1.9781     -0.5085     40.7214    146.8767     26.0430
   601.0000      7.9975      2.0180     -0.4909     38.3004    159.5879     26.5659
   601.1000      7.9975      2.0546     -0.4612     36.0878    168.3050     27.1956
   601.2000      7.9975      2.1001     -0.4477     33.3285    163.2793     27.5263
   601.3000      7.9980      2.1420     -0.3366     30.7882    155.1287     27.1796
   601.4000      7.9980      2.1603     -0.3444     29.6762    142.7941     26.0450
   601.5000      7.9987      2.1594     -0.3716     29.7362    134.4743     24.7425
   601.6000      7.9987      2.1507     -0.3407     30.2614    132.2675     23.8503
   601.7000      7.9987      2.1378     -0.3535     31.0448    130.2066     23.3965
   601.8000      7.9982      2.1329     -0.3940     31.3423    126.8980     23.1489
   601.9000      7.9982      2.1389     -0.3219     30.9775    126.3725     22.8143
   602.0000      7.9970      2.1310     -0.3257     31.4562    127.1217     22.4308
   602.1000      7.9970      2.0975     -0.3674     33.4823    124.4825     22.3548
   602.2000      7.9970      2.0630     -0.4535     35.5732    105.7751     22.4095
   602.3000      8.0002      2.0466     -0.3769     36.5693     98.9628     22.1698
   602.4000      8.0002      2.0436     -0.4063     36.7541     93.6819     22.1404
   602.5000      8.0067      2.0526     -0.4031     36.2045     88.7820     22.8059
   602.6000      8.0067      2.0721     -0.3691     35.0256     82.0283     23.2884
   602.7000      8.0067      2.0850     -0.3398     34.2433     76.2329     22.9450
   602.8000      8.0028      2.0787     -0.3619     34.6238     74.1238     22.3457
   602.9000      8.0028      2.0680     -0.3740     35.2751     74.5811     21.7910
   603.0000      7.9999      2.0776     -0.3725     34.6906     76.7665     21.3980
   603.1000      7.9999      2.1070     -0.3074     32.9096     80.2033     21.6611
   603.2000      7.9999      2.1313     -0.3444     31.4358     73.9119     22.4855
   603.3000      7.9951      2.1308     -0.3406     31.4673     74.8538     22.8808
   603.4000      7.9951      2.1022     -0.3947     33.1987     71.9337     22.5487
   603.5000      7.9972      2.0618     -0.3881     35.6475     66.0890     22.1204
   603.6000      7.9972      2.0399     -0.4752     36.9757     60.9501     21.8429
   603.7000      7.9972      2.0474     -0.3806     36.5189     59.1034     21.5572
   603.8000      7.9978      2.0558     -0.3857     36.0099     59.1996     21.1703
   603.9000      7.9978      2.0457     -0.3709     36.6258     58.7304     20.6145
   604.0000      7.9988      2.0332     -0.4188     37.3840     57.3885     20.0756
   604.1000      7.9988      2.0360     -0.3831     37.2142     53.8252     19.7633
   604.2000      7.9988      2.0446     -0.3663     36.6917     42.0176     19.5319
   604.3000      7.9976      2.0326     -0.3536     37.4170     39.8903     19.4591
   604.4000      7.9976      1.9884     -0.3745     40.0993     41.2208     19.4912
   604.5000      7.9968      1.9362     -0.4757     43.2603     41.1608     19.3279
