~Version Information
VERS.                      2.0: CWLS Log ASCII Standard - VERSION 2.0
WRAP.                       NO: One line per depth step
~Well Information Block
STRT.FT                -6.7500: 
STOP.FT              1121.2500: 
STEP.FT                 0.2500: 
NULL.                -999.2500: 
COMP.          Pioneer Natural Resources: COMPANY
WELL.              Draco 31-21: WELL
FLD.           Purgatorie River: FIELD
LOC.           491' FNL & 2446' FEL--: LOCATION
CNTY.               Las Animas: COUNTY
SRVC.          Patterson Wireline: SERVICE COMPANY
DATE.          Mon Feb 06 09:50:04 2006: LOG DATE
UWI.           05 071 08672 00: UNIQUE WELL ID
STAT.                       CO: STATE
~Curve Information Block
DEPT.FT            0 000 00 00: Depth
CCL.                          : Casing Collar Locator
TT3.usec                      : CBL 3' Travel Time
AMP3.mV                       : CBL 3' Amplitude
GR.GAPI                       : Gamma Ray
~Parameter Information Block
~A  Depth       CCL         TT3         AMP3         GR     
# ...
  1098.7500      0.0000    640.3224      5.3231    118.3230
  1099.0000      0.0000    643.2640      5.3657    116.3055
  1099.2500      0.0000    646.9047      5.3579    112.0581
  1099.5000      0.0000    649.9478      5.3085    105.9886
  1099.7500      0.0000    648.0905      5.2406     98.8616
  1100.0000      0.0000    638.1154      5.1801     92.4388
  1100.2500      0.0000    621.6061      5.1431     89.0034
  1100.5000      0.0000    605.6041      5.1314     90.1920
  1100.7500      0.0000    598.8359      5.1366     96.0863
  1101.0000      0.0000    605.5717      5.1504    105.0857
  1101.2500      0.0000    622.4344      5.1690    114.6104
  1101.5000      0.0000    641.2951      5.1924    122.2206
  1101.7500      0.0000    655.1948      5.2192    126.5814
  1102.0000      0.0000    661.5867      5.2422    127.8620
  1102.2500      0.0000    661.4580      5.2479    127.2634
  1102.5000      0.0000    657.5089      5.2268    126.0229
  1102.7500      0.0000    653.4769      5.1848    124.7901
  1103.0000      0.0000    652.9005      5.1414    123.5656
  1103.2500      0.0000    656.3542      5.1107    121.7714
  1103.5000      0.0000    660.1276      5.0880    118.6256
  1103.7500      0.0000    658.9761      5.0603    114.1340
  1104.0000      0.0000    650.2809      5.0293    109.7108
  1104.2500      0.0000    634.8253      5.0194    107.2842
  1104.5000      0.0000    613.3343      5.0603    107.6083
  1104.7500      0.0000    583.7366      5.1619    109.5670
  1105.0000      0.0000    544.4909      5.3023    111.0205
  1105.2500      0.0000    501.3076      5.4370    110.3733
  1105.5000      0.0000    466.9439      5.5204    107.6236
  1105.7500      0.0000    450.6935      5.5283    103.9023
  1106.0000      0.0000    448.6124      5.4707     99.9022
  1106.2500      0.0000    446.8795      5.3884     95.1391
  1106.5000      0.0000    435.3933      5.3311     88.8163
  1106.7500      0.0000    416.1969      5.3294     80.4438
  1107.0000      0.0000    398.4620      5.3846     69.2794
  1107.2500      0.0000    388.5064      5.4791     54.6344
  1107.5000      0.0000    386.4001      5.5894     37.6932
  1107.7500      0.0000    389.9124      5.6890     21.8756
  1108.0000      0.0000    399.1911      5.7530     10.3918
  1108.2500      0.0000    416.9716      5.7671      3.9716
  1108.5000      0.0000    444.0790      5.7313      1.2080
  1108.7500      0.0000    475.4081      5.6578      0.2903
  1109.0000      0.0000    502.1542      5.5688      0.0548
  1109.2500      0.0000    518.6202      5.4953      0.0074
  1109.5000      0.0000    525.1727      5.4629      0.0000
  1109.7500      0.0000    525.2389      5.4711   -999.2500
  1110.0000      0.0000    522.6378      5.4908   -999.2500
  1110.2500      0.0000    521.4213      5.4869   -999.2500
  1110.5000      0.0000    524.6512      5.4433   -999.2500
  1110.7500      0.0000    532.5538      5.3641   -999.2500
  1111.0000      0.0000    542.9753      5.2611   -999.2500
  1111.2500      0.0000    552.0790      5.1469   -999.2500
  1111.5000      0.0000    553.2379      5.0356   -999.2500
  1111.7500      0.0000    537.5901      4.9260   -999.2500
  1112.0000      0.0000    498.2035      4.7631   -999.2500
  1112.2500      0.0000    433.8182      4.4225   -999.2500
  1112.5000      0.0000    349.1127      3.7738   -999.2500
  1112.7500      0.0000    253.8481      2.8070   -999.2500
  1113.0000      0.0000    162.1101      1.6990   -999.2500
  1113.2500      0.0000     88.2986      0.7184   -999.2500
  1113.5000      0.0000     39.9914      0.0450   -999.2500
  1113.7500      0.0000     14.7692     -0.3147   -999.2500
  1114.0000      0.0000      4.3858     -0.4643   -999.2500
  1114.2500      0.0000      1.0339     -0.5128   -999.2500
  1114.5000      0.0000      0.1913     -0.5250   -999.2500
  1114.7500      0.0000      0.0254     -0.5274   -999.2500
  1115.0000      0.0000   -999.2500   -999.2500   -999.2500
  1115.2500      0.0000   -999.2500   -999.2500   -999.2500
  1115.5000      0.0000   -999.2500   -999.2500   -999.2500
  1115.7500      0.0000   -999.2500   -999.2500   -999.2500
  1116.0000      0.0000   -999.2500   -999.2500   -999.2500
  1116.2500      0.0000   -999.2500   -999.2500   -999.2500
  1116.5000      0.0000   -999.2500   -999.2500   -999.2500
  1116.7500      0.0000   -999.2500   -999.2500   -999.2500
  1117.0000      0.0000   -999.2500   -999.2500   -999.2500
  1117.2500      0.0000   -999.2500   -999.2500   -999.2500
  1117.5000      0.0000   -999.2500   -999.2500   -999.2500
  1117.7500      0.0000   -999.2500   -999.2500   -999.2500
  1118.0000      0.0000   -999.2500   -999.2500   -999.2500
  1118.2500      0.0000   -999.2500   -999.2500   -999.2500
  1118.5000      0.0000   -999.2500   -999.2500   -999.2500
  1118.7500      0.0000   -999.2500   -999.2500   -999.2500
  1119.0000      0.0000   -999.2500   -999.2500   -999.2500
  1119.2500      0.0000   -999.2500   -999.2500   -999.2500
  1119.5000      0.0000   -999.2500   -999.2500   -999.2500
  1119.7500      0.0000   -999.2500   -999.2500   -999.2500
  1120.0000      0.0000   -999.2500   -999.2500   -999.2500
  1120.2500      0.0000   -999.2500   -999.2500   -999.2500
  1120.5000   -999.2500   -999.2500   -999.2500   -999.2500
  1120.7500   -999.2500   -999.2500   -999.2500   -999.2500
  1121.0000   -999.2500   -999.2500   -999.2500   -999.2500
  1121.2500   -999.2500   -999.2500   -999.2500   -999.2500
