~Version Information
VERS.                      2.0: CWLS Log ASCII Standard - VERSION 2.0
WRAP.                       NO: One line per depth step
~Well Information Block
STRT.FT               345.0000: 
STOP.FT              2167.7000: 
STEP.FT                 0.1000: 
NULL.                -999.2500: 
COMP.          Pioneer Natural Resources: COMPANY
WELL.          Hemisphere 32-24: WELL
FLD.           Purgatoire River: FIELD
LOC.           1850' FNL & 2284' FEL--: LOCATION
PROV.                 Colorado: PROVINCE
CNTY.               Las Animas: COUNTRY
SRVC.                Patterson: SERVICE COMPANY
DATE.          Mon Aug 15 07:19:13 2005: LOG DATE
UWI.           05 071 08440 00: UNIQUE WELL ID
~Curve Information Block
DEPT.FT            0 000 00 00: Depth
DCAL.in                       : CDL Caliper
RHOB.g/cc                     : CDL Bulk Density
RHOC.g/cc                     : CDL Density Correction
DPOR.pu                       : CDL Density Porosity
NPOR.pu                       : Neutron Porosity
GR.GAPI                       : Gamma Ray
~Parameter Information Block
~A  Depth       DCAL        RHOB        RHOC        DPOR        NPOR         GR     
# ...
  2025.0000      8.0499      2.5200      0.0746      7.8766     28.1559    142.9334
  2025.1000      8.0499      2.5092      0.0261      8.5363     27.8580    136.1864
  2025.2000      8.0499      2.5001      0.0866      9.0829     27.8235    126.1842
  2025.3000      8.0512      2.4865      0.0407      9.9093     28.0457    118.5752
  2025.4000      8.0512      2.4715      0.0699     10.8177     28.3323    118.8771
  2025.5000      8.0508      2.4435      0.0486     12.5169     28.9496    127.9873
  2025.6000      8.0508      2.3847      0.0000     16.0781     29.7836    135.4797
  2025.7000      8.0508      2.2939     -0.0168     21.5801     30.5640    132.7219
  2025.8000      8.0479      2.1774     -0.0396     28.6439     30.8312    125.7287
  2025.9000      8.0479      2.0569     -0.1067     35.9449     30.4784    119.4044
  2026.0000      8.0452      1.9650     -0.0856     41.5139     30.4021    110.6559
  2026.1000      8.0452      1.9050     -0.0865     45.1495     30.9912    100.0339
  2026.2000      8.0452      1.8574     -0.0890     48.0384     31.4257     93.6370
  2026.3000      8.0446      1.8209     -0.0943     50.2465     31.1438     93.3049
  2026.4000      8.0446      1.8183     -0.0836     50.4036     30.4517     96.7892
  2026.5000      8.0438      1.8624      0.0385     47.7363     29.5508    103.5993
  2026.6000      8.0438      1.9404      0.1250     43.0073     28.6760    110.4842
  2026.7000      8.0438      2.0395      0.1707     36.9986     28.5728    112.1058
  2026.8000      8.0438      2.1486      0.2247     30.3853     29.2915    109.0088
  2026.9000      8.0438      2.2436      0.2327     24.6317     29.7202    106.6489
  2027.0000      8.0436      2.3149      0.1796     20.3069     29.1700    108.1032
  2027.1000      8.0436      2.3820      0.1195     16.2395     27.9581    113.9350
  2027.2000      8.0436      2.4498      0.1657     12.1345     26.6914    120.0439
  2027.3000      8.0437      2.4935      0.1494      9.4820     25.9768    121.0097
  2027.4000      8.0437      2.5056      0.1175      8.7492     25.7677    122.3918
  2027.5000      8.0450      2.5079      0.0663      8.6147     25.4449    128.3045
  2027.6000      8.0450      2.5192      0.0499      7.9283     25.1001    129.2325
  2027.7000      8.0450      2.5361      0.1163      6.9037     25.0793    120.9646
  2027.8000      8.0452      2.5494      0.0413      6.0957     25.0987    112.6112
  2027.9000      8.0452      2.5637      0.0804      5.2313     24.7536    110.1099
  2028.0000      8.0449      2.5795      0.1019      4.2750     24.0360    111.7649
  2028.1000      8.0449      2.5864      0.1118      3.8573     23.3280    116.7851
  2028.2000      8.0449      2.5799      0.0886      4.2486     22.7948    124.2564
  2028.3000      8.0451      2.5668      0.0533      5.0420     22.2633    128.2815
  2028.4000      8.0451      2.5548      0.0300      5.7714     21.7937    123.8475
  2028.5000      8.0464      2.5529      0.0528      5.8820     21.6704    112.8709
  2028.6000      8.0464      2.5686      0.0799      4.9309     22.0104    102.5136
  2028.7000      8.0464      2.5853      0.1291      3.9186     22.2990     96.0561
  2028.8000      8.0491      2.5836      0.1024      4.0230     22.2026     89.3714
  2028.9000      8.0491      2.5721      0.0687      4.7198     22.3644     80.8147
  2029.0000      8.0511      2.5537      0.1018      5.8371     22.7952     75.9301
  2029.1000      8.0511      2.5237      0.0281      7.6552     22.8373     78.5558
  2029.2000      8.0511      2.5006      0.0345      9.0519     22.6913     84.9781
  2029.3000      8.0510      2.4933      0.0727      9.4995     22.8620     90.9101
  2029.4000      8.0510      2.4908      0.0408      9.6510     23.2899     95.5502
  2029.5000      8.0501      2.4949      0.0501      9.4028     23.9763     98.7572
  2029.6000      8.0501      2.5094      0.0870      8.5198     24.8964     99.2722
  2029.7000      8.0501      2.5189      0.1102      7.9436     25.3115     98.7954
  2029.8000      8.0506      2.5044      0.0737      8.8236     24.8744    100.3013
  2029.9000      8.0506      2.4731      0.0332     10.7202     24.4410    104.5038
  2030.0000      8.0491      2.4550      0.0143     11.8210     24.6139    111.8757
  2030.1000      8.0491      2.4656      0.0351     11.1751     25.1672    117.5393
  2030.2000      8.0491      2.4876      0.0847      9.8437     25.6763    114.8004
  2030.3000      8.0475      2.4950      0.1013      9.3961     25.5838    107.6037
  2030.4000      8.0475      2.4885      0.0561      9.7905     25.1277    103.6385
  2030.5000      8.0484      2.4838      0.0678     10.0697     25.2004    104.2667
  2030.6000      8.0484      2.4735      0.1130     10.6991     25.9132    105.4288
  2030.7000      8.0484      2.4331      0.0912     13.1473     26.8121    103.4274
  2030.8000      8.0485      2.3560      0.0142     17.8182     27.8587    100.9679
  2030.9000      8.0485      2.2531     -0.0240     24.0532     29.0091     99.4883
  2031.0000      8.0480      2.1331     -0.0491     31.3248     29.8592     98.8103
  2031.1000      8.0480      1.9994     -0.0832     39.4310     30.4464     99.4297
  2031.2000      8.0480      1.8584     -0.1317     47.9784     31.0539     98.8252
  2031.3000      8.0507      1.7217     -0.2121     56.2576     31.8075     93.5231
  2031.4000      8.0507      1.5943     -0.1778     63.9837     32.7889     81.3578
  2031.5000      8.0611      1.4708     -0.1890     71.4681     33.8387     66.7483
  2031.6000      8.0611      1.3572     -0.2211     78.3512     34.7607     58.5495
  2031.7000      8.0611      1.2734     -0.1587     83.4306     35.2171     58.8307
  2031.8000      8.0878      1.2312     -0.0887     85.9883     34.8769     59.1686
  2031.9000      8.0878      1.2271     -0.0401     86.2347     34.1816     54.5323
  2032.0000      8.1520      1.2457      0.0427     85.1099     33.9733     49.7291
  2032.1000      8.1520      1.2664      0.0703     83.8517     34.3037     49.7419
  2032.2000      8.1520      1.2787      0.0926     83.1087     34.2217     51.2155
  2032.3000      8.2725      1.2859      0.0749     82.6731     33.4919     48.0963
  2032.4000      8.2725      1.3001      0.0750     81.8099     32.9639     42.1664
  2032.5000      8.3964      1.3284      0.0796     80.0950     33.0053     39.7577
  2032.6000      8.3964      1.3593      0.1267     78.2258     33.1018     41.7469
  2032.7000      8.3964      1.3848      0.0735     76.6790     32.6647     43.1883
  2032.8000      8.4063      1.4315      0.0436     73.8468     31.8126     42.6557
  2032.9000      8.4063      1.5265      0.1120     68.0903     31.3830     45.8903
  2033.0000      8.2856      1.6534      0.1633     60.4010     31.4555     53.8766
  2033.1000      8.2856      1.7747      0.2190     53.0482     30.9910     60.0456
  2033.2000      8.2856      1.8783      0.2147     46.7727     29.7455     65.4714
  2033.3000      8.1398      1.9857      0.1960     40.2585     28.5197     74.4276
  2033.4000      8.1398      2.1078      0.2761     32.8590     27.7999     83.6190
  2033.5000      8.0634      2.2185      0.3105     26.1527     27.5673     88.6710
  2033.6000      8.0634      2.2990      0.2531     21.2703     27.5102     88.3750
  2033.7000      8.0634      2.3587      0.2022     17.6532     27.4120     86.9941
  2033.8000      8.0304      2.4012      0.1972     15.0815     27.5833     89.8275
  2033.9000      8.0304      2.4236      0.1450     13.7191     28.0040     96.9507
  2034.0000      8.0053      2.4373      0.1024     12.8908     27.7735    108.9119
  2034.1000      8.0053      2.4516      0.1281     12.0242     26.8691    124.3364
  2034.2000      8.0053      2.4636      0.0658     11.2954     26.6339    135.0713
  2034.3000      7.9927      2.4700      0.0972     10.9094     27.4027    137.3010
  2034.4000      7.9927      2.4675      0.0768     11.0582     28.1649    136.2509
  2034.5000      7.9915      2.4581      0.0959     11.6319     28.3684    139.1220
