~Version Information
VERS.                      2.0: CWLS Log ASCII Standard - VERSION 2.0
WRAP.                       NO: One line per depth step
~Well Information Block
STRT.FT               694.2000: 
STOP.FT              1498.5000: 
STEP.FT                 0.1000: 
NULL.                -999.2500: 
COMP.          Pioneer Natural Resources: COMPANY
WELL.          Pallet Ranch 34-25 Tr: WELL
FLD.           Purgatoire River: FIELD
LOC.           465' FSL & 2138' FEL: LOCATION
PROV.                 Colorado: PROVINCE
CNTY.               Las Animas: COUNTRY
SRVC.                Patterson: SERVICE COMPANY
DATE.          Thu Jan 19 06:39:54 2006: LOG DATE
UWI.           05 071 08657 00: UNIQUE WELL ID
~Curve Information Block
DEPT.FT            0 000 00 00: Depth
DCAL.in                       : CDL Caliper
RHOB.g/cc                     : CDL Bulk Density
RHOC.g/cc                     : CDL Density Correction
DPOR.pu                       : CDL Density Porosity
GR.GAPI                       : Gamma Ray
~Parameter Information Block
~A  Depth       DCAL        RHOB        RHOC        DPOR         GR     
# ...
   862.2000      7.9269      2.5790      0.1392      4.3029    139.7755
   862.3000      7.9277      2.5853      0.0539      3.9230    130.9271
   862.4000      7.9277      2.5832      0.0959      4.0480    119.2131
   862.5000      7.9163      2.5728      0.0720      4.6780    114.0725
   862.6000      7.9163      2.5641      0.0579      5.2044    114.2521
   862.7000      7.9163      2.5726      0.0499      4.6927    109.9645
   862.8000      7.9353      2.5977      0.0311      3.1672    100.0501
   862.9000      7.9353      2.6233      0.0732      1.6200     91.4960
   863.0000      7.9400      2.6263      0.0616      1.4379     90.6511
   863.1000      7.9400      2.5961      0.0508      3.2641     97.2450
   863.2000      7.9400      2.5573      0.0268      5.6152    105.3077
   863.3000      7.9926      2.5461      0.0678      6.2965    111.1200
   863.4000      7.9926      2.5665      0.1899      5.0587    114.7598
   863.5000      8.0439      2.5901      0.2781      3.6305    116.6687
   863.6000      8.0439      2.5903      0.2495      3.6163    117.3344
   863.7000      8.0439      2.5662      0.1921      5.0796    119.4672
   863.8000      7.9613      2.5473      0.1013      6.2251    125.6675
   863.9000      7.9613      2.5722      0.1586      4.7142    133.0627
   864.0000      7.9355      2.6374      0.2807      0.7620    136.7110
   864.1000      7.9355      2.6937      0.3560     -2.6456    135.9003
   864.2000      7.9355      2.7012      0.3706     -3.1024    132.8707
   864.3000      7.9325      2.6647      0.2722     -0.8898    131.5061
   864.4000      7.9325      2.6247      0.1612      1.5316    135.9471
   864.5000      7.9608      2.6087      0.2377      2.5015    143.1000
   864.6000      7.9608      2.6015      0.1950      2.9405    144.4570
   864.7000      7.9608      2.5838      0.2381      4.0141    141.6808
   864.8000      7.9793      2.5609      0.1333      5.4028    141.2074
   864.9000      7.9793      2.5522      0.1104      5.9260    142.1949
   865.0000      8.0107      2.5567      0.1589      5.6537    142.2429
   865.1000      8.0107      2.5564      0.1669      5.6716    144.1824
   865.2000      8.0107      2.5534      0.1528      5.8543    144.7540
   865.3000      8.0324      2.5565      0.2326      5.6652    133.5156
   865.4000      8.0324      2.5625      0.1543      5.3020    115.3136
   865.5000      8.0511      2.5730      0.1097      4.6687    105.5955
   865.6000      8.0511      2.5931      0.1732      3.4472    110.7130
   865.7000      8.0511      2.6246      0.1266      1.5392    124.5202
   865.8000      7.9931      2.6614      0.1834     -0.6882    135.7133
   865.9000      7.9931      2.6817      0.1937     -1.9238    141.0980
   866.0000      7.9732      2.6721      0.1983     -1.3396    145.9980
   866.1000      7.9732      2.6397      0.1603      0.6225    149.2351
   866.2000      7.9732      2.5921      0.1192      3.5114    145.1737
   866.3000      7.9731      2.5436      0.0645      6.4513    137.5551
   866.4000      7.9731      2.5242      0.0025      7.6258    131.7523
   866.5000      7.9757      2.5456      0.0270      6.3245    126.9794
   866.6000      7.9757      2.5799      0.1347      4.2482    120.9086
   866.7000      7.9757      2.5965      0.1498      3.2416    116.7325
   866.8000      7.9850      2.5998      0.1097      3.0398    121.4319
   866.9000      7.9850      2.5984      0.1458      3.1244    133.6162
   867.0000      7.9945      2.5818      0.1348      4.1308    141.2174
   867.1000      7.9945      2.5542      0.0806      5.8082    138.4052
   867.2000      7.9945      2.5361      0.0687      6.9022    134.2085
   867.3000      7.9885      2.5301      0.0941      7.2637    134.3597
   867.4000      7.9885      2.5241      0.0617      7.6286    136.6195
   867.5000      7.9594      2.5204      0.0311      7.8541    141.0712
   867.6000      7.9594      2.5220      0.0746      7.7558    144.3481
   867.7000      7.9594      2.5204      0.0525      7.8540    143.4748
   867.8000      7.9716      2.5174      0.0157      8.0388    142.9459
   867.9000      7.9716      2.5217      0.0507      7.7777    141.4400
   868.0000      7.9909      2.5346      0.0459      6.9961    133.6182
   868.1000      7.9909      2.5609      0.0306      5.3971    124.7425
   868.2000      7.9909      2.6033      0.0973      2.8275    122.3210
   868.3000      7.9484      2.6404      0.1804      0.5820    124.6095
   868.4000      7.9484      2.6453      0.1934      0.2861    124.2430
   868.5000      7.9070      2.6182      0.1575      1.9269    119.8783
   868.6000      7.9070      2.5826      0.0881      4.0851    118.9277
   868.7000      7.9070      2.5578      0.0715      5.5876    125.8018
   868.8000      7.9057      2.5427      0.0599      6.5011    132.8737
   868.9000      7.9057      2.5321      0.0066      7.1480    132.0333
   869.0000      7.9159      2.5300      0.0301      7.2719    126.6433
   869.1000      7.9159      2.5377      0.0366      6.8053    122.7778
   869.2000      7.9159      2.5488      0.0375      6.1344    121.3467
   869.3000      7.9648      2.5565      0.1064      5.6688    121.9691
   869.4000      7.9648      2.5644      0.0316      5.1866    125.8861
   869.5000      7.9837      2.5803      0.0752      4.2224    132.1167
   869.6000      7.9837      2.5950      0.1055      3.3310    134.9314
   869.7000      7.9837      2.6014      0.1122      2.9446    133.2137
   869.8000      7.9446      2.6099      0.1055      2.4295    132.0484
   869.9000      7.9446      2.6220      0.1404      1.6959    134.0821
   870.0000      7.9335      2.6130      0.1805      2.2417    141.1983
   870.1000      7.9335      2.5756      0.0438      4.5097    152.0334
   870.2000      7.9335      2.5470      0.0190      6.2409    159.5013
   870.3000      7.9342      2.5411      0.1172      6.5994    159.0753
   870.4000      7.9342      2.5305      0.0448      7.2447    151.8617
   870.5000      7.9445      2.5107      0.0071      8.4435    142.0549
   870.6000      7.9445      2.4955      0.0477      9.3623    134.5316
   870.7000      7.9445      2.4918     -0.0128      9.5894    131.4318
   870.8000      7.9637      2.5129      0.0372      8.3065    130.0414
   870.9000      7.9637      2.5650      0.0350      5.1516    128.6510
   871.0000      7.9680      2.6242      0.0962      1.5631    129.2312
   871.1000      7.9680      2.6614      0.0916     -0.6901    132.0006
   871.2000      7.9680      2.6742      0.1350     -1.4680    135.8097
   871.3000      7.9123      2.6672      0.1402     -1.0412    138.2997
   871.4000      7.9123      2.6447      0.1232      0.3239    136.9396
   871.5000      7.9053      2.6266      0.0878      1.4154    135.4161
   871.6000      7.9053      2.6238      0.0704      1.5907    139.6153
   871.7000      7.9053      2.6172      0.0288      1.9877    147.6478
   871.8000      7.9093      2.5984     -0.0244      3.1269    154.0148
   871.9000      7.9093      2.5889     -0.0459      3.7059    153.2013
   872.0000      7.9549      2.5948      0.0761      3.3473    144.9410
   872.1000      7.9549      2.5918      0.0929      3.5277    138.9482
   872.2000      7.9549      2.5673      0.0745      5.0139    139.3020
   872.3000      7.9845      2.5351      0.0732      6.9643    136.0266
   872.4000      7.9845      2.5137      0.0241      8.2593    126.3260
   872.5000      7.9845      2.5153     -0.0211      8.1617    118.7325
   872.6000      7.9845      2.5375      0.0319      6.8183    117.2284
   872.7000      7.9845      2.5662      0.0204      5.0777    121.1385
   872.8000      7.9839      2.5947      0.0662      3.3509    127.9514
   872.9000      7.9839      2.6183      0.0795      1.9204    135.5415
   873.0000      7.9744      2.6214      0.0931      1.7357    140.8144
   873.1000      7.9744      2.6004      0.0328      3.0058    141.7394
   873.2000      7.9744      2.5770      0.0573      4.4251    138.0362
   873.3000      8.0009      2.5574      0.0819      5.6146    130.1017
