~Version Information
 VERS.                                  2.0 : CWLS LAS VERSION
 WRAP.                                   NO : WRAPING MODE
 SWARE .                 MController 2.5.0N : SOFTWARE VERSION
~Well Information
 WELL.                         John K 12-28 : WELL
 COMP.       Pioneer Natural Resources, USA : COMPANY
 FLD.                       Purgatory River : FIELD
 LOC.               SW/NW Sec 28 T32S R 65W : LOCATION
 DATE.                              4/07/06 : DATE(S) LOGGED
 SRVC.       Blanco Geological Services LLC : SERVICE COMPANY
 STAT.                             Colorado : STATE
 CNTY.                           Las Animas : COUNTY
 CTRY.                                  USA : COUNTRY
 API.                       05-071-08723-00 : API NUMBER
 STRT.FT                             321.00 : START DEPTH
 STOP.FT                            1440.00 : STOP DEPTH
 STEP.FT                               1.00 : DEPTH INCREMENT
 NULL.                                -9999 : NULL VALUE
~Curve information
 DEPTH.FT                                   :
 ROP.MIN/FT                                 :
 GAS.UNITS                                  :
~ASCII Log data
# ...
       721.0         0.23       1005.5 
       722.0         0.23        914.9 
       723.0         0.23        878.2 
       724.0         0.23        796.0 
       725.0         0.20        703.0 
       726.0         0.23        610.3 
       727.0         0.20        556.1 
       728.0         0.27        526.8 
       729.0         0.30        518.0 
       730.0         0.30        518.0 
       731.0         0.27        536.9 
       732.0         0.23        570.6 
       733.0         0.25        595.8 
       734.0         0.30        610.3 
       735.0         0.37        608.3 
       736.0         0.43        577.3 
       737.0         0.27        549.0 
       738.0         0.23        562.5 
       739.0         0.37        623.1 
       740.0         0.37        651.4 
       741.0         0.30        617.4 
       742.0         3.68        585.4 
       743.0         0.35       2544.2 
       744.0         0.30       3664.1 
       745.0         0.43       3605.1 
       746.0         0.30       2178.6 
       747.0         0.50       1629.5 
       748.0         0.40       1219.1 
       749.0         0.33       1146.7 
       750.0         0.27       1056.4 
       751.0         0.37        945.2 
       752.0         0.25        726.9 
       753.0         0.23        643.3 
       754.0         0.20        612.7 
       755.0         0.23        602.2 
       756.0         0.20        598.2 
       757.0         0.23        581.7 
       758.0         0.23        549.3 
       759.0         0.20        491.4 
       760.0         0.20        471.2 
       761.0         0.37        463.8 
       762.0         0.33        473.9 
       763.0         0.23        484.0 
       764.0         0.23        498.8 
       765.0         0.23        540.6 
       766.0         0.22        587.4 
       767.0         0.20        613.7 
       768.0         0.20        612.3 
       769.0         0.13        591.4 
       770.0         0.27        547.0 
       771.0         0.30        497.8 
       772.0         3.95       3929.3 
       773.0         0.37       4401.3 
       774.0         0.43       3620.6 
       775.0         0.33       1891.9 
       776.0         0.33       1427.0 
       777.0         0.32       1261.2 
       778.0         0.27       1256.5 
       779.0         0.30       1227.9 
       780.0         0.30       1130.5 
       781.0         0.30       1006.2 
       782.0         0.30        866.0 
       783.0         0.37        659.5 
       784.0         0.33        503.5 
       785.0         0.30        472.2 
       786.0         0.47        485.3 
       787.0         0.28        506.5 
       788.0         0.20        498.1 
       789.0         0.30        494.1 
       790.0         0.20        526.8 
       791.0         0.33        555.4 
       792.0         0.20        535.9 
       793.0         0.20        517.3 
       794.0         0.37        519.7 
       795.0         0.30        508.6 
       796.0         0.33        518.3 
       797.0         0.43        518.3 
       798.0         0.23        549.3 
       799.0         0.25        558.4 
       800.0         0.23        568.2 
       801.0         0.30        583.4 
       802.0         3.45       2872.4 
       803.0         0.17       3528.7 
       804.0         0.23       3718.7 
       805.0         0.37       3288.1 
       806.0         0.30       2277.4 
       807.0         0.23       1471.1 
       808.0         0.23       1298.6 
       809.0         0.23       1168.2 
       810.0         0.23       1143.3 
       811.0         0.27       1124.8 
       812.0         0.27       1033.8 
       813.0         0.28        850.2 
       814.0         0.23        698.6 
       815.0         0.23        611.3 
       816.0         0.23        580.0 
       817.0         0.23        588.8 
       818.0         0.23        589.1 
       819.0         0.27        569.2 
       820.0         0.37        516.3 
       821.0         0.33        485.3 
       822.0         0.33        488.0 
       823.0         0.40        530.5 
       824.0         0.27        575.9 
       825.0         0.28        578.6 
       826.0         0.23        558.1 
       827.0         0.23        558.4 
       828.0         0.23        545.3 
       829.0         0.33        508.6 
       830.0         0.50        462.7 
       831.0         0.53        468.1 
       832.0         3.52       1344.8 
       833.0         0.27       2887.2 
       834.0         0.23       3334.3 
       835.0         0.30       3164.8 
       836.0         0.45       2392.3 
       837.0         0.37       1398.7 
       838.0         0.40       1129.8 
       839.0         0.33       1113.0 
       840.0         0.37       1097.2 
       841.0         0.33        948.9 
       842.0         0.30        757.5 
       843.0         0.37        634.9 
       844.0         0.37        548.7 
       845.0         0.45        503.5 
       846.0         0.33        495.4 
       847.0         0.30        518.3 
       848.0         0.33        515.0 
       849.0         0.27        500.8 
       850.0         0.30        492.1 
       851.0         0.30        474.5 
       852.0         0.30        460.7 
       853.0         0.27        454.7 
       854.0         0.20        458.7 
       855.0         0.20        461.7 
       856.0         0.35        470.2 
       857.0         0.27        475.2 
       858.0         0.30        485.0 
       859.0         0.30        526.1 
       860.0         0.37        629.5 
       861.0         0.33        641.6 
       862.0         4.88       3573.5 
       863.0         0.55       2131.1 
       864.0         0.37       1229.6 
       865.0         0.37       1076.3 
       866.0         0.23       1041.9 
       867.0         0.33       1037.5 
       868.0         0.33        955.0 
       869.0         0.27        800.3 
       870.0         0.27        663.9 
       871.0         0.20        600.2 
       872.0         0.23        588.1 
       873.0         0.25        580.0 
       874.0         0.20        570.6 
       875.0         0.23        559.8 
       876.0         0.23        536.2 
       877.0         0.20        501.5 
       878.0         0.23        475.2 
       879.0         0.23        440.0 
       880.0         0.20        243.6 
       881.0         0.20        280.1 
       882.0         0.23        297.4 
       883.0         0.17        298.4 
       884.0         0.20        286.6 
       885.0         0.20        271.3 
       886.0         0.27        244.7 
       887.0         0.27        229.0 
       888.0         0.25        231.9 
       889.0         0.20        234.1 
       890.0         0.20        248.2 
       891.0         0.30        295.3 
       892.0         3.85       3284.4 
       893.0         0.30       3299.2 
       894.0         0.37       2676.3 
       895.0         0.50       1530.8 
       896.0         0.33       1127.5 
       897.0         0.30        971.1 
       898.0         0.28        979.2 
       899.0         0.37       1000.1 
       900.0         0.33        965.8 
       901.0         0.30        851.9 
       902.0         0.27        689.8 
       903.0         0.33        602.9 
       904.0         0.27        544.6 
       905.0         0.30        498.5 
       906.0         0.30        456.7 
       907.0         0.37        470.5 
       908.0         0.33        472.9 
       909.0         0.38        469.1 
       910.0         0.37        501.5 
       911.0         0.27        520.7 
       912.0         0.40        520.7 
       913.0         0.33        509.9 
       914.0         0.37        489.0 
       915.0         0.33        451.6 
       916.0         0.37        456.0 
       917.0         0.33        466.8 
       918.0         0.33        468.8 
       919.0         0.35        469.5 
       920.0         0.33        471.2 
