~Version Information
 VERS.                                  2.0 : CWLS LAS VERSION
 WRAP.                                   NO : WRAPING MODE
 SWARE .                 MController 2.5.0J : SOFTWARE VERSION
~Well Information
 WELL.                     Montoya 18-11V B : WELL
 COMP.                 Petrogulf Corporation: COMPANY
 FLD.                      Purgatoire River : FIELD
 LOC.                NW/NW Sec 18 T33S R67W : LOCATION
 DATE.                            10/3-4/05 : DATE(S) LOGGED
 SRVC.       BLANCO Geological Services LLC : SERVICE COMPANY
 STAT.                                   CO : STATE
 CNTY.                           Las Animas : COUNTY
 CTRY.                                  USA : COUNTRY
 API.                       05-071-08539-00 : API NUMBER
 STRT.FT                              86.00 : START DEPTH
 STOP.FT                            2495.00 : STOP DEPTH
 STEP.FT                               1.00 : DEPTH INCREMENT
 NULL.                                9999 : NULL VALUE
~Curve information
 DEPTH.FT                                   :
 ROP.MIN/FT                                 :
 GAS.UNITS                                  :
~ASCII Log data 
# ...
       886.0         0.23          4.6 
       887.0         0.23          4.9 
       888.0         0.20          5.0 
       889.0         0.20          4.6 
       890.0         0.20          4.8 
       891.0         0.17          4.8 
       892.0         0.23          4.6 
       893.0         0.20          5.0 
       894.0         0.20          4.7 
       895.0         0.17          4.4 
       896.0         0.23          4.6 
       897.0         0.23          4.6 
       898.0         1.98          4.7 
       899.0         0.37          4.3 
       900.0         0.23          4.0 
       901.0         0.23          4.3 
       902.0         0.27          4.2 
       903.0         0.23          3.9 
       904.0         0.25          4.1 
       905.0         0.20          4.4 
       906.0         0.20          4.5 
       907.0         0.23          4.6 
       908.0         0.20          4.5 
       909.0         0.20          4.9 
       910.0         0.17          4.6 
       911.0         0.20          4.9 
       912.0         0.20          5.0 
       913.0         0.17          5.2 
       914.0         0.20          5.0 
       915.0         0.17          5.2 
       916.0         0.20          5.0 
       917.0         0.20          4.9 
       918.0         0.20          4.8 
       919.0         0.20          4.8 
       920.0         0.18          4.8 
       921.0         0.17          5.0 
       922.0         0.20          4.9 
       923.0         0.17          4.8 
       924.0         0.20          4.9 
       925.0         0.30          4.7 
       926.0         0.23          4.6 
       927.0         0.17          4.6 
       928.0         1.85          5.1 
       929.0         0.33          4.7 
       930.0         0.23          4.7 
       931.0         0.17          4.8 
       932.0         0.13          4.9 
       933.0         0.13          4.9 
       934.0         0.20          4.9 
       935.0         0.20          4.6 
       936.0         0.23          4.8 
       937.0         0.23          5.0 
       938.0         0.20          4.7 
       939.0         0.20          5.1 
       940.0         0.25          5.3 
       941.0         0.20          5.6 
       942.0         0.23          5.2 
       943.0         0.20          5.2 
       944.0         0.27          5.2 
       945.0         0.20          5.2 
       946.0         0.27          5.2 
       947.0         0.20          4.9 
       948.0         0.27          5.1 
       949.0         0.20          5.0 
       950.0         0.23          5.0 
       951.0         0.27          5.3 
       952.0         0.28          5.2 
       953.0         0.27          5.3 
       954.0         0.27          5.7 
       955.0         0.17          6.1 
       956.0         0.20          6.1 
       957.0         0.20          6.0 
       958.0         1.30          5.6 
       959.0         0.33          5.2 
       960.0         0.32          5.3 
       961.0         0.23          5.3 
       962.0         0.27          5.6 
       963.0         0.23          5.3 
       964.0         0.20          5.3 
       965.0         0.20          5.3 
       966.0         0.23          5.7 
       967.0         0.23          5.2 
       968.0         0.20          5.4 
       969.0         0.17          5.8 
       970.0         0.10          5.7 
       971.0         0.23          5.5 
       972.0         0.28          6.0 
       973.0         0.20          5.9 
       974.0         0.23          6.0 
       975.0         0.23          5.9 
       976.0         0.13          5.8 
       977.0         0.20          5.4 
       978.0         0.20          5.8 
       979.0         0.23          5.4 
       980.0         0.20          5.3 
       981.0         0.17          5.8 
       982.0         0.20          5.8 
       983.0         0.20          5.8 
       984.0         0.20          5.6 
       985.0         0.17          5.7 
       986.0         0.20          5.4 
       987.0         0.20          5.4 
       988.0         2.35          5.5 
       989.0         0.30          5.2 
       990.0         0.30          5.1 
       991.0         0.27          5.3 
       992.0         0.28          5.5 
       993.0         0.27          5.5 
       994.0         0.23          5.0 
       995.0         0.23          5.5 
       996.0         0.23          5.1 
       997.0         0.27          5.1 
       998.0         6.57          5.6 
       999.0         0.30          5.1 
      1000.0         0.27          5.5 
      1001.0         0.27          5.0 
      1002.0         0.27          5.5 
      1003.0         0.23          5.1 
      1004.0         0.43          5.3 
      1005.0         0.45          5.6 
      1006.0         0.33          5.5 
      1007.0         0.23          5.1 
      1008.0         0.23          5.3 
      1009.0         0.20          5.7 
      1010.0         0.20          6.0 
      1011.0         0.20          6.0 
      1012.0         0.23          6.4 
      1013.0         0.27          6.2 
      1014.0         0.27          6.4 
      1015.0         0.20          6.4 
      1016.0         0.23          6.1 
      1017.0         0.23          6.5 
      1018.0         2.38          6.9 
      1019.0         0.17          6.6 
      1020.0         0.20          6.7 
      1021.0         0.17          7.2 
      1022.0         0.30          7.0 
      1023.0         0.42          6.8 
      1024.0         0.43          6.7 
      1025.0         0.33          7.4 
      1026.0         0.33          7.1 
      1027.0         0.27          7.2 
      1028.0         0.33          7.6 
      1029.0         0.23          7.2 
      1030.0         0.23          6.8 
      1031.0         0.27          7.3 
      1032.0         0.30          7.6 
      1033.0         0.23          7.4 
      1034.0         0.25          7.5 
      1035.0         0.23          7.4 
      1036.0         0.17          7.7 
      1037.0         0.23          7.2 
      1038.0         0.27          7.6 
      1039.0         0.27          7.2 
      1040.0         0.27          7.7 
      1041.0         0.23          7.3 
      1042.0         0.23          7.7 
      1043.0         0.23          7.6 
      1044.0         0.20          7.5 
      1045.0         0.23          7.8 
      1046.0         0.23          7.6 
      1047.0         0.25          7.7 
      1048.0         1.60          8.1 
      1049.0         0.17          8.1 
      1050.0         0.23          7.8 
      1051.0         0.17          7.8 
      1052.0         0.10          7.3 
      1053.0         0.13          7.8 
      1054.0         0.10          7.1 
      1055.0         0.30          7.7 
      1056.0         0.37          7.9 
      1057.0         0.38          8.1 
      1058.0         0.30          8.0 
      1059.0         0.27          7.8 
      1060.0         0.27          7.9 
      1061.0         0.27          8.2 
      1062.0         0.30          7.9 
      1063.0         0.27          8.0 
      1064.0         0.30          8.0 
      1065.0         0.27          8.3 
      1066.0         0.17          8.1 
      1067.0         0.17          7.9 
      1068.0         0.17          8.0 
      1069.0         0.25          7.8 
      1070.0         0.27          8.2 
      1071.0         0.23          8.2 
      1072.0         0.27          8.2 
      1073.0         0.30          7.9 
      1074.0         0.30          8.3 
      1075.0         0.27          8.2 
      1076.0         0.27          7.9 
      1077.0         0.23          8.3 
      1078.0         2.05          8.3 
      1079.0         0.40          8.2 
      1080.0         0.37          8.0 
      1081.0         0.33          8.1 
      1082.0         0.33          8.2 
      1083.0         0.33          8.2 
      1084.0         0.33          8.5 
      1085.0         0.35          8.1 
