~Version Information
VERS.                      2.0: CWLS Log ASCII Standard - VERSION 2.0
WRAP.                       NO: One line per depth step
~Well Information Block
STRT.FT               830.0000: 
STOP.FT              2368.5000: 
STEP.FT                 0.1000: 
NULL.                -999.2500: 
COMP.          Pioneer Natural Resources: COMPANY
WELL.              Rolls 14-14: WELL
FLD.           Purgatoire River: FIELD
LOC.           572' FSL & 856' FWL: LOCATION
PROV.                 Colorado: PROVINCE
CNTY.               Las Animas: COUNTRY
SRVC.                Patterson: SERVICE COMPANY
DATE.          Mon Aug 01 05:48:31 2005: LOG DATE
UWI.           05 071 08455 00: UNIQUE WELL ID
~Curve Information Block
DEPT.FT            0 000 00 00: Depth
DCAL.in                       : CDL Caliper
RHOB.g/cc                     : CDL Bulk Density
RHOC.g/cc                     : CDL Density Correction
DPOR.pu                       : CDL Density Porosity
GR.GAPI                       : Gamma Ray
NPOR.pu                       : Neutron Porosity
~Parameter Information Block
~A  Depth       DCAL        RHOB        RHOC        DPOR         GR         NPOR    
# ...
  1646.0000      8.0266      2.4941      0.0875      9.4472    103.0416     16.4681
  1646.1000      8.0266      2.4836      0.0212     10.0862    100.6167     16.3258
  1646.2000      8.0266      2.4736      0.0843     10.6885     97.1599     16.1360
  1646.3000      8.0221      2.4699      0.0250     10.9145     96.2625     15.9938
  1646.4000      8.0221      2.4804      0.0318     10.2809     99.8375     16.1912
  1646.5000      8.0332      2.4923      0.0523      9.5567    103.0127     16.6807
  1646.6000      8.0332      2.4916      0.0205      9.5970    101.9675     16.8816
  1646.7000      8.0332      2.4916      0.0143      9.6005     98.9242     16.5920
  1646.8000      8.0428      2.4970      0.0792      9.2732     96.0597     16.3214
  1646.9000      8.0428      2.4921      0.0277      9.5718     95.6982     16.2762
  1647.0000      8.0517      2.4793      0.0150     10.3435    100.0636     16.2878
  1647.1000      8.0517      2.4775      0.0165     10.4563    105.8305     16.2999
  1647.2000      8.0517      2.4893      0.0561      9.7382    109.9757     16.3607
  1647.3000      8.0514      2.4963      0.0592      9.3136    114.3905     16.5831
  1647.4000      8.0514      2.4893      0.0431      9.7381    120.5236     16.8713
  1647.5000      8.0392      2.4783      0.0555     10.4058    125.3108     16.9807
  1647.6000      8.0392      2.4701      0.0485     10.9020    125.8431     16.7727
  1647.7000      8.0392      2.4651      0.0357     11.2048    122.0716     16.2885
  1647.8000      8.0284      2.4689      0.0368     10.9740    114.8765     15.9960
  1647.9000      8.0284      2.4877      0.0341      9.8382    105.1338     16.1196
  1648.0000      8.0310      2.5118      0.0857      8.3756     93.9616     16.2763
  1648.1000      8.0310      2.5153      0.1074      8.1625     84.4690     16.2567
  1648.2000      8.0310      2.4839      0.0912     10.0659     80.6389     16.1529
  1648.3000      8.0319      2.4404      0.0054     12.7048     82.5051     15.8732
  1648.4000      8.0319      2.4205      0.0199     13.9118     84.9805     15.4601
  1648.5000      8.0256      2.4298     -0.0106     13.3473     82.1659     15.3068
  1648.6000      8.0256      2.4436      0.0345     12.5084     75.6135     15.4304
  1648.7000      8.0256      2.4427     -0.0049     12.5642     71.2024     15.2627
  1648.8000      8.0358      2.4320      0.0140     13.2134     70.0771     14.6601
  1648.9000      8.0358      2.4227     -0.0053     13.7752     70.5594     14.1710
  1649.0000      8.0370      2.4210      0.0626     13.8794     71.8069     14.0646
  1649.1000      8.0370      2.4242      0.0582     13.6848     72.4965     14.0900
  1649.2000      8.0370      2.4274      0.0423     13.4936     72.2125     14.2222
  1649.3000      8.0345      2.4293      0.0787     13.3743     71.6361     14.7289
  1649.4000      8.0345      2.4357      0.0631     12.9893     70.6824     15.3281
  1649.5000      8.0320      2.4528      0.0890     11.9534     71.6046     15.4177
  1649.6000      8.0320      2.4740      0.1066     10.6658     75.3351     15.0554
  1649.7000      8.0320      2.4892      0.1649      9.7440     78.1323     14.8443
  1649.8000      8.0264      2.4999      0.1390      9.0955     77.0561     14.8909
  1649.9000      8.0264      2.5157      0.1409      8.1365     75.3454     14.9934
  1650.0000      8.0284      2.5377      0.1326      6.8060     77.6922     15.2836
  1650.1000      8.0284      2.5536      0.1727      5.8433     82.4829     15.7356
  1650.2000      8.0284      2.5499      0.1832      6.0685     85.9260     15.9168
  1650.3000      8.0341      2.5316      0.1132      7.1769     87.7810     15.7344
  1650.4000      8.0341      2.5187      0.0958      7.9584     89.9390     15.6110
  1650.5000      8.0327      2.5168      0.0776      8.0701     93.0264     15.7763
  1650.6000      8.0327      2.5221      0.0475      7.7502     94.2889     16.0255
  1650.7000      8.0327      2.5327      0.0424      7.1063     91.1301     16.2964
  1650.8000      8.0447      2.5337      0.0837      7.0496     87.7367     16.4598
  1650.9000      8.0447      2.5125      0.0309      8.3331     89.1440     16.0746
  1651.0000      8.0365      2.4820     -0.0081     10.1838     93.3878     15.1828
  1651.1000      8.0365      2.4578     -0.0143     11.6465     94.8838     14.2573
  1651.2000      8.0365      2.4343     -0.0173     13.0715     91.6136     13.4818
  1651.3000      8.0670      2.3951     -0.0293     15.4473     88.7293     12.5824
  1651.4000      8.0670      2.3194     -0.0070     20.0370     91.2885     11.2626
  1651.5000      8.0782      2.1772     -0.0087     28.6541     96.2193      9.7418
  1651.6000      8.0782      1.9783     -0.1422     40.7086     95.8648      8.4182
  1651.7000      8.0782      1.7866     -0.1796     52.3275     87.9180      7.4776
  1651.8000      8.0984      1.6400     -0.2052     61.2148     79.8110      7.0159
  1651.9000      8.0984      1.5107     -0.1857     69.0471     77.6916      6.9846
  1652.0000      8.0953      1.3741     -0.2194     77.3297     78.9582      7.3043
  1652.1000      8.0953      1.2822     -0.3073     82.8987     81.4488      7.9333
  1652.2000      8.0953      1.3075     -0.0845     81.3607     85.0894      8.6692
  1652.3000      8.1059      1.4286      0.2414     74.0238     89.0324      9.4114
  1652.4000      8.1059      1.5696      0.2916     65.4815     93.1795     10.3032
  1652.5000      8.2866      1.7000      0.3269     57.5770     98.0739     11.2948
  1652.6000      8.2866      1.8107      0.3426     50.8673    103.9681     12.4305
  1652.7000      8.2866      1.8888      0.2722     46.1305    111.5838     14.2229
  1652.8000      8.3308      1.9532      0.2496     42.2315    120.6311     16.9503
  1652.9000      8.3308      2.0334      0.2538     37.3704    129.9760     20.0281
  1653.0000      8.1305      2.1222      0.3059     31.9879    135.9389     22.5623
  1653.1000      8.1305      2.1869      0.2864     28.0674    133.5229     24.2338
  1653.2000      8.1305      2.2205      0.2246     26.0286    125.2298     25.5626
  1653.3000      8.1277      2.2620      0.1761     23.5126    117.2541     27.0177
  1653.4000      8.1277      2.3481      0.1756     18.2951    111.8774     28.2221
  1653.5000      8.1387      2.4643      0.1399     11.2551    108.6559     28.7064
  1653.6000      8.1387      2.5655      0.1637      5.1231    106.6798     28.3528
  1653.7000      8.1387      2.6285      0.1335      1.3051    104.1313     27.3750
  1653.8000      8.1018      2.6631      0.1023     -0.7934    100.7048     26.3975
  1653.9000      8.1018      2.6735      0.1415     -1.4270     99.4379     25.8449
  1654.0000      8.0465      2.6562      0.0783     -0.3767     98.9516     25.2539
  1654.1000      8.0465      2.6203      0.0844      1.7997     97.4275     24.0276
  1654.2000      8.0465      2.5847      0.0212      3.9569     99.5110     22.2731
  1654.3000      8.0204      2.5689     -0.0042      4.9149    106.2300     20.6723
  1654.4000      8.0204      2.5716      0.0062      4.7530    111.7561     19.9852
  1654.5000      7.9972      2.5741      0.0478      4.6017    111.7754     20.2788
  1654.6000      7.9972      2.5663      0.0213      5.0751    109.1518     20.8538
  1654.7000      7.9972      2.5519      0.0037      5.9468    109.6994     21.3181
  1654.8000      8.0076      2.5342     -0.0074      7.0162    115.2293     21.7580
  1654.9000      8.0076      2.5218     -0.0223      7.7679    124.0350     22.1054
  1655.0000      8.0230      2.5314      0.0555      7.1883    133.4901     22.4093
  1655.1000      8.0230      2.5656      0.0777      5.1156    140.3139     22.7894
  1655.2000      8.0230      2.6100      0.0859      2.4257    140.9447     23.2295
  1655.3000      8.0333      2.6384      0.1414      0.7042    133.4632     23.5088
  1655.4000      8.0333      2.6253      0.1409      1.4949    123.8599     23.4501
  1655.5000      8.0405      2.5774      0.0308      4.3989    118.6653     23.3158
