~Version Information
 VERS.                                  2.0 : CWLS LAS VERSION
 WRAP.                                   NO : WRAPING MODE
 SWARE .                 MController 2.5.0J : SOFTWARE VERSION
~Well Information
 WELL.                         Joplin 44-05 : WELL
 COMP.    Pioneer Natural Resources USA Inc : COMPANY
 FLD.                      Purgatoire River : FIELD
 LOC.                  SE/SE SEC5 T33S R66W : LOCATION
 DATE.                             12/12/05 : DATE(S) LOGGED
 SRVC.       Blanco Geological Services LLC : SERVICE COMPANY
 STAT.                             Colorado : STATE
 CNTY.                           Las Animas : COUNTY
 CTRY.                                  USA : COUNTRY
 API.                       05-071-08623-05 : API NUMBER
 STRT.FT                             686.00 : START DEPTH
 STOP.FT                            2105.00 : STOP DEPTH
 STEP.FT                               1.00 : DEPTH INCREMENT
 NULL.                                -9999 : NULL VALUE
~Curve information
 DEPTH.FT                                   :
 ROP.MIN/FT                                 :
 GAS.UNITS                                  :
~ASCII Log data
# ...
      1686.0         0.17       1156.4 
      1687.0         0.20       1081.8 
      1688.0         0.17       1041.5 
      1689.0         0.20        971.0 
      1690.0         0.20        971.0 
      1691.0         0.27        936.1 
      1692.0         0.17        932.0 
      1693.0         0.17        953.3 
      1694.0         0.17        895.5 
      1695.0         0.25        895.5 
      1696.0         0.23       1025.9 
      1697.0         0.23       1055.5 
      1698.0         0.23        913.3 
      1699.0         0.30        638.1 
      1700.0         0.27        519.1 
      1701.0         0.27        468.0 
      1702.0         0.27        463.2 
      1703.0         0.23        454.3 
      1704.0         0.27        454.3 
      1705.0         0.23        481.3 
      1706.0         1.68        604.4 
      1707.0         0.57        705.4 
      1708.0         0.40        759.0 
      1709.0         0.33        994.5 
      1710.0         0.27       1085.9 
      1711.0         0.23       1011.3 
      1712.0         0.23       1017.7 
      1713.0         0.25       1003.1 
      1714.0         0.23        973.2 
      1715.0         0.27        865.3 
      1716.0         0.17        765.4 
      1717.0         0.20        732.7 
      1718.0         0.20        700.6 
      1719.0         0.10        700.6 
      1720.0         0.13        697.1 
      1721.0         0.13        659.0 
      1722.0         0.23        640.9 
      1723.0         0.20        630.5 
      1724.0         0.17        625.7 
      1725.0         0.20        863.8 
      1726.0         0.23       1393.5 
      1727.0         0.33       1324.3 
      1728.0         0.23        908.5 
      1729.0         0.23        809.5 
      1730.0         0.25        795.5 
      1731.0         0.23        767.3 
      1732.0         0.27        754.3 
      1733.0         0.20        736.2 
      1734.0         0.20        725.7 
      1735.0         0.20        703.8 
      1736.0         1.63       1540.7 
      1737.0         0.37       1602.9 
      1738.0         0.28       1599.4 
      1739.0         0.27       1567.7 
      1740.0         0.37       1556.6 
      1741.0         0.40       1470.0 
      1742.0         0.37        945.0 
      1743.0         0.20        847.6 
      1744.0         0.23        822.2 
      1745.0         0.27        802.8 
      1746.0         0.27        786.9 
      1747.0         0.27        769.8 
      1748.0         0.27        755.5 
      1749.0         0.32        741.2 
      1750.0         0.30        736.8 
      1751.0         0.27        721.2 
      1752.0         0.30        719.7 
      1753.0         0.27        704.4 
      1754.0         0.27        692.4 
      1755.0         0.27        658.7 
      1756.0         0.27        621.3 
      1757.0         0.23        586.7 
      1758.0         0.27        527.0 
      1759.0         0.27        479.7 
      1760.0         0.27        469.6 
      1761.0         0.32        421.3 
      1762.0         0.30        185.8 
      1763.0         0.20        187.4 
      1764.0         0.20        167.2 
      1765.0         0.20        153.2 
      1766.0         1.93        149.8 
      1767.0         0.33         89.1 
      1768.0         0.28         76.1 
      1769.0         0.30         67.8 
      1770.0         0.37         57.6 
      1771.0         0.30         48.8 
      1772.0         0.30         44.9 
      1773.0         0.27         40.8 
      1774.0         0.23         36.8 
      1775.0         0.20         37.1 
      1776.0         0.23         53.6 
      1777.0         0.20         84.3 
      1778.0         0.20         87.7 
      1779.0         0.23         64.2 
      1780.0         0.17         37.6 
      1781.0         0.22         34.1 
      1782.0         0.23         19.0 
      1783.0         0.23         11.3 
      1784.0         0.23          8.4 
      1785.0         0.20          6.9 
      1786.0         0.27         30.1 
      1787.0         0.30        123.2 
      1788.0         0.27        143.4 
      1789.0         0.30        143.6 
      1790.0         0.27        146.9 
      1791.0         0.30        153.7 
      1792.0         0.23        167.2 
      1793.0         0.27        174.3 
      1794.0         0.20        176.9 
      1795.0         0.52        237.0 
      1796.0         2.00       1115.1 
      1797.0         0.37       1167.5 
      1798.0         0.27       1247.1 
      1799.0         0.28       1261.4 
      1800.0         0.27       1266.5 
      1801.0         0.20       1256.7 
      1802.0         0.23       1224.6 
      1803.0         0.20       1212.2 
      1804.0         0.23       1190.0 
      1805.0         0.23       1161.8 
      1806.0         0.23       1158.9 
      1807.0         0.23       1134.8 
      1808.0         0.20       1091.6 
      1809.0         0.23       1063.1 
      1810.0         0.20       1048.8 
      1811.0         0.23       1065.9 
      1812.0         0.20       1072.3 
      1813.0         0.20       1067.8 
      1814.0         0.22       1131.3 
      1815.0         0.20       1170.0 
      1816.0         0.20       1270.0 
      1817.0         0.17       1130.0 
      1818.0         0.17       1021.5 
      1819.0         0.23        733.3 
      1820.0         0.23        571.1 
      1821.0         0.27        501.9 
      1822.0         0.23        470.8 
      1823.0         0.27        460.4 
      1824.0         0.27        456.5 
      1825.0         0.23        443.9 
      1826.0         2.42        649.2 
      1827.0         0.43        486.1 
      1828.0         0.33        491.8 
      1829.0         0.33        495.0 
      1830.0         0.30        507.6 
      1831.0         0.33        513.7 
      1832.0         0.35        515.6 
      1833.0         0.33        517.5 
      1834.0         0.27        521.3 
      1835.0         0.23        522.2 
      1836.0         0.30        519.4 
      1837.0         0.23        521.9 
      1838.0         0.23        519.1 
      1839.0         0.23        513.0 
      1840.0         0.23        513.4 
      1841.0         0.20        512.1 
      1842.0         0.17        507.0 
      1843.0         0.17        507.0 
      1844.0         0.20        509.2 
      1845.0         0.23        501.9 
      1846.0         0.22        497.2 
      1847.0         0.20        497.2 
      1848.0         0.13        496.2 
      1849.0         0.20        488.9 
      1850.0         0.20        487.0 
      1851.0         0.23        482.9 
      1852.0         0.23        481.0 
      1853.0         0.23        470.5 
      1854.0         0.23        464.5 
      1855.0         0.60        461.6 
      1856.0         2.15        448.3 
      1857.0         0.30        415.6 
      1858.0         0.27        405.5 
      1859.0         0.27        404.2 
      1860.0         0.23        400.0 
      1861.0         0.23        400.0 
      1862.0         0.20        206.7 
      1863.0         0.17        201.2 
      1864.0         0.23        199.5 
      1865.0         0.17        193.8 
      1866.0         0.22        193.1 
      1867.0         0.17        187.5 
      1868.0         0.20        186.7 
      1869.0         0.20        180.7 
      1870.0         0.23        177.3 
      1871.0         0.20        176.4 
      1872.0         0.27        174.1 
      1873.0         0.27       1035.5 
      1874.0         0.30        879.0 
      1875.0         0.27        825.3 
      1876.0         0.33        400.0 
      1877.0         0.30         65.9 
      1878.0         0.30         54.8 
      1879.0         0.32         25.2 
      1880.0         0.33         13.2 
      1881.0         0.27         11.2 
      1882.0         0.30         21.7 
      1883.0         0.30        118.6 
      1884.0         0.23        237.0 
      1885.0         0.43        401.1 
