~Version Information
VERS.                      2.0: CWLS Log ASCII Standard - VERSION 2.0
WRAP.                       NO: One line per depth step
~Well Information Block
STRT.FT                -5.5000: 
STOP.FT              2262.7500: 
STEP.FT                 0.2500: 
NULL.                -999.2500: 
COMP.          Pioneer Natural Resources: COMPANY
WELL.             Baa Baa 34-1: WELL
FLD.           Purgatorie River: FIELD
LOC.           617' FSL & 2289' FEL------: LOCATION
STAT.                       CO: State
CNTY.               Las Animas: COUNTY
CTRY. USA : Country
SECT. 1 : Section
TOWN. 33S : Township
RANG. 67W : Range
SRVC.          Patterson Wireline: SERVICE COMPANY
DATE.          Mon Sep 12 14:08:52 2005: LOG DATE
API.           05 071 08502 00: UNIQUE WELL ID
~Curve Information Block
DEPT.FT            0 000 00 00: Depth
LTEN.lb                       : Surface Line Tension
CCL.                          : Casing Collar Locator
TT3.usec                      : CBL 3' Travel Time
AMP3.mV                       : CBL 3' Amplitude
GR.GAPI                       : Gamma Ray
~Parameter Information Block
~A  Depth       LTEN        CCL         TT3         AMP3         GR     
# ...
  2234.5000  -4531.8638      0.0000    484.6440      2.5279     71.6213
  2234.7500  -4530.5317      0.0000    528.9301      2.2332     77.4320
  2235.0000  -4530.5317      0.0000    561.9972      2.0122     83.5253
  2235.2500  -4530.5317      0.0000    576.1714      1.9062     88.3247
  2235.5000  -4535.8604      0.0000    574.2941      1.8942     90.6841
  2235.7500  -4534.5283      0.0000    565.4438      1.9397     90.5202
  2236.0000  -4535.8604      0.0000    557.4923      2.0256     89.0313
  2236.2500  -4531.8638      0.0000    552.7300      2.1394     88.1981
  2236.5000  -4535.8604      0.0000    548.0280      2.2536     89.4794
  2236.7500  -4533.1958      0.0000    537.5593      2.3403     92.6132
  2237.0000  -4535.8604      0.0000    516.7677      2.3915     95.7405
  2237.2500  -4533.1958      0.0000    486.6255      2.4096     96.8087
  2237.5000  -4533.1958      0.0000    455.2319      2.3937     95.0103
  2237.7500  -4533.1958      0.0000    433.8952      2.3502     91.2579
  2238.0000  -4538.5244      0.0000    429.9824      2.3054     87.6013
  2238.2500  -4534.5283      0.0000    442.9429      2.2891     85.9329
  2238.5000  -4531.8638      0.0000    467.0388      2.3099     86.7138
  2238.7500  -4539.8569      0.0000    497.0757      2.3530     88.8480
  2239.0000  -4533.1958      0.0000    530.4385      2.3947     90.8034
  2239.2500  -4538.5244      0.0000    564.4756      2.4165     91.7192
  2239.5000  -4537.1924      0.0000    594.7308      2.4128     91.6015
  2239.7500  -4530.5317      0.0000    617.0583      2.3910     90.9657
  2240.0000  -4530.5317      0.0000    630.3806      2.3686     90.3288
  2240.2500  -4537.1924      0.0000    636.4629      2.3655     89.6264
  2240.5000  -4535.8604      0.0000    637.1181      2.3963     88.0370
  2240.7500  -4530.5317      0.0000    631.3387      2.4619     84.6958
  2241.0000  -4538.5244      0.0000    614.6395      2.5413     79.7022
  2241.2500  -4530.5317      0.0000    582.1620      2.5947     74.2617
  2241.5000  -4537.1924      0.0000    534.5183      2.5839     69.7665
  2241.7500  -4537.1924      0.0000    480.7926      2.5000     66.8327
  2242.0000  -4530.5317      0.0000    434.0460      2.3697     65.2177
  2242.2500  -4533.1958      0.0000    403.0180      2.2331     64.3587
  2242.5000  -4534.5283      0.0000    388.6935      2.1185     63.8084
  2242.7500  -4538.5244      0.0000    388.1367      2.0349     63.4107
  2243.0000  -4533.1958      0.0000    399.7570      1.9777     63.2578
  2243.2500  -4533.1958      0.0000    424.0818      1.9374     63.4660
  2243.5000  -4533.1958      0.0000    460.1349      1.9033     64.1695
  2243.7500  -4535.8604      0.0000    502.4597      1.8675     65.9326
  2244.0000  -4537.1924      0.0000    542.9348      1.8295     69.7082
  2244.2500  -4537.1924      0.0000    575.4351      1.7967     75.7096
  2244.5000  -4529.1997      0.0000    598.1644      1.7784     82.3799
  2244.7500  -4534.5283      0.0000    612.3416      1.7776     87.0847
  2245.0000  -4534.5283      0.0000    620.1509      1.7872     88.1067
  2245.2500  -4538.5244      0.0000    623.7323      1.7969     85.9664
  2245.5000  -4530.5317      0.0000    624.7082      1.8011     82.9187
  2245.7500  -4533.1958      0.0000    623.7597      1.8007     81.1428
  2246.0000  -4533.1958      0.0000    620.5566      1.7984     81.0663
  2246.2500  -4533.1958      0.0000    614.4072      1.7945     81.1867
  2246.5000  -4530.5317      0.0000    605.4066      1.7885     79.5485
  2246.7500  -4538.5244      0.0000    595.1314      1.7822     75.5924
  2247.0000  -4535.8604      0.0000    585.9531      1.7788     70.7551
  2247.2500  -4531.8638      0.0000    579.5208      1.7797     67.3409
  2247.5000  -4534.5283      0.0000    575.9715      1.7849     66.7939
  2247.7500  -4534.5283      0.0000    574.4181      1.7940     68.7384
  2248.0000  -4533.1958      0.0000    573.8564      1.8048     70.9832
  2248.2500  -4533.1958      0.0000    573.6284      1.8128     70.1895
  2248.5000  -4531.8638      0.0000    573.4005      1.8130     63.4141
  2248.7500  -4533.1958      0.0000    572.8690      1.8034     50.2783
  2249.0000  -4530.5317      0.0000    571.2257      1.7877     33.8952
  2249.2500  -4533.1958      0.0000    566.5496      1.7743     18.9812
  2249.5000  -4534.5283      0.0000    555.8983      1.7707      8.6826
  2249.7500  -4533.1958      0.0000    537.3130      1.7794      3.2058
  2250.0000  -4538.5244      0.0000    512.7788      1.7984      0.9468
  2250.2500  -4529.1997      0.0000    488.1296      1.8268      0.2220
  2250.5000  -4531.8638      0.0000    468.4294      1.8664      0.0407
  2250.7500  -4533.1958      0.0000    455.1126      1.9149      0.0052
  2251.0000  -4531.8638      0.0000    449.8337      1.9606      0.0000
  2251.2500  -4527.8677      0.0000    457.9641      1.9898   -999.2500
  2251.5000  -4538.5244      0.0000    483.4958      1.9988   -999.2500
  2251.7500  -4530.5317      0.0000    521.7159      1.9940   -999.2500
  2252.0000  -4537.1924      0.0000    560.7218      1.9821   -999.2500
  2252.2500  -4535.8604      0.0000    589.7615      1.9644   -999.2500
  2252.5000  -4533.1958      0.0000    603.9763      1.9443   -999.2500
  2252.7500  -4538.5244      0.0000    602.8469      1.9339   -999.2500
  2253.0000  -4530.5317      0.0000    587.3738      1.9458   -999.2500
  2253.2500  -4533.1958      0.0000    558.6964      1.9771   -999.2500
  2253.5000  -4530.5317      0.0000    516.2295      1.9920   -999.2500
  2253.7500  -4533.1958      0.0000    456.0758      1.9188   -999.2500
  2254.0000  -4535.8604      0.0000    374.5257      1.6786   -999.2500
  2254.2500  -4529.1997      0.0000    276.1814      1.2511   -999.2500
  2254.5000  -4533.1958      0.0000    176.9781      0.7189   -999.2500
  2254.7500  -4533.1958      0.0000     95.9164      0.2260   -999.2500
  2255.0000  -4533.1958      0.0000     43.0516     -0.1218   -999.2500
  2255.2500  -4530.5317      0.0000     15.7491     -0.3105   -999.2500
  2255.5000  -4531.8638      0.0000      4.6377     -0.3898   -999.2500
  2255.7500  -4535.8604      0.0000      1.0889     -0.4157   -999.2500
  2256.0000  -4535.8604      0.0000      0.1983     -0.4222   -999.2500
  2256.2500  -4535.8604      0.0000      0.0264     -0.4235   -999.2500
  2256.5000  -4534.5283      0.0000   -999.2500   -999.2500   -999.2500
  2256.7500  -4533.1958      0.0000   -999.2500   -999.2500   -999.2500
  2257.0000  -4531.8638      0.0000   -999.2500   -999.2500   -999.2500
  2257.2500  -4530.5317      0.0000   -999.2500   -999.2500   -999.2500
  2257.5000  -4534.5283      0.0000   -999.2500   -999.2500   -999.2500
  2257.7500  -4537.1924      0.0000   -999.2500   -999.2500   -999.2500
  2258.0000  -4537.1924      0.0000   -999.2500   -999.2500   -999.2500
  2258.2500  -4538.5244      0.0000   -999.2500   -999.2500   -999.2500
  2258.5000  -4538.5244      0.0000   -999.2500   -999.2500   -999.2500
  2258.7500  -4533.1958      0.0000   -999.2500   -999.2500   -999.2500
  2259.0000  -4530.5317      0.0000   -999.2500   -999.2500   -999.2500
  2259.2500  -4533.1958      0.0000   -999.2500   -999.2500   -999.2500
  2259.5000  -4531.8638      0.0000   -999.2500   -999.2500   -999.2500
  2259.7500  -4538.5244      0.0000   -999.2500   -999.2500   -999.2500
  2260.0000  -4531.8638      0.0000   -999.2500   -999.2500   -999.2500
  2260.2500  -4533.1958      0.0000   -999.2500   -999.2500   -999.2500
  2260.5000  -4534.5283      0.0000   -999.2500   -999.2500   -999.2500
  2260.7500  -4535.8604      0.0000   -999.2500   -999.2500   -999.2500
  2261.0000  -4533.1958      0.0000   -999.2500   -999.2500   -999.2500
  2261.2500  -4533.1958      0.0000   -999.2500   -999.2500   -999.2500
  2261.5000  -4530.5317      0.0000   -999.2500   -999.2500   -999.2500
  2261.7500  -4538.5244      0.0000   -999.2500   -999.2500   -999.2500
  2262.0000  -4533.1958      0.0000   -999.2500   -999.2500   -999.2500
  2262.2500  -4537.1924   -999.2500   -999.2500   -999.2500   -999.2500
