~Version Information
VERS.                      2.0: CWLS Log ASCII Standard - VERSION 2.0
WRAP.                       NO: One line per depth step
~Well Information Block
STRT.FT               459.3000: 
STOP.FT              1604.7000: 
STEP.FT                 0.1000: 
NULL.                -999.2500: 
COMP.          Pioneer Natural Resources: COMPANY
WELL.          Grand Prix 13-12 Tr: WELL
FLD.           Purgatoire River: FIELD
LOC.           2595' FSL & 1277' FWL--: LOCATION
CNTY.               Las Animas: COUNTY
SRVC.                Patterson: SERVICE COMPANY
DATE.          Tue Apr 04 07:18:28 2006: LOG DATE
UWI.           05 071 08711 00: UNIQUE WELL ID
STAT.                 Colorado: STATE
~Curve Information Block
DEPT.FT            0 000 00 00: Depth
DCAL.in                       : CDL Caliper
RHOB.g/cc                     : CDL Bulk Density
RHOC.g/cc                     : CDL Density Correction
DPOR.pu                       : CDL Density Porosity
GR.GAPI                       : Gamma Ray
~Parameter Information Block
~A  Depth       DCAL        RHOB        RHOC        DPOR         GR     
# ...
   840.1000      7.9553      2.3993      0.0578     15.1930    120.6954
   840.2000      7.9553      2.4069      0.0729     14.7307    119.0188
   840.3000      7.9541      2.4188      0.0516     14.0139    114.7408
   840.4000      7.9541      2.4395      0.0598     12.7598    110.3542
   840.5000      7.9534      2.4675      0.0752     11.0601    108.3554
   840.6000      7.9534      2.4909      0.1084      9.6427    109.2411
   840.7000      7.9534      2.4938      0.1121      9.4690    114.6039
   840.8000      7.9556      2.4709      0.0997     10.8525    122.4316
   840.9000      7.9556      2.4328      0.0792     13.1621    128.4342
   841.0000      7.9557      2.3961      0.0374     15.3908    130.2300
   841.1000      7.9557      2.3731      0.0298     16.7811    124.2321
   841.2000      7.9557      2.3719      0.0197     16.8566    111.2459
   841.3000      7.9535      2.3941      0.0346     15.5115    100.4732
   841.4000      7.9535      2.4277      0.0998     13.4723     99.9239
   841.5000      7.9518      2.4544      0.1333     11.8567    109.1953
   841.6000      7.9518      2.4638      0.1430     11.2863    120.5065
   841.7000      7.9518      2.4576      0.1212     11.6617    124.2227
   841.8000      7.9492      2.4468      0.1147     12.3131    120.4278
   841.9000      7.9492      2.4465      0.1127     12.3319    116.8995
   842.0000      7.9451      2.4600      0.1253     11.5134    116.8741
   842.1000      7.9451      2.4691      0.1316     10.9658    120.4144
   842.2000      7.9451      2.4632      0.0749     11.3232    126.7216
   842.3000      7.9375      2.4556      0.0701     11.7817    131.0635
   842.4000      7.9375      2.4528      0.0494     11.9517    130.2918
   842.5000      7.9219      2.4477      0.0579     12.2578    126.9650
   842.6000      7.9219      2.4410      0.0618     12.6638    123.9699
   842.7000      7.9219      2.4424      0.0254     12.5812    122.3921
   842.8000      7.9018      2.4515      0.0702     12.0313    122.5339
   842.9000      7.9018      2.4573      0.0688     11.6781    123.1450
   843.0000      7.8895      2.4604      0.0396     11.4931    124.7124
   843.1000      7.8895      2.4647      0.0713     11.2333    127.9407
   843.2000      7.8895      2.4635      0.0371     11.3036    127.9113
   843.3000      7.8911      2.4541      0.0192     11.8708    123.7158
   843.4000      7.8911      2.4403      0.0340     12.7089    120.8621
   843.5000      7.9042      2.4286     -0.0266     13.4192    121.4095
   843.6000      7.9042      2.4265      0.0427     13.5474    123.2957
   843.7000      7.9042      2.4342      0.0244     13.0807    123.4116
   843.8000      7.9169      2.4413      0.0728     12.6462    121.9904
   843.9000      7.9169      2.4356      0.0507     12.9937    120.2389
   844.0000      7.9227      2.4256      0.0384     13.6013    117.4756
   844.1000      7.9227      2.4241      0.0451     13.6892    115.9579
   844.2000      7.9227      2.4188      0.0598     14.0110    117.7715
   844.3000      7.9248      2.4012      0.0435     15.0789    120.2782
   844.4000      7.9248      2.3932      0.0084     15.5616    124.0477
   844.5000      7.9260      2.4069      0.0675     14.7316    133.6033
   844.6000      7.9260      2.4193      0.1011     13.9834    142.8589
   844.7000      7.9260      2.4199      0.0122     13.9429    142.1855
   844.8000      7.9263      2.4261      0.0750     13.5668    135.2353
   844.9000      7.9263      2.4416      0.0817     12.6290    127.6238
   845.0000      7.9264      2.4546      0.1332     11.8403    121.0461
   845.1000      7.9264      2.4578      0.0751     11.6512    118.3251
   845.2000      7.9264      2.4509      0.0780     12.0695    118.6394
   845.3000      7.9264      2.4434      0.0477     12.5196    120.4793
   845.4000      7.9264      2.4507      0.0599     12.0784    124.9724
   845.5000      7.9253      2.4705      0.1215     10.8770    129.6306
   845.6000      7.9253      2.4854      0.0890      9.9729    130.7701
   845.7000      7.9253      2.4862      0.0943      9.9265    131.2390
   845.8000      7.9227      2.4722      0.1051     10.7729    133.1429
   845.9000      7.9227      2.4517      0.0868     12.0165    132.9002
   846.0000      7.9224      2.4321      0.0752     13.2036    132.4564
   846.1000      7.9224      2.4011      0.0830     15.0870    135.8099
   846.2000      7.9224      2.3491      0.0096     18.2377    138.0854
   846.3000      7.9269      2.3012     -0.0138     21.1421    137.0662
   846.4000      7.9269      2.2864     -0.0107     22.0356    136.0178
   846.5000      7.9375      2.2954      0.0415     21.4913    132.7859
   846.6000      7.9375      2.3083     -0.0129     20.7083    127.4578
   846.7000      7.9375      2.3301      0.0477     19.3857    122.4119
   846.8000      7.9516      2.3617      0.1099     17.4723    117.0710
   846.9000      7.9516      2.3884      0.1574     15.8543    116.8951
   847.0000      7.9617      2.3991      0.2266     15.2057    125.3590
   847.1000      7.9617      2.3959      0.1967     15.4009    133.2110
   847.2000      7.9617      2.3997      0.2273     15.1690    134.9069
   847.3000      7.9626      2.4208      0.3061     13.8933    134.9332
   847.4000      7.9626      2.4352      0.3024     13.0190    134.5860
   847.5000      7.9570      2.4222      0.2068     13.8082    134.5033
   847.6000      7.9570      2.3881      0.1415     15.8747    138.9927
   847.7000      7.9570      2.3411      0.0948     18.7183    146.6916
   847.8000      7.9547      2.2799      0.0579     22.4315    151.1345
   847.9000      7.9547      2.2130     -0.0094     26.4851    150.7593
   848.0000      7.9570      2.1606     -0.0342     29.6582    149.6960
   848.1000      7.9570      2.1318      0.0058     31.4064    152.9103
   848.2000      7.9570      2.1228      0.0362     31.9486    156.3877
   848.3000      7.9606      2.1299      0.0338     31.5204    155.5052
   848.4000      7.9606      2.1457      0.0577     30.5615    155.8010
   848.5000      7.9664      2.1572      0.0393     29.8677    156.9915
   848.6000      7.9664      2.1596      0.0389     29.7190    152.5391
   848.7000      7.9664      2.1651      0.0512     29.3872    147.2684
   848.8000      7.9717      2.1873      0.0547     28.0417    146.1912
   848.9000      7.9717      2.2174      0.0908     26.2164    144.4314
   849.0000      7.9622      2.2400      0.0571     24.8506    142.3027
   849.1000      7.9622      2.2596      0.0528     23.6599    142.7685
   849.2000      7.9622      2.2825      0.0526     22.2705    143.4356
   849.3000      7.9483      2.3103      0.0567     20.5853    144.0724
   849.4000      7.9483      2.3452      0.1037     18.4752    147.2569
   849.5000      7.9451      2.3838      0.0675     16.1304    150.3354
   849.6000      7.9451      2.4170      0.1235     14.1184    146.0827
   849.7000      7.9451      2.4255      0.1622     13.6079    135.2281
   849.8000      7.9449      2.4073      0.0649     14.7097    127.8631
   849.9000      7.9449      2.3901      0.0445     15.7519    130.9841
   850.0000      7.9347      2.3922      0.0610     15.6223    141.3597
   850.1000      7.9347      2.4109      0.0880     14.4926    149.6246
   850.2000      7.9347      2.4376      0.0948     12.8735    151.1513
   850.3000      7.9147      2.4617      0.1289     11.4137    147.2304
   850.4000      7.9147      2.4715      0.1176     10.8181    141.4697
   850.5000      7.8962      2.4662      0.1177     11.1382    139.4483
   850.6000      7.8962      2.4619      0.0651     11.3990    141.8316
   850.7000      7.8962      2.4739      0.0907     10.6752    141.7123
   850.8000      7.8857      2.4963      0.0995      9.3161    138.9973
   850.9000      7.8857      2.5099      0.1183      8.4939    137.4067
   851.0000      7.8886      2.5079      0.0779      8.6131    136.4711
   851.1000      7.8886      2.5045      0.0301      8.8199    137.4847
   851.2000      7.8886      2.5079      0.0516      8.6150    139.4703
