~Version Information
VERS.                      2.0: CWLS Log ASCII Standard - VERSION 2.0
WRAP.                       NO: One line per depth step
~Well Information Block
STRT.FT                -7.7500: 
STOP.FT              1519.0000: 
STEP.FT                 0.2500: 
NULL.                -999.2500: 
COMP.          Pioneer Natural Resources: COMPANY
WELL.          Mow 8-14-33-67 Tr: WELL
FLD.           Purgatorie River: FIELD
LOC.           2258' FNL & 929' FEL--: LOCATION
CNTY.               Las Animas: COUNTY
SRVC.          Patterson Wireline: SERVICE COMPANY
DATE.          Thu Feb 02 10:06:28 2006: LOG DATE
UWI.           05 071 08684 00: UNIQUE WELL ID
STAT.                       CO: STATE
~Curve Information Block
DEPT.FT            0 000 00 00: Depth
MINMK.                        : Magnetic Mark Ticks
CCL.                          : Casing Collar Locator
TT3.usec                      : CBL 3' Travel Time
AMP3.mV                       : CBL 3' Amplitude
GR.GAPI                       : Gamma Ray
~Parameter Information Block
~A  Depth      MINMK        CCL         TT3         AMP3         GR     
# ...
   300.2500      0.0000      0.0000    262.8302     86.0146    159.7575
   300.5000      0.0000      0.0000    262.8340     86.0745    161.8982
   300.7500      0.0000      0.0000    262.8311     86.0783    163.1981
   301.0000      0.0000      0.0000    262.8216     86.0908    162.7805
   301.2500      0.0000      0.0000    262.8084     86.0985    160.8456
   301.5000      0.0000      0.0000    262.7941     86.0860    158.1394
   301.7500      0.0000      0.0000    262.7805     86.0649    155.5503
   302.0000      0.0000      0.0000    262.7701     86.0660    154.0138
   302.2500      0.0000      0.0000    262.7647     86.1135    153.7150
   302.5000      0.0000      0.0000    262.7651     86.2021    153.5997
   302.7500      0.0000      0.0000    262.7706     86.2989    152.6899
   303.0000      0.0000      0.0000    262.7789     86.3635    151.6480
   303.2500      0.0000      0.0000    262.7875     86.3684    152.0538
   303.5000      0.0000      0.0000    262.7944     86.3116    154.0010
   303.7500      0.0000      0.0000    262.7983     86.2254    155.1324
   304.0000      0.0000      0.0000    262.7991     86.1603    152.6416
   304.2500      0.0000      0.0000    262.7980     86.1473    146.1302
   304.5000      0.0000      0.0000    262.7961     86.1826    138.2160
   304.7500      0.0000      0.0000    262.7937     86.2476    132.7314
   305.0000      0.0000      0.0000    262.7903     86.3252    132.5811
   305.2500      0.0000      0.0000    262.7859     86.3902    138.4126
   305.5000      0.0000      0.0000    262.7819     86.4069    148.1107
   305.7500      0.0000      0.0000    262.7810     86.3524    157.5384
   306.0000      0.0000      0.0000    262.7860     86.2330    162.6972
   306.2500      0.0000      0.0000    262.7971     86.0784    162.1291
   306.5000      0.0000      0.0000    262.8105     85.9309    157.6862
   306.7500      0.0000      0.0000    262.8203     85.8334    152.9231
   307.0000      0.0000      0.0000    262.8224     85.8076    150.4225
   307.2500      0.0000      0.0000    262.8174     85.8395    150.3490
   307.5000      0.0000      0.0000    262.8089     85.8962    151.1500
   307.7500      0.0000      0.0000    262.8018     85.9564    151.1203
   308.0000      0.0000      0.0000    262.7993     86.0204    149.3564
   308.2500      0.0000      0.0000    262.8022     86.0910    145.8820
   308.5000      0.0000      0.0000    262.8090     86.1533    141.5086
   308.7500      0.0000      0.0000    262.8174     86.1801    137.6738
   309.0000      0.0000      0.0000    262.8262     86.1563    135.7723
   309.2500      0.0000      0.0000    262.8347     86.0956    136.0325
   309.5000      0.0000      0.0000    262.8416     86.0314    136.9780
   309.7500      0.0000      0.0000    262.8443     85.9953    136.5065
   310.0000      0.0000      0.0000    262.8409     85.9982    133.9903
   310.2500      0.0000      0.0000    262.8323     86.0277    131.3464
   310.5000      0.0000      0.0000    262.8226     86.0584    131.6917
   310.7500      0.0000      0.0000    262.8151     86.0731    136.7404
   311.0000      0.0000      0.0000    262.8105     86.0794    145.5581
   311.2500      0.0000      0.0000    262.8069     86.1041    155.5629
   311.5000      0.0000      0.0000    262.8021     86.1623    164.2417
   311.7500      0.0000      0.0000    262.7962     86.2341    170.1375
   312.0000      0.0000      0.0000    262.7913     86.2859    173.2571
   312.2500      0.0000      0.0000    262.7899     86.3104    175.1852
   312.5000      0.0000      0.0000    262.7930     86.3309    178.2045
   312.7500      0.0000      0.0000    262.7997     86.3624    183.2542
   313.0000      0.0000      0.0000    262.8089     86.3902    188.6079
   313.2500      0.0000      0.0000    262.8186     86.4004    191.2351
   313.5000      0.0000      0.0000    262.8250     86.4118    189.6356
   313.7500      0.0000      0.0000    262.8243     86.4535    185.1019
   314.0000      0.0000      0.0000    262.8166     86.5166    180.3613
   314.2500      0.0000      0.0000    262.8060     86.5576    177.4078
   314.5000      0.0000      0.0000    262.7977     86.5491    176.5195
   314.7500      0.0000      0.0000    262.7939     86.5052    176.9054
   315.0000      0.0000      0.0000    262.7941     86.4582    177.8813
   315.2500      0.0000      0.0000    262.7944     86.4393    179.0580
   315.5000      0.0000      0.0000    262.7903     86.4758    179.5898
   315.7500      1.0000      0.0000    262.7801     86.5754    178.0861
   316.0000      0.0000      0.0000    262.7670     86.7041    173.5215
   316.2500      0.0000      0.0000    262.7570     86.8017    165.7757
   316.5000      0.0000      0.0000    262.7538     86.8304    155.4112
   316.7500      0.0000      0.0000    262.7578     86.8064    143.6275
   317.0000      0.0000      0.0000    262.7680     86.7811    132.3534
   317.2500      0.0000      0.0000    262.7823     86.7944    123.5074
   317.5000      0.0000      0.0000    262.7959     86.8454    117.6259
   317.7500      0.0000      0.0000    262.8041     86.8990    113.5060
   318.0000      0.0000      0.0000    262.8052     86.9172    109.4468
   318.2500      0.0000      0.0000    262.8018     86.8892    104.4188
   318.5000      0.0000      0.0000    262.7975     86.8361     98.0164
   318.7500      0.0000      0.0000    262.7939     86.7861     90.2123
   319.0000      0.0000      0.0000    262.7907     86.7504     81.4761
   319.2500      0.0000      0.0000    262.7876     86.7224     72.4397
   319.5000      0.0000      0.0000    262.7859     86.6939     63.3336
   319.7500      0.0000      0.0000    262.7882     86.6598     54.3844
   320.0000      0.0000      0.0000    262.7957     86.6110     46.5916
   320.2500      0.0000      0.0000    262.8064     86.5427     41.3559
   320.5000      0.0000      0.0000    262.8143     86.4796     39.2672
   320.7500      0.0000      0.0000    262.8141     86.4691     39.5307
   321.0000      0.0000      0.0000    262.8062     86.5313     40.4756
   321.2500      0.0000      0.0000    262.7969     86.6301     40.5965
   321.5000      0.0000      0.0000    262.7922     86.7110     39.4857
   321.7500      0.0000      0.0000    262.7930     86.7510     37.9370
   322.0000      0.0000      0.0000    262.7946     86.7612     37.0304
   322.2500      0.0000      0.0000    262.7920     86.7602     37.2025
   322.5000      0.0000      0.0000    262.7843     86.7598     38.2420
   322.7500      0.0000      0.0000    262.7755     86.7594     39.8020
   323.0000      0.0000      0.0000    262.7714     86.7417     41.5742
   323.2500      0.0000      0.0000    262.7760     86.6860     43.1477
   323.5000      0.0000      0.0000    262.7881     86.5927     44.0970
   323.7500      0.0000      0.0000    262.8022     86.4875     44.3263
   324.0000      0.0000      0.0000    262.8125     86.4017     44.2365
   324.2500      0.0000      0.0000    262.8158     86.3547     44.5336
   324.5000      0.0000      0.0000    262.8115     86.3504     45.8433
   324.7500      0.0000      0.0000    262.8010     86.3848     48.4348
   325.0000      0.0000      0.0000    262.7868     86.4523     52.3617
   325.2500      0.0000      0.0000    262.7720     86.5416     57.8962
   325.5000      0.0000      0.0000    262.7604     86.6264     65.7301
   325.7500      0.0000      0.0000    262.7550     86.6776     76.6771
   326.0000      0.0000      0.0000    262.7570     86.6924     91.1569
   326.2500      0.0000      0.0000    262.7654     86.6960    108.6760
   326.5000      0.0000      0.0000    262.7778     86.7070    127.1941
   326.7500      0.0000      0.0000    262.7926     86.7149    143.0082
   327.0000      0.0000      0.0000    262.8075     86.7018    152.3473
   327.2500      0.0000      0.0000    262.8182     86.6724    154.2106
   327.5000      0.0000      0.0000    262.8202     86.6506    151.4763
   327.7500      0.0000      0.0000    262.8129     86.6484    148.4046
   328.0000      0.0000      0.0000    262.8009     86.6532    146.8991
