~Version Information
VERS.                      2.0: CWLS Log ASCII Standard - VERSION 2.0
WRAP.                       NO: One line per depth step
~Well Information Block
STRT.FT                -7.0000: 
STOP.FT              1155.0000: 
STEP.FT                 0.2500: 
NULL.                -999.2500: 
COMP.          Pioneer Natural Resources: COMPANY
WELL.          Whitecoat 14-36: WELL
FLD.           Purgatorie River: FIELD
LOC.           606' FSL & 260' FWL--: LOCATION
PROV.                       CO: PROVINCE
CNTY.               Las Animas: COUNTRY
SRVC.          Patterson Wireline: SERVICE COMPANY
DATE.          Mon Dec 12 12:56:49 2005: LOG DATE
UWI.           08 071 08593 00: UNIQUE WELL ID
~Curve Information Block
DEPT.FT            0 000 00 00: Depth
CCL.                          : Casing Collar Locator
TT3.usec                      : CBL 3' Travel Time
AMP3.mV                       : CBL 3' Amplitude
GR.GAPI                       : Gamma Ray
~Parameter Information Block
~A  Depth       CCL         TT3         AMP3         GR     
# ...
   529.0000      0.0000    723.8416      5.9690    154.3546
   529.2500      0.0000    711.8123      6.0808    149.7213
   529.5000      0.0000    705.3569      6.2024    141.8041
   529.7500      0.0000    704.7784      6.3043    133.5766
   530.0000      0.0000    707.8057      6.3758    128.2028
   530.2500      0.0000    710.7653      6.4291    127.1091
   530.5000      0.0000    710.7037      6.4802    129.5947
   530.7500      0.0000    707.1859      6.5287    134.0558
   531.0000      0.0000    702.0897      6.5623    139.3463
   531.2500      0.0000    697.6501      6.5754    145.1564
   531.5000      0.0000    694.8746      6.5756    151.5029
   531.7500      0.0000    693.5446      6.5714    157.8049
   532.0000      0.0000    693.0634      6.5608    162.4001
   532.2500      0.0000    693.1539      6.5349    163.5986
   532.5000      0.0000    694.1276      6.4885    161.3799
   532.7500      0.0000    696.7407      6.4252    157.2188
   533.0000      0.0000    701.5069      6.3540    151.9429
   533.2500      0.0000    707.7608      6.2865    144.8245
   533.5000      0.0000    713.4725      6.2394    135.4129
   533.7500      0.0000    716.4142      6.2347    125.3690
   534.0000      0.0000    715.6487      6.2903    117.6936
   534.2500      0.0000    711.8638      6.4036    114.4469
   534.5000      0.0000    706.6266      6.5428    115.5179
   534.7500      0.0000    701.5309      6.6566    119.1394
   535.0000      0.0000    697.6143      6.7019    123.0401
   535.2500      0.0000    695.0935      6.6725    125.2563
   535.5000      0.0000    693.5150      6.5990    124.8599
   535.7500      0.0000    692.1137      6.5129    122.7011
   536.0000      0.0000    690.1423      6.4104    121.0320
   536.2500      0.0000    687.4882      6.2662    121.4706
   536.5000      0.0000    685.7256      6.0895    123.2645
   536.7500      0.0000    688.8042      5.9445    124.2429
   537.0000      0.0000    701.8143      5.8897    123.3019
   537.2500      0.0000    727.2739      5.9125    121.0630
   537.5000      0.0000    761.1432      5.9595    118.1403
   537.7500      0.0000    793.4167      6.0089    114.0297
   538.0000      0.0000    815.5628      6.0752    108.5017
   538.2500      2.0000    828.7877      6.1659    103.4796
   538.5000      0.0000    843.8647      6.2655    102.4936
   538.7500      0.0000    870.9891      6.3535    107.8673
   539.0000      0.0000    908.7740      6.4358    118.6259
   539.2500      0.0000    942.7518      6.5800    131.1770
   539.5000      0.0000    955.0881      6.8881    141.8377
   539.7500      0.0000    936.6703      7.3756    148.8017
   540.0000      0.0000    891.8052      7.8892    152.3162
   540.2500      0.0000    834.5505      8.2186    153.5502
   540.5000      0.0000    780.9803      8.2896    153.3458
   540.7500      0.0000    741.4672      8.2041    152.0795
   541.0000      0.0000    717.5160      8.1082    150.6514
   541.2500      0.0000    704.9338      8.0678    150.9098
   541.5000      0.0000    698.8707      8.0556    154.3519
   541.7500      0.0000    696.1461      8.0108    160.7412
   542.0000      0.0000    695.0623      7.9000    168.8127
   542.2500      0.0000    694.7472      7.7372    177.8097
   542.5000      0.0000    694.8075      7.5656    187.1989
   542.7500      0.0000    695.0477      7.4256    195.3327
   543.0000      0.0000    695.3534      7.3356    199.6988
   543.2500      0.0000    695.6207      7.2926    198.5492
   543.5000      0.0000    695.7600      7.2829    191.7994
   543.7500      0.0000    695.7271      7.2901    180.8931
   544.0000      0.0000    695.5411      7.2964    168.6821
   544.2500      0.0000    695.2712      7.2845    158.8719
   544.5000      0.0000    694.9917      7.2445    154.1228
   544.7500      0.0000    694.7407      7.1790    154.2647
   545.0000      0.0000    694.5129      7.1009    156.6258
   545.2500      0.0000    694.2861      7.0252    157.9741
   545.5000      0.0000    694.0460      6.9650    156.2187
   545.7500      0.0000    693.7871      6.9296    151.1579
   546.0000      0.0000    693.4993      6.9211    144.3023
   546.2500      0.0000    693.1642      6.9343    137.6178
   546.5000      0.0000    692.7705      6.9613    131.9107
   546.7500      0.0000    692.3397      6.9984    126.4866
   547.0000      0.0000    691.9438      7.0478    120.4742
   547.2500      0.0000    691.6797      7.1123    114.0120
   547.5000      0.0000    691.5971      7.1890    107.7602
   547.7500      0.0000    691.6505      7.2691    101.7611
   548.0000      0.0000    691.7414      7.3425     95.6568
   548.2500      0.0000    691.8058      7.4007     90.0913
   548.5000      0.0000    691.8452      7.4374     87.1214
   548.7500      0.0000    691.8868      7.4522     88.9771
   549.0000      0.0000    691.9445      7.4518     96.6910
   549.2500      0.0000    692.0189      7.4464    109.6039
   549.5000      0.0000    692.1048      7.4435    125.4198
   549.7500      0.0000    692.1814      7.4467    140.5339
   550.0000      0.0000    692.2117      7.4584    151.0467
   550.2500      0.0000    692.1716      7.4795    154.5676
   550.5000      0.0000    692.0795      7.5084    151.6394
   550.7500      0.0000    691.9849      7.5390    145.2478
   551.0000      0.0000    691.9235      7.5630    138.8815
   551.2500      0.0000    691.8914      7.5760    135.0022
   551.5000      0.0000    691.8660      7.5801    134.5465
   551.7500      0.0000    691.8368      7.5756    136.8713
   552.0000      0.0000    691.8055      7.5494    140.2971
   552.2500      0.0000    691.7686      7.4792    143.5224
   552.5000      0.0000    691.7181      7.3597    146.9057
   552.7500      0.0000    691.6563      7.2233    152.1367
   553.0000      0.0000    691.6022      7.1203    160.2246
   553.2500      0.0000    691.5867      7.0722    169.8219
   553.5000      0.0000    691.6382      7.0533    177.9404
   553.7500      0.0000    691.7612      7.0246    182.1986
   554.0000      0.0000    691.9142      6.9738    182.1742
   554.2500      0.0000    692.0179      6.9185    179.2426
   554.5000      0.0000    692.0051      6.8847    175.6171
   554.7500      0.0000    691.8762      6.8924    172.7946
   555.0000      0.0000    691.7004      6.9470    170.1011
   555.2500      0.0000    691.5583      7.0342    165.1033
   555.5000      0.0000    691.4883      7.1317    156.0835
   555.7500      0.0000    691.4848      7.2274    143.8308
   556.0000      0.0000    691.5228      7.3242    130.7725
   556.2500      0.0000    691.5688      7.4279    119.1178
   556.5000      0.0000    691.5879      7.5387    110.3022
   556.7500      0.0000    691.5596      7.6482    105.2377
   557.0000      0.0000    691.4825      7.7425    103.9324
   557.2500      0.0000    691.3628      7.8135    105.1040
   557.5000      0.0000    691.2153      7.8603    107.1821
   557.7500      0.0000    691.0785      7.8685    109.6824
   558.0000      0.0000    691.0066      7.8004    112.9728
   558.2500      0.0000    691.0365      7.6285    117.0186
   558.5000      0.0000    691.1662      7.3746    121.2345
   558.7500      0.0000    691.3586      7.0995    125.6675
   559.0000      0.0000    691.5530      6.8546    131.6832
   559.2500      0.0000    691.6861      6.6555    140.8288
   559.5000      0.0000    691.7280      6.4958    152.5274
   559.7500      0.0000    691.7073      6.3771    163.1373
   560.0000      0.0000    691.6934      6.3231    168.3140
   560.2500      0.0000    691.7405      6.3607    166.8687
   560.5000      0.0000    691.8337      6.4871    161.7849
   560.7500      0.0000    691.8970      6.6667    156.9200
   561.0000      0.0000    691.8729      6.8612    153.2200
   561.2500      0.0000    691.7913      7.0521    148.8467
   561.5000      0.0000    691.7424      7.2304    142.5171
   561.7500      0.0000    691.7857      7.3779    135.5048
   562.0000      0.0000    691.9000      7.4704    130.0462
   562.2500      0.0000    692.0113      7.4971    126.6242
