~Version Information
VERS.                      2.0: CWLS Log ASCII Standard - VERSION 2.0
WRAP.                       NO: One line per depth step
~Well Information Block
STRT.FT                -6.7500: 
STOP.FT              2256.0000: 
STEP.FT                 0.2500: 
NULL.                -999.2500: 
COMP.          Pioneer Natural Resources: COMPANY
WELL.               Relay 12-7: WELL
FLD.           Purgatorie River: FIELD
LOC.           1999' FNL & 848' FWL--: LOCATION
PROV.                       CO: PROVINCE
CNTY.               Las Animas: COUNTRY
SRVC.          Patterson Wireline: SERVICE COMPANY
DATE.          Thu Dec 22 09:06:31 2005: LOG DATE
UWI.           05 071 08453 00: UNIQUE WELL ID
~Curve Information Block
DEPT.FT            0 000 00 00: Depth
CCL.                          : Casing Collar Locator
TT3.usec                      : CBL 3' Travel Time
AMP3.mV                       : CBL 3' Amplitude
GR.GAPI                       : Gamma Ray
~Parameter Information Block
~A  Depth       CCL         TT3         AMP3         GR     
# ...
   294.7500      0.0000    382.8976     11.7399     54.4121
   295.0000      0.0000    369.4354     11.7029     54.8811
   295.2500      0.0000    371.6549     11.6427     54.7328
   295.5000      0.0000    393.1928     11.5661     54.8872
   295.7500      0.0000    439.2457     11.4819     55.8340
   296.0000      0.0000    507.9525     11.3939     57.0936
   296.2500      0.0000    585.2192     11.3033     58.0000
   296.5000      0.0000    651.4407     11.2140     58.4384
   296.7500      0.0000    694.3689     11.1353     58.7546
   297.0000      0.0000    714.7485     11.0803     59.4055
   297.2500      0.0000    720.7703     11.0598     60.6814
   297.5000      0.0000    719.9245     11.0751     62.3275
   297.7500      0.0000    716.0092     11.1165     63.5710
   298.0000      0.0000    710.7495     11.1678     63.8335
   298.2500      0.0000    705.5825     11.2122     63.2697
   298.5000      0.0000    701.6694     11.2399     62.4710
   298.7500      0.0000    699.4011     11.2541     61.8917
   299.0000      0.0000    698.5983     11.2694     61.7369
   299.2500      0.0000    699.1757     11.2996     62.1191
   299.5000      0.0000    701.4210     11.3473     63.0164
   299.7500      0.0000    705.6267     11.4057     64.0924
   300.0000      0.0000    711.3893     11.4659     64.7404
   300.2500      0.0000    717.3495     11.5224     64.4138
   300.5000      0.0000    722.0028     11.5722     62.7797
   300.7500      0.0000    724.7985     11.6134     59.6582
   301.0000      0.0000    725.9186     11.6479     55.3130
   301.2500      0.0000    724.6903     11.6844     50.9616
   301.5000      0.0000    718.6152     11.7359     48.4698
   301.7500      0.0000    703.9674     11.8098     49.1303
   302.0000      0.0000    677.2142     11.9011     52.7360
   302.2500      0.0000    638.1729     11.9946     57.7399
   302.5000      0.0000    595.1655     12.0726     62.1932
   302.7500      0.0000    565.4895     12.1222     64.8505
   303.0000      0.0000    564.4601     12.1384     65.6758
   303.2500      0.0000    591.5401     12.1226     65.2634
   303.5000      0.0000    630.4088     12.0824     63.9113
   303.7500      0.0000    663.3621     12.0265     61.4954
   304.0000      0.0000    683.0919     11.9559     58.2359
   304.2500      0.0000    691.9912     11.8578     55.3595
   304.5000      0.0000    695.2506     11.7140     54.5942
   304.7500      0.0000    696.4186     11.5209     56.6019
   305.0000      0.0000    696.9481     11.3024     59.9009
   305.2500      0.0000    697.2229     11.1005     61.7501
   305.5000      0.0000    697.3469     10.9503     60.3594
   305.7500      0.0000    697.3869     10.8621     56.1986
   306.0000      0.0000    697.3632     10.8216     51.3448
   306.2500      0.0000    697.2786     10.7989     47.9878
   306.5000      0.0000    697.1811     10.7613     47.4475
   306.7500      0.0000    697.3354     10.6901     49.8581
   307.0000      0.0000    698.6079     10.5912     54.3394
   307.2500      0.0000    703.0377     10.4885     59.7487
   307.5000      0.0000    713.9299     10.4085     65.5462
   307.7500      0.0000    734.2842     10.3722     71.8509
   308.0000      0.0000    763.6179     10.3912     78.7618
   308.2500      0.0000    796.1274     10.4621     85.8506
   308.5000      0.0000    823.3231     10.5680     92.1752
   308.7500      0.0000    839.5485     10.6911     96.5287
   309.0000      0.0000    845.1067     10.8203     97.9602
   309.2500      0.0000    844.4728     10.9425     96.5938
   309.5000      0.0000    842.2229     11.0344     93.9465
   309.7500      0.0000    840.5491     11.0679     92.0005
   310.0000      0.0000    839.5006     11.0253     91.7283
   310.2500      0.0000    838.3053     10.9088     92.5796
   310.5000      0.0000    836.1429     10.7407     93.4132
   310.7500      0.0000    832.4186     10.5548     93.6251
   311.0000      0.0000    826.7919     10.3836     93.1697
   311.2500      0.0000    819.1254     10.2461     91.9438
   311.5000      0.0000    810.0551     10.1432     89.6616
   311.7500      0.0000    801.9927     10.0642     86.3690
   312.0000      0.0000    798.3909      9.9994     82.9708
   312.2500      0.0000    800.6964      9.9459     80.9052
   312.5000      0.0000    806.4468      9.9034     80.8863
   312.7500      0.0000    811.3289      9.8680     82.0597
   313.0000      0.0000    812.7438      9.8341     82.8531
   313.2500      0.0000    810.8832      9.8049     82.6208
   313.5000      0.0000    806.7645      9.7959     82.1085
   313.7500      0.0000    800.1461      9.8097     82.3359
   314.0000      0.0000    790.2687      9.7870     83.3678
   314.2500      0.0000    778.6263      9.5950     84.2532
   314.5000      0.0000    769.0286      9.1244     83.9121
   314.7500      0.0000    763.0208      8.4269     82.0765
   315.0000      0.0000    756.7478      7.7176     79.6451
   315.2500      0.0000    745.5001      7.2101     78.0820
   315.5000      0.0000    730.9559      6.9688     78.1635
   315.7500      2.0000    720.4523      6.9275     79.3339
   316.0000     -2.0000    718.2405      7.0083     80.4057
   316.2500      0.0000    720.4502      7.2149     80.7451
   316.5000      0.0000    720.2598      7.6429     80.7105
   316.7500      0.0000    716.0411      8.3839     81.0264
   317.0000      0.0000    712.4154      9.3658     81.7382
   317.2500      0.0000    713.7337     10.3040     81.8356
   317.5000      0.0000    718.6580     10.8891     80.1963
   317.7500      0.0000    722.6925     11.0299     76.8749
   318.0000      0.0000    724.2967     10.8717     73.0818
   318.2500      0.0000    725.8644     10.6231     69.9122
   318.5000      0.0000    729.3342     10.4249     67.4493
   318.7500      0.0000    733.1860     10.3355     65.0281
   319.0000      0.0000    733.9788     10.3469     62.1325
   319.2500      0.0000    729.7767     10.3958     59.0725
   319.5000      0.0000    722.1909     10.4003     56.8465
   319.7500      0.0000    715.6763     10.3144     56.2433
   320.0000      0.0000    714.7243     10.1521     57.0162
   320.2500      0.0000    721.1931      9.9647     57.9765
   320.5000      0.0000    733.3870      9.8014     58.0393
   320.7500      0.0000    746.6280      9.6875     57.3406
   321.0000      0.0000    754.9465      9.6279     57.2080
   321.2500      0.0000    754.1453      9.6176     58.7265
   321.5000      0.0000    745.0442      9.6493     61.3720
   321.7500      0.0000    733.5623      9.7157     63.3830
   322.0000      0.0000    726.2847      9.8035     63.5322
   322.2500      0.0000    725.4403      9.8859     62.3305
   322.5000      0.0000    728.4132      9.9285     61.3887
   322.7500      0.0000    731.7944      9.9179     61.6693
   323.0000      0.0000    734.7524      9.8823     62.5771
   323.2500      0.0000    738.0493      9.8748     62.7599
   323.5000      0.0000    741.0690      9.9348     61.3919
   323.7500      0.0000    741.3553     10.0651     58.4362
   324.0000      0.0000    737.1988     10.2374     54.2501
   324.2500      0.0000    730.0491     10.4133     49.6712
   324.5000      0.0000    724.0782     10.5652     46.2765
   324.7500      0.0000    722.9988     10.6834     45.7110
   325.0000      0.0000    726.6135     10.7689     48.3768
   325.2500      0.0000    730.4183     10.8222     52.9991
   325.5000      0.0000    729.4022     10.8405     57.6603
   325.7500      0.0000    722.5087     10.8223     61.2012
   326.0000      0.0000    713.0010     10.7740     63.5113
   326.2500      0.0000    704.9424     10.7122     64.6553
   326.5000      0.0000    700.2604     10.6576     64.2923
   326.7500      0.0000    698.8290     10.6218     62.2383
   327.0000      0.0000    699.8821     10.5952     59.1188
   327.2500      0.0000    702.6130     10.5546     55.9423
   327.5000      0.0000    705.9548     10.4901     53.2391
   327.7500      0.0000    708.6855     10.4247     50.9781
   328.0000      0.0000    710.0263     10.3994     49.1222
