~Version Information
VERS.                      2.0: CWLS Log ASCII Standard - VERSION 2.0
WRAP.                       NO: One line per depth step
~Well Information Block
STRT.FT               -16.0000: 
STOP.FT              2827.7500: 
STEP.FT                 0.2500: 
NULL.                -999.2500: 
COMP.          Pioneer Natural Resources: COMPANY
WELL.          Touchstone 11-32: WELL
FLD.           Purgatorie River: FIELD
LOC.           853' FNL & 407' FWL--: LOCATION
CNTY.               Las Animas: COUNTY
SRVC.          Patterson Wireline: SERVICE COMPANY
DATE.          Wed Mar 15 10:09:19 2006: LOG DATE
UWI.           05 071 08564 00: UNIQUE WELL ID
STAT.                       CO: STATE
~Curve Information Block
DEPT.FT            0 000 00 00: Depth
CCL.                          : Casing Collar Locator
TT3.usec                      : CBL 3' Travel Time
AMP3.mV                       : CBL 3' Amplitude
GR.GAPI                       : Gamma Ray
~Parameter Information Block
~A  Depth       CCL         TT3         AMP3         GR     
# ...
  1290.5000      0.0000    452.7061     13.8780    132.4036
  1290.7500      0.0000    445.0579     13.9361    133.6730
  1291.0000      0.0000    426.7681     13.9823    135.9262
  1291.2500      0.0000    407.9649     14.0139    136.7704
  1291.5000      0.0000    395.2200     14.0241    135.2712
  1291.7500      0.0000    388.9522     14.0019    132.6837
  1292.0000      0.0000    386.6162     13.9375    130.3865
  1292.2500      0.0000    385.9439     13.8330    128.2958
  1292.5000      0.0000    385.8053     13.7044    125.9059
  1292.7500      0.0000    385.8015     13.5708    123.8102
  1293.0000      0.0000    385.8665     13.4420    123.3210
  1293.2500      0.0000    386.1052     13.3182    125.0597
  1293.5000      0.0000    387.1110     13.2001    128.2915
  1293.7500      0.0000    390.8943     13.0968    131.3120
  1294.0000      0.0000    402.4073     13.0240    132.5225
  1294.2500      0.0000    429.9563     12.9963    131.7778
  1294.5000      0.0000    481.4087     13.0177    130.8094
  1294.7500      0.0000    556.2823     13.0779    131.7742
  1295.0000      0.0000    641.1467     13.1538    135.0506
  1295.2500      0.0000    716.0697     13.2183    138.5878
  1295.5000      0.0000    767.6073     13.2552    139.6138
  1295.7500      0.0000    795.2532     13.2703    136.9992
  1296.0000      0.0000    806.8473     13.2863    131.9792
  1296.2500      0.0000    810.6730     13.3237    126.8395
  1296.5000      0.0000    811.6734     13.3860    123.2412
  1296.7500      0.0000    811.8721     13.4621    121.6247
  1297.0000      0.0000    811.9011     13.5402    121.6262
  1297.2500      0.0000    811.9119     13.6163    122.7095
  1297.5000      0.0000    811.8418     13.6941    124.4238
  1297.7500      0.0000    811.1032     13.7773    126.1718
  1298.0000      0.0000    807.6935     13.8624    127.0149
  1298.2500      0.0000    796.7108     13.9372    126.1425
  1298.5000      0.0000    770.2529     13.9842    123.6092
  1298.7500      0.0000    721.8935     13.9863    120.3439
  1299.0000      0.0000    655.5813     13.9350    117.3186
  1299.2500      0.0000    590.1078     13.8391    114.9627
  1299.5000      0.0000    549.6233     13.7231    113.4706
  1299.7500      0.0000    546.2083     13.6118    113.2470
  1300.0000      0.0000    572.3335     13.5135    114.4634
  1300.2500      0.0000    609.7746     13.4188    116.2216
  1300.5000      0.0000    643.7283     13.3145    116.9110
  1300.7500      0.0000    670.6194     13.1956    115.7936
  1301.0000      0.0000    696.3336     13.0662    113.7960
  1301.2500      0.0000    726.8177     12.9352    112.3996
  1301.5000      0.0000    760.0652     12.8149    112.0470
  1301.7500      0.0000    788.3323     12.7248    111.7928
  1302.0000      0.0000    805.6258     12.6962    110.2463
  1302.2500      0.0000    809.5808     12.7602    106.7785
  1302.5000      0.0000    797.5289     12.9227    102.0179
  1302.7500      0.0000    764.2735     13.1576     97.3095
  1303.0000      0.0000    706.1851     13.4291     93.6981
  1303.2500      0.0000    629.1645     13.7091     91.2051
  1303.5000      0.0000    553.0411     13.9651     88.8323
  1303.7500      0.0000    504.5498     14.1464     85.4947
  1304.0000      0.0000    500.5855     14.1999     81.3275
  1304.2500      0.0000    535.0045     14.1017     77.9797
  1304.5000      0.0000    582.0793     13.8671     77.2277
  1304.7500      0.0000    616.4790     13.5326     79.3068
  1305.0000      0.0000    632.9962     13.1350     82.8318
  1305.2500      0.0000    646.8384     12.7017     86.2064
  1305.5000      0.0000    674.7150     12.2438     88.7127
  1305.7500      0.0000    717.4147     11.7646     90.3142
  1306.0000      0.0000    760.3901     11.2954     91.0611
  1306.2500      0.0000    788.1522     10.9033     91.0477
  1306.5000      0.0000    796.7938     10.6367     90.5387
  1306.7500      2.0000    794.2198     10.4873     89.8094
  1307.0000      0.0000    790.9421     10.4240     89.0554
  1307.2500      0.0000    792.5366     10.4342     88.5042
  1307.5000      0.0000    799.0275     10.5161     88.4804
  1307.7500      0.0000    806.5606     10.6691     89.4044
  1308.0000      0.0000    807.4724     10.9191     91.7046
  1308.2500      0.0000    792.3811     11.3346     95.4123
  1308.5000      0.0000    757.1227     11.9762     99.7608
  1308.7500      0.0000    709.4563     12.8041    103.4834
  1309.0000      0.0000    667.6032     13.6475    105.5779
  1309.2500      0.0000    649.9403     14.3027    105.7247
  1309.5000      0.0000    663.6863     14.6735    104.2575
  1309.7500      0.0000    700.9628     14.8084    102.0722
  1310.0000      0.0000    744.6312     14.8215    100.2983
  1310.2500      0.0000    779.1926     14.8050     99.6451
  1310.5000      0.0000    797.9135     14.8002    100.1324
  1310.7500      0.0000    801.2456     14.8128    101.5641
  1311.0000      0.0000    791.7413     14.8305    103.9867
  1311.2500      0.0000    773.1378     14.8368    107.4124
  1311.5000      0.0000    752.7015     14.8213    111.1850
  1311.7500      0.0000    739.3099     14.7869    113.9993
  1312.0000      0.0000    735.1465     14.7485    114.9849
  1312.2500      0.0000    731.5464     14.7244    114.6506
  1312.5000      0.0000    717.1852     14.7247    114.2857
  1312.7500      0.0000    691.1166     14.7454    114.5697
  1313.0000      0.0000    665.8222     14.7723    115.4845
  1313.2500      0.0000    657.0777     14.7891    117.3801
  1313.5000      0.0000    670.9580     14.7820    120.8771
  1313.7500      0.0000    698.4368     14.7399    125.3529
  1314.0000      0.0000    721.3422     14.6557    128.6360
  1314.2500      0.0000    726.4707     14.5266    128.9666
  1314.5000      0.0000    716.8584     14.3526    126.7968
  1314.7500      0.0000    708.1749     14.1359    124.1901
  1315.0000      0.0000    712.9182     13.8791    122.8342
  1315.2500      0.0000    729.7845     13.5742    123.1745
  1315.5000      0.0000    748.6765     13.1885    125.1367
  1315.7500      0.0000    762.1488     12.6652    128.6051
  1316.0000      0.0000    770.0601     11.9502    132.9029
  1316.2500      0.0000    776.9168     11.0323    136.8248
  1316.5000      0.0000    788.0416      9.9681    139.5993
  1316.7500      0.0000    806.9229      8.8658    140.8886
  1317.0000      0.0000    832.7048      7.8395    139.7919
  1317.2500      0.0000    859.2160      6.9722    135.2532
  1317.5000      0.0000    878.4125      6.3064    127.7387
  1317.7500      0.0000    886.3121      5.8500    119.2470
  1318.0000      0.0000    885.6235      5.5855    111.3482
  1318.2500      0.0000    883.0258      5.4832    104.1059
  1318.5000      0.0000    884.2962      5.5168     97.0820
  1318.7500      0.0000    889.9429      5.6800     90.5368
  1319.0000      0.0000    893.9524      5.9930     85.1491
  1319.2500      0.0000    888.7567      6.4901     81.0653
  1319.5000      0.0000    872.7576      7.1798     77.7757
  1319.7500      0.0000    851.5589      8.0076     74.8843
  1320.0000      0.0000    831.9142      8.8604     72.7565
  1320.2500      0.0000    816.3091      9.6133     72.2977
  1320.5000      0.0000    803.2717     10.1727     73.8378
  1320.7500      0.0000    791.0666     10.4890     76.0745
  1321.0000      0.0000    780.2846     10.5477     76.5498
  1321.2500      0.0000    772.9977     10.3591     73.6782
  1321.5000      0.0000    769.8589      9.9560     68.0776
  1321.7500      0.0000    769.0413      9.3986     61.7125
  1322.0000      0.0000    768.5953      8.7749     56.2451
  1322.2500      0.0000    768.8617      8.1937     52.4062
  1322.5000      0.0000    771.5123      7.7672     50.1426
  1322.7500      0.0000    776.8624      7.5814     48.8166
  1323.0000      0.0000    783.3187      7.6672     47.7875
  1323.2500      0.0000    789.0320      7.9976     47.3787
  1323.5000      0.0000    792.8092      8.5114     49.1226
  1323.7500      0.0000    793.5845      9.1392     54.8573
