~Version Information
VERS.                      2.0: CWLS Log ASCII Standard - VERSION 2.0
WRAP.                       NO: One line per depth step
~Well Information Block
STRT.FT               570.0000: 
STOP.FT              2090.5000: 
STEP.FT                 0.1000: 
NULL.                -999.2500: 
COMP.          XTO Energy Inc.: COMPANY
WELL.          Golden Eagle 19-10: WELL
FLD.           Purgatoire River: FIELD
LOC.           2684' FSL & 1825' FEL: LOCATION
CNTY.               Las Animas: COUNTY
SRVC.                Patterson: SERVICE COMPANY
DATE.          Mon Mar 06 07:05:15 2006: LOG DATE
UWI.           05 071 08697 00: UNIQUE WELL ID
STAT.                 Colorado: STATE
~Curve Information Block
DEPT.FT            0 000 00 00: Depth
DCAL.in                       : CDL Caliper
RHOB.g/cc                     : CDL Bulk Density
RHOC.g/cc                     : CDL Density Correction
DPOR.pu                       : CDL Density Porosity
GR.GAPI                       : Gamma Ray
NPOR.pu                       : Neutron Porosity
~Parameter Information Block
~A  Depth       DCAL        RHOB        RHOC        DPOR         GR         NPOR    
# ...
  1779.6000      7.7930      2.4964      0.0514      9.3074    120.1872     23.6846
  1779.7000      7.7930      2.4991      0.0627      9.1435    120.0640     23.8427
  1779.8000      7.7934      2.5025      0.0893      8.9388    132.6221     24.3295
  1779.9000      7.7934      2.4915      0.0830      9.6057    147.8896     25.2554
  1780.0000      7.7964      2.4719      0.0130     10.7945    158.4323     26.4262
  1780.1000      7.7964      2.4621      0.0200     11.3882    158.9905     26.8811
  1780.2000      7.7964      2.4637      0.0313     11.2923    149.7944     26.2707
  1780.3000      7.7999      2.4737      0.0312     10.6832    138.4204     25.6372
  1780.4000      7.7999      2.4915      0.0346      9.6038    127.4937     25.5089
  1780.5000      7.8012      2.5117      0.0389      8.3840    117.5313     24.9749
  1780.6000      7.8012      2.5314      0.0577      7.1894    113.0249     23.7176
  1780.7000      7.8012      2.5415      0.1026      6.5779    109.8517     22.7877
  1780.8000      7.8004      2.5312      0.0496      7.1973    100.3035     22.8998
  1780.9000      7.8004      2.5122      0.0116      8.3491     92.0825     23.3062
  1781.0000      7.7987      2.4970      0.0330      9.2737     92.8368     23.1469
  1781.1000      7.7987      2.4844      0.0214     10.0354     97.9593     22.9368
  1781.2000      7.7987      2.4839      0.0107     10.0661    100.6882     23.3409
  1781.3000      7.7975      2.5013      0.0377      9.0114     99.7198     24.0557
  1781.4000      7.7975      2.5167      0.0675      8.0793    100.3498     24.0282
  1781.5000      7.7991      2.5138      0.0676      8.2571    104.1519     22.8752
  1781.6000      7.7991      2.5041      0.0359      8.8449    107.8096     21.5916
  1781.7000      7.7991      2.5023      0.0389      8.9511    108.0295     21.4559
  1781.8000      7.8044      2.5060      0.0560      8.7251    102.9647     22.5512
  1781.9000      7.8044      2.5051      0.0638      8.7823     96.8871     23.3927
  1782.0000      7.8088      2.4961      0.0376      9.3295     98.8220     23.6620
  1782.1000      7.8088      2.4880      0.0065      9.8161    108.9712     24.3940
  1782.2000      7.8088      2.4881      0.0179      9.8129    115.9938     24.9587
  1782.3000      7.8070      2.4883      0.0191      9.7993    115.2369     23.9928
  1782.4000      7.8070      2.4775      0.0564     10.4559    111.4914     22.0706
  1782.5000      7.7945      2.4530      0.0499     11.9407    107.0862     20.6600
  1782.6000      7.7945      2.4279     -0.0077     13.4623    106.6144     19.8179
  1782.7000      7.7945      2.4266     -0.0128     13.5398    113.0624     18.9094
  1782.8000      7.7661      2.4599      0.0106     11.5206    119.0127     18.2559
  1782.9000      7.7661      2.5130      0.0300      8.3011    120.1817     18.0634
  1783.0000      7.7240      2.5691      0.0374      4.9003    121.2173     18.2340
  1783.1000      7.7240      2.6202      0.1409      1.8078    126.1004     19.0977
  1783.2000      7.7240      2.6478      0.1840      0.1333    135.6933     20.3586
  1783.3000      7.6927      2.6290      0.2046      1.2729    145.8317     21.2218
  1783.4000      7.6927      2.5668      0.1546      5.0421    149.9988     21.6424
  1783.5000      7.7124      2.4987      0.0951      9.1716    146.5988     21.7004
  1783.6000      7.7124      2.4619      0.0949     11.4008    140.6726     21.0635
  1783.7000      7.7124      2.4586      0.1000     11.6016    138.8496     20.2120
  1783.8000      7.7750      2.4698      0.0529     10.9220    141.8452     20.2254
  1783.9000      7.7750      2.4862      0.0496      9.9254    141.9889     21.6588
  1784.0000      7.8165      2.5048      0.1284      8.7986    136.1421     24.1082
  1784.1000      7.8165      2.5163      0.1351      8.1047    132.6841     26.0918
  1784.2000      7.8165      2.5162      0.1409      8.1066    137.9570     26.6396
  1784.3000      7.8210      2.5097      0.1122      8.5002    148.8893     26.5789
  1784.4000      7.8210      2.5045      0.1154      8.8184    159.3861     26.9361
  1784.5000      7.8119      2.5070      0.1010      8.6647    164.5242     27.5468
  1784.6000      7.8119      2.5161      0.1131      8.1138    164.4573     27.8362
  1784.7000      7.8119      2.5246      0.0768      7.5989    164.1422     27.6025
  1784.8000      7.8096      2.5295      0.0942      7.3045    163.7103     26.9369
  1784.9000      7.8096      2.5322      0.1237      7.1385    162.1460     26.4931
  1785.0000      7.8173      2.5359      0.1231      6.9152    165.1232     26.7529
  1785.1000      7.8173      2.5434      0.1314      6.4587    172.5335     27.4910
  1785.2000      7.8173      2.5511      0.1300      5.9946    175.0626     28.3569
  1785.3000      7.8222      2.5511      0.0751      5.9961    169.4665     28.7919
  1785.4000      7.8222      2.5447      0.0600      6.3790    162.9975     28.4795
  1785.5000      7.8255      2.5393      0.0960      6.7093    160.3488     27.8112
  1785.6000      7.8255      2.5326      0.0861      7.1157    158.0682     27.4351
  1785.7000      7.8255      2.5173      0.0923      8.0433    154.2992     27.7265
  1785.8000      7.8338      2.4971      0.0205      9.2675    149.7933     28.6570
  1785.9000      7.8338      2.4794      0.0604     10.3395    149.5024     29.3437
  1786.0000      7.8403      2.4668      0.0102     11.1018    159.5434     28.9658
  1786.1000      7.8403      2.4634      0.0259     11.3103    174.2989     28.4974
  1786.2000      7.8403      2.4613      0.0367     11.4373    179.2189     28.9082
  1786.3000      7.8404      2.4470      0.0707     12.3042    171.8691     29.5625
  1786.4000      7.8404      2.4282      0.0317     13.4411    165.5777     29.6416
  1786.5000      7.8395      2.4218      0.0392     13.8324    166.3561     29.3190
  1786.6000      7.8395      2.4235      0.0811     13.7276    169.4274     29.1382
  1786.7000      7.8395      2.4213      0.0788     13.8611    173.4666     29.1961
  1786.8000      7.8302      2.4183      0.0454     14.0421    174.1397     29.2911
  1786.9000      7.8302      2.4155      0.0555     14.2136    169.0939     29.0416
  1787.0000      7.8090      2.3918      0.0904     15.6500    164.7093     28.1725
  1787.1000      7.8090      2.3224      0.0805     19.8548    160.2093     27.5482
  1787.2000      7.8090      2.2156      0.0098     26.3300    152.8746     28.3351
  1787.3000      7.8033      2.1086      0.0218     32.8104    146.6464     29.9940
  1787.4000      7.8033      2.0224     -0.0404     38.0342    141.4737     31.2087
  1787.5000      7.8324      1.9534     -0.0470     42.2201    134.3494     31.6254
  1787.6000      7.8324      1.9027     -0.0735     45.2929    124.6859     31.4794
  1787.7000      7.8324      1.8850     -0.0638     46.3654    114.5018     31.3058
  1787.8000      7.8796      1.8987      0.0440     45.5363    107.0664     31.6269
  1787.9000      7.8796      1.9193      0.0967     44.2827    101.1379     32.0059
  1788.0000      7.8706      1.9364      0.0941     43.2513     96.2840     32.3256
  1788.1000      7.8706      1.9530      0.1528     42.2395    101.2401     32.9183
  1788.2000      7.8706      1.9674      0.1650     41.3727    119.7307     33.5024
  1788.3000      7.7883      1.9820      0.1222     40.4828    137.9092     33.7018
  1788.4000      7.7883      2.0039      0.1048     39.1579    143.2376     33.7072
  1788.5000      7.7499      2.0224      0.1292     38.0371    139.7999     33.6394
  1788.6000      7.7499      2.0125      0.1069     38.6371    134.2849     33.0818
  1788.7000      7.7499      1.9628      0.0665     41.6493    128.0008     32.0219
  1788.8000      7.7839      1.8874      0.0175     46.2169    120.0977     31.4257
  1788.9000      7.7839      1.8057      0.0148     51.1716    108.1898     31.8222
  1789.0000      7.8202      1.7214     -0.0184     56.2782     95.4065     32.6255
  1789.1000      7.8202      1.6353     -0.0800     61.4960     84.8920     32.8119
