~Version Information
VERS.                      2.0: CWLS Log ASCII Standard - VERSION 2.0
WRAP.                       NO: One line per depth step
~Well Information Block
STRT.FT               264.2500: 
STOP.FT              1134.7500: 
STEP.FT                 0.2500: 
NULL.                -999.2500: 
COMP.          Pioneer Natural Resources: COMPANY
WELL.          Black Cat 13-32 Tr: WELL
FLD.           Purgatoire River: FIELD
LOC.           1679' FSL & 1150' FWL--: LOCATION
CNTY.               Las Animas: COUNTY
SRVC.                Patterson: SERVICE COMPANY
DATE.          Tue Mar 07 10:58:06 2006: LOG DATE
UWI.           05 071 08721 00: UNIQUE WELL ID
STAT.                 Colorado: STATE
~Curve Information Block
DEPT.FT            0 000 00 00: Depth
SN.Ohm-m                      : IEL Short Normal
SP.mV                         : IEL Spontaneous Potential
DIR.Ohm-m                     : IEL Induction Resistivity
GR.GAPI                       : Gamma Ray
~Parameter Information Block
~A  Depth        SN          SP         DIR          GR     
# ...
   833.7500    596.4615   -496.6910     27.6352    113.3775
   834.0000    596.4615   -495.8347     27.9259    112.5604
   834.2500    596.4615   -494.8878     28.3031    111.3004
   834.5000    596.4615   -493.9339     28.7939    108.6001
   834.7500    596.4615   -493.0639     29.3859    106.6925
   835.0000    596.4615   -492.3641     30.0274    104.6682
   835.2500    596.4615   -491.9034     30.6524    104.2636
   835.5000    596.4615   -491.7253     31.2159    104.8269
   835.7500    596.4615   -491.8435     31.7179    105.3567
   836.0000    596.4615   -492.2415     32.2029    105.2854
   836.2500    596.4615   -492.8759     32.7412    104.4478
   836.5000    596.4615   -493.6835     33.4099    102.4112
   836.7500    596.4615   -494.5907     34.2757    100.8587
   837.0000    596.4615   -495.5259     35.3782     98.4578
   837.2500    596.4615   -496.4316     36.7112     96.8199
   837.5000    596.4615   -497.2719     38.2102     94.4561
   837.7500    596.4615   -498.0352     39.7569     93.1064
   838.0000    596.4615   -498.7292     41.2068     91.6283
   838.2500    596.4615   -499.3707     42.4308     90.9924
   838.5000    596.4615   -499.9751     43.3555     90.3118
   838.7500    596.4615   -500.5493     43.9867     89.8558
   839.0000    596.4615   -501.0889     44.4044     89.0522
   839.2500    596.4615   -501.5814     44.7258     88.5354
   839.5000    596.4615   -502.0097     45.0559     87.8829
   839.7500    596.4615   -502.3566     45.4502     87.1936
   840.0000    596.4615   -502.6075     45.9056     84.5490
   840.2500    596.4615   -502.7514     46.3645     81.2619
   840.5000    596.4615   -502.7828     46.7194     74.8911
   840.7500    596.4615   -502.7036     46.8301     70.8770
   841.0000    596.4615   -502.5244     46.5677     66.8908
   841.2500    596.4615   -502.2662     45.8762     65.9411
   841.5000    596.4615   -501.9584     44.8068     67.0891
   841.7500    596.4615   -501.6362     43.4955     69.5232
   842.0000    596.4615   -501.3359     42.0954     75.3761
   842.2500    596.4615   -501.0907     40.7052     80.3295
   842.5000    596.4615   -500.9279     39.3315     88.4229
   842.7500    596.4615   -500.8663     37.9097     93.6558
   843.0000    596.4615   -500.9151     36.3690     99.8911
   843.2500    596.4615   -501.0725     34.6951    102.1174
   843.5000    596.4615   -501.3250     32.9402    102.1820
   843.7500    596.4615   -501.6465     31.1810    100.9453
   844.0000    596.4615   -501.9997     29.4725     99.7349
   844.2500    596.4615   -502.3404     27.8364    100.3179
   844.5000    596.4615   -502.6232     26.2794    103.0539
   844.7500    596.4615   -502.8108     24.8146    105.4296
   845.0000    596.4615   -502.8819     23.4696    108.9691
   845.2500    596.4615   -502.8361     22.2779    111.1766
   845.5000    596.4615   -502.6942     21.2669    114.3379
   845.7500    596.4615   -502.4928     20.4487    116.4361
   846.0000    596.4615   -502.2742     19.8169    119.5812
   846.2500    596.4615   -502.0762     19.3452    121.5678
   846.5000    596.4615   -501.9236     18.9885    124.2668
   846.7500    596.4615   -501.8245     18.6904    125.9636
   847.0000    596.4615   -501.7719     18.3986    128.4533
   847.2500    596.4615   -501.7487     18.0822    129.8523
   847.5000    596.4615   -501.7329     17.7416    130.8533
   847.7500    596.4615   -501.7026     17.4002    130.6074
   848.0000    596.4615   -501.6372     17.0856    129.3935
   848.2500    596.4615   -501.5187     16.8126    128.5298
   848.5000    596.4615   -501.3319     16.5779    127.5325
   848.7500    596.4615   -501.0647     16.3650    126.9149
   849.0000    596.4615   -500.7094     16.1548    125.7411
   849.2500    596.4615   -500.2622     15.9357    124.8410
   849.5000    596.4615   -499.7232     15.7105    123.6338
   849.7500    596.4615   -499.0945     15.4955    122.9505
   850.0000    596.4615   -498.3784     15.3150    121.7144
   850.2500    596.4615   -497.5781     15.1935    120.4708
   850.5000    596.4615   -496.6976     15.1483    117.7636
   850.7500    596.4615   -495.7450     15.1859    115.4840
   851.0000    596.4615   -494.7337     15.3007    112.0008
   851.2500    596.4615   -493.6845     15.4796    110.2840
   851.5000    596.4615   -492.6238     15.7096    109.4550
   851.7500    596.4615   -491.5815     15.9849    109.9408
   852.0000    596.4615   -490.5861     16.3096    111.1368
   852.2500    596.4615   -489.6593     16.6937    111.6845
   852.5000    596.4615   -488.8091     17.1466    112.1119
   852.7500    596.4615   -488.0234     17.6707    112.5794
   853.0000    596.4615   -487.2659     18.2586    114.2060
   853.2500    596.4615   -486.4737     18.8957    115.7480
   853.5000    596.4615   -485.5600     19.5676    117.4862
   853.7500    596.4615   -484.4188     20.2682    117.4881
   854.0000    596.4615   -482.9347     21.0027    115.5665
   854.2500    596.4615   -480.9836     21.7798    113.6521
   854.5000    596.4615   -478.4435     22.6016    111.2280
   854.7500    596.4615   -475.2021     23.4567    110.3087
   855.0000    596.4615   -471.1656     24.3253    109.6651
   855.2500    596.4615   -466.2780     25.1957    109.1417
   855.5000    596.4615   -460.5472     26.0805    107.1790
   855.7500    596.4615   -454.0807     27.0183    104.9353
   856.0000    596.4615   -447.1240     28.0554    101.1202
   856.2500    596.4615   -440.0871     29.2210     99.1726
   856.5000    596.4615   -433.5442     30.5126     97.8885
   856.7500    596.4615   -428.1880     31.9050     97.7210
   857.0000    596.4615   -424.7312     33.3706     97.0852
   857.2500    596.4615   -423.7711     34.8957     95.8751
   857.5000    596.4615   -425.6461     36.4760     93.1105
   857.7500    596.4615   -430.3319     38.1029     91.1679
   858.0000    596.4615   -437.4156     39.7540     88.7744
   858.2500    596.4615   -446.1640     41.3956     87.5077
   858.5000    596.4615   -455.6708     42.9950     85.6386
   858.7500    596.4615   -465.0370     44.5368     84.2038
   859.0000    596.4615   -473.5321     46.0321     81.7303
   859.2500    596.4615   -480.6935     47.5111     79.9626
   859.5000    596.4615   -486.3473     48.9957     77.5044
   859.7500    596.4615   -490.5638     50.4676     76.4213
   860.0000    596.4615   -493.5726     51.8485     76.4328
   860.2500    596.4615   -495.6710     53.0097     77.5850
   860.5000    596.4615   -497.1521     53.8194     79.8810
   860.7500    596.4615   -498.2584     54.2125     80.6907
   861.0000    596.4615   -499.1629     54.2396     79.4943
   861.2500    596.4615   -499.9706     54.0410     77.0823
   861.5000    596.4615   -500.7309     53.7563     72.1767
   861.7500    596.4615   -501.4529     53.4445     69.0675
   862.0000    596.4615   -502.1213     53.0690     66.4962
   862.2500    596.4615   -502.7085     52.5428     66.8991
   862.5000    596.4557   -503.1885     51.7875     70.3290
   862.7500    596.4238   -503.5382     50.7645     73.2675
   863.0000    596.2698   -503.7439     49.4707     76.0705
   863.2500    595.7036   -503.8054     47.9061     76.1381
   863.5000    594.1268   -503.7363     46.0459     74.4341
   863.7500    590.8608   -503.5648     43.8433     73.3532
   864.0000    585.9980   -503.3310     41.2817     73.7075
   864.2500    581.2373   -503.0796     38.4371     75.8322
   864.5000    579.2102   -502.8481     35.4796     81.9242
   864.7500    581.2373   -502.6514     32.6018     87.4272
   865.0000    585.9980   -502.4645     29.9369     96.1852
   865.2500    590.8608   -502.2140     27.5302    101.3740
   865.5000    594.1268   -501.7769     25.3696    107.5554
   865.7500    595.7036   -500.9870     23.4314    110.9808
   866.0000    596.2698   -499.6575     21.7083    116.0489
   866.2500    596.4238   -497.6104     20.2068    119.5169
   866.5000    596.4557   -494.7089     18.9325    124.0307
   866.7500    596.4615   -490.8927     17.8792    125.9202
   867.0000    596.4615   -486.2093     17.0278    126.7496
