~Version Information
VERS.                      2.0: CWLS Log ASCII Standard - VERSION 2.0
WRAP.                       NO: One line per depth step
~Well Information Block
STRT.FT               452.0000: 
STOP.FT              1726.5000: 
STEP.FT                 0.1000: 
NULL.                -999.2500: 
COMP.          Pioneer Natural Resources: COMPANY
WELL.          Parrothead 31-31 Tr: WELL
FLD.           Purgatoire River: FIELD
LOC.           496' FNL & 1546' FEL: LOCATION
PROV.                 Colorado: PROVINCE
CNTY.               Las Animas: COUNTRY
SRVC.                Patterson: SERVICE COMPANY
DATE.          Thu Nov 10 07:29:36 2005: LOG DATE
UWI.           05 071 08610 00: UNIQUE WELL ID
~Curve Information Block
DEPT.FT            0 000 00 00: Depth
DCAL.in                       : CDL Caliper
RHOB.g/cc                     : CDL Bulk Density
RHOC.g/cc                     : CDL Density Correction
DPOR.pu                       : CDL Density Porosity
GR.GAPI                       : Gamma Ray
NPOR.pu                       : Neutron Porosity
~Parameter Information Block
~A  Depth       DCAL        RHOB        RHOC        DPOR         GR         NPOR    
# ...
   615.2000      8.0327      2.6114      0.0553      2.3405    137.0635     27.7710
   615.3000      8.0004      2.5785     -0.0343      4.3333    141.5363     26.9379
   615.4000      8.0004      2.5602      0.0126      5.4411    142.9529     26.2990
   615.5000      8.0266      2.5627     -0.0355      5.2929    135.7014     26.2257
   615.6000      8.0266      2.5803     -0.0169      4.2253    122.2610     26.4638
   615.7000      8.0266      2.5947      0.0038      3.3509    113.7868     26.5786
   615.8000      8.0368      2.5895      0.0086      3.6667    114.7974     26.3859
   615.9000      8.0368      2.5774      0.0358      4.4005    118.1936     26.0353
   616.0000      8.0385      2.5799      0.0224      4.2462    117.3655     25.9788
   616.1000      8.0385      2.5988      0.0640      3.1038    114.1604     26.5110
   616.2000      8.0385      2.6164      0.1002      2.0367    113.0225     27.3736
   616.3000      8.0301      2.6162      0.0849      2.0502    114.8974     27.9536
   616.4000      8.0301      2.5997      0.0089      3.0472    120.7652     27.8452
   616.5000      8.0444      2.5854      0.0024      3.9152    129.9174     27.2484
   616.6000      8.0444      2.5853     -0.0052      3.9194    136.0813     26.5741
   616.7000      8.0444      2.5932      0.0519      3.4438    135.3704     26.2617
   616.8000      8.0389      2.5995      0.0632      3.0606    130.3889     26.4474
   616.9000      8.0389      2.6026      0.0366      2.8737    122.5536     26.5365
   617.0000      8.0307      2.6000      0.0128      3.0326    115.2662     26.1066
   617.1000      8.0307      2.5864     -0.0145      3.8533    113.8897     25.6934
   617.2000      8.0307      2.5536      0.0499      5.8421    116.0493     25.6126
   617.3000      8.0302      2.5051     -0.0139      8.7843    118.1862     25.4578
   617.4000      8.0302      2.4720     -0.0647     10.7897    124.1363     25.2580
   617.5000      8.0164      2.4721      0.0211     10.7819    133.5627     25.3621
   617.6000      8.0164      2.4845      0.0166     10.0327    138.1950     25.5967
   617.7000      8.0164      2.4935      0.0048      9.4830    134.5056     25.8122
   617.8000      8.0111      2.5061      0.0250      8.7189    127.6780     26.1853
   617.9000      8.0111      2.5242      0.0125      7.6235    126.0263     26.6912
   618.0000      7.9994      2.5382      0.0346      6.7786    130.6910     27.1365
   618.1000      7.9994      2.5430      0.0361      6.4852    133.0903     27.2579
   618.2000      7.9994      2.5471      0.0262      6.2387    128.1934     27.2509
   618.3000      7.9961      2.5620      0.0458      5.3332    121.5559     27.4469
   618.4000      7.9961      2.5894      0.0298      3.6732    118.2305     27.2782
   618.5000      7.9840      2.6270      0.0317      1.3937    119.4601     26.4291
   618.6000      7.9840      2.6681      0.0900     -1.0945    125.2127     25.6338
   618.7000      7.9840      2.6865      0.1295     -2.2094    129.0230     25.5050
   618.8000      7.9861      2.6608      0.1318     -0.6544    125.5959     25.9069
   618.9000      7.9861      2.6105      0.0481      2.3918    120.7035     26.1863
   619.0000      7.9736      2.5811     -0.0288      4.1783    120.1484     26.1125
   619.1000      7.9736      2.5845      0.0586      3.9705    123.8213     25.6764
   619.2000      7.9736      2.5881      0.0417      3.7510    129.4334     24.9332
   619.3000      7.9757      2.5747      0.0110      4.5663    132.0119     24.2350
   619.4000      7.9757      2.5573     -0.0010      5.6177    128.9792     23.5234
   619.5000      7.9842      2.5410      0.0430      6.6065    124.8894     22.6915
   619.6000      7.9842      2.5157     -0.0191      8.1388    125.7513     22.1976
   619.7000      7.9842      2.4841     -0.0183     10.0532    130.6409     22.2446
   619.8000      8.0360      2.4660     -0.0457     11.1541    133.1869     22.2405
   619.9000      8.0360      2.4778      0.0082     10.4369    133.6467     21.9768
   620.0000      8.0680      2.5176     -0.0001      8.0261    135.3545     22.3894
   620.1000      8.0680      2.5685      0.0396      4.9374    135.1883     23.7926
   620.2000      8.0680      2.6083      0.0805      2.5289    131.0543     25.3136
   620.3000      8.0680      2.6236      0.0707      1.6019    126.5597     26.2519
   620.4000      8.0680      2.6163      0.0808      2.0398    123.1466     26.4377
   620.5000      8.0525      2.5935      0.0488      3.4246    119.4275     26.0530
   620.6000      8.0525      2.5605      0.0465      5.4256    117.5564     25.6573
   620.7000      8.0525      2.5264      0.0073      7.4902    121.6355     25.5213
   620.8000      8.0295      2.5073     -0.0065      8.6456    128.3634     25.4713
   620.9000      8.0295      2.5155     -0.0088      8.1515    127.8789     25.4374
   621.0000      8.0512      2.5491      0.0519      6.1126    119.1685     25.3080
   621.1000      8.0512      2.5842      0.0328      3.9894    109.8725     25.3026
   621.2000      8.0512      2.5912      0.0971      3.5628    106.9933     25.8804
   621.3000      8.0511      2.5707      0.0097      4.8085    111.0824     26.6478
   621.4000      8.0511      2.5525      0.0273      5.9067    114.4981     26.6029
   621.5000      8.0296      2.5595     -0.0240      5.4839    113.2404     25.7391
   621.6000      8.0296      2.5814      0.0938      4.1590    110.1659     25.0430
   621.7000      8.0296      2.5909      0.0562      3.5807    110.1338     24.6277
   621.8000      8.0131      2.5890      0.0779      3.6957    110.6844     23.8140
   621.9000      8.0131      2.5987      0.0369      3.1093    105.1099     22.9018
   622.0000      8.0022      2.6209      0.1065      1.7629     94.8738     22.6764
   622.1000      8.0022      2.6229      0.1432      1.6453     86.5550     22.7027
   622.2000      8.0022      2.5863      0.0705      3.8578     83.2881     22.1109
   622.3000      7.9582      2.5416      0.0469      6.5719     81.7557     21.1747
   622.4000      7.9582      2.5226      0.0029      7.7195     79.4747     20.8937
   622.5000      7.9430      2.5304      0.0278      7.2473     79.6967     21.2597
   622.6000      7.9430      2.5476      0.0772      6.2079     83.5624     21.1635
   622.7000      7.9430      2.5584      0.0460      5.5504     88.1366     20.3774
   622.8000      7.9428      2.5547      0.0802      5.7728     91.9950     19.6926
   622.9000      7.9428      2.5389      0.0208      6.7342     96.1707     19.6911
   623.0000      7.9725      2.5318      0.0009      7.1648    101.9170     20.3664
   623.1000      7.9725      2.5511      0.0362      5.9928    107.5233     21.1358
   623.2000      7.9725      2.5852      0.0886      3.9292    109.8321     21.4545
   623.3000      7.9846      2.6118      0.0775      2.3146    109.1359     21.5450
   623.4000      7.9846      2.6206      0.1292      1.7806    110.4658     21.9780
   623.5000      7.9611      2.6126      0.1306      2.2672    115.6889     23.0207
   623.6000      7.9611      2.5970      0.1121      3.2150    118.9595     24.2680
   623.7000      7.9611      2.5822      0.0664      4.1066    118.3072     24.9681
   623.8000      7.9496      2.5700      0.0655      4.8481    120.0781     24.9421
   623.9000      7.9496      2.5591      0.0066      5.5107    126.6834     24.5037
   624.0000      7.9828      2.5540      0.0237      5.8164    132.2186     24.1582
   624.1000      7.9828      2.5551      0.0373      5.7524    132.1870     24.3840
   624.2000      7.9828      2.5564      0.0529      5.6715    129.4339     24.9659
   624.3000      8.0005      2.5560      0.0293      5.6948    130.3777     25.3328
   624.4000      8.0005      2.5538      0.0106      5.8321    136.3188     25.5956
   624.5000      8.0159      2.5459      0.0479      6.3096    139.6849     26.1660
   624.6000      8.0159      2.5263      0.0254      7.4941    134.5190     26.8548
   624.7000      8.0159      2.5012      0.0217      9.0184    125.7981     27.1440
