~Version Information
VERS.                      2.0: CWLS Log ASCII Standard - VERSION 2.0
WRAP.                       NO: One line per depth step
~Well Information Block
STRT.FT               400.0000: 
STOP.FT              1804.7000: 
STEP.FT                 0.1000: 
NULL.                -999.2500: 
COMP.          Pioneer Natural Resources: COMPANY
WELL.           Lynch 43-30 Tr: WELL
FLD.           Purgatoire River: FIELD
LOC.           1431' FSL & 296' FEL--: LOCATION
PROV.                 Colorado: PROVINCE
CNTY.               Las Animas: COUNTRY
SRVC.                Patterson: SERVICE COMPANY
DATE.          Thu Jul 28 10:43:37 2005: LOG DATE
UWI.           05 071 08447 00: UNIQUE WELL ID
~Curve Information Block
DEPT.FT            0 000 00 00: Depth
DCAL.in                       : CDL Caliper
RHOB.g/cc                     : CDL Bulk Density
RHOC.g/cc                     : CDL Density Correction
DPOR.pu                       : CDL Density Porosity
NPOR.pu                       : Neutron Porosity
GR.GAPI                       : Gamma Ray
~Parameter Information Block
~A  Depth       DCAL        RHOB        RHOC        DPOR        NPOR         GR     
# ...
  1129.6000      8.0395      2.5476      0.0963      6.2049     20.8758    121.5873
  1129.7000      8.0395      2.5628      0.0973      5.2857     20.9154    124.5709
  1129.8000      8.0430      2.5610      0.0739      5.3925     20.4339    125.3764
  1129.9000      8.0430      2.5598      0.0660      5.4655     19.8906    126.0222
  1130.0000      8.0472      2.5617      0.0789      5.3526     19.6713    126.2995
  1130.1000      8.0472      2.5600      0.0511      5.4540     19.3962    124.0258
  1130.2000      8.0472      2.5569      0.0605      5.6433     18.5499    119.1586
  1130.3000      8.0493      2.5537      0.0449      5.8362     17.6576    111.7883
  1130.4000      8.0493      2.5477      0.0533      6.1971     17.3179    103.9646
  1130.5000      8.0469      2.5395      0.0333      6.6981     17.4545     97.2086
  1130.6000      8.0469      2.5341      0.0393      7.0231     17.7183     91.6943
  1130.7000      8.0469      2.5340      0.0350      7.0274     17.6501     88.9683
  1130.8000      8.0401      2.5389      0.0348      6.7350     17.1856     86.9698
  1130.9000      8.0401      2.5447      0.0433      6.3841     16.8948     82.8568
  1131.0000      8.0335      2.5461      0.0444      6.2971     17.2421     77.7908
  1131.1000      8.0335      2.5525      0.0245      5.9098     18.0340     72.1450
  1131.2000      8.0335      2.5798      0.0434      4.2543     18.9515     66.8072
  1131.3000      8.0309      2.6237      0.0622      1.5911     20.0380     64.6536
  1131.4000      8.0309      2.6653      0.0710     -0.9284     21.2432     65.5699
  1131.5000      8.0322      2.6883      0.0867     -2.3196     22.2922     66.6634
  1131.6000      8.0322      2.6904      0.0692     -2.4509     23.1824     66.5020
  1131.7000      8.0322      2.6912      0.0514     -2.4961     24.3344     64.7358
  1131.8000      8.0347      2.7070      0.0649     -3.4553     25.6967     61.4071
  1131.9000      8.0347      2.7281      0.0704     -4.7315     26.8313     58.2606
  1132.0000      8.0361      2.7336      0.0716     -5.0653     27.6286     56.9828
  1132.1000      8.0361      2.7144      0.0623     -3.9044     27.8323     57.6798
  1132.2000      8.0361      2.6831      0.0283     -2.0084     27.3793     58.5656
  1132.3000      8.0340      2.6600      0.0319     -0.6050     26.6654     58.9590
  1132.4000      8.0340      2.6483      0.0248      0.1018     25.8092     59.9921
  1132.5000      8.0282      2.6373      0.0356      0.7726     24.6205     61.2927
  1132.6000      8.0282      2.6189      0.0221      1.8820     23.1803     61.7854
  1132.7000      8.0282      2.5975      0.0234      3.1790     21.7869     62.3116
  1132.8000      8.0244      2.5811      0.0137      4.1782     20.5943     64.4787
  1132.9000      8.0244      2.5677      0.0321      4.9852     19.4504     68.0047
  1133.0000      8.0188      2.5489      0.0250      6.1266     18.3311     70.7147
  1133.1000      8.0188      2.5288      0.0138      7.3476     17.5311     69.3954
  1133.2000      8.0188      2.5204      0.0211      7.8550     17.1282     63.8783
  1133.3000      8.0035      2.5256      0.0266      7.5373     16.8765     58.8618
  1133.4000      8.0035      2.5345      0.0427      7.0008     16.4805     57.0215
  1133.5000      7.9862      2.5383      0.0400      6.7700     16.0408     57.4812
  1133.6000      7.9862      2.5384      0.0414      6.7617     16.0135     58.2214
  1133.7000      7.9862      2.5379      0.0454      6.7948     16.3449     57.2002
  1133.8000      7.9767      2.5356      0.0491      6.9357     16.5622     55.3384
  1133.9000      7.9767      2.5365      0.0371      6.8784     16.5191     54.1887
  1134.0000      7.9725      2.5490      0.0461      6.1186     16.3476     52.9058
  1134.1000      7.9725      2.5652      0.0680      5.1364     16.3352     51.2249
  1134.2000      7.9725      2.5703      0.0570      4.8302     16.8903     49.6918
  1134.3000      7.9702      2.5650      0.0585      5.1545     17.9689     49.3379
  1134.4000      7.9702      2.5602      0.0494      5.4454     18.7767     50.3934
  1134.5000      7.9690      2.5632      0.0508      5.2590     18.9224     50.4949
  1134.6000      7.9690      2.5673      0.0654      5.0111     18.9883     48.0030
  1134.7000      7.9690      2.5591      0.0585      5.5121     19.2724     45.7666
  1134.8000      7.9677      2.5429      0.0433      6.4883     19.5689     47.4486
  1134.9000      7.9677      2.5398      0.0335      6.6759     19.9143     52.0166
  1135.0000      7.9670      2.5567      0.0549      5.6561     20.1360     55.4580
  1135.1000      7.9670      2.5746      0.0647      4.5717     19.8227     56.6893
  1135.2000      7.9670      2.5745      0.0676      4.5784     19.4006     56.2931
  1135.3000      7.9670      2.5604      0.0430      5.4295     19.4759     55.0328
  1135.4000      7.9670      2.5495      0.0524      6.0888     20.1296     54.9161
  1135.5000      7.9680      2.5518      0.0376      5.9502     21.1268     56.8131
  1135.6000      7.9680      2.5661      0.0587      5.0863     21.9545     61.2406
  1135.7000      7.9680      2.5819      0.0597      4.1245     22.3322     66.5293
  1135.8000      7.9703      2.5931      0.0610      3.4480     22.3795     68.1228
  1135.9000      7.9703      2.6008      0.0633      2.9829     22.4375     66.0359
  1136.0000      7.9737      2.6018      0.0675      2.9184     22.8676     62.9075
  1136.1000      7.9737      2.5872      0.0706      3.8063     23.3951     60.3914
  1136.2000      7.9737      2.5571      0.0477      5.6332     23.7747     61.1212
  1136.3000      7.9766      2.5279      0.0404      7.4010     24.2919     65.0660
  1136.4000      7.9766      2.5147      0.0362      8.2025     24.7396     68.5040
  1136.5000      7.9767      2.5161      0.0541      8.1138     24.7575     71.5936
  1136.6000      7.9767      2.5232      0.0587      7.6845     24.6731     79.2387
  1136.7000      7.9767      2.5361      0.0627      6.9037     24.8181     91.9565
  1136.8000      7.9739      2.5550      0.0868      5.7576     25.1643    102.7127
  1136.9000      7.9739      2.5628      0.1106      5.2853     25.7287    106.5417
  1137.0000      7.9712      2.5447      0.1060      6.3841     26.1374    107.5394
  1137.1000      7.9712      2.5147      0.0838      8.1976     26.0200    111.7182
  1137.2000      7.9712      2.4944      0.0989      9.4301     25.8621    117.8587
  1137.3000      7.9752      2.4840      0.1063     10.0625     25.9666    119.6925
  1137.4000      7.9752      2.4840      0.0917     10.0636     26.0190    116.3913
  1137.5000      7.9959      2.5055      0.1089      8.7569     26.0111    112.8820
  1137.6000      7.9959      2.5444      0.1325      6.4025     26.0103    112.8542
  1137.7000      7.9959      2.5828      0.1443      4.0737     25.8739    116.0053
  1137.8000      8.0341      2.6121      0.1448      2.2945     25.7050    119.3441
  1137.9000      8.0341      2.6289      0.1580      1.2789     25.7982    120.8560
  1138.0000      8.0656      2.6272      0.1515      1.3788     25.8640    121.9850
  1138.1000      8.0656      2.6137      0.1267      2.2021     25.4881    124.1407
  1138.2000      8.0656      2.6028      0.1244      2.8603     25.2895    124.2780
  1138.3000      8.0784      2.5956      0.1229      3.2956     25.5600    121.8816
  1138.4000      8.0784      2.5880      0.1085      3.7593     25.6105    122.8939
  1138.5000      8.0811      2.5869      0.0954      3.8241     25.4482    129.5610
  1138.6000      8.0811      2.5957      0.1063      3.2917     25.6599    133.9651
  1138.7000      8.0811      2.6001      0.1065      3.0259     26.0904    130.1149
  1138.8000      8.0809      2.5851      0.0995      3.9355     26.2461    123.6161
  1138.9000      8.0809      2.5541      0.0744      5.8133     26.0663    121.7061
  1139.0000      8.0817      2.5264      0.0589      7.4894     25.6827    125.6120
  1139.1000      8.0817      2.5191      0.0515      7.9337     25.2217    131.8763
