~Version Information
VERS.                      2.0: CWLS Log ASCII Standard - VERSION 2.0
WRAP.                       NO: One line per depth step
~Well Information Block
STRT.FT               695.5000: 
STOP.FT              1499.5000: 
STEP.FT                 0.2500: 
NULL.                -999.2500: 
COMP.          Pioneer Natural Resources: COMPANY
WELL.          Pallet Ranch 34-25 Tr: WELL
FLD.           Purgatoire River: FIELD
LOC.           465' FSL & 2138' FEL: LOCATION
PROV.                 Colorado: PROVINCE
CNTY.               Las Animas: COUNTRY
SRVC.                Patterson: SERVICE COMPANY
DATE.          Wed Jan 18 18:58:46 2006: LOG DATE
UWI.           05 071 08657 00: UNIQUE WELL ID
~Curve Information Block
DEPT.FT            0 000 00 00: Depth
SN.Ohm-m                      : IEL Short Normal
SP.mV                         : IEL Spontaneous Potential
DIR.Ohm-m                     : IEL Induction Resistivity
GR.GAPI                       : Gamma Ray
~Parameter Information Block
~A  Depth        SN          SP         DIR          GR     
# ...
   796.0000   2000.0000   2000.0000      9.3377    126.8050
   796.2500   2000.0000   2000.0000      9.4386    124.7670
   796.5000   2000.0000   2000.0000      9.5554    122.8998
   796.7500   2000.0000   2000.0000      9.7015    122.9486
   797.0000   2000.0000   2000.0000      9.8892    124.7095
   797.2500   2000.0000   2000.0000     10.1270    126.5237
   797.5000   2000.0000   2000.0000     10.4165    129.4533
   797.7500   2000.0000   2000.0000     10.7526    131.2030
   798.0000   2000.0000   2000.0000     11.1249    132.9694
   798.2500   2000.0000   2000.0000     11.5202    133.3057
   798.5000   2000.0000   2000.0000     11.9229    132.2795
   798.7500   2000.0000   2000.0000     12.3164    130.4217
   799.0000   2000.0000   2000.0000     12.6839    125.2995
   799.2500   2000.0000   2000.0000     13.0103    119.8934
   799.5000   2000.0000   2000.0000     13.2866    108.7651
   799.7500   2000.0000   2000.0000     13.5136    100.2311
   800.0000   2000.0000   2000.0000     13.7013     88.9072
   800.2500   2000.0000   2000.0000     13.8619     84.5345
   800.5000   2000.0000   2000.0000     13.9994     85.3315
   800.7500   2000.0000   2000.0000     14.1045     90.7617
   801.0000   2000.0000   2000.0000     14.1583    103.3751
   801.2500   2000.0000   2000.0000     14.1421    112.2296
   801.5000   2000.0000   2000.0000     14.0466    122.8063
   801.7500   2000.0000   2000.0000     13.8747    127.5178
   802.0000   2000.0000   2000.0000     13.6375    132.1624
   802.2500   2000.0000   2000.0000     13.3476    134.4707
   802.5000   2000.0000   2000.0000     13.0184    137.2869
   802.7500   2000.0000   2000.0000     12.6684    138.6613
   803.0000   2000.0000   2000.0000     12.3258    140.0038
   803.2500   2000.0000   2000.0000     12.0239    140.6493
   803.5000   2000.0000   2000.0000     11.7886    141.5085
   803.7500   2000.0000   2000.0000     11.6285    141.8525
   804.0000   2000.0000   2000.0000     11.5360    141.4917
   804.2500   2000.0000   2000.0000     11.4968    140.5508
   804.5000   2000.0000   2000.0000     11.5000    138.4825
   804.7500   2000.0000   2000.0000     11.5404    137.0558
   805.0000   2000.0000   2000.0000     11.6151    135.2368
   805.2500   2000.0000   2000.0000     11.7215    134.1272
   805.5000   2000.0000   2000.0000     11.8597    132.1091
   805.7500   2000.0000   2000.0000     12.0343    130.4350
   806.0000   2000.0000   2000.0000     12.2535    128.0681
   806.2500   2000.0000   2000.0000     12.5234    127.1828
   806.5000   2000.0000   2000.0000     12.8425    127.3816
   806.7500   2000.0000   2000.0000     13.2007    128.1522
   807.0000   2000.0000   2000.0000     13.5830    128.7229
   807.2500   2000.0000   2000.0000     13.9769    127.9088
   807.5000   2000.0000   2000.0000     14.3769    124.7256
   807.7500   2000.0000   2000.0000     14.7840    121.9371
   808.0000   2000.0000   2000.0000     15.1994    118.3525
   808.2500   2000.0000   2000.0000     15.6239    117.1741
   808.5000   2000.0000   2000.0000     16.0612    117.8294
   808.7500   2000.0000   2000.0000     16.5209    119.5711
   809.0000   2000.0000   2000.0000     17.0129    122.7282
   809.2500   2000.0000   2000.0000     17.5403    124.3300
   809.5000   2000.0000   2000.0000     18.1004    125.0496
   809.7500   2000.0000   2000.0000     18.6956    124.1765
   810.0000   2000.0000   2000.0000     19.3412    120.8786
   810.2500   2000.0000   2000.0000     20.0580    117.6907
   810.5000   2000.0000   2000.0000     20.8569    112.3894
   810.7500   2000.0000   2000.0000     21.7296    109.0924
   811.0000   2000.0000   2000.0000     22.6565    105.3928
   811.2500   2000.0000   2000.0000     23.6175    104.1496
   811.5000   2000.0000   2000.0000     24.5943    103.9550
   811.7500   2000.0000   2000.0000     25.5660    104.0629
   812.0000   2000.0000   2000.0000     26.5108    102.5233
   812.2500   2000.0000   2000.0000     27.4125     99.7879
   812.5000   2000.0000   2000.0000     28.2653     93.9541
   812.7500   2000.0000   2000.0000     29.0729     89.8555
   813.0000   2000.0000   2000.0000     29.8528     84.3104
   813.2500   2000.0000   2000.0000     30.6338     80.9669
   813.5000   2000.0000   2000.0000     31.4393     76.0992
   813.7500   2000.0000   2000.0000     32.2590     72.9325
   814.0000   2000.0000   2000.0000     33.0324     68.7580
   814.2500   2000.0000   2000.0000     33.6662     66.6706
   814.5000   2000.0000   2000.0000     34.0841     64.7024
   814.7500   2000.0000   2000.0000     34.2804     64.0358
   815.0000   2000.0000   2000.0000     34.3314     63.8089
   815.2500   2000.0000   2000.0000     34.3515     64.0538
   815.5000   2000.0000   2000.0000     34.4272     64.6280
   815.7500   2000.0000   2000.0000     34.5831     65.0005
   816.0000   2000.0000   2000.0000     34.7931     65.9246
   816.2500   2000.0000   2000.0000     35.0128     67.2519
   816.5000   2000.0000   2000.0000     35.1978     70.6666
   816.7500   2000.0000   2000.0000     35.2992     73.5799
   817.0000   2000.0000   2000.0000     35.2649     77.9257
   817.2500   2000.0000   2000.0000     35.0615     80.3723
   817.5000   2000.0000   2000.0000     34.7046     82.9586
   817.7500   2000.0000   2000.0000     34.2615     83.7050
   818.0000   2000.0000   2000.0000     33.8204     82.7927
   818.2500   2000.0000   2000.0000     33.4493     80.6795
   818.5000   2000.0000   2000.0000     33.1778     75.7193
   818.7500   2000.0000   2000.0000     33.0100     71.8132
   819.0000   2000.0000   2000.0000     32.9542     66.0449
   819.2500   2000.0000   2000.0000     33.0447     62.6368
   819.5000   2000.0000   2000.0000     33.3355     58.6158
   819.7500   2000.0000   2000.0000     33.8613     56.8693
   820.0000   2000.0000   2000.0000     34.5838     55.7427
   820.2500   2000.0000   2000.0000     35.3685     55.7553
   820.5000   2000.0000   2000.0000     36.0243     56.1128
   820.7500   2000.0000   2000.0000     36.3972     56.0935
   821.0000   2000.0000   2000.0000     36.4609     55.3389
   821.2500   2000.0000   2000.0000     36.3458     54.5773
   821.5000   2000.0000   2000.0000     36.2946     53.8708
   821.7500   2000.0000   2000.0000     36.5658     54.0616
   822.0000   2000.0000   2000.0000     37.3210     55.2040
   822.2500   2000.0000   2000.0000     38.5323     55.9700
   822.5000   2000.0000   2000.0000     39.9530     55.9565
   822.7500   2000.0000   2000.0000     41.2101     54.9303
   823.0000   2000.0000   2000.0000     42.0074     52.6885
   823.2500   2000.0000   2000.0000     42.2895     51.6025
   823.5000   2000.0000   2000.0000     42.2066     51.6217
   823.7500   2000.0000   2000.0000     41.9543     52.6821
   824.0000   2000.0000   2000.0000     41.6705     54.7968
   824.2500   2000.0000   2000.0000     41.4382     55.7924
   824.5000   2000.0000   2000.0000     41.3131     55.8949
   824.7500   2000.0000   2000.0000     41.3000     55.0864
   825.0000   2000.0000   2000.0000     41.2865     53.2625
   825.2500   2000.0000   2000.0000     41.0305     52.1259
   825.5000   2000.0000   2000.0000     40.2745     51.1095
   825.7500   2000.0000   2000.0000     38.9370     51.0091
   826.0000   2000.0000   2000.0000     37.1982     51.6343
   826.2500   2000.0000   2000.0000     35.3963     52.3877
   826.5000   2000.0000   2000.0000     33.8569     53.7102
   826.7500   2000.0000   2000.0000     32.7927     54.7379
   827.0000   2000.0000   2000.0000     32.2828     56.8846
   827.2500   2000.0000   2000.0000     32.2841     58.8517
   827.5000   2000.0000   2000.0000     32.6562     62.2055
   827.7500   2000.0000   2000.0000     33.2026     64.2773
   828.0000   2000.0000   2000.0000     33.7271     66.6577
   828.2500   2000.0000   2000.0000     34.0835     67.6700
   828.5000   2000.0000   2000.0000     34.1971     68.2044
   828.7500   2000.0000   2000.0000     34.0602     67.8997
   829.0000   2000.0000   2000.0000     33.7092     66.8704
   829.2500   2000.0000   2000.0000     33.1925     66.1669
