~Version Information
VERS.                      2.0: CWLS Log ASCII Standard - VERSION 2.0
WRAP.                       NO: One line per depth step
~Well Information Block
STRT.FT               547.0000: 
STOP.FT              1685.5000: 
STEP.FT                 0.2500: 
NULL.                -999.2500: 
COMP.          Pioneer Natural Resources: COMPANY
WELL.           Pedri 42-33 Tr: WELL
FLD.           Purgatorie River: FIELD
LOC.           1933' FNL & 662' FEL: LOCATION
PROV.                 Colorado: PROVINCE
CNTY.               Las Animas: COUNTRY
SRVC.                Patterson: SERVICE COMPANY
DATE.          Mon Dec 19 10:09:44 2005: LOG DATE
UWI.                          : UNIQUE WELL ID
~Curve Information Block
DEPT.FT            0 000 00 00: Depth
DIR.Ohm-m                     : IEL Induction Resistivity
GR.GAPI                       : Gamma Ray
~Parameter Information Block
~A  Depth       DIR          GR     
   547.0000     94.6944     49.3689
   547.2500     94.7995     49.3910
   547.5000     94.8162     49.9382
   547.7500     94.7701     50.3702
   548.0000     94.6804     50.6000
   548.2500     94.5329     50.5611
   548.5000     94.3396     50.8018
   548.7500     94.1980     51.2198
   549.0000     94.2437     51.5648
   549.2500     94.5257     51.2520
   549.5000     94.9363     50.1165
   549.7500     95.2737     49.2700
   550.0000     95.3799     48.3273
   550.2500     95.2286     47.9646
   550.5000     94.8783     47.5095
   550.7500     94.3668     46.9576
   551.0000     93.6730     45.5280
   551.2500     92.7868     44.4255
   551.5000     91.7999     43.3931
   551.7500     90.9003     43.5519
   552.0000     90.2717     45.2802
   552.2500     89.9935     47.1156
   552.5000     90.0179     49.6594
   552.7500     90.2147     50.4972
   553.0000     90.4388     50.2458
   553.2500     90.5889     49.5221
   553.5000     90.6498     48.2913
   553.7500     90.6980     47.3567
   554.0000     90.8440     45.4157
   554.2500     91.1418     43.6810
   554.5000     91.5429     40.7030
   554.7500     91.9457     38.8694
   555.0000     92.3035     37.1453
   555.2500     92.6856     36.9338
   555.5000     93.2166     38.0155
   555.7500     93.9538     39.7404
   556.0000     94.8140     44.6278
   556.2500     95.6234     50.0460
   556.5000     96.2435     61.4490
   556.7500     96.6495     70.1632
   557.0000     96.8644     82.0210
   557.2500     96.8461     87.9109
   557.5000     96.4675     93.5142
   557.7500     95.6388     95.6016
   558.0000     94.4954     96.9234
   558.2500     93.5146     96.7997
   558.5000     93.4568     95.7062
   558.7500     95.0909     94.8640
   559.0000     98.7206     93.9678
   559.2500    103.5128     93.5787
   559.5000    106.9399     92.7013
   559.7500    105.5573     91.4597
   560.0000     97.9274     88.4399
   560.2500     86.5085     86.0730
   560.5000     75.5401     82.6142
   560.7500     68.3159     80.0862
   561.0000     67.1416     74.8600
   561.2500     75.6218     70.2587
   561.5000    105.5949     63.0851
   561.7500    223.8534     59.6055
   562.0000 100000.0000     58.5102
   562.2500 100000.0000     60.8407
   562.5000 100000.0000     67.6952
   562.7500 100000.0000     73.2957
   563.0000    562.1482     81.2637
   563.2500    212.3496     85.3660
   563.5000    148.0376     88.7537
   563.7500    131.9544     89.2481
   564.0000    140.5904     88.6546
   564.2500    180.8233     88.3397
   564.5000    284.4675     88.8069
   564.7500    392.6397     89.6018
   565.0000    215.9709     91.0180
   565.2500     89.1007     92.0362
   565.5000     46.0823     93.7248
   565.7500     30.8111     94.6910
   566.0000     26.4162     94.6181
   566.2500     30.4837     92.7734
   566.5000     65.2228     87.5605
   566.7500 100000.0000     83.9783
   567.0000 100000.0000     82.0056
   567.2500 100000.0000     84.0746
   567.5000 100000.0000     90.9870
   567.7500 100000.0000     96.1992
   568.0000     55.0004    102.2411
   568.2500      8.3763    104.8365
   568.5000      4.4104    108.0220
   568.7500      3.3261    110.7091
   569.0000      3.1582    116.4280
   569.2500      3.5879    121.1116
   569.5000      4.7532    127.8350
   569.7500      7.3803    130.8592
   570.0000     14.8722    131.7899
   570.2500    102.1314    130.0249
   570.5000 100000.0000    124.8259
   570.7500 100000.0000    120.3646
   571.0000 100000.0000    113.0841
   571.2500 100000.0000    108.1078
   571.5000 100000.0000    100.8274
   571.7500 100000.0000     96.5935
   572.0000 100000.0000     92.1842
   572.2500 100000.0000     90.5070
   572.5000    114.3336     88.3718
   572.7500     77.9247     86.2757
   573.0000     73.8414     82.0272
   573.2500     77.9509     79.0707
   573.5000     85.4920     75.0608
   573.7500     95.8317     72.3940
   574.0000    112.5803     67.7166
   574.2500    149.2786     64.2701
   574.5000    268.3516     59.7768
   574.7500   2832.6409     57.7882
   575.0000 100000.0000     55.8396
   575.2500 100000.0000     54.3892
   575.5000 100000.0000     51.3605
   575.7500 100000.0000     49.3916
   576.0000    283.3825     48.3627
   576.2500    130.0386     49.7058
   576.5000     84.9138     54.8792
   576.7500     63.6288     59.8959
   577.0000     51.1441     68.2519
   577.2500     43.0825     73.5853
   577.5000     37.7789     80.8177
   577.7500     34.3301     85.2918
   578.0000     32.0467     91.3308
   578.2500     30.3362     94.3518
   578.5000     28.7494     96.7644
   578.7500     27.0616     97.5714
   579.0000     25.2717    100.1400
   579.2500     23.4929    104.1405
   579.5000     21.8320    114.0409
   579.7500     20.3377    122.3469
   580.0000     19.0109    134.7551
   580.2500     17.8336    141.2998
   580.5000     16.7897    146.1957
   580.7500     15.8710    145.7789
   581.0000     15.0748    141.1675
   581.2500     14.4003    137.2119
   581.5000     13.8451    133.0462
   581.7500     13.4033    132.5517
   582.0000     13.0637    135.0153
   582.2500     12.8103    137.5719
   582.5000     12.6254    140.5401
   582.7500     12.4939    141.4520
   583.0000     12.4068    141.5042
   583.2500     12.3598    140.7778
   583.5000     12.3490    138.5453
   583.7500     12.3659    136.7787
   584.0000     12.3979    135.6941
   584.2500     12.4315    137.1477
   584.5000     12.4560    142.8029
   584.7500     12.4662    147.7675
   585.0000     12.4621    154.1408
   585.2500     12.4468    156.3431
   585.5000     12.4260    155.5992
   585.7500     12.4060    152.5034
   586.0000     12.3927    144.9539
   586.2500     12.3893    138.8642
   586.5000     12.3937    129.8167
   586.7500     12.3986    124.9411
   587.0000     12.3949    121.5466
   587.2500     12.3769    122.7838
   587.5000     12.3457    129.0472
   587.7500     12.3070    134.2181
   588.0000     12.2683    139.8966
   588.2500     12.2373    141.4660
   588.5000     12.2212    141.9623
   588.7500     12.2246    142.7924
   589.0000     12.2466    146.3917
   589.2500     12.2802    149.2993
   589.5000     12.3163    150.5049
   589.7500     12.3511    148.0201
   590.0000     12.3891    141.5016
   590.2500     12.4403    137.5646
   590.5000     12.5130    134.1193
   590.7500     12.6088    133.1416
   591.0000     12.7218    132.8810
   591.2500     12.8421    133.5256
   591.5000     12.9610    135.6888
   591.7500     13.0740    137.4751
   592.0000     13.1811    139.7579
   592.2500     13.2850    140.9277
   592.5000     13.3892    142.4688
   592.7500     13.4969    143.1445
   593.0000     13.6089    142.3778
   593.2500     13.7220    140.1077
   593.5000     13.8283    134.5547
   593.7500     13.9182    130.4922
   594.0000     13.9874    125.7616
   594.2500     14.0410    123.9516
   594.5000     14.0932    122.6717
   594.7500     14.1623    122.2447
   595.0000     14.2648    121.9075
   595.2500     14.4130    121.9102
   595.5000     14.6171    122.1389
   595.7500     14.8885    122.2393
   596.0000     15.2415    122.0045
   596.2500     15.6881    121.5739
   596.5000     16.2285    121.0432
   596.7500     16.8424    121.4126
   597.0000     17.4867    124.1246
   597.2500     18.1051    127.5421
   597.5000     18.6428    134.2233
   597.7500     19.0577    138.6111
   598.0000     19.3217    142.5687
   598.2500     19.4163    142.0570
   598.5000     19.3320    135.4357
   598.7500     19.0751    127.6458
   599.0000     18.6718    113.6194
   599.2500     18.1623    104.6462
   599.5000     17.5852     94.1460
   599.7500     16.9653     89.6916
   600.0000     16.3133     86.9923
   600.2500     15.6361     87.8259
   600.5000     14.9468     92.9133
   600.7500     14.2652     98.6170
   601.0000     13.6122    109.5251
   601.2500     13.0038    117.1622
   601.5000     12.4517    126.7199
   601.7500     11.9664    130.7878
   602.0000     11.5595    132.9674
   602.2500     11.2413    132.2690
   602.5000     11.0168    129.7677
