~Version Information
VERS.                      2.0: CWLS Log ASCII Standard - VERSION 2.0
WRAP.                       NO: One line per depth step
~Well Information Block
STRT.FT               800.0000: 
STOP.FT              3500.0000: 
STEP.FT                 0.1000: 
NULL.                -999.2500: 
COMP.          Pioneer Natural Resources: COMPANY
WELL.          Cordillera 34-7: WELL
FLD.           Purgatoire River: FIELD
LOC.           598' FSL & 1770' FEL--: LOCATION
PROV.                 Colorado: PROVINCE
CNTY.               Las Animas: COUNTRY
SRVC.                Patterson: SERVICE COMPANY
DATE.          Fri Oct 28 07:22:44 2005: LOG DATE
UWI.           05 071 08552 00: UNIQUE WELL ID
~Curve Information Block
DEPT.FT            0 000 00 00: Depth
DCAL.in                       : CDL Caliper
RHOB.g/cc                     : CDL Bulk Density
RHOC.g/cc                     : CDL Density Correction
DPOR.pu                       : CDL Density Porosity
NPOR.pu                       : Neutron Porosity
GR.GAPI                       : Gamma Ray
~Parameter Information Block
~A  Depth       DCAL        RHOB        RHOC        DPOR        NPOR         GR     
# ...
  3113.6000      7.9878      2.5795      0.0178      4.2707     18.9400     52.3846
  3113.7000      7.9878      2.5963      0.0704      3.2574     18.2829     53.9289
  3113.8000      7.9861      2.6097      0.1005      2.4397     17.6235     56.7763
  3113.9000      7.9861      2.6078      0.1084      2.5564     17.3650     57.3337
  3114.0000      7.9840      2.5977      0.0559      3.1704     17.5992     55.6483
  3114.1000      7.9840      2.5898      0.0774      3.6507     17.8248     54.7363
  3114.2000      7.9840      2.5780      0.0387      4.3607     17.9667     53.9692
  3114.3000      7.9834      2.5640      0.0415      5.2121     18.2896     51.6434
  3114.4000      7.9834      2.5593      0.0576      5.4998     18.8270     50.4359
  3114.5000      7.9823      2.5616      0.0684      5.3562     19.1355     50.5294
  3114.6000      7.9823      2.5596      0.0541      5.4786     18.5593     48.7086
  3114.7000      7.9823      2.5523      0.0341      5.9199     17.5680     47.8647
  3114.8000      7.9816      2.5486      0.0443      6.1484     17.2038     52.4727
  3114.9000      7.9816      2.5568      0.0246      5.6485     17.3893     58.3413
  3115.0000      7.9820      2.5765      0.0756      4.4536     17.5108     58.5463
  3115.1000      7.9820      2.5922      0.0669      3.5032     17.4914     54.3618
  3115.2000      7.9820      2.5941      0.0500      3.3897     17.5661     51.8296
  3115.3000      7.9820      2.5870      0.0402      3.8168     17.7508     52.9691
  3115.4000      7.9820      2.5756      0.0352      4.5108     17.9595     55.6627
  3115.5000      7.9832      2.5635      0.0253      5.2415     18.3011     57.5777
  3115.6000      7.9832      2.5562      0.0404      5.6876     19.0700     58.2817
  3115.7000      7.9832      2.5548      0.0277      5.7681     20.3017     60.4071
  3115.8000      7.9848      2.5579      0.0557      5.5827     21.1368     65.7009
  3115.9000      7.9848      2.5608      0.0536      5.4079     20.9834     69.8264
  3116.0000      7.9850      2.5636      0.0468      5.2350     20.6338     68.2253
  3116.1000      7.9850      2.5734      0.0490      4.6427     20.6888     64.1638
  3116.2000      7.9850      2.5834      0.0648      4.0367     20.6796     64.4875
  3116.3000      7.9851      2.5834      0.0572      4.0358     20.1889     68.5901
  3116.4000      7.9851      2.5806      0.0594      4.2084     19.5416     71.6898
  3116.5000      7.9861      2.5799      0.0812      4.2487     19.3825     72.4967
  3116.6000      7.9861      2.5736      0.0841      4.6301     19.6553     73.3162
  3116.7000      7.9861      2.5665      0.0372      5.0590     19.8352     76.1246
  3116.8000      7.9875      2.5741      0.0410      4.5991     19.8063     79.3597
  3116.9000      7.9875      2.5912      0.0577      3.5661     19.4871     81.8422
  3117.0000      7.9871      2.5929      0.1172      3.4630     18.6166     82.2270
  3117.1000      7.9871      2.5743      0.0409      4.5907     17.6496     78.4964
  3117.2000      7.9871      2.5605      0.0732      5.4229     17.5113     72.7143
  3117.3000      7.9865      2.5692      0.0363      4.8945     18.3708     67.6329
  3117.4000      7.9865      2.5929      0.0833      3.4593     19.5624     64.7398
  3117.5000      7.9871      2.6128      0.0482      2.2537     20.4449     66.5099
  3117.6000      7.9871      2.6238      0.0826      1.5909     20.6324     71.9052
  3117.7000      7.9871      2.6274      0.1019      1.3671     20.0170     73.5588
  3117.8000      7.9867      2.6223      0.0736      1.6804     19.1671     66.2176
  3117.9000      7.9867      2.6110      0.0778      2.3648     18.8972     56.4371
  3118.0000      7.9854      2.5985      0.0749      3.1197     19.2128     54.1958
  3118.1000      7.9854      2.5900      0.0720      3.6385     19.6364     59.0043
  3118.2000      7.9854      2.5849      0.0738      3.9445     20.2378     62.3867
  3118.3000      7.9843      2.5805      0.0304      4.2131     21.1578     59.8176
  3118.4000      7.9843      2.5772      0.0777      4.4137     22.1321     55.6758
  3118.5000      7.9831      2.5769      0.0358      4.4289     23.1475     57.5446
  3118.6000      7.9831      2.5776      0.0913      4.3875     24.3572     64.9903
  3118.7000      7.9831      2.5662      0.0455      5.0812     25.4684     70.4722
  3118.8000      7.9837      2.5374      0.0454      6.8213     25.8720     72.1694
  3118.9000      7.9837      2.5035      0.0508      8.8800     25.6689     76.8008
  3119.0000      7.9851      2.4768     -0.0069     10.4989     25.9754     87.4765
  3119.1000      7.9851      2.4553      0.0554     11.8009     27.3296     95.7141
  3119.2000      7.9851      2.4298     -0.0030     13.3443     29.0556     97.0170
  3119.3000      7.9865      2.3978      0.0475     15.2847     30.4570     98.4730
  3119.4000      7.9865      2.3539      0.0543     17.9433     31.0854    101.9432
  3119.5000      7.9900      2.2987     -0.0260     21.2910     30.8952    103.7546
  3119.6000      7.9900      2.2435     -0.0347     24.6384     30.6056    104.4842
  3119.7000      7.9900      2.1905     -0.0302     27.8513     30.8293    103.9879
  3119.8000      7.9962      2.1362     -0.0090     31.1404     31.5281    103.6506
  3119.9000      7.9962      2.0853     -0.0009     34.2270     32.2760    105.9162
  3120.0000      8.0029      2.0490     -0.0344     36.4217     32.7051    105.5209
  3120.1000      8.0029      2.0333     -0.0177     37.3752     32.7649    101.6616
  3120.2000      8.0029      2.0250     -0.0087     37.8797     32.6615    103.3829
  3120.3000      8.0068      2.0005      0.0428     39.3630     32.6069    113.4426
  3120.4000      8.0068      1.9482      0.0467     42.5315     32.9611    123.8389
  3120.5000      8.0076      1.8795      0.0388     46.6968     33.9024    123.0828
  3120.6000      8.0076      1.8179      0.0149     50.4328     34.7180    110.1834
  3120.7000      8.0076      1.7771      0.0060     52.9033     34.7401     99.2580
  3120.8000      8.0067      1.7470      0.0305     54.7251     34.2315     97.4558
  3120.9000      8.0067      1.7097     -0.0103     56.9891     33.6687     97.1547
  3121.0000      8.0049      1.6634     -0.0556     59.7913     33.0961     96.3456
  3121.1000      8.0049      1.6178     -0.0233     62.5551     32.6632     97.6638
  3121.2000      8.0049      1.5866     -0.0431     64.4494     32.5999     94.9675
  3121.3000      8.0020      1.5875      0.0019     64.3945     32.5418     87.7463
  3121.4000      8.0020      1.6266      0.0487     62.0256     31.9788     85.0020
  3121.5000      7.9960      1.6974      0.1144     57.7312     31.0391     86.7354
  3121.6000      7.9960      1.7955      0.1428     51.7880     30.3543     88.4447
  3121.7000      7.9960      1.9124      0.1938     44.7038     30.0607     92.2655
  3121.8000      7.9884      2.0275      0.1862     37.7280     29.5702     98.4008
  3121.9000      7.9884      2.1170      0.2229     32.3047     28.9554    100.5585
  3122.0000      7.9842      2.1610      0.2469     29.6362     28.7688     97.8088
  3122.1000      7.9842      2.1630      0.1681     29.5127     28.7474     96.0166
  3122.2000      7.9842      2.1530      0.0935     30.1184     28.6578     95.8775
  3122.3000      7.9827      2.1464      0.0503     30.5203     29.0727     93.4941
  3122.4000      7.9827      2.1300      0.0495     31.5140     29.8825     91.2179
  3122.5000      7.9801      2.1011      0.0198     33.2658     30.0142     94.2732
  3122.6000      7.9801      2.0817     -0.0214     34.4431     29.2720    102.2817
  3122.7000      7.9801      2.0781      0.0410     34.6635     28.2607    110.5763
  3122.8000      7.9803      2.0689      0.0369     35.2210     27.3666    113.4127
  3122.9000      7.9803      2.0445      0.0204     36.6969     26.5941    109.8872
  3123.0000      7.9824      2.0184      0.0121     38.2790     26.1028    105.2486
  3123.1000      7.9824      2.0042      0.0283     39.1412     26.2651    101.9031
