~Version Information
VERS.                      2.0: CWLS Log ASCII Standard - VERSION 2.0
WRAP.                       NO: One line per depth step
~Well Information Block
STRT.FT                -7.5000: 
STOP.FT              1350.7500: 
STEP.FT                 0.2500: 
NULL.                -999.2500: 
COMP.          Pioneer Natural Resources: COMPANY
WELL.            Gamma 13-3 Tr: WELL
FLD.           Purgatorie River: FIELD
LOC.           2127' FSL & 738' FWL: LOCATION
STAT.                       CO: State
CNTY.               Las Animas: COUNTY
CTRY.                      USA: Country
SECT.                        3: Section
TOWN.                      33S: Township
RANG.                      67W: Range
SRVC.          Patterson Wireline: SERVICE COMPANY
DATE.          Fri Sep 23 13:24:40 2005: LOG DATE
API.           05 071 08524 00: API
~Curve Information Block
DEPT.FT            0 000 00 00: Depth
CCL.                          : Casing Collar Locator
TT3.usec                      : CBL 3' Travel Time
AMP3.mV                       : CBL 3' Amplitude
GR.GAPI                       : Gamma Ray
~Parameter Information Block
~A  Depth       CCL         TT3         AMP3         GR     
# ...
   897.0000      0.0000    503.5685     13.5086    120.6936
   897.2500      0.0000    456.5229     13.1447    117.4482
   897.5000      0.0000    428.2986     12.8718    118.1990
   897.7500      0.0000    427.7241     12.6754    122.5330
   898.0000      0.0000    454.1393     12.5327    128.4108
   898.2500      0.0000    497.4984     12.4175    133.1437
   898.5000      0.0000    540.1873     12.3078    134.8787
   898.7500      0.0000    566.1635     12.1937    133.7486
   899.0000      0.0000    572.9495     12.0765    131.6198
   899.2500      0.0000    573.1588     11.9617    130.3824
   899.5000      0.0000    582.8842     11.8529    130.3550
   899.7500      0.0000    608.9282     11.7489    130.4052
   900.0000      0.0000    646.0558     11.6439    129.6409
   900.2500      0.0000    683.9757     11.5295    128.8464
   900.5000      0.0000    715.4185     11.3981    130.1220
   900.7500      0.0000    738.0212     11.2507    135.0304
   901.0000      0.0000    751.2328     11.1007    142.9926
   901.2500      0.0000    754.5820     10.9684    151.1483
   901.5000      0.0000    749.3206     10.8701    155.6736
   901.7500      0.0000    739.4662     10.8091    153.9959
   902.0000      0.0000    729.7343     10.7770    146.7104
   902.2500      0.0000    722.7698     10.7618    137.4533
   902.5000      0.0000    718.5234     10.7551    130.2938
   902.7500      0.0000    715.6285     10.7542    126.9314
   903.0000      0.0000    712.9711     10.7604    126.4876
   903.2500      0.0000    710.1306     10.7733    127.4657
   903.5000      0.0000    706.0424     10.7886    128.9808
   903.7500      0.0000    696.8423     10.7999    130.1831
   904.0000      0.0000    676.2941     10.8030    129.6569
   904.2500      0.0000    640.9251     10.7980    126.3324
   904.5000      0.0000    595.4371     10.7885    120.9237
   904.7500      0.0000    551.2525     10.7790    115.8271
   905.0000      0.0000    518.9139     10.7712    113.2646
   905.2500      0.0000    502.7042     10.7605    113.8054
   905.5000      0.0000    502.0174     10.7369    116.6886
   905.7500      0.0000    515.5751     10.6901    120.7229
   906.0000      0.0000    542.7968     10.6203    124.5216
   906.2500      0.0000    581.5029     10.5472    126.7418
   906.5000      0.0000    626.1289     10.5080    126.7565
   906.7500      0.0000    669.7077     10.5418    124.8305
   907.0000      0.0000    706.8998     10.6711    121.5376
   907.2500      0.0000    734.4854     10.8924    117.4054
   907.5000      0.0000    750.9750     11.1806    113.1489
   907.7500      0.0000    757.7228     11.5005    109.8193
   908.0000      0.0000    759.0559     11.8191    108.4220
   908.2500      0.0000    759.4216     12.1110    109.2553
   908.5000      0.0000    760.6004     12.3587    111.6961
   908.7500      0.0000    761.7599     12.5547    114.8372
   909.0000      0.0000    760.8437     12.7041    117.9025
   909.2500      0.0000    754.8672     12.8172    119.6127
   909.5000      0.0000    740.4121     12.8941    117.9681
   909.7500      0.0000    716.9697     12.9193    111.9874
   910.0000      0.0000    691.0502     12.8791    103.5061
   910.2500      0.0000    673.7958     12.7808     96.0856
   910.5000      0.0000    670.3723     12.6542     91.9985
   910.7500      0.0000    672.4252     12.5354     90.9222
   911.0000      0.0000    664.4017     12.4479     91.3015
   911.2500      0.0000    637.5895     12.3938     92.0121
   911.5000      0.0000    596.2565     12.3595     92.6822
   911.7500      0.0000    550.9138     12.3314     93.4279
   912.0000      0.0000    508.6030     12.3078     94.7405
   912.2500      0.0000    470.8332     12.2955     97.1349
   912.5000      0.0000    438.0581     12.2957    100.6449
   912.7500      0.0000    412.3427     12.2959    104.7966
   913.0000      0.0000    395.4091     12.2754    108.8620
   913.2500      0.0000    386.3906     12.2195    111.8749
   913.5000      0.0000    382.6116     12.1277    112.6316
   913.7500      0.0000    381.9135     12.0105    110.1808
   914.0000      0.0000    384.4423     11.8809    104.6754
   914.2500      0.0000    393.6204     11.7463     97.7472
   914.5000      0.0000    415.7332     11.6079     91.6317
   914.7500      0.0000    456.0685     11.4661     87.7401
   915.0000      0.0000    512.4821     11.3291     86.1484
   915.2500      0.0000    573.5547     11.2127     86.1291
   915.5000      0.0000    626.3841     11.1276     86.7295
   915.7500      0.0000    666.1552     11.0688     87.0993
   916.0000      0.0000    695.8594     11.0188     86.7701
   916.2500      0.0000    718.7761     10.9630     85.6188
   916.5000      0.0000    735.1015     10.8988     83.5398
   916.7500      0.0000    744.6151     10.8332     80.4831
   917.0000      0.0000    748.8515     10.7730     77.1062
   917.2500      0.0000    750.1937     10.7185     75.2156
   917.5000      0.0000    750.3890     10.6651     76.9707
   917.7500      0.0000    750.2156     10.6093     83.0561
   918.0000      0.0000    749.7913     10.5530     91.5996
   918.2500      0.0000    748.8306     10.5006     99.2821
   918.5000      0.0000    746.8289     10.4517    103.7829
   918.7500      0.0000    743.4845     10.4000    105.0582
   919.0000      0.0000    739.3733     10.3373    104.1938
   919.2500      0.0000    735.9656     10.2611    101.6604
   919.5000      0.0000    734.4650     10.1761     97.3926
   919.7500      0.0000    734.5699     10.0904     92.1291
   920.0000      0.0000    734.7330     10.0088     87.6359
   920.2500      0.0000    733.4563      9.9279     85.5307
   920.5000      0.0000    729.9044      9.8346     86.4048
   920.7500      0.0000    723.7853      9.7156     89.8182
   921.0000      0.0000    715.7361      9.5767     94.4275
   921.2500      0.0000    707.9641      9.4587     98.2282
   921.5000      0.0000    703.7116      9.4307     99.4144
   921.7500      0.0000    705.4346      9.5623     97.2490
   922.0000      0.0000    713.1964      9.8938     92.0782
   922.2500      0.0000    724.4244     10.4218     84.9102
   922.5000      0.0000    735.3903     11.1013     77.3037
   922.7500      0.0000    743.7648     11.8579     71.1630
   923.0000      0.0000    750.0017     12.6055     67.9570
   923.2500      0.0000    755.6082     13.2675     68.0779
   923.5000      0.0000    759.6686     13.7979     71.2274
   923.7500      0.0000    756.9360     14.1966     77.3774
   924.0000      0.0000    739.5676     14.5068     86.8877
   924.2500      0.0000    702.7909     14.7807     99.4723
   924.5000      0.0000    651.6179     15.0272    113.3126
   924.7500      0.0000    601.2858     15.1893    125.5516
   925.0000      0.0000    567.3221     15.1844    133.9267
   925.2500      0.0000    555.3372     14.9736    138.2192
   925.5000      0.0000    563.2859     14.5925    140.1621
   925.7500      0.0000    589.8179     14.1259    141.6269
   926.0000      0.0000    633.5345     13.6624    142.8102
   926.2500      0.0000    685.8480     13.2635    142.4425
   926.5000      0.0000    731.8842     12.9525    139.7596
   926.7500      0.0000    760.2375     12.7190    135.8338
   927.0000      0.0000    769.4482     12.5381    132.7330
   927.2500      0.0000    765.4563     12.3900    131.6744
   927.5000      0.0000    755.4387     12.2678    132.2203
   927.7500      0.0000    744.2563     12.1689    133.0350
   928.0000      0.0000    734.3796     12.0862    133.2675
   928.2500      0.0000    726.9435     12.0091    133.3014
   928.5000      0.0000    722.1896     11.9320    134.0871
   928.7500      0.0000    719.6198     11.8576    135.8454
   929.0000      0.0000    718.4535     11.7926    137.8422
   929.2500      0.0000    718.2202     11.7423    139.5004
   929.5000      0.0000    719.0419     11.7076    141.1591
   929.7500      0.0000    721.4995     11.6840    143.4255
   930.0000      0.0000    726.0955     11.6583    146.3401
   930.2500      0.0000    732.3461     11.6041    149.6901
