~Version Information
VERS.                      2.0: CWLS Log ASCII Standard - VERSION 2.0
WRAP.                       NO: One line per depth step
~Well Information Block
STRT.FT               460.0000: 
STOP.FT              3058.5000: 
STEP.FT                 0.1000: 
NULL.                -999.2500: 
COMP.          Pioneer Natural Resources: COMPANY
WELL.            Cleaver 24-12: WELL
FLD.           Purgatoire River: FIELD
LOC.           204' FSL & 2351' FWL: LOCATION
PROV.                 Colorado: PROVINCE
CNTY.               Las Animas: COUNTRY
SRVC.                Patterson: SERVICE COMPANY
DATE.          Mon Jan 09 13:49:27 2006: LOG DATE
UWI.           05 071 08634 00: UNIQUE WELL ID
~Curve Information Block
DEPT.FT            0 000 00 00: Depth
DCAL.in                       : CDL Caliper
RHOB.g/cc                     : CDL Bulk Density
RHOC.g/cc                     : CDL Density Correction
DPOR.pu                       : CDL Density Porosity
GR.GAPI                       : Gamma Ray
NPOR.pu                       : Neutron Porosity
~Parameter Information Block
~A  Depth       DCAL        RHOB        RHOC        DPOR         GR         NPOR    
# ...
   805.6000      8.1065      2.4949      0.1005      9.4011    122.7189     28.7746
   805.7000      8.1065      2.5132      0.0850      8.2907    129.7029     28.6994
   805.8000      8.0580      2.5698      0.1564      4.8635    131.4924     28.4552
   805.9000      8.0580      2.6182      0.2375      1.9280    129.8230     28.1714
   806.0000      8.1067      2.6204      0.1641      1.7952    129.2003     28.0484
   806.1000      8.1067      2.5892      0.1419      3.6847    131.4858     28.1427
   806.2000      8.1067      2.5538      0.1594      5.8275    136.2461     28.2650
   806.3000      7.9369      2.5246      0.1641      7.6018    140.5349     28.3071
   806.4000      7.9369      2.4928      0.1218      9.5291    139.1211     28.2917
   806.5000      7.9103      2.4486      0.0330     12.2031    133.3570     28.1408
   806.6000      7.9103      2.3998      0.0011     15.1647    131.4005     28.0233
   806.7000      7.9103      2.3651      0.0169     17.2643    136.8601     28.0620
   806.8000      7.9145      2.3469      0.1266     18.3725    144.1101     28.0076
   806.9000      7.9145      2.3391      0.0910     18.8452    146.2612     27.7646
   807.0000      7.9223      2.3526      0.1214     18.0243    143.8748     27.5168
   807.1000      7.9223      2.3933      0.1851     15.5592    140.2680     27.3848
   807.2000      7.9223      2.4451      0.1956     12.4194    138.9231     27.5266
   807.3000      8.0824      2.4986      0.2127      9.1774    141.2282     27.8643
   807.4000      8.0824      2.5662      0.2597      5.0807    143.0718     27.9952
   807.5000      8.1427      2.6382      0.4614      0.7166    145.9412     27.7201
   807.6000      8.1427      2.6615      0.5244     -0.6990    153.1368     27.2593
   807.7000      8.1427      2.6093      0.3896      2.4669    157.6540     27.0757
   807.8000      8.0729      2.5052      0.3704      8.7747    155.2122     27.2549
   807.9000      8.0729      2.3711      0.3254     16.9004    151.2171     27.3100
   808.0000      8.1948      2.2270      0.1656     25.6378    150.5729     27.0623
   808.1000      8.1948      2.1072      0.0536     32.8977    152.0277     26.8027
   808.2000      8.1948      2.0300      0.1209     37.5748    149.8820     26.5877
   808.3000      8.1847      1.9947      0.1232     39.7181    145.0949     26.2012
   808.4000      8.1847      2.0120      0.1823     38.6661    144.0421     25.8342
   808.5000      8.3155      2.0849      0.4122     34.2505    145.0487     25.7078
   808.6000      8.3155      2.1806      0.5788     28.4470    149.7309     25.5885
   808.7000      8.3155      2.2623      0.6294     23.4958    161.5520     25.6184
   808.8000      8.6862      2.3207      0.6412     19.9559    170.5756     26.0145
   808.9000      8.6862      2.3596      0.6526     17.6019    171.6966     26.3516
   809.0000      8.9000      2.3746      0.6885     16.6915    170.3483     26.2631
   809.1000      8.9000      2.3582      0.6269     17.6861    166.1548     25.9050
   809.2000      8.9000      2.3089      0.5741     20.6706    159.8202     25.4973
   809.3000      9.0088      2.2288      0.4967     25.5243    157.9300     25.4390
   809.4000      9.0088      2.1269      0.3618     31.7047    159.1768     26.0281
   809.5000      9.1269      2.0213      0.2770     38.1035    157.8687     26.7823
   809.6000      9.1269      1.9268      0.3119     43.8323    154.3835     27.0728
   809.7000      9.1269      1.8555      0.3371     48.1496    149.3388     27.0920
   809.8000      9.0778      1.8331      0.3921     49.5070    144.2885     27.3491
   809.9000      9.0778      1.8808      0.4213     46.6199    144.3078     27.7288
   810.0000      8.9450      1.9848      0.5636     40.3141    149.5369     27.7487
   810.1000      8.9450      2.1044      0.6243     33.0665    155.2091     27.3182
   810.2000      8.9450      2.2104      0.6521     26.6401    158.1915     26.7748
   810.3000      8.9603      2.2878      0.6623     21.9490    160.0095     26.5303
   810.4000      8.9603      2.3189      0.6474     20.0641    167.0408     26.7142
   810.5000      9.2175      2.3055      0.5962     20.8774    176.2315     27.1909
   810.6000      9.2175      2.2775      0.5311     22.5735    178.3026     27.8750
   810.7000      9.2175      2.2654      0.4689     23.3120    172.3648     28.4943
   810.8000      9.4628      2.2806      0.4889     22.3896    160.9592     28.8960
   810.9000      9.4628      2.3167      0.4947     20.1971    148.9123     29.0979
   811.0000      9.4234      2.3624      0.4605     17.4276    143.6371     28.8171
   811.1000      9.4234      2.4120      0.4833     14.4222    146.4251     27.9108
   811.2000      9.4234      2.4465      0.6069     12.3334    153.8596     26.5731
   811.3000      9.4495      2.4286      0.5566     13.4165    161.1656     25.1617
   811.4000      9.4495      2.3391      0.5205     18.8449    161.6197     24.2362
   811.5000      9.6329      2.1944      0.3973     27.6119    154.4111     23.6948
   811.6000      9.6329      2.0228      0.3493     38.0102    148.6828     22.3448
   811.7000      9.6329      1.8310      0.2985     49.6387    149.8609     19.9724
   811.8000      9.8053      1.6341      0.2061     61.5717    151.9339     17.8471
   811.9000      9.8053      1.4816      0.1567     70.8139    148.7601     16.4658
   812.0000      9.9718      1.4061      0.2221     75.3874    143.6197     15.5464
   812.1000      9.9718      1.4008      0.2733     75.7104    140.5585     14.9452
   812.2000      9.9718      1.4447      0.3195     73.0469    138.4896     14.8041
   812.3000     10.4973      1.5126      0.3745     68.9345    137.5043     15.4468
   812.4000     10.4973      1.5877      0.3954     64.3832    138.5245     16.7496
   812.5000     11.2079      1.6836      0.3618     58.5714    138.8154     18.1864
   812.6000     11.2079      1.8151      0.4623     50.5996    136.2507     19.5813
   812.7000     11.2079      1.9580      0.5480     41.9401    135.6299     20.9392
   812.8000     11.2759      2.0879      0.5060     34.0686    138.0719     22.2958
   812.9000     11.2759      2.2177      0.5552     26.2010    139.2628     23.7833
   813.0000     10.4234      2.3544      0.6699     17.9154    138.3615     25.2568
   813.1000     10.4234      2.4847      0.6820     10.0208    134.0550     26.4415
   813.2000     10.4234      2.6022      0.7081      2.8995    125.5430     27.3022
   813.3000     10.4318      2.6953      0.7469     -2.7466    116.7349     28.1159
   813.4000     10.4318      2.7489      0.6943     -5.9916    115.2733     28.7139
   813.5000      9.9107      2.7669      0.6735     -7.0867    122.4956     28.5849
   813.6000      9.9107      2.7675      0.5288     -7.1206    130.3757     27.9730
   813.7000      9.9107      2.7648      0.5020     -6.9563    133.6962     27.5853
   813.8000      9.2592      2.7574      0.4386     -6.5110    135.0127     27.7207
   813.9000      9.2592      2.7371      0.3377     -5.2786    136.4621     28.1212
   814.0000      8.2742      2.6994      0.3162     -2.9917    134.9362     28.4595
   814.1000      8.2742      2.6449      0.2221      0.3115    128.3951     28.6073
   814.2000      8.2742      2.5898      0.0879      3.6508    120.5394     28.2906
   814.3000      8.1115      2.5614      0.0813      5.3695    114.9157     27.4605
   814.4000      8.1115      2.5701      0.0840      4.8413    113.1837     26.7516
   814.5000      7.9636      2.6005      0.0949      3.0000    114.7892     26.7706
   814.6000      7.9636      2.6193      0.0834      1.8609    118.7039     27.2622
   814.7000      7.9636      2.6030      0.0640      2.8506    124.2023     27.6442
   814.8000      7.9810      2.5617      0.0287      5.3516    126.1429     27.9468
   814.9000      7.9810      2.5264     -0.0167      7.4936    119.0472     28.6496
   815.0000      7.9523      2.5166     -0.0397      8.0843    111.2095     29.6781
   815.1000      7.9523      2.5202      0.0087      7.8646    111.5847     30.2793
