~Version Information
VERS.                      2.0: CWLS Log ASCII Standard - VERSION 2.0
WRAP.                       NO: One line per depth step
~Well Information Block
STRT.FT               380.0000: 
STOP.FT              1887.5000: 
STEP.FT                 0.1000: 
NULL.                -999.2500: 
COMP.          Pioneer Natural Resources: COMPANY
WELL.          Cortina 23-25 Tr: WELL
FLD.           Purgatoire River: FIELD
LOC.           2521' FSL & 2345' FWL: LOCATION
STAT.                 Colorado: State
CNTY.               Las Animas: COUNTY
CTRY. USA : Country
SECT. 25 : Section
TOWN. 32S : Township
RANG. 67W : Range
SRVC.                Patterson: SERVICE COMPANY
DATE.          Mon Sep 26 06:09:01 2005: LOG DATE
API.           05 071 08534 00: UNIQUE WELL ID
~Curve Information Block
DEPT.FT            0 000 00 00: Depth
DCAL.in                       : CDL Caliper
RHOB.g/cc                     : CDL Bulk Density
RHOC.g/cc                     : CDL Density Correction
DPOR.pu                       : CDL Density Porosity
GR.GAPI                       : Gamma Ray
NPOR.pu                       : Neutron Porosity
~Parameter Information Block
~A  Depth       DCAL        RHOB        RHOC        DPOR         GR         NPOR    
# ...
  1378.4000      7.9807      2.6708      0.1776     -1.2618     57.6806     15.0102
  1378.5000      7.9828      2.6861      0.1439     -2.1866     55.4609     14.3669
  1378.6000      7.9842      2.6762      0.1144     -1.5849     56.2285     13.3385
  1378.7000      7.9848      2.6494      0.1311      0.0382     58.6874     12.4716
  1378.8000      7.9846      2.6163      0.0453      2.0412     60.2420     12.1610
  1378.9000      7.9838      2.5945      0.0716      3.3660     57.8948     12.6177
  1379.0000      7.9824      2.5990      0.0016      3.0889     53.0585     13.7734
  1379.1000      7.9806      2.6334      0.0538      1.0046     50.8882     14.6656
  1379.2000      7.9786      2.6744      0.1212     -1.4791     52.3672     14.6817
  1379.3000      7.9764      2.6952      0.1362     -2.7377     52.6186     14.7740
  1379.4000      7.9740      2.6942      0.1171     -2.6781     50.0275     15.4700
  1379.5000      7.9716      2.6832      0.0984     -2.0126     49.6561     16.0377
  1379.6000      7.9690      2.6666      0.0603     -1.0039     53.8600     15.8657
  1379.7000      7.9664      2.6420      0.0450      0.4849     60.0974     15.4589
  1379.8000      7.9637      2.6168      0.0407      2.0118     65.6257     15.7767
  1379.9000      7.9610      2.6104      0.0452      2.3982     70.7884     16.9608
  1380.0000      7.9582      2.6248      0.0845      1.5266     78.4260     18.1378
  1380.1000      7.9552      2.6326      0.0954      1.0519     87.8560     18.9016
  1380.2000      7.9518      2.6180      0.0952      1.9422     96.9095     19.9304
  1380.3000      7.9480      2.6006      0.0508      2.9970    106.3046     21.2893
  1380.4000      7.9437      2.6041      0.0660      2.7816    116.1111     21.9690
  1380.5000      7.9389      2.6171      0.0919      1.9921    125.5578     21.8911
  1380.6000      7.9337      2.6151      0.0556      2.1156    132.8031     21.9447
  1380.7000      7.9282      2.5981      0.0559      3.1470    133.7230     22.3259
  1380.8000      7.9227      2.5781      0.0546      4.3574    128.1573     23.0848
  1380.9000      7.9174      2.5614      0.0350      5.3722    123.9056     24.1854
  1381.0000      7.9129      2.5481      0.0031      6.1753    127.9807     24.9636
  1381.1000      7.9092      2.5339      0.0229      7.0365    137.0777     25.2402
  1381.2000      7.9067      2.5226      0.0134      7.7225    142.7352     25.6365
  1381.3000      7.9057      2.5262      0.0383      7.5054    142.6391     26.0815
  1381.4000      7.9063      2.5405      0.0335      6.6336    139.7452     26.2266
  1381.5000      7.9086      2.5469      0.0403      6.2506    136.2999     26.2353
  1381.6000      7.9126      2.5359      0.0098      6.9151    133.2287     26.2447
  1381.7000      7.9183      2.5179     -0.0111      8.0090    133.5079     26.3767
  1381.8000      7.9255      2.5050      0.0666      8.7908    139.1729     26.9918
  1381.9000      7.9340      2.4974      0.0506      9.2459    146.6208     27.6954
  1382.0000      7.9432      2.5025      0.0002      8.9415    150.8344     27.1733
  1382.1000      7.9528      2.5279      0.0646      7.3989    154.1305     25.8931
  1382.2000      7.9622      2.5652      0.0724      5.1393    161.8841     25.8096
  1382.3000      7.9708      2.5965      0.1106      3.2416    168.8214     26.6356
  1382.4000      7.9782      2.6116      0.0927      2.3273    166.3132     26.7301
  1382.5000      7.9838      2.6164      0.1451      2.0365    157.4698     25.9003
  1382.6000      7.9874      2.6167      0.1357      2.0169    150.3885     24.9511
  1382.7000      7.9887      2.6172      0.1160      1.9905    147.5383     24.9736
  1382.8000      7.9879      2.6249      0.0969      1.5206    147.5593     25.9657
  1382.9000      7.9851      2.6391      0.1363      0.6625    149.2099     26.8827
  1383.0000      7.9807      2.6541      0.0601     -0.2480    150.0923     27.3449
  1383.1000      7.9752      2.6632      0.0910     -0.8012    147.0555     26.9001
  1383.2000      7.9692      2.6546      0.0745     -0.2804    142.9305     25.4557
  1383.3000      7.9632      2.6264      0.0935      1.4325    141.5625     23.8161
  1383.4000      7.9577      2.5920      0.0561      3.5167    140.4401     22.1808
  1383.5000      7.9533      2.5668      0.0160      5.0449    137.1151     20.5815
  1383.6000      7.9500      2.5505      0.0521      6.0310    131.9876     19.7850
  1383.7000      7.9480      2.5350      0.0124      6.9686    126.3378     19.5916
  1383.8000      7.9469      2.5290      0.0460      7.3352    120.1641     18.8262
  1383.9000      7.9465      2.5466     -0.0079      6.2655    112.6048     17.9306
  1384.0000      7.9464      2.5825      0.0808      4.0937    102.3765     18.1959
  1384.1000      7.9462      2.6093      0.1310      2.4667     90.6500     19.4476
  1384.2000      7.9457      2.6054      0.1598      2.7058     79.5202     20.4020
  1384.3000      7.9447      2.5782      0.0858      4.3503     72.7278     19.8557
  1384.4000      7.9433      2.5550      0.0623      5.7561     73.7701     18.3763
  1384.5000      7.9418      2.5480      0.0200      6.1839     76.8010     17.9531
  1384.6000      7.9405      2.5495      0.0371      6.0939     76.1837     19.1901
  1384.7000      7.9397      2.5522      0.0151      5.9264     76.5916     20.7759
  1384.8000      7.9398      2.5607     -0.0273      5.4117     79.9526     21.7099
  1384.9000      7.9408      2.5758      0.0924      4.4988     81.2894     22.5722
  1385.0000      7.9429      2.5842      0.0552      3.9885     80.0471     23.9937
  1385.1000      7.9460      2.5852      0.0706      3.9268     80.2645     25.1340
  1385.2000      7.9498      2.6021      0.0354      2.9018     83.1454     24.9303
  1385.3000      7.9542      2.6490      0.0906      0.0621     87.6439     24.3303
  1385.4000      7.9588      2.6987      0.1208     -2.9518     94.3698     24.2763
  1385.5000      7.9636      2.7156      0.0867     -3.9778     99.4588     23.9547
  1385.6000      7.9682      2.6960      0.0485     -2.7874     99.9042     23.2451
  1385.7000      7.9725      2.6601      0.0797     -0.6138    103.0702     23.0852
  1385.8000      7.9764      2.6367      0.0282      0.8079    111.0342     23.6200
  1385.9000      7.9798      2.6477      0.0306      0.1370    115.7624     24.3556
  1386.0000      7.9826      2.6758      0.1465     -1.5630    115.9591     25.2216
  1386.1000      7.9847      2.6705      0.2015     -1.2405    116.2959     25.9079
  1386.2000      7.9861      2.6210      0.1029      1.7592    116.3336     25.9328
  1386.3000      7.9869      2.5690      0.0569      4.9101    115.9414     21.4563
  1386.4000      7.9872      2.5441      0.0767      6.4171    116.1205     20.3632
  1386.5000      7.9872      2.5403      0.0791      6.6464    116.9700     18.8893
  1386.6000      7.9868      2.5450      0.0722      6.3619    120.8537     17.7816
  1386.7000      7.9862      2.5533      0.0818      5.8579    125.6708     17.1912
  1386.8000      7.9854      2.5594      0.1012      5.4910    124.2016     16.9452
  1386.9000      7.9844      2.5622      0.0907      5.3223    114.0358     16.8430
  1387.0000      7.9831      2.5710      0.0571      4.7884    100.8749     17.0392
  1387.1000      7.9815      2.5820      0.1391      4.1195     90.6441     17.4120
  1387.2000      7.9795      2.5810      0.1188      4.1826     83.8626     17.1650
  1387.3000      7.9770      2.5743      0.0580      4.5896     78.8424     16.1560
  1387.4000      7.9741      2.5776      0.0423      4.3906     73.3501     15.1139
  1387.5000      7.9707      2.5906      0.1008      3.5995     67.3705     14.1908
  1387.6000      7.9667      2.5953      0.1175      3.3136     63.6936     12.9609
  1387.7000      7.9622      2.5777      0.0516      4.3813     60.7367     11.6047
  1387.8000      7.9570      2.5504      0.0688      6.0348     54.8799     10.8187
  1387.9000      7.9510      2.5356      0.0729      6.9354     47.2076     11.1514
