~Version Information
VERS.                      2.0: CWLS Log ASCII Standard - VERSION 2.0
WRAP.                       NO: One line per depth step
~Well Information Block
STRT.FT                 0.0000: 
STOP.FT              2086.0000: 
STEP.FT                 0.2500: 
NULL.                -999.2500: 
COMP.          Petrogulf Corporation: COMPANY
WELL.               YWAM 7-32R: WELL
FLD.           Purgatorie River: FIELD
LOC.           2355' FNL & 2376' FEL: LOCATION
STAT.                 Colorado: State
CNTY.               Las Animas: COUNTY
CTRY. USA : Country
SECT. 7 : Section
TOWN. 33S : Township
RANG. 67W : Range
SRVC.                Patterson: SERVICE COMPANY
DATE.          Wed Nov 09 16:33:59 2005: LOG DATE
API. 05-071-08518                         : UNIQUE WELL ID
~Curve Information Block
DEPT.FT            0 000 00 00: Depth
CCL.                          : Casing Collar Locator
TT3.usec                      : CBL 3' Travel Time
AMP3.mV                       : CBL 3' Amplitude
GR.GAPI                       : Gamma Ray
~Parameter Information Block
~A  Depth       CCL         TT3         AMP3         GR     
# ...
   134.0000      0.0000    258.2977     72.9672     39.7206
   134.2500      0.0000    258.3166     72.4518     38.4492
   134.5000      0.0000    258.3665     71.7627     37.1517
   134.7500      0.0000    258.4198     70.7944     36.0173
   135.0000      0.0000    258.4763     69.4114     35.1823
   135.2500      0.0000    258.5590     67.5180     34.3005
   135.5000      0.0000    258.6991     65.0765     32.9146
   135.7500      0.0000    258.9198     62.1466     31.3010
   136.0000      0.0000    259.2184     58.9561     30.4925
   136.2500      0.0000    259.5684     55.8472     31.2486
   136.5000      0.0000    259.9665     53.0397     33.4430
   136.7500      0.0000    260.6043     50.5160     36.6309
   137.0000      0.0000    262.2906     48.1378     40.6004
   137.2500      0.0000    266.6692     45.7794     44.9911
   137.5000      0.0000    274.7979     43.4189     48.8805
   137.7500      0.0000    284.7724     41.1521     51.2165
   138.0000      0.0000    292.7299     39.0805     51.5639
   138.2500      0.0000    296.8691     37.2534     50.4067
   138.5000      0.0000    298.3245     35.7164     48.8710
   138.7500      0.0000    298.7388     34.4677     48.0049
   139.0000      0.0000    298.9051     33.4081     48.0228
   139.2500      0.0000    299.0333     32.4413     48.1750
   139.5000      0.0000    299.1671     31.5224     47.5163
   139.7500      0.0000    299.3212     30.6085     45.9161
   140.0000      0.0000    299.4922     29.6800     44.2637
   140.2500      0.0000    299.6517     28.7870     43.6193
   140.5000      0.0000    299.7596     28.0235     44.2341
   140.7500      0.0000    299.8102     27.4585     45.4019
   141.0000      0.0000    299.8630     27.0885     46.0884
   141.2500      0.0000    299.9852     26.8545     45.6146
   141.5000      0.0000    300.1632     26.7022     43.9383
   141.7500      0.0000    300.3239     26.5940     41.6144
   142.0000      0.0000    300.4321     26.4915     39.5635
   142.2500      0.0000    300.5208     26.3522     38.6455
   142.5000      0.0000    300.6345     26.1404     39.1821
   142.7500      0.0000    300.7687     25.8774     40.7905
   143.0000      0.0000    300.8860     25.6434     42.6848
   143.2500      0.0000    300.9694     25.4983     44.1927
   143.5000      0.0000    301.0286     25.4343     45.0657
   143.7500      0.0000    301.0812     25.3936     45.4321
   144.0000      0.0000    301.1681     25.2988     45.6870
   144.2500      0.0000    301.4760     25.0579     46.5579
   144.5000      0.0000    303.1685     24.5156     48.9980
   144.7500      0.0000    310.3839     23.3259     53.6066
   145.0000      0.0000    329.4336     21.1604     60.1046
   145.2500      0.0000    358.1547     18.6063     67.4279
   145.5000      0.0000    380.1951     17.1066     74.2056
   145.7500      0.0000    390.2094     17.0319     79.2270
   146.0000      0.0000    414.3107     17.2895     81.7202
   146.2500      0.0000    477.3473     17.2298     81.3577
   146.5000      0.0000    562.3612     17.0231     78.1850
   146.7500      0.0000    623.1002     16.7638     72.9256
   147.0000     -2.0000    627.6731     16.4504     67.3351
   147.2500      2.0000    576.5276     16.2473     63.5840
   147.5000      0.0000    494.9419     16.3884     62.7569
   147.7500      0.0000    418.4943     17.0591     64.1369
   148.0000      0.0000    367.4405     18.4763     66.1216
   148.2500      0.0000    337.8917     20.5972     67.5880
   148.5000      0.0000    319.6850     22.5354     68.3704
   148.7500      0.0000    308.5175     23.4646     69.0444
   149.0000      0.0000    303.0318     23.9013     70.5631
   149.2500      0.0000    301.1517     24.6100     73.5953
   149.5000      0.0000    300.7704     25.4190     77.7647
   149.7500      0.0000    300.7731     25.9215     81.7942
   150.0000      0.0000    300.7917     26.1231     84.6340
   150.2500      0.0000    300.7438     26.2000     86.1866
   150.5000      0.0000    300.6367     26.2132     86.8090
   150.7500      0.0000    300.5475     26.1215     86.5564
   151.0000      0.0000    300.5747     25.8957     85.2819
   151.2500      0.0000    300.7383     25.5883     83.2466
   151.5000      0.0000    300.9655     25.2925     81.1564
   151.7500      0.0000    301.1758     25.0481     79.5499
   152.0000      0.0000    301.3385     24.8306     78.5256
   152.2500      0.0000    301.4570     24.5864     78.2054
   152.5000      0.0000    301.5431     24.2432     79.0903
   152.7500      0.0000    301.6292     23.7424     81.6284
   153.0000      0.0000    301.7924     23.1087     85.4905
   153.2500      0.0000    302.2254     22.4808     89.4545
   153.5000      0.0000    303.4469     22.0051     92.1229
   153.7500      0.0000    306.2003     21.6821     92.8519
   154.0000      0.0000    310.0405     21.3931     92.0305
   154.2500      0.0000    312.3073     21.0675     90.5642
   154.5000      0.0000    311.0026     20.7467     89.1468
   154.7500      0.0000    307.7204     20.4938     87.8250
   155.0000      0.0000    305.1279     20.3139     86.1069
   155.2500      0.0000    303.8995     20.1950     83.5429
   155.5000      0.0000    303.4266     20.1480     80.1394
   155.7500      0.0000    303.2516     20.1634     76.1145
   156.0000      0.0000    303.2318     20.1968     71.6000
   156.2500      0.0000    303.3067     20.2055     66.9331
   156.5000      0.0000    303.4309     20.1850     62.9778
   156.7500      0.0000    303.5185     20.2077     60.7287
   157.0000      0.0000    303.4116     20.3999     60.6613
   157.2500      0.0000    303.0473     20.8272     62.6175
   157.5000      0.0000    302.5753     21.4317     66.1345
   157.7500      0.0000    302.1931     22.1021     70.6705
   158.0000      0.0000    301.9771     22.7504     75.6607
   158.2500      0.0000    301.8925     23.3179     80.6394
   158.5000      0.0000    301.8587     23.7673     85.2651
   158.7500      0.0000    301.7998     24.1072     89.0212
   159.0000      0.0000    301.6788     24.3935     91.0647
   159.2500      0.0000    301.5110     24.6841     90.7673
   159.5000      0.0000    301.3489     24.9871     88.5659
   159.7500      0.0000    301.2471     25.2588     86.0589
   160.0000      0.0000    301.2277     25.4515     84.9743
   160.2500      0.0000    301.2741     25.5346     85.9253
   160.5000      0.0000    301.3466     25.5003     88.0682
   160.7500      0.0000    301.4034     25.3972     89.7183
   161.0000      0.0000    301.4266     25.3160     89.3463
   161.2500      0.0000    301.4301     25.3112     86.6092
   161.5000      0.0000    301.4321     25.3561     82.8021
   161.7500      0.0000    301.4429     25.3797     79.9607
   162.0000      0.0000    301.4862     25.3330     79.2534
   162.2500      0.0000    301.5874     25.2106     80.4829
   162.5000      0.0000    301.7373     25.0366     83.0972
   162.7500      0.0000    301.8987     24.8530     87.0188
   163.0000      0.0000    302.0349     24.6881     92.1904
   163.2500      0.0000    302.1198     24.5200     97.8569
   163.5000      0.0000    302.1345     24.3211    102.8430
   163.7500      0.0000    302.0685     24.1212    106.4148
   164.0000      0.0000    301.9439     23.9744    108.6792
   164.2500      0.0000    301.8211     23.8896    110.1658
   164.5000      0.0000    301.7500     23.8344    111.0760
   164.7500      0.0000    301.7355     23.7910    111.0771
   165.0000      0.0000    301.7527     23.7831    110.0224
   165.2500      0.0000    301.7597     23.8202    108.6145
   165.5000      0.0000    301.7120     23.8441    107.8018
   165.7500      0.0000    301.6024     23.7901    107.5424
   166.0000      0.0000    301.4822     23.6713    106.7992
   166.2500      0.0000    301.4181     23.5514    104.8842
   166.5000      0.0000    301.4246     23.4798    102.1830
   166.7500      0.0000    301.4530     23.4724     99.4407
   167.0000      0.0000    301.4596     23.5029     97.0421
   167.2500      0.0000    301.4586     23.5096     95.1551
