~Version Information
VERS.                      2.0: CWLS Log ASCII Standard - VERSION 2.0
WRAP.                       NO: One line per depth step
~Well Information Block
STRT.FT                -5.0000: 
STOP.FT               912.2500: 
STEP.FT                 0.2500: 
NULL.                -999.2500: 
COMP.          Pioneer Natural Resources: COMPANY
WELL.               Ernie 31-6: WELL
FLD.           Purgatoire River: FIELD
LOC.           681' FNL & 2138' FEL: LOCATION
CNTY.               Las Animas: COUNTY
SRVC.                         : SERVICE COMPANY
DATE.          Tue Jun 27 10:36:58 2006: LOG DATE
UWI.           05 071 08716 00: UNIQUE WELL ID
STAT.                       CO: STATE
~Curve Information Block
DEPT.FT            0 000 00 00: Depth
GR.GAPI                       : Gamma Ray
CCL.                          : Casing Collar Locator
TT3.usec                      : CBL 3' Travel Time
AMP3.mV                       : CBL 3' Amplitude
~Parameter Information Block
~A  Depth        GR         CCL         TT3         AMP3    
# ...
   631.5000     84.6496      0.0000    625.1273      5.3608
   631.7500     84.8240      0.0000    636.7566      5.1162
   632.0000     84.9305      0.0000    663.6874      4.8689
   632.2500     84.8162      0.0000    692.7464      4.6672
   632.5000     84.4696      0.0000    712.3017      4.5338
   632.7500     83.9389      0.0000    718.5610      4.4891
   633.0000     82.9043      0.0000    715.0731      4.5678
   633.2500     80.7748      0.0000    707.9647      4.7858
   633.5000     77.7092      0.0000    702.2294      5.1050
   633.7500     75.3269      0.0000    701.0654      5.4511
   634.0000     75.7980      0.0000    705.6288      5.7553
   634.2500     79.9707      1.8661    713.4840      5.9799
   634.5000     86.5215      0.0000    718.9672      6.1299
   634.7500     92.9855      0.0000    717.6204      6.2508
   635.0000     97.4320      0.0000    710.0441      6.3956
   635.2500     99.3014      0.0000    700.3723      6.5950
   635.5000     99.3281      0.0000    692.2720      6.8763
   635.7500     98.8503      0.0000    687.3172      7.2860
   636.0000     98.6831      0.0000    685.4084      7.8372
   636.2500     98.4199      0.0000    685.2896      8.4417
   636.5000     97.1505      0.0000    685.6163      8.9465
   636.7500     94.7762      0.0000    686.4395      9.2505
   637.0000     92.2551      0.0000    689.0244      9.3637
   637.2500     90.5853      0.0000    694.1813      9.3633
   637.5000     89.7240      0.0000    701.7972      9.3195
   637.7500     88.4720      0.0000    712.1644      9.2736
   638.0000     85.3749      0.0000    726.4694      9.2634
   638.2500     79.7711      0.0000    744.8279      9.3422
   638.5000     72.0690      0.0000    764.2825      9.5588
   638.7500     63.2240      0.0000    780.3013      9.9285
   639.0000     54.1643      0.0000    790.9637     10.4241
   639.2500     45.7800      0.0000    798.5532     10.9805
   639.5000     39.2542      0.0000    806.1554     11.5049
   639.7500     35.9885      0.0000    813.7441     11.9064
   640.0000     36.8572      0.0000    818.5287     12.1391
   640.2500     41.4272      0.0000    818.1583     12.2173
   640.5000     48.0790      0.0000    812.7280     12.1867
   640.7500     55.0788      0.0000    804.2876     12.0919
   641.0000     61.6497      0.0000    795.0920     11.9653
   641.2500     67.9967      0.0000    786.1514     11.8254
   641.5000     74.4149      0.0000    777.1158     11.6705
   641.7500     80.6525      0.0000    767.2460     11.4781
   642.0000     86.2184      0.0000    756.3351     11.2178
   642.2500     90.9330      0.0000    744.8474     10.8749
   642.5000     94.9324      0.0000    733.3265     10.4702
   642.7500     98.3054      0.0000    721.3941     10.0577
   643.0000    100.9572      0.0000    706.6073      9.6918
   643.2500    102.8616      0.0000    684.0852      9.3945
   643.5000    104.3715      0.0000    648.9567      9.1540
   643.7500    106.0114      0.0000    601.9317      8.9505
   644.0000    107.6841      0.0000    553.3335      8.7736
   644.2500    108.1978      0.0000    519.5077      8.6210
   644.5000    106.0088      0.0000    512.5937      8.4929
   644.7500    100.6828      0.0000    531.9626      8.3944
   645.0000     93.6520      0.0000    564.8494      8.3360
   645.2500     87.4403      0.0000    596.0057      8.3255
   645.5000     83.9802      0.0000    618.1399      8.3612
   645.7500     83.5436      0.0000    633.5566      8.4351
   646.0000     85.1840      0.0000    646.8770      8.5379
   646.2500     87.8930      0.0000    658.5880      8.6549
   646.5000     91.0509      0.0000    665.8125      8.7621
   646.7500     94.0376      0.0000    666.2590      8.8305
   647.0000     96.0808      0.0000    658.9739      8.8354
   647.2500     96.8098      0.0000    642.4567      8.7647
   647.5000     96.6239      0.0000    615.1263      8.6272
   647.7500     96.1276      0.0000    579.7050      8.4554
   648.0000     95.4163      0.0000    546.0565      8.2920
   648.2500     94.3045      0.0000    526.7637      8.1697
   648.5000     93.0933      0.0000    528.8679      8.1029
   648.7500     92.5573      0.0000    550.6558      8.0918
   649.0000     93.0983      0.0000    585.0753      8.1279
   649.2500     94.3704      0.0000    623.5474      8.1966
   649.5000     95.8475      0.0000    657.8259      8.2807
   649.7500     97.3732      0.0000    682.3317      8.3605
   650.0000     99.0237      0.0000    696.1771      8.4131
   650.2500    100.6895      0.0000    702.1193      8.4212
   650.5000    101.9396      0.0000    703.5268      8.3881
   650.7500    102.2069      0.0000    702.5589      8.3370
   651.0000    101.1419      0.0000    700.4109      8.2894
   651.2500     99.1645      0.0000    698.2681      8.2478
   651.5000     97.6127      0.0000    697.4204      8.1997
   651.7500     97.7360      0.0000    698.4457      8.1352
   652.0000     99.4380      0.0000    700.6780      8.0602
   652.2500    101.6525      0.0000    702.9279      7.9938
   652.5000    104.0840      0.0000    704.6688      7.9566
   652.7500    107.8255      0.0000    706.5823      7.9622
   653.0000    113.7150      0.0000    710.5070      8.0244
   653.2500    120.2593      0.0000    719.0997      8.1656
   653.5000    123.5622      0.0000    734.6595      8.4146
   653.7500    119.7148      0.0000    756.9654      8.7892
   654.0000    107.8271      0.0000    782.0735      9.2723
   654.2500     90.9740      0.0000    804.3802      9.7963
   654.5000     74.0709      0.0000    820.7449     10.2594
   654.7500     60.9032      0.0000    832.8566     10.5815
   655.0000     53.0745      0.0000    845.9716     10.7471
   655.2500     50.6678      0.0000    865.2298     10.7941
   655.5000     52.6767      0.0000    891.7242     10.7741
   655.7500     56.9107      0.0000    920.9399     10.7299
   656.0000     60.5647      0.0000    945.4883     10.6873
   656.2500     61.5653      0.0000    960.2207     10.6393
   656.5000     59.4449      0.0000    964.9876     10.5459
   656.7500     55.0743      0.0000    963.3826     10.3666
   657.0000     49.8783      0.0000    960.5197     10.0904
   657.2500     45.2151      0.0000    961.5833      9.7303
   657.5000     41.9537      0.0000    968.6489      9.3175
   657.7500     40.1622      0.0000    976.0361      8.9165
   658.0000     39.2380      0.0000    971.7619      8.6252
   658.2500     38.6193      0.0000    948.2035      8.5365
   658.5000     38.4635      0.0000    910.5554      8.6941
   658.7500     39.5685      0.0000    872.0420      9.0731
   659.0000     42.6522      0.0000    842.2424      9.5848
   659.2500     47.6255      0.0000    821.8512     10.1017
   659.5000     53.4492      0.0000    806.1354     10.5083
   659.7500     58.9108      0.0000    790.4630     10.7545
   660.0000     63.8363      0.0000    773.5284     10.8739
   660.2500     69.3620      0.0000    757.6404     10.9513
   660.5000     76.7700      0.0000    746.4081     11.0659
   660.7500     86.1952      0.0000    741.6533     11.2459
   661.0000     96.5433      0.0000    742.1569     11.4610
   661.2500    106.2557      0.0000    744.7974     11.6495
   661.5000    113.9229      0.0000    746.4708     11.7499
   661.7500    118.5159      0.0000    745.2048     11.7144
   662.0000    119.6072      0.0000    740.3304     11.5184
   662.2500    117.7111      0.0000    732.4639     11.1756
   662.5000    114.3721      0.0000    723.4036     10.7384
   662.7500    111.4412      0.0000    715.3859     10.2751
   663.0000    109.8207      0.0000    709.8868      9.8557
   663.2500    108.9358      0.0000    707.0126      9.5470
   663.5000    107.6170      0.0000    705.9570      9.3802
   663.7500    105.4350      0.0000    705.8955      9.3118
   664.0000    102.9539      0.0000    706.6412      9.2435
   664.2500    100.7317      0.0000    708.7554      9.0967
   664.5000     98.4414      0.0000    712.9941      8.8640
   664.7500     95.3006      0.0000    719.3428      8.5893
