~Version Information
VERS.                      2.0: CWLS Log ASCII Standard - VERSION 2.0
WRAP.                       NO: One line per depth step
~Well Information Block
STRT.FT               545.0000: 
STOP.FT              2200.7000: 
STEP.FT                 0.1000: 
NULL.                -999.2500: 
COMP.          Pioneer Natural Resources: COMPANY
WELL.               Erin 21-15: WELL
FLD.           Purgatoire River: FIELD
LOC.           1217' FNL & 2284' FWL--: LOCATION
CNTY.               Las Animas: COUNTY
SRVC.                Patterson: SERVICE COMPANY
DATE.          Thu Mar 02 09:55:43 2006: LOG DATE
UWI.           05 071 08713 00: UNIQUE WELL ID
STAT.                 Colorado: STATE
~Curve Information Block
DEPT.FT            0 000 00 00: Depth
DCAL.in                       : CDL Caliper
RHOB.g/cc                     : CDL Bulk Density
RHOC.g/cc                     : CDL Density Correction
DPOR.pu                       : CDL Density Porosity
NPOR.pu                       : Neutron Porosity
GR.GAPI                       : Gamma Ray
~Parameter Information Block
~A  Depth       DCAL        RHOB        RHOC        DPOR        NPOR         GR     
# ...
  1841.0000      7.9720      2.5809      0.0924      4.1849     17.7102     83.7560
  1841.1000      7.9720      2.5688      0.0493      4.9221     17.7002     79.6509
  1841.2000      7.9720      2.5676      0.0156      4.9935     17.4037     74.6702
  1841.3000      7.9718      2.5813      0.0852      4.1607     17.0258     72.1118
  1841.4000      7.9718      2.5784      0.0675      4.3373     16.9119     72.5582
  1841.5000      7.9724      2.5509      0.0024      6.0070     16.9577     74.9622
  1841.6000      7.9724      2.5272      0.0088      7.4454     16.8781     77.7976
  1841.7000      7.9724      2.5193      0.0151      7.9212     16.5846     78.6158
  1841.8000      7.9749      2.5201     -0.0142      7.8758     16.0837     75.0119
  1841.9000      7.9749      2.5315      0.0082      7.1821     15.7989     70.1745
  1842.0000      7.9793      2.5578     -0.0063      5.5894     16.2550     68.9705
  1842.1000      7.9793      2.5828      0.0754      4.0718     16.9356     70.6363
  1842.2000      7.9793      2.5862      0.0342      3.8686     17.0466     72.3241
  1842.3000      7.9825      2.5765      0.0491      4.4533     16.9022     71.8900
  1842.4000      7.9825      2.5641      0.0752      5.2058     16.9707     69.2343
  1842.5000      7.9821      2.5419      0.0515      6.5518     16.8666     68.5183
  1842.6000      7.9821      2.5221      0.0071      7.7522     16.3276     70.8689
  1842.7000      7.9821      2.5297     -0.0021      7.2904     15.8997     71.5225
  1842.8000      7.9792      2.5518      0.1031      5.9512     15.8522     68.3416
  1842.9000      7.9792      2.5579      0.0338      5.5791     15.6493     64.9595
  1843.0000      7.9777      2.5537      0.0287      5.8389     15.2009     60.5159
  1843.1000      7.9777      2.5538      0.0384      5.8278     15.0190     52.6134
  1843.2000      7.9777      2.5558      0.0590      5.7116     15.2643     48.1116
  1843.3000      7.9782      2.5580      0.0213      5.5760     15.6813     52.1758
  1843.4000      7.9782      2.5580      0.0637      5.5742     15.9080     60.3685
  1843.5000      7.9796      2.5482      0.0126      6.1710     15.8172     65.3145
  1843.6000      7.9796      2.5327      0.0099      7.1077     15.5408     63.4596
  1843.7000      7.9796      2.5191      0.0199      7.9357     15.3008     57.6765
  1843.8000      7.9845      2.5073      0.0194      8.6502     15.3012     51.5232
  1843.9000      7.9845      2.5029     -0.0140      8.9178     15.6385     46.4443
  1844.0000      7.9892      2.5115      0.0073      8.3940     16.0436     41.4053
  1844.1000      7.9892      2.5223      0.0410      7.7406     15.9983     37.9708
  1844.2000      7.9892      2.5222      0.0561      7.7466     15.6661     40.7026
  1844.3000      7.9888      2.5178      0.0371      8.0139     15.5745     46.8313
  1844.4000      7.9888      2.5247      0.0206      7.5929     15.6890     49.1426
  1844.5000      7.9890      2.5450      0.0485      6.3620     15.6165     45.2419
  1844.6000      7.9890      2.5672      0.0421      5.0172     15.1658     39.0636
  1844.7000      7.9890      2.5804      0.0571      4.2172     14.7034     35.8639
  1844.8000      7.9919      2.5790      0.0770      4.3050     14.7048     36.8387
  1844.9000      7.9919      2.5653      0.0345      5.1331     15.1587     39.8613
  1845.0000      7.9938      2.5517      0.0295      5.9585     15.5915     41.3391
  1845.1000      7.9938      2.5463      0.0327      6.2841     15.8941     39.9977
  1845.2000      7.9938      2.5496      0.0264      6.0878     16.5886     39.6884
  1845.3000      7.9951      2.5574      0.0679      5.6146     17.4580     42.0885
  1845.4000      7.9951      2.5601      0.0274      5.4492     17.7465     43.1140
  1845.5000      7.9943      2.5563      0.0011      5.6775     17.6185     42.6238
  1845.6000      7.9943      2.5529      0.0252      5.8848     17.6130     45.9042
  1845.7000      7.9943      2.5551      0.0549      5.7534     17.7102     53.9040
  1845.8000      7.9932      2.5641      0.0505      5.2063     17.6969     63.1142
  1845.9000      7.9932      2.5674      0.0872      5.0060     17.6632     72.6692
  1846.0000      7.9958      2.5515      0.0436      5.9695     17.9519     80.5098
  1846.1000      7.9958      2.5316      0.0155      7.1762     18.6280     83.2627
  1846.2000      7.9958      2.5309      0.0269      7.2200     19.2467     81.2365
  1846.3000      7.9995      2.5452      0.0592      6.3513     19.2757     77.1645
  1846.4000      7.9995      2.5592      0.0338      5.5041     18.8665     72.9932
  1846.5000      8.0001      2.5645      0.0625      5.1804     18.6202     69.9410
  1846.6000      8.0001      2.5549      0.0683      5.7650     18.7522     70.3526
  1846.7000      8.0001      2.5390      0.0292      6.7284     19.0273     73.6505
  1846.8000      7.9992      2.5351      0.0120      6.9628     19.2658     75.2619
  1846.9000      7.9992      2.5451      0.0432      6.3553     19.3297     77.0399
  1847.0000      7.9971      2.5619      0.0462      5.3417     19.2921     85.4760
  1847.1000      7.9971      2.5797      0.0688      4.2601     19.7006     95.9446
  1847.2000      7.9971      2.5885      0.0730      3.7246     20.4420     98.7593
  1847.3000      7.9949      2.5828      0.0495      4.0736     20.7411     94.8125
  1847.4000      7.9949      2.5705      0.0275      4.8182     20.6263     90.0501
  1847.5000      7.9954      2.5583      0.0474      5.5571     20.4550     85.3485
  1847.6000      7.9954      2.5469      0.0148      6.2464     20.1815     79.3898
  1847.7000      7.9954      2.5413      0.0494      6.5866     19.9692     74.6422
  1847.8000      7.9956      2.5421      0.0552      6.5374     19.9403     71.0430
  1847.9000      7.9956      2.5436      0.0551      6.4459     19.7707     66.7622
  1848.0000      7.9943      2.5353      0.0681      6.9500     19.2706     65.9637
  1848.1000      7.9943      2.5129      0.0313      8.3065     18.6823     72.4798
  1848.2000      7.9943      2.4986      0.0114      9.1770     18.4743     82.0179
  1848.3000      7.9954      2.5155     -0.0285      8.1485     18.5867     86.5420
  1848.4000      7.9954      2.5533      0.0432      5.8584     18.5040     81.4273
  1848.5000      8.0000      2.5782      0.0448      4.3516     18.2659     71.3237
  1848.6000      8.0000      2.5689      0.0322      4.9152     18.1311     67.3506
  1848.7000      8.0000      2.5431     -0.0626      6.4759     18.0037     71.4489
  1848.8000      8.0067      2.5317      0.0348      7.1710     17.8247     72.2711
  1848.9000      8.0067      2.5322      0.0215      7.1368     17.5288     63.7149
  1849.0000      8.0155      2.5330      0.0772      7.0906     17.1820     55.0469
  1849.1000      8.0155      2.5393      0.0370      6.7110     16.9822     55.3728
  1849.2000      8.0155      2.5540      0.0498      5.8200     16.9828     62.4326
  1849.3000      8.0151      2.5604      0.0708      5.4324     17.0190     68.9241
  1849.4000      8.0151      2.5504     -0.0057      6.0381     16.9598     69.9472
  1849.5000      8.0007      2.5415      0.0089      6.5787     16.8547     66.4626
  1849.6000      8.0007      2.5407      0.0451      6.6264     16.7974     63.6336
  1849.7000      8.0007      2.5414      0.0193      6.5830     16.9218     62.4593
  1849.8000      7.9888      2.5468      0.0236      6.2526     17.0239     62.6420
  1849.9000      7.9888      2.5602      0.0182      5.4401     16.7221     63.1888
  1850.0000      7.9848      2.5725      0.0514      4.6992     16.2788     60.8922
  1850.1000      7.9848      2.5681      0.0814      4.9638     16.1749     58.9932
  1850.2000      7.9848      2.5489      0.0022      6.1286     16.4337     60.8697
  1850.3000      7.9819      2.5329      0.0339      7.0982     16.7474     62.7997
  1850.4000      7.9819      2.5234      0.0317      7.6699     16.8213     62.2073
  1850.5000      7.9787      2.5208     -0.0009      7.8290     16.6034     60.1075
