~Version Information
VERS.                      2.0: CWLS Log ASCII Standard - VERSION 2.0
WRAP.                       NO: One line per depth step
~Well Information Block
STRT.FT               625.0000: 
STOP.FT              2053.7000: 
STEP.FT                 0.1000: 
NULL.                -999.2500: 
COMP.          Pioneer Natural Resources: COMPANY
WELL.            Zink 44-10 Tr: WELL
FLD.           Purgatoire River: FIELD
LOC.           486' FSL & 554' FEL--: LOCATION
PROV.                 Colorado: PROVINCE
CNTY.               Las Animas: COUNTRY
SRVC.                Patterson: SERVICE COMPANY
DATE.          Sun Jul 24 08:46:57 2005: LOG DATE
UWI.           05 071 08446 00: UNIQUE WELL ID
~Curve Information Block
DEPT.FT            0 000 00 00: Depth
DCAL.in                       : CDL Caliper
RHOB.g/cc                     : CDL Bulk Density
RHOC.g/cc                     : CDL Density Correction
DPOR.pu                       : CDL Density Porosity
NPOR.pu                       : Neutron Porosity
GR.GAPI                       : Gamma Ray
~Parameter Information Block
~A  Depth       DCAL        RHOB        RHOC        DPOR        NPOR         GR     
# ...
   807.4000      8.0407      2.5585      0.0625      5.5438     28.4229    109.8447
   807.5000      8.0390      2.5612      0.0311      5.3829     29.0145    116.2353
   807.6000      8.0390      2.5601      0.0689      5.4460     29.5224    121.8998
   807.7000      8.0390      2.5545      0.0566      5.7857     29.8755    123.2382
   807.8000      8.0370      2.5428      0.0055      6.4994     29.9229    123.5749
   807.9000      8.0370      2.5319      0.0222      7.1568     29.9194    126.0044
   808.0000      8.0364      2.5340     -0.0324      7.0276     30.0697    130.6413
   808.1000      8.0364      2.5502      0.0535      6.0474     30.1252    133.8328
   808.2000      8.0364      2.5625      0.0689      5.3033     30.0357    134.1125
   808.3000      8.0369      2.5654      0.0198      5.1261     29.9288    135.4827
   808.4000      8.0369      2.5714      0.0216      4.7606     29.7642    140.7786
   808.5000      8.0377      2.5777      0.0515      4.3816     29.5057    146.5699
   808.6000      8.0377      2.5732      0.0434      4.6565     29.3732    148.0305
   808.7000      8.0377      2.5662      0.0390      5.0798     29.5189    144.0107
   808.8000      8.0398      2.5648      0.0349      5.1616     29.4591    138.1861
   808.9000      8.0398      2.5592      0.0464      5.5054     28.8104    134.3141
   809.0000      8.0411      2.5493     -0.0117      6.1032     28.0285    130.7290
   809.1000      8.0411      2.5481      0.0170      6.1730     27.5619    125.8037
   809.2000      8.0411      2.5520      0.0200      5.9368     27.2336    121.8345
   809.3000      8.0397      2.5517     -0.0120      5.9579     27.1566    121.2617
   809.4000      8.0397      2.5503      0.0165      6.0398     27.4327    120.3273
   809.5000      8.0374      2.5530     -0.0132      5.8801     27.5143    116.9285
   809.6000      8.0374      2.5606      0.0324      5.4197     27.2031    115.8713
   809.7000      8.0374      2.5678      0.0264      4.9845     26.8442    116.4625
   809.8000      8.0376      2.5693      0.0213      4.8886     26.5912    116.0580
   809.9000      8.0376      2.5718     -0.0044      4.7402     26.3210    118.4132
   810.0000      8.0381      2.5796      0.0271      4.2652     26.1045    123.4608
   810.1000      8.0381      2.5820      0.0215      4.1225     26.1933    123.0933
   810.2000      8.0381      2.5776      0.0190      4.3901     26.7411    113.0249
   810.3000      8.0341      2.5811      0.0047      4.1779     27.6310    100.5734
   810.4000      8.0341      2.5977      0.0216      3.1674     28.4053     95.2548
   810.5000      8.0242      2.6151      0.0461      2.1128     28.7338     97.7710
   810.6000      8.0242      2.6150      0.0636      2.1208     28.6754    102.8928
   810.7000      8.0242      2.5983     -0.0192      3.1322     28.7093    107.5138
   810.8000      8.0148      2.5859     -0.0095      3.8872     29.2828    109.9414
   810.9000      8.0148      2.5844      0.0546      3.9753     30.1821    107.3884
   811.0000      8.0124      2.5899     -0.0170      3.6429     30.8815    100.7464
   811.1000      8.0124      2.6024      0.0568      2.8851     31.1527     96.8349
   811.2000      8.0124      2.6129      0.0629      2.2463     31.2369     99.6535
   811.3000      8.0129      2.6129      0.0722      2.2484     31.5969    105.7653
   811.4000      8.0129      2.6024      0.0429      2.8878     32.1401    108.9284
   811.5000      8.0136      2.5854      0.0435      3.9141     32.2752    108.6010
   811.6000      8.0136      2.5744      0.0125      4.5822     32.1702    108.9397
   811.7000      8.0136      2.5811      0.0482      4.1777     32.4125    109.6722
   811.8000      8.0152      2.5944      0.0532      3.3678     32.5475    109.9034
   811.9000      8.0152      2.5942      0.0553      3.3791     31.9850    111.1318
   812.0000      8.0161      2.5800      0.0196      4.2425     31.4817    115.2141
   812.1000      8.0161      2.5637      0.0545      5.2282     31.6854    122.3897
   812.2000      8.0161      2.5501      0.0584      6.0550     32.0981    128.2867
   812.3000      8.0164      2.5430      0.0175      6.4836     31.9742    129.1671
   812.4000      8.0164      2.5440      0.0320      6.4272     31.2895    128.0724
   812.5000      8.0178      2.5415      0.0701      6.5778     30.6514    129.6188
   812.6000      8.0178      2.5322      0.0263      7.1368     30.4674    132.2625
   812.7000      8.0178      2.5303      0.0313      7.2539     30.5938    132.1848
   812.8000      8.0200      2.5427      0.0454      6.5046     30.6055    130.0360
   812.9000      8.0200      2.5618      0.0399      5.3469     30.2511    129.1820
   813.0000      8.0203      2.5769      0.0868      4.4315     29.7461    131.0450
   813.1000      8.0203      2.5837      0.0981      4.0168     29.6051    134.1443
   813.2000      8.0203      2.5863      0.0924      3.8621     29.8955    135.6089
   813.3000      8.0193      2.5830      0.0978      4.0604     30.1621    134.3538
   813.4000      8.0193      2.5736      0.0341      4.6316     30.2420    131.8903
   813.5000      8.0191      2.5676      0.0629      4.9922     30.2920    128.0853
   813.6000      8.0191      2.5584      0.0706      5.5504     30.3792    125.9512
   813.7000      8.0191      2.5383      0.0206      6.7678     30.2063    128.2069
   813.8000      8.0161      2.5313     -0.0117      7.1950     29.7380    128.7765
   813.9000      8.0161      2.5535      0.0474      5.8492     29.3509    124.0570
   814.0000      8.0129      2.5823      0.0901      4.1020     29.1193    119.8607
   814.1000      8.0129      2.5964      0.0709      3.2461     28.9858    120.5488
   814.2000      8.0129      2.6004      0.0618      3.0058     28.8542    121.9640
   814.3000      8.0135      2.5998      0.0420      3.0421     28.4263    121.6373
   814.4000      8.0135      2.5916      0.0452      3.5423     27.7663    123.1256
   814.5000      8.0137      2.5810      0.0395      4.1832     27.2879    127.7316
   814.6000      8.0137      2.5774      0.0601      4.4019     27.2135    130.7729
   814.7000      8.0137      2.5765      0.0549      4.4557     27.5368    131.0074
   814.8000      8.0118      2.5730      0.0407      4.6655     27.8537    132.9324
   814.9000      8.0118      2.5697      0.0588      4.8680     27.5553    133.4406
   815.0000      8.0135      2.5630      0.0806      5.2738     26.7696    129.9883
   815.1000      8.0135      2.5495      0.0641      6.0894     26.1751    129.3911
   815.2000      8.0135      2.5479      0.0327      6.1849     25.8949    132.8848
   815.3000      8.0196      2.5741      0.0651      4.5974     25.7319    133.1806
   815.4000      8.0196      2.6018      0.1147      2.9231     25.6887    127.2543
   815.5000      8.0264      2.6011      0.0414      2.9644     25.6724    118.7614
   815.6000      8.0264      2.5853      0.0781      3.9235     25.6392    111.5167
   815.7000      8.0264      2.5716      0.0716      4.7533     25.7031    106.4394
   815.8000      8.0341      2.5557     -0.0005      5.7153     25.9046    104.1769
   815.9000      8.0341      2.5357      0.0382      6.9267     26.1264    107.5786
   816.0000      8.0390      2.5191      0.0421      7.9317     26.1489    114.5356
   816.1000      8.0390      2.5149      0.0166      8.1860     26.0095    116.5388
   816.2000      8.0390      2.5251      0.0569      7.5697     26.0153    113.0260
   816.3000      8.0398      2.5392      0.0403      6.7139     26.0471    111.0079
   816.4000      8.0398      2.5494      0.0564      6.0943     25.9249    111.6146
   816.5000      8.0391      2.5571      0.0754      5.6308     26.0865    112.1831
   816.6000      8.0391      2.5679      0.0519      4.9748     26.6310    111.4885
   816.7000      8.0391      2.5837      0.0737      4.0188     27.0996    110.2458
   816.8000      8.0365      2.5910      0.0834      3.5755     27.2844    109.3407
   816.9000      8.0365      2.5802      0.0303      4.2327     27.3608    107.6911
