~Version Information
VERS.                      2.0: CWLS Log ASCII Standard - VERSION 2.0
WRAP.                       NO: One line per depth step
~Well Information Block
STRT.FT               830.0000: 
STOP.FT              2368.5000: 
STEP.FT                 0.1000: 
NULL.                -999.2500: 
COMP.          Pioneer Natural Resources: COMPANY
WELL.              Rolls 14-14: WELL
FLD.           Purgatoire River: FIELD
LOC.           572' FSL & 856' FWL: LOCATION
PROV.                 Colorado: PROVINCE
CNTY.               Las Animas: COUNTRY
SRVC.                Patterson: SERVICE COMPANY
DATE.          Mon Aug 01 05:48:31 2005: LOG DATE
UWI.           05 071 08455 00: UNIQUE WELL ID
~Curve Information Block
DEPT.FT            0 000 00 00: Depth
DCAL.in                       : CDL Caliper
RHOB.g/cc                     : CDL Bulk Density
RHOC.g/cc                     : CDL Density Correction
DPOR.pu                       : CDL Density Porosity
GR.GAPI                       : Gamma Ray
NPOR.pu                       : Neutron Porosity
~Parameter Information Block
~A  Depth       DCAL        RHOB        RHOC        DPOR         GR         NPOR    
# ...
  1540.4000      8.1833      2.5482      0.0667      6.1710    140.7239     23.5891
  1540.5000      8.1787      2.5682      0.0568      4.9574    150.1680     22.9338
  1540.6000      8.1787      2.5784     -0.0319      4.3384    151.8566     22.0821
  1540.7000      8.1787      2.5811      0.0449      4.1758    145.4113     21.3633
  1540.8000      8.1741      2.5614      0.0444      5.3692    143.4413     20.7934
  1540.9000      8.1741      2.5113     -0.0123      8.4078    149.8905     20.2421
  1541.0000      8.2055      2.4468     -0.0113     12.3178    153.5373     19.9619
  1541.1000      8.2055      2.3958     -0.0767     15.4082    148.2426     20.1146
  1541.2000      8.2055      2.3777     -0.0446     16.5022    139.2404     20.5698
  1541.3000      8.2117      2.3889     -0.0869     15.8230    134.0648     21.0082
  1541.4000      8.2117      2.4180     -0.0394     14.0593    134.7770     21.0891
  1541.5000      8.2232      2.4488      0.0576     12.1960    139.3688     20.9601
  1541.6000      8.2232      2.4584      0.1310     11.6130    144.9365     20.7118
  1541.7000      8.2232      2.4345      0.1271     13.0629    146.2135     20.2505
  1541.8000      8.2655      2.3911      0.0644     15.6891    143.3918     19.8341
  1541.9000      8.2655      2.3535      0.0906     17.9705    140.6341     19.5225
  1542.0000      8.3373      2.3291      0.0423     19.4470    137.1956     19.1687
  1542.1000      8.3373      2.3183      0.0157     20.1014    131.5274     19.0925
  1542.2000      8.3373      2.3209      0.0367     19.9439    126.7085     19.3566
  1542.3000      8.3017      2.3275      0.0228     19.5437    126.1574     19.4397
  1542.4000      8.3017      2.3329      0.0030     19.2207    129.4278     19.1573
  1542.5000      8.2664      2.3463      0.0323     18.4080    133.8399     18.8755
  1542.6000      8.2664      2.3815      0.1036     16.2722    137.1586     19.0403
  1542.7000      8.2664      2.4393      0.1643     12.7676    137.8211     19.6282
  1542.8000      8.2571      2.5058      0.2789      8.7368    138.1546     20.1032
  1542.9000      8.2571      2.5686      0.3070      4.9354    142.6714     20.3723
  1543.0000      8.3468      2.6207      0.3448      1.7777    148.0812     20.9756
  1543.1000      8.3468      2.6411      0.3380      0.5367    149.5722     21.9686
  1543.2000      8.3468      2.6079      0.2163      2.5492    149.6287     22.7391
  1543.3000      8.3445      2.5335      0.1213      7.0622    149.4760     22.8062
  1543.4000      8.3445      2.4608      0.0118     11.4643    147.1440     22.4703
  1543.5000      8.2969      2.4264      0.0236     13.5520    143.3120     22.5691
  1543.6000      8.2969      2.4352     -0.0162     13.0171    137.9993     23.2226
  1543.7000      8.2969      2.4706      0.0323     10.8700    134.0344     23.6660
  1543.8000      8.2999      2.5057      0.0494      8.7470    133.3523     23.4630
  1543.9000      8.2999      2.5179      0.0592      8.0068    133.0737     22.8500
  1544.0000      8.3021      2.5028      0.0371      8.9184    135.4630     22.1956
  1544.1000      8.3021      2.4749      0.0178     10.6110    142.5916     21.9495
  1544.2000      8.3021      2.4535      0.0065     11.9100    151.3418     22.1670
  1544.3000      8.3197      2.4408      0.0229     12.6785    160.9685     22.4253
  1544.4000      8.3197      2.4253     -0.0225     13.6206    171.0379     22.4772
  1544.5000      8.2752      2.4060     -0.0059     14.7859    177.3934     22.2689
  1544.6000      8.2752      2.3882     -0.0125     15.8646    178.2614     21.7998
  1544.7000      8.2752      2.3712     -0.0259     16.8945    176.0474     21.2598
  1544.8000      8.2463      2.3528     -0.0449     18.0116    172.5209     21.0288
  1544.9000      8.2463      2.3386     -0.0187     18.8721    166.3872     21.2324
  1545.0000      8.2235      2.3394     -0.0148     18.8269    155.6631     21.4570
  1545.1000      8.2235      2.3550      0.0479     17.8808    143.1559     21.4465
  1545.2000      8.2235      2.3771      0.0671     16.5369    136.1670     21.5901
  1545.3000      8.2384      2.4079      0.0696     14.6701    137.8427     22.0141
  1545.4000      8.2384      2.4493      0.1458     12.1610    141.9558     22.4720
  1545.5000      8.2434      2.4835      0.1788     10.0935    143.7635     22.7137
  1545.6000      8.2434      2.4921      0.1499      9.5700    147.1521     22.4160
  1545.7000      8.2434      2.4756      0.1255     10.5680    152.8178     21.7539
  1545.8000      8.2359      2.4488      0.0789     12.1945    155.0298     21.3887
  1545.9000      8.2359      2.4293      0.0769     13.3760    153.2654     21.5004
  1546.0000      8.2570      2.4245      0.0459     13.6647    153.4222     21.7939
  1546.1000      8.2570      2.4333      0.0793     13.1305    155.2843     22.0829
  1546.2000      8.2570      2.4505      0.0722     12.0912    153.0775     22.2001
  1546.3000      8.2504      2.4706      0.0845     10.8703    147.6043     22.0455
  1546.4000      8.2504      2.4893      0.1045      9.7383    144.4329     21.8223
  1546.5000      8.2242      2.4981      0.1421      9.2083    144.4089     22.0933
  1546.6000      8.2242      2.4924      0.0906      9.5499    142.3035     22.9246
  1546.7000      8.2242      2.4754      0.0987     10.5826    136.5402     23.6715
  1546.8000      8.2318      2.4427      0.1217     12.5623    135.1022     24.0008
  1546.9000      8.2318      2.3957      0.0868     15.4098    140.8468     24.2232
  1547.0000      8.2127      2.3643     -0.0161     17.3180    145.9738     24.8047
  1547.1000      8.2127      2.3842     -0.0081     16.1085    146.2696     25.8004
  1547.2000      8.2127      2.4556      0.0423     11.7808    142.2912     26.7330
  1547.3000      8.1817      2.5421      0.0799      6.5423    135.0129     27.2447
  1547.4000      8.1817      2.6165      0.0573      2.0312    127.0562     27.2912
  1547.5000      8.1589      2.6816      0.1162     -1.9133    123.4557     26.7302
  1547.6000      8.1589      2.7333      0.2082     -5.0459    126.9695     25.9583
  1547.7000      8.1589      2.7568      0.1356     -6.4708    130.8134     25.6162
  1547.8000      8.1416      2.7469      0.0871     -5.8732    128.0406     25.6477
  1547.9000      8.1416      2.6983      0.0744     -2.9258    123.2624     25.6828
  1548.0000      8.1261      2.6165     -0.0551      2.0300    124.0123     25.3386
  1548.1000      8.1261      2.5316     -0.0759      7.1763    127.6264     24.4528
  1548.2000      8.1261      2.4812     -0.1355     10.2282    127.3536     23.3510
  1548.3000      8.0949      2.4914     -0.0985      9.6114    126.2878     22.3697
  1548.4000      8.0949      2.5417      0.0645      6.5606    129.6681     21.6808
  1548.5000      8.0932      2.5753      0.0866      4.5302    135.3723     21.2181
  1548.6000      8.0932      2.5659      0.1074      5.0954    137.2198     20.8222
  1548.7000      8.0932      2.5342      0.1114      7.0163    131.1529     20.4619
  1548.8000      8.2053      2.5036      0.1213      8.8743    121.0201     19.9728
  1548.9000      8.2053      2.4800      0.1019     10.3030    115.2688     19.2795
  1549.0000      8.2324      2.4630      0.1349     11.3321    118.2670     18.7040
  1549.1000      8.2324      2.4457      0.0890     12.3788    127.3231     18.4617
  1549.2000      8.2324      2.4180      0.0290     14.0594    135.7847     18.2808
  1549.3000      8.2750      2.3802      0.0345     16.3501    137.0731     17.8089
  1549.4000      8.2750      2.3398      0.0159     18.8026    128.7860     17.2042
  1549.5000      8.2593      2.2989      0.0447     21.2776    114.9286     16.6912
  1549.6000      8.2593      2.2377      0.1043     24.9902    103.5778     15.9323
  1549.7000      8.2593      2.1220      0.0596     32.0002    100.7541     14.6932
  1549.8000      8.3271      1.9528     -0.0264     42.2531    100.8179     13.4947
  1549.9000      8.3271      1.7798     -0.0778     52.7379     95.5039     12.8988
