~Version Information
VERS.                      2.0: CWLS Log ASCII Standard - VERSION 2.0
WRAP.                       NO: One line per depth step
~Well Information Block
STRT.FT               615.0000: 
STOP.FT              1609.0000: 
STEP.FT                 0.2500: 
NULL.                -999.2500: 
COMP.          Pioneer Natural Resources: COMPANY
WELL.          Galloway 32-13 Tr: WELL
FLD.           Purgatoire River: FIELD
LOC.           1910' FNL & 2002' FEL: LOCATION
PROV.                 Colorado: PROVINCE
CNTY.               Las Animas: COUNTRY
SRVC.                Patterson: SERVICE COMPANY
DATE.          Sat Nov 12 20:19:28 2005: LOG DATE
UWI.           05 071 08608 00: UNIQUE WELL ID
~Curve Information Block
DEPT.FT            0 000 00 00: Depth
SN.Ohm-m                      : IEL Short Normal
SP.mV                         : IEL Spontaneous Potential
DIR.Ohm-m                     : IEL Induction Resistivity
GR.GAPI                       : Gamma Ray
~Parameter Information Block
~A  Depth        SN          SP         DIR          GR     
# ...
  1184.5000      7.1059     53.0704      6.4886    118.7110
  1184.7500      7.1041     52.6896      6.5600    121.0111
  1185.0000      7.0267     52.2796      6.6221    124.1000
  1185.2500      7.0167     51.8545      6.6727    125.0348
  1185.5000      7.1122     51.4384      6.7101    123.9468
  1185.7500      7.2678     51.0514      6.7312    122.0888
  1186.0000      7.4468     50.7020      6.7319    119.4672
  1186.2500      7.6164     50.3899      6.7108    118.5822
  1186.5000      7.7450     50.1115      6.6722    118.4998
  1186.7500      7.8504     49.8650      6.6257    118.7573
  1187.0000      7.9801     49.6502      6.5829    118.8866
  1187.2500      8.0958     49.4654      6.5536    118.8103
  1187.5000      8.1058     49.3052      6.5453    119.0851
  1187.7500      8.0120     49.1617      6.5650    119.8200
  1188.0000      7.8578     49.0290      6.6213    121.3416
  1188.2500      7.6250     48.9083      6.7240    121.9307
  1188.5000      7.3451     48.8089      6.8813    121.2411
  1188.7500      7.1471     48.7448      7.0979    119.9991
  1189.0000      7.0994     48.7276      7.3741    119.1856
  1189.2500      7.2052     48.7631      7.7075    121.1070
  1189.5000      7.5240     48.8546      8.0958    129.3210
  1189.7500      8.1056     49.0121      8.5390    137.4015
  1190.0000      8.9016     49.2560      9.0375    148.3844
  1190.2500      9.8737     49.6118      9.5904    151.2435
  1190.5000     11.2110     50.1004     10.1953    144.6972
  1190.7500     13.4632     50.7300     10.8542    133.3453
  1191.0000     17.3218     51.4944     11.5819    110.5317
  1191.2500     22.9655     52.3736     12.4108     95.2338
  1191.5000     29.5200     53.3393     13.3842     77.4270
  1191.7500     35.3649     54.3627     14.5393     70.7240
  1192.0000     39.1437     55.4197     15.8830     69.3834
  1192.2500     40.5237     56.4863     17.3720     73.8119
  1192.5000     40.0535     57.5311     18.9045     85.7773
  1192.7500     38.4947     58.5118     20.3362     95.1146
  1193.0000     36.4332     59.3831     21.5181    108.0810
  1193.2500     34.2634     60.1104     22.3418    115.3136
  1193.5000     32.2197     60.6798     22.7691    124.1770
  1193.7500     30.4058     61.1009     22.8325    128.7733
  1194.0000     28.8795     61.3996     22.6105    132.8381
  1194.2500     27.7266     61.6038     22.1999    133.1632
  1194.5000     26.9879     61.7310     21.6959    130.5793
  1194.7500     26.5212     61.7897     21.1797    127.8501
  1195.0000     26.0971     61.7913     20.7059    123.9036
  1195.2500     25.6787     61.7597     20.2946    121.7291
  1195.5000     25.4613     61.7270     19.9343    119.1132
  1195.7500     25.5451     61.7187     19.6000    117.9153
  1196.0000     25.7157     61.7441     19.2803    117.7254
  1196.2500     25.7010     61.7970     18.9988    119.1862
  1196.5000     25.4840     61.8630     18.8111    123.9712
  1196.7500     25.1797     61.9261     18.7716    128.4800
  1197.0000     24.8031     61.9741     18.8916    135.9325
  1197.2500     24.3391     62.0023     19.1209    140.4763
  1197.5000     23.9170     62.0177     19.3707    145.0944
  1197.7500     23.7267     62.0360     19.5619    146.0558
  1198.0000     23.7406     62.0679     19.6585    144.4670
  1198.2500     23.7316     62.1078     19.6638    142.2675
  1198.5000     23.6001     62.1374     19.5999    138.9830
  1198.7500     23.4650     62.1415     19.5009    137.1830
  1199.0000     23.4494     62.1202     19.4147    134.5239
  1199.2500     23.5406     62.0863     19.3914    132.4272
  1199.5000     23.6517     62.0541     19.4581    129.2388
  1199.7500     23.6901     62.0325     19.6038    127.9018
  1200.0000     23.5804     62.0235     19.7866    128.4738
  1200.2500     23.3144     62.0237     19.9579    130.8358
  1200.5000     22.9727     62.0257     20.0856    136.3104
  1200.7500     22.6711     62.0184     20.1620    139.9674
  1201.0000     22.4770     61.9900     20.1971    143.4649
  1201.2500     22.3752     61.9324     20.2076    144.0851
  1201.5000     22.3179     61.8441     20.2102    142.9815
  1201.7500     22.2989     61.7307     20.2205    141.3135
  1202.0000     22.3775     61.6018     20.2579    137.8117
  1202.2500     22.6406     61.4670     20.3515    135.0526
  1202.5000     23.1009     61.3346     20.5400    130.8915
  1202.7500     23.6523     61.2094     20.8617    128.3242
  1203.0000     24.1923     61.0916     21.3365    124.5580
  1203.2500     24.7663     60.9749     21.9493    121.7725
  1203.5000     25.5438     60.8492     22.6492    116.7133
  1203.7500     26.6485     60.7062     23.3691    112.5760
  1204.0000     28.0414     60.5463     24.0548    104.9283
  1204.2500     29.5907     60.3802     24.6794     98.7378
  1204.5000     31.1748     60.2260     25.2328     88.1200
  1204.7500     32.6933     60.1002     25.7065     80.8730
  1205.0000     34.0767     60.0085     26.0918     71.7471
  1205.2500     35.2541     59.9396     26.3886     68.0062
  1205.5000     36.1012     59.8671     26.6073     66.9969
  1205.7500     36.4926     59.7567     26.7620     69.1718
  1206.0000     36.3561     59.5787     26.8599     75.1399
  1206.2500     35.6883     59.3174     26.8957     79.8430
  1206.5000     34.5942     58.9757     26.8529     86.6864
  1206.7500     33.2172     58.5726     26.7144     90.7409
  1207.0000     31.6583     58.1357     26.4762     95.7330
  1207.2500     30.0792     57.6910     26.1521     98.1451
  1207.5000     28.6946     57.2504     25.7691    100.1643
  1207.7500     27.5820     56.8093     25.3602    100.6596
  1208.0000     26.6827     56.3576     24.9601    101.3431
  1208.2500     25.9683     55.8968     24.5950    102.5695
  1208.5000     25.4534     55.4455     24.2678    105.9920
  1208.7500     25.0686     55.0268     23.9545    108.9116
  1209.0000     24.6919     54.6550     23.6225    113.2542
  1209.2500     24.2958     54.3346     23.2603    115.7940
  1209.5000     23.9240     54.0644     22.8886    118.7299
  1209.7500     23.6080     53.8364     22.5441    119.7370
  1210.0000     23.3869     53.6326     22.2542    119.1031
  1210.2500     23.3166     53.4309     22.0303    117.2770
  1210.5000     23.4371     53.2185     21.8792    113.4937
  1210.7500     23.7729     52.9986     21.8145    110.9224
  1211.0000     24.3280     52.7857     21.8490    107.1386
  1211.2500     24.9811     52.5982     21.9737    104.4063
  1211.5000     25.4438     52.4522     22.1469    100.1798
  1211.7500     25.5266     52.3572     22.3099     97.9605
  1212.0000     25.3789     52.3125     22.4199     96.6415
  1212.2500     25.2836     52.3069     22.4691     97.0816
  1212.5000     25.3379     52.3211     22.4786     98.7701
  1212.7500     25.3978     52.3358     22.4773    100.1998
  1213.0000     25.2148     52.3399     22.4856    103.1122
  1213.2500     24.6635     52.3336     22.5108    105.9054
  1213.5000     23.8740     52.3237     22.5530    111.1866
  1213.7500     23.1159     52.3148     22.6138    114.8267
  1214.0000     22.5637     52.3046     22.6995    119.2613
  1214.2500     22.1987     52.2845     22.8148    121.0169
  1214.5000     21.9718     52.2447     22.9513    121.2632
  1214.7500     21.9631     52.1779     23.0849    119.6211
  1215.0000     22.2854     52.0814     23.1869    114.3792
  1215.2500     22.9121     51.9579     23.2414    109.2302
  1215.5000     23.6687     51.8151     23.2586     99.8527
  1215.7500     24.3521     51.6644     23.2752     93.2606
  1216.0000     24.8813     51.5173     23.3402     84.2949
  1216.2500     25.3265     51.3825     23.4917     79.4865
  1216.5000     25.7654     51.2640     23.7385     74.1817
  1216.7500     26.1838     51.1618     24.0554     71.7926
  1217.0000     26.4992     51.0757     24.3934     70.0008
  1217.2500     26.6410     51.0090     24.6967     70.1879
  1217.5000     26.6642     50.9675     24.9230     72.4895
  1217.7500     26.7148     50.9573     25.0584     74.9319
