~Version Information
VERS.                      2.0: CWLS Log ASCII Standard - VERSION 2.0
WRAP.                       NO: One line per depth step
~Well Information Block
STRT.FT               235.0000: 
STOP.FT              1271.0000: 
STEP.FT                 0.1000: 
NULL.                -999.2500: 
COMP.          Pioneer Natural Resources: COMPANY
WELL.              Julie 11-30: WELL
FLD.           Purgatoire River: FIELD
LOC.           672' FNL & 1052' FWL: LOCATION
CNTY.               Las Animas: COUNTY
SRVC.                Patterson: SERVICE COMPANY
DATE.          Fri Apr 14 07:21:24 2006: LOG DATE
UWI.           05 071 08724 00: UNIQUE WELL ID
STAT.                 Colorado: STATE
~Curve Information Block
DEPT.FT            0 000 00 00: Depth
DCAL.in                       : CDL Caliper
RHOB.g/cc                     : CDL Bulk Density
RHOC.g/cc                     : CDL Density Correction
DPOR.pu                       : CDL Density Porosity
GR.GAPI                       : Gamma Ray
NPOR.pu                       : Neutron Porosity
~Parameter Information Block
~A  Depth       DCAL        RHOB        RHOC        DPOR         GR         NPOR    
# ...
   916.6000      8.1027      2.5313      0.0274      7.1918     41.4023     15.1750
   916.7000      8.1027      2.5432      0.0317      6.4754     41.4291     15.2671
   916.8000      8.1047      2.5299      0.0233      7.2788     38.9513     15.2141
   916.9000      8.1047      2.5161      0.0514      8.1152     35.5476     15.1401
   917.0000      8.1046      2.5126      0.0281      8.3281     34.2024     15.2020
   917.1000      8.1046      2.5053      0.0578      8.7684     34.4099     15.2218
   917.2000      8.1046      2.4876      0.0577      9.8451     35.3111     15.1923
   917.3000      8.1041      2.4715      0.0102     10.8170     38.4624     15.3269
   917.4000      8.1041      2.4688      0.0084     10.9809     42.2839     15.7746
   917.5000      8.1003      2.4739      0.0320     10.6749     43.6735     16.3922
   917.6000      8.1003      2.4787     -0.0318     10.3799     43.6095     16.8354
   917.7000      8.1003      2.4842     -0.0017     10.0512     43.6119     16.7934
   917.8000      8.0995      2.4926      0.0113      9.5411     42.8303     16.5355
   917.9000      8.0995      2.5044      0.0403      8.8246     41.9408     16.4021
   918.0000      8.0976      2.5166      0.0696      8.0862     43.8073     16.1737
   918.1000      8.0976      2.5291      0.0279      7.3301     47.7501     16.0438
   918.2000      8.0976      2.5409      0.0886      6.6095     50.9707     16.3444
   918.3000      8.0982      2.5398      0.0886      6.6765     53.4194     16.6928
   918.4000      8.0982      2.5254      0.0441      7.5530     56.2153     16.7065
   918.5000      8.1004      2.5091      0.0629      8.5393     58.4376     16.5565
   918.6000      8.1004      2.4941      0.0100      9.4499     57.8434     16.7378
   918.7000      8.1004      2.4838     -0.0038     10.0716     56.5644     17.3399
   918.8000      8.0987      2.4759      0.0389     10.5524     57.9730     17.9426
   918.9000      8.0987      2.4666      0.0213     11.1147     62.8764     18.4310
   919.0000      8.0973      2.4746      0.0180     10.6306     68.7013     19.0922
   919.1000      8.0973      2.5130      0.0023      8.3028     72.2135     19.9628
   919.2000      8.0973      2.5559      0.0688      5.7030     74.7950     20.4813
   919.3000      8.0980      2.5701      0.1150      4.8426     76.8782     20.4303
   919.4000      8.0980      2.5571      0.1224      5.6303     76.8302     20.3940
   919.5000      8.0947      2.5384      0.0567      6.7611     77.6362     20.4358
   919.6000      8.0947      2.5279      0.0436      7.4029     81.2540     20.2868
   919.7000      8.0947      2.5267      0.0694      7.4743     85.1643     20.1703
   919.8000      8.0961      2.5267      0.0632      7.4708     88.2192     20.1679
   919.9000      8.0961      2.5274      0.0308      7.4301     89.2367     20.0838
   920.0000      8.0980      2.5341      0.0859      7.0271     87.1175     19.8715
   920.1000      8.0980      2.5362      0.0933      6.8942     85.2935     19.9638
   920.2000      8.0980      2.5256      0.0404      7.5413     86.4672     20.5732
   920.3000      8.1000      2.5174      0.0436      8.0361     89.3636     21.3547
   920.4000      8.1000      2.5215      0.0730      7.7852     92.0472     22.1146
   920.5000      8.0986      2.5259      0.0846      7.5214     95.3444     22.6898
   920.6000      8.0986      2.5261      0.0415      7.5075     99.3452     22.8731
   920.7000      8.0986      2.5314      0.0471      7.1880    100.3931     22.8198
   920.8000      8.0989      2.5456      0.0292      6.3283     94.4485     22.7546
   920.9000      8.0989      2.5610      0.1251      5.3945     81.8033     22.4204
   921.0000      8.0984      2.5669      0.0499      5.0353     69.7604     21.9579
   921.1000      8.0984      2.5633      0.0506      5.2551     65.3740     21.8687
   921.2000      8.0984      2.5589      0.0302      5.5216     67.6200     21.9929
   921.3000      8.0979      2.5628      0.0677      5.2843     69.3455     21.9769
   921.4000      8.0979      2.5696      0.1089      4.8702     68.0298     21.9565
   921.5000      8.0972      2.5619      0.0917      5.3367     64.7805     21.9400
   921.6000      8.0972      2.5379      0.0416      6.7916     60.2532     21.6834
   921.7000      8.0972      2.5142      0.0004      8.2319     58.3001     21.1767
   921.8000      8.0966      2.4945      0.0355      9.4255     61.4875     20.5839
   921.9000      8.0966      2.4689      0.0163     10.9764     66.5686     19.9740
   922.0000      8.0985      2.4435     -0.0194     12.5143     70.1232     19.2688
   922.1000      8.0985      2.4337     -0.0508     13.1077     71.5567     18.6881
   922.2000      8.0985      2.4381      0.0371     12.8453     70.3960     18.6588
   922.3000      8.0973      2.4386      0.0198     12.8121     67.1501     18.8746
   922.4000      8.0973      2.4328      0.0065     13.1607     63.6727     18.6901
   922.5000      8.1005      2.4324      0.0149     13.1864     60.0237     18.4737
   922.6000      8.1005      2.4463      0.0202     12.3442     55.4375     18.4850
   922.7000      8.1005      2.4796      0.0592     10.3255     49.5048     18.0231
   922.8000      8.0969      2.5246      0.1369      7.6023     42.4285     17.1241
   922.9000      8.0969      2.5605      0.0939      5.4239     37.0045     16.5806
   923.0000      8.0947      2.5785      0.1215      4.3317     34.6144     16.5528
   923.1000      8.0947      2.5848      0.1214      3.9525     32.8568     16.6112
   923.2000      8.0947      2.5873      0.1358      3.7995     29.6943     16.4158
   923.3000      8.0909      2.5891      0.1405      3.6883     27.4431     16.0181
   923.4000      8.0909      2.5922      0.1245      3.5003     29.4702     15.7077
   923.5000      8.0876      2.5963      0.1312      3.2529     35.2041     15.8339
   923.6000      8.0876      2.5896      0.1387      3.6621     39.9236     16.4475
   923.7000      8.0876      2.5627      0.1126      5.2888     41.6895     16.8811
   923.8000      8.0942      2.5251      0.0800      7.5703     43.5915     16.5637
   923.9000      8.0942      2.4899      0.0528      9.7056     47.1193     15.9935
   924.0000      8.0961      2.4701      0.0350     10.9011     51.0847     15.9531
   924.1000      8.0961      2.4743      0.0483     10.6493     56.0271     16.5513
   924.2000      8.0961      2.4853      0.0913      9.9799     62.6317     17.2725
   924.3000      8.0991      2.4768      0.0722     10.4998     69.5907     17.4631
   924.4000      8.0991      2.4549      0.0336     11.8254     75.8542     17.0463
   924.5000      8.0980      2.4493      0.0512     12.1639     80.2369     16.6693
   924.6000      8.0980      2.4749      0.0324     10.6133     80.8029     16.8589
   924.7000      8.0980      2.5233      0.0630      7.6760     79.2335     17.2532
   924.8000      8.0985      2.5734      0.0958      4.6409     78.9565     17.3334
   924.9000      8.0985      2.5986      0.1824      3.1176     77.6695     17.5977
   925.0000      8.0954      2.5832      0.1602      4.0471     70.5818     18.5089
   925.1000      8.0954      2.5462      0.0742      6.2935     59.7953     19.4959
   925.2000      8.0954      2.5155      0.0801      8.1539     51.5491     19.7972
   925.3000      8.0912      2.4939      0.1338      9.4578     47.9994     19.5496
   925.4000      8.0912      2.4765      0.0654     10.5182     48.6857     19.4202
   925.5000      8.0842      2.4641      0.0847     11.2638     51.9374     19.4876
   925.6000      8.0842      2.4525      0.0456     11.9720     55.0081     19.2614
   925.7000      8.0842      2.4409      0.0266     12.6705     56.0984     18.4374
   925.8000      8.0838      2.4366      0.0711     12.9308     53.3326     17.4750
   925.9000      8.0838      2.4407      0.0400     12.6826     48.5416     16.7627
   926.0000      8.0864      2.4388      0.0957     12.7990     47.1910     16.1468
   926.1000      8.0864      2.4034      0.0962     14.9459     50.7557     15.4826
