~Version Information
VERS.                      2.0: CWLS Log ASCII Standard - VERSION 2.0
WRAP.                       NO: One line per depth step
~Well Information Block
STRT.FT               260.0000: 
STOP.FT              1229.5000: 
STEP.FT                 0.1000: 
NULL.                -999.2500: 
COMP.          Pioneer Natural Resources: COMPANY
WELL.             Mahalo 12-20: WELL
FLD.           Purgatoire River: FIELD
LOC.           1689' FNL & 479' FWL: LOCATION
CNTY.               Las Animas: COUNTY
SRVC.                Patterson: SERVICE COMPANY
DATE.          Mon Feb 27 07:00:19 2006: LOG DATE
UWI.           05 071 08700 00: UNIQUE WELL ID
STAT.                 Colorado: STATE
~Curve Information Block
DEPT.FT            0 000 00 00: Depth
DCAL.in                       : CDL Caliper
RHOB.g/cc                     : CDL Bulk Density
RHOC.g/cc                     : CDL Density Correction
DPOR.pu                       : CDL Density Porosity
GR.GAPI                       : Gamma Ray
NPOR.pu                       : Neutron Porosity
~Parameter Information Block
~A  Depth       DCAL        RHOB        RHOC        DPOR         GR         NPOR    
# ...
   327.2000      7.7597      2.5415      0.0676      6.5766    109.7894     23.7492
   327.3000      7.7203      2.5504      0.0881      6.0392    112.7765     24.8844
   327.4000      7.7203      2.5597      0.0348      5.4716    112.4689     24.7658
   327.5000      7.7136      2.5625      0.1105      5.3023    106.4394     23.6396
   327.6000      7.7136      2.5521      0.0442      5.9359     97.6922     22.5693
   327.7000      7.7136      2.5396      0.0251      6.6911     93.4746     21.8426
   327.8000      7.7150      2.5333     -0.0065      7.0729     97.8229     21.4522
   327.9000      7.7150      2.5281      0.0061      7.3886    104.3685     21.5327
   328.0000      7.7175      2.5235      0.0001      7.6694    103.8694     21.7981
   328.1000      7.7175      2.5175      0.0380      8.0323     97.3602     21.8721
   328.2000      7.7175      2.5046      0.0107      8.8136     91.3084     21.3632
   328.3000      7.7397      2.4996     -0.0667      9.1135     86.6684     20.5822
   328.4000      7.7397      2.5205      0.0186      7.8501     83.2307     20.4722
   328.5000      7.7462      2.5461      0.0464      6.2970     81.6030     21.0817
   328.6000      7.7462      2.5466      0.0335      6.2695     81.4478     21.6072
   328.7000      7.7462      2.5253      0.0220      7.5597     82.8482     21.4647
   328.8000      7.7435      2.5042      0.0082      8.8375     84.5043     20.9255
   328.9000      7.7435      2.4989     -0.0099      9.1563     84.5756     20.2207
   329.0000      7.7235      2.5087      0.0527      8.5618     83.2110     19.2133
   329.1000      7.7235      2.5210      0.0480      7.8182     82.4885     18.3517
   329.2000      7.7235      2.5364      0.0482      6.8857     85.1496     17.9697
   329.3000      7.7153      2.5577      0.0753      5.5923     89.8910     17.6775
   329.4000      7.7153      2.5723      0.0787      4.7095     92.6864     17.3528
   329.5000      7.7132      2.5759      0.0722      4.4920     92.7555     17.3486
   329.6000      7.7132      2.5729      0.0965      4.6724     89.8595     17.7518
   329.7000      7.7132      2.5615      0.1202      5.3657     83.3229     18.1298
   329.8000      7.7207      2.5438      0.1111      6.4369     76.6345     17.9368
   329.9000      7.7207      2.5331      0.0653      7.0823     73.7459     17.5147
   330.0000      7.7244      2.5394      0.0770      6.7027     74.9374     17.7130
   330.1000      7.7244      2.5564      0.0805      5.6715     80.3917     18.3607
   330.2000      7.7244      2.5700      0.0813      4.8498     87.5163     18.6685
   330.3000      7.7225      2.5744      0.0629      4.5825     90.7916     18.5034
   330.4000      7.7225      2.5753      0.0766      4.5263     90.1826     18.3713
   330.5000      7.7227      2.5770      0.1346      4.4225     90.2656     18.4311
   330.6000      7.7227      2.5761      0.0678      4.4770     93.0474     18.2399
   330.7000      7.7227      2.5661      0.1097      5.0866     95.0515     17.7360
   330.8000      7.7251      2.5494      0.0370      6.0989     91.8025     17.6471
   330.9000      7.7251      2.5476      0.0295      6.2076     84.4142     18.7484
   331.0000      7.7342      2.5689      0.0405      4.9180     77.9372     20.3468
   331.1000      7.7342      2.5860      0.0925      3.8812     75.5703     20.7303
   331.2000      7.7342      2.5806      0.0451      4.2071     77.6319     19.7508
   331.3000      7.7456      2.5729      0.0166      4.6741     80.7190     18.5807
   331.4000      7.7456      2.5751      0.0628      4.5421     79.9554     17.7176
   331.5000      7.7390      2.5672      0.0719      5.0196     76.8034     16.8962
   331.6000      7.7390      2.5422      0.0116      6.5326     75.5161     16.1223
   331.7000      7.7390      2.5246     -0.0105      7.5996     75.4578     15.6727
   331.8000      7.7508      2.5256      0.0347      7.5404     73.5908     15.9523
   331.9000      7.7508      2.5310      0.0166      7.2120     69.3240     17.0821
   332.0000      7.7475      2.5309      0.0064      7.2187     65.5403     18.2507
   332.1000      7.7475      2.5177      0.0531      8.0204     63.6264     18.4817
   332.2000      7.7475      2.4914      0.0047      9.6127     63.0664     18.3368
   332.3000      7.7415      2.4747     -0.0100     10.6216     65.4980     18.7383
   332.4000      7.7415      2.4843      0.0271     10.0405     69.7970     19.4746
   332.5000      7.7415      2.5144      0.0204      8.2212     70.7701     20.1545
   332.6000      7.7415      2.5562      0.0436      5.6844     66.6348     20.4802
   332.7000      7.7415      2.6018      0.1084      2.9230     59.6631     19.9724
   332.8000      7.7368      2.6360      0.1366      0.8469     55.1909     18.7178
   332.9000      7.7368      2.6467      0.1016      0.1972     56.2182     17.4976
   333.0000      7.7439      2.6373      0.1047      0.7673     59.6173     16.9007
   333.1000      7.7439      2.6153      0.0825      2.1012     60.8265     16.6637
   333.2000      7.7439      2.5762      0.0637      4.4712     61.0902     16.4738
   333.3000      7.7447      2.5210      0.0111      7.8198     64.1953     16.5311
   333.4000      7.7447      2.4735     -0.0357     10.6975     67.8058     16.5910
   333.5000      7.7512      2.4523     -0.0075     11.9792     68.9636     16.2439
   333.6000      7.7512      2.4502     -0.0162     12.1109     69.4093     15.7945
   333.7000      7.7512      2.4529     -0.0118     11.9452     70.4295     15.6723
   333.8000      7.7636      2.4545     -0.0064     11.8483     71.9734     15.7343
   333.9000      7.7636      2.4537      0.0233     11.8970     73.0785     15.6288
   334.0000      7.7618      2.4467      0.0479     12.3199     72.6254     15.4423
   334.1000      7.7618      2.4347      0.0092     13.0461     70.4225     15.3249
   334.2000      7.7618      2.4302     -0.0102     13.3192     65.5274     15.0525
   334.3000      7.7556      2.4373      0.0173     12.8936     58.5365     14.3586
   334.4000      7.7556      2.4444      0.0542     12.4579     53.6370     13.4692
   334.5000      7.7542      2.4495     -0.0075     12.1497     53.5154     12.9576
   334.6000      7.7542      2.4635      0.0261     11.3057     55.7440     13.1583
   334.7000      7.7542      2.4859      0.0049      9.9471     57.0241     13.7360
   334.8000      7.7552      2.4988      0.0773      9.1649     55.8998     14.2873
   334.9000      7.7552      2.4900      0.0174      9.6949     54.2275     15.0142
   335.0000      7.7644      2.4745     -0.0240     10.6369     54.6654     16.0731
   335.1000      7.7644      2.4731      0.0066     10.7220     54.8229     16.7436
   335.2000      7.7644      2.4910     -0.0163      9.6356     52.6526     16.5019
   335.3000      7.7733      2.5099      0.0476      8.4894     51.1530     16.0212
   335.4000      7.7733      2.5067      0.0111      8.6826     52.1566     15.9761
   335.5000      7.7914      2.4887     -0.0154      9.7763     54.0957     16.2999
   335.6000      7.7914      2.4741     -0.0259     10.6579     54.5679     16.5992
   335.7000      7.7914      2.4719     -0.0332     10.7950     53.7875     16.8005
   335.8000      7.7892      2.4869     -0.0187      9.8876     54.0514     17.1901
   335.9000      7.7892      2.5180     -0.0083      7.9996     55.2136     17.7411
   336.0000      7.7715      2.5517      0.0243      5.9565     54.8634     17.8397
   336.1000      7.7715      2.5703      0.0170      4.8306     53.9204     17.2566
   336.2000      7.7715      2.5722     -0.0092      4.7150     53.7876     16.3817
   336.3000      7.7473      2.5726     -0.0046      4.6918     51.5709     15.4902
   336.4000      7.7473      2.5851      0.0034      3.9340     46.8474     14.9178
   336.5000      7.7189      2.6060      0.0300      2.6691     43.2096     15.1817
   336.6000      7.7189      2.6228      0.0027      1.6468     43.3497     15.6551
   336.7000      7.7189      2.6279      0.0103      1.3381     44.5912     15.0321
