~Version Information
VERS.                      2.0: CWLS Log ASCII Standard - VERSION 2.0
WRAP.                       NO: One line per depth step
~Well Information Block
STRT.FT               645.0000: 
STOP.FT              2131.0000: 
STEP.FT                 0.1000: 
NULL.                -999.2500: 
COMP.          Pioneer Natural Resources: COMPANY
WELL.          Gunslinger 13-24: WELL
FLD.           Purgatoire River: FIELD
LOC.           1968' FSL & 633' FWL: LOCATION
PROV.                 Colorado: PROVINCE
CNTY.               Las Animas: COUNTRY
SRVC.                Patterson: SERVICE COMPANY
DATE.          Sat Jul 30 08:07:53 2005: LOG DATE
UWI.           05 071 08442 00: UNIQUE WELL ID
~Curve Information Block
DEPT.FT            0 000 00 00: Depth
DCAL.in                       : CDL Caliper
RHOB.g/cc                     : CDL Bulk Density
RHOC.g/cc                     : CDL Density Correction
DPOR.pu                       : CDL Density Porosity
GR.GAPI                       : Gamma Ray
NPOR.pu                       : Neutron Porosity
~Parameter Information Block
~A  Depth       DCAL        RHOB        RHOC        DPOR         GR         NPOR    
   645.0000      5.1274      1.6453      2.0000     -0.0201    135.1943     25.8262
   645.1000      5.1274      1.6535      2.0000     -0.0199    138.5832     26.4632
   645.2000      5.1274      1.6505      2.0000     -0.0200    138.9455     27.0899
   645.3000      5.1214      1.6376      2.0000     -0.0203    141.4931     27.1999
   645.4000      5.1214      1.6202      2.0000     -0.0206    142.8890     26.5336
   645.5000      5.1296      1.5968      2.0000     -0.0211    137.9617     24.8522
   645.6000      5.1296      1.5743      2.0000     -0.0215    132.1312     22.6027
   645.7000      5.1296      1.5563      2.0000     -0.0219    133.3891     20.9328
   645.8000      5.1350      1.5325      2.0000     -0.0224    138.9756     20.4570
   645.9000      5.1350      1.4979      0.3454     -0.0231    146.5376     20.7966
   646.0000      5.1277      1.4605      0.3373     -0.0238    153.9745     21.3819
   646.1000      5.1277      1.4287      0.3091     -0.0244    154.9059     21.9359
   646.2000      5.1277      1.4055      0.3041     -0.0249    151.8404     22.4703
   646.3000      5.1411      1.3843      0.3269     -0.0253    150.9275     23.0935
   646.4000      5.1411      1.3529      0.3035     78.6143    148.6758     23.7280
   646.5000      5.1272      1.3098      0.2625     81.2271    140.1751     23.7926
   646.6000      5.1272      1.2702      0.2059     83.6234    129.9765     22.8100
   646.7000      5.1272      1.2470      0.2181     85.0325    128.5305     21.5991
   646.8000      5.1205      1.2293      0.2436     86.1039    136.1290     21.3060
   646.9000      5.1205      1.1998      0.2237     87.8915    143.3634     22.2723
   647.0000      5.1243      1.1616      0.1807     90.2045    145.6649     23.4835
   647.1000      5.1243      1.1267      0.1687     92.3204    144.9238     23.8333
   647.2000      5.1243      1.0934      0.1651     94.3376    145.2945     23.6769
   647.3000      5.1262      1.0538      0.1106     96.7404    147.5308     23.7121
   647.4000      5.1262      1.0064      0.1303     99.6126    145.5271     24.0136
   647.5000      5.1230      0.9566      0.0453    102.6319    137.4437     24.0286
   647.6000      5.1230      0.9155      0.0479    105.1185    132.9179     23.4378
   647.7000      5.1230      0.8991      0.0267    106.1144    140.0874     22.8756
   647.8000      5.1242      0.9610      0.0081    102.3653    150.9194     22.8788
   647.9000      5.1242      1.2181      0.0027     86.7839    153.5202     23.0160
   648.0000      5.1212      1.7314      0.1500     55.6757    147.9094     23.2468
   648.1000      5.1212      2.3357      0.4770     19.0476    138.0093     24.2141
   648.2000      5.1212      2.7664      0.5273     -7.0557    127.9660     24.8818
   648.3000      5.4617      2.9501      0.4873    -18.1873    121.5740     23.8776
   648.4000      5.4617      2.9641      0.5266    -19.0356    117.5281     22.4427
   648.5000      7.9287      2.8352      0.4665    -11.2246    111.3646     22.2247
   648.6000      7.9287      2.5802      0.1317      4.2328    105.2651     22.9026
   648.7000      7.9287      2.3187     -0.4460     20.0810    108.9838     23.2007
   648.8000      8.2620      2.1662     -0.4378     29.3214    120.8549     23.2436
   648.9000      8.2620      2.1008     -0.4531     33.2878    126.5145     23.6582
   649.0000      8.2651      2.0573     -0.5104     35.9240    124.5428     24.1822
   649.1000      8.2651      2.0248     -0.5607     37.8887    125.5668     24.5374
   649.2000      8.2651      2.0056     -0.4983     39.0538    130.8144     24.7948
   649.3000      8.2598      1.9897     -0.5312     40.0180    132.2128     24.6877
   649.4000      8.2598      1.9843     -0.5514     40.3463    127.9667     23.4941
   649.5000      8.2610      1.9989     -0.5282     39.4595    124.1157     22.2658
   649.6000      8.2610      2.0105     -0.4645     38.7564    121.3007     22.5340
   649.7000      8.2610      1.9905     -0.4739     39.9721    117.1550     23.5840
   649.8000      8.2596      1.9599     -0.6414     41.8273    116.5678     24.0642
   649.9000      8.2596      1.9554     -0.5407     42.0970    121.9412     23.9963
   650.0000      8.2638      1.9706     -0.5651     41.1770    126.1148     23.5778
   650.1000      8.2638      1.9824     -0.4878     40.4597    126.1912     23.2373
   650.2000      8.2638      1.9821     -0.4915     40.4758    127.5650     23.8281
   650.3000      8.2636      1.9835     -0.5313     40.3936    130.7600     24.6730
   650.4000      8.2636      2.0072     -0.5107     38.9584    132.5419     24.3893
   650.5000      8.2639      2.0435     -0.4626     36.7606    130.6709     23.4593
   650.6000      8.2639      2.0551     -0.4197     36.0549    126.0637     23.1189
   650.7000      8.2639      2.0304     -0.4682     37.5512    123.1315     23.2149
   650.8000      8.2640      2.0015     -0.5323     39.3048    127.3131     22.8474
   650.9000      8.2640      1.9911     -0.5336     39.9331    137.3508     22.2294
   651.0000      8.2641      1.9850     -0.4738     40.3032    145.8065     22.4726
   651.1000      8.2641      1.9730     -0.5353     41.0284    151.4987     23.9102
   651.2000      8.2641      1.9684     -0.5676     41.3073    152.0817     25.1806
   651.3000      8.2645      1.9749     -0.4934     40.9159    143.7442     24.8728
   651.4000      8.2645      1.9870     -0.5272     40.1839    133.7932     23.6422
   651.5000      8.2646      2.0131     -0.4908     38.6000    131.1691     22.8179
   651.6000      8.2646      2.0569     -0.4635     35.9438    134.1400     22.3747
   651.7000      8.2646      2.1048     -0.4144     33.0430    135.2190     21.7060
   651.8000      8.2645      2.1403     -0.4721     30.8883    131.3909     21.3284
   651.9000      8.2645      2.1524     -0.4210     30.1593    122.3796     21.7799
   652.0000      8.2638      2.1437     -0.4832     30.6846    110.0611     22.2020
   652.1000      8.2638      2.1331     -0.5032     31.3269    103.3785     21.9865
   652.2000      8.2638      2.1243     -0.3984     31.8617     98.5371     22.1160
   652.3000      8.2621      2.1066     -0.4434     32.9336    103.7542     22.9005
   652.4000      8.2621      2.0942     -0.5002     33.6853    108.6536     23.2786
   652.5000      8.2641      2.1056     -0.4427     32.9944    114.3258     22.6419
   652.6000      8.2641      2.1243     -0.3790     31.8578    121.5362     21.4431
   652.7000      8.2641      2.1279     -0.4770     31.6446    125.5509     20.7625
   652.8000      8.2667      2.1141     -0.4074     32.4787    123.9588     21.2933
   652.9000      8.2667      2.0877     -0.5206     34.0792    121.4779     22.4204
   653.0000      8.2637      2.0659     -0.4706     35.3980    122.6052     23.1975
   653.1000      8.2637      2.0717     -0.5366     35.0479    126.8614     23.4482
   653.2000      8.2637      2.1058     -0.5202     32.9832    122.0090     23.1511
   653.3000      8.2626      2.1415     -0.4286     30.8160    125.4343     22.4025
   653.4000      8.2626      2.1539     -0.4140     30.0674    127.6819     21.9100
   653.5000      8.2675      2.1389     -0.4366     30.9776    126.5421     22.0830
   653.6000      8.2675      2.1112     -0.4674     32.6521    122.4767     22.4548
   653.7000      8.2675      2.0921     -0.5122     33.8100    117.8142     22.7029
   653.8000      8.2643      2.0825     -0.4511     34.3930    113.2710     22.4728
   653.9000      8.2643      2.0674     -0.5084     35.3109    112.5823     21.7508
   654.0000      8.2624      2.0519     -0.4867     36.2481    120.2747     21.3779
   654.1000      8.2624      2.0572     -0.5149     35.9249    133.7269     21.4899
   654.2000      8.2624      2.0782     -0.4352     34.6561    130.2886     21.7500
   654.3000      8.2629      2.0860     -0.4901     34.1806    125.6525     22.2006
   654.4000      8.2629      2.0684     -0.4458     35.2481    118.3728     22.5636
   654.5000      8.2672      2.0421     -0.6159     36.8414    118.5994     22.8819
