~Version Information
VERS.                      2.0: CWLS Log ASCII Standard - VERSION 2.0
WRAP.                       NO: One line per depth step
~Well Information Block
STRT.FT                 0.0000: 
STOP.FT               988.7500: 
STEP.FT                 0.2500: 
NULL.                -999.2500: 
COMP.          Pioneer Natural Resources: COMPANY
WELL.             Quartz 13-22: WELL
FLD.           Purgatoire River: FIELD
LOC.           1933' FSL & 675' FWL --------: LOCATION
PROV.                 Colorado: PROVINCE
CNTY.               Las Animas: COUNTRY
SRVC.                         : SERVICE COMPANY
DATE.          Thu Dec 22 09:29:32 2005: LOG DATE
UWI.                          : UNIQUE WELL ID
~Curve Information Block
DEPT.FT            0 000 00 00: Depth
CCL.                          : Casing Collar Locator
TT3.usec                      : CBL 3' Travel Time
AMP3.mV                       : CBL 3' Amplitude
AMP5.mV                       : CBL 5' Amplitude
GR.GAPI                       : Gamma Ray
~Parameter Information Block
~A  Depth       CCL         TT3         AMP3        AMP5         GR     
# ...
   700.0000      0.0000    711.5835      8.2140      1.5461    115.1300
   700.2500      0.0000    710.2382      8.2365      1.5244    115.1246
   700.5000      0.0000    710.8705      8.2143      1.5109    117.0543
   700.7500      0.0000    712.8777      8.1346      1.5356    119.9959
   701.0000      0.0000    715.0081      8.0046      1.5973    122.3231
   701.2500      0.0000    716.3116      7.8578      1.6622    123.1265
   701.5000      0.0000    716.4042      7.7334      1.6970    122.9280
   701.7500      0.0000    715.1478      7.6521      1.6970    122.7992
   702.0000      0.0000    712.5637      7.6101      1.6776    122.8150
   702.2500      0.0000    709.1790      7.5923      1.6502    121.8966
   702.5000      0.0000    706.1807      7.5914      1.6221    119.3014
   702.7500      0.0000    704.8594      7.6166      1.6143    115.7845
   703.0000      0.0000    705.7062      7.6840      1.6568    112.9282
   703.2500      0.0000    707.9356      7.7965      1.7524    111.5246
   703.5000      0.0000    709.9654      7.9382      1.8565    111.1325
   703.7500      0.0000    710.6771      8.0881      1.9059    111.3075
   704.0000      0.0000    710.4172      8.2369      1.8650    112.6287
   704.2500      0.0000    710.6115      8.3897      1.7453    116.0557
   704.5000      0.0000    712.2774      8.5539      1.5871    121.6665
   704.7500      0.0000    715.0796      8.7253      1.4290    128.4499
   705.0000      0.0000    717.8494      8.8861      1.2955    135.0532
   705.2500      0.0000    719.6801      9.0145      1.2101    140.4888
   705.5000      0.0000    720.3500      9.0966      1.2054    144.2234
   705.7500      0.0000    719.9921      9.1344      1.3036    145.7814
   706.0000      0.0000    718.5621      9.1442      1.4792    144.6165
   706.2500      0.0000    715.5667      9.1443      1.6490    140.8470
   706.5000      0.0000    710.3499      9.1430      1.7222    135.9229
   706.7500      0.0000    702.9401      9.1405      1.6768    131.7977
   707.0000      0.0000    694.7071      9.1366      1.5751    129.2609
   707.2500      0.0000    687.9105      9.1265      1.4993    127.4912
   707.5000      0.0000    684.3090      9.0946      1.4868    125.0294
   707.7500      0.0000    684.0201      9.0235      1.5264    120.6767
   708.0000      0.0000    685.5441      8.9121      1.5968    113.9901
   708.2500      0.0000    686.9615      8.7779      1.6928    106.0002
   708.5000      0.0000    687.3828      8.6441      1.8158     99.4245
   708.7500      0.0000    687.2264      8.5291      1.9505     97.2108
   709.0000      0.0000    687.0726      8.4467      2.0676    100.3318
   709.2500      0.0000    686.8178      8.4069      2.1429    106.8980
   709.5000      0.0000    686.4127      8.4107      2.1666    113.1516
   709.7500      0.0000    686.8854      8.4468      2.1369    115.4630
   710.0000      0.0000    689.7008      8.4914      2.0557    112.1827
   710.2500      0.0000    694.8033      8.5121      1.9305    104.3150
   710.5000      0.0000    699.3920      8.4796      1.7707     94.5278
   710.7500      0.0000    698.8478      8.3856      1.5862     85.3036
   711.0000      0.0000    689.5823      8.2558      1.3975     77.9780
   711.2500      0.0000    672.0909      8.1389      1.2465     73.3097
   711.5000      0.0000    651.6104      8.0789      1.1803     72.2442
   711.7500      0.0000    635.2872      8.0847      1.2082     75.4088
   712.0000      0.0000    628.2626      8.1122      1.2802     81.8261
   712.2500      0.0000    631.9045      8.0708      1.3230     88.7388
   712.5000      0.0000    644.3502      7.8609      1.3015     93.4340
   712.7500      0.0000    662.0557      7.4381      1.2384     95.4011
   713.0000      0.0000    681.9542      6.8634      1.1797     96.3142
   713.2500      0.0000    702.9103      6.2749      1.1584     97.8698
   713.5000      0.0000    725.1249      5.7842      1.1826    100.0832
   713.7500      0.0000    748.5937      5.4187      1.2340    101.6481
   714.0000      0.0000    771.8013      5.1833      1.2719    101.4941
   714.2500      0.0000    790.6110      5.1196      1.2622     99.9661
   714.5000      0.0000    799.1721      5.2523      1.2088     98.6670
   714.7500     -2.0000    794.2712      5.5223      1.1440     99.0385
   715.0000      0.0000    778.9709      5.8248      1.0963    101.0347
   715.2500      0.0000    760.6530      6.0953      1.0833    103.2823
   715.5000      0.0000    745.5040      6.3457      1.1247    104.3520
   715.7500      0.0000    735.4736      6.6468      1.2270    103.5664
   716.0000      0.0000    729.8369      7.0738      1.3554    100.8840
   716.2500      0.0000    727.7669      7.6127      1.4481     96.8418
   716.5000      0.0000    728.4335      8.1232      1.4720     92.8220
   716.7500      0.0000    730.0498      8.4554      1.4513     90.4805
   717.0000      0.0000    730.6909      8.6030      1.4397     90.3124
   717.2500      0.0000    730.0667      8.6885      1.4696     91.2971
   717.5000      0.0000    729.7141      8.8140      1.5301     92.1853
   717.7500      0.0000    731.2092      8.9751      1.5886     92.4749
   718.0000      0.0000    734.3098      9.1061      1.6278     92.0551
   718.2500      0.0000    736.8745      9.1636      1.6582     90.8179
   718.5000      0.0000    736.7170      9.1553      1.6964     88.9952
   718.7500      0.0000    733.6096      9.1110      1.7411     87.3098
   719.0000      0.0000    729.3267      9.0499      1.7705     86.4929
   719.2500      0.0000    725.8455      8.9779      1.7576     86.8225
   719.5000      0.0000    723.7701      8.9036      1.6920     88.0953
   719.7500      0.0000    722.2392      8.8430      1.5953     89.9110
   720.0000      0.0000    719.8831      8.8070      1.5080     91.9830
   720.2500      0.0000    715.9783      8.7911      1.4503     94.1584
   720.5000      0.0000    711.2803      8.7824      1.4089     96.2110
   720.7500      0.0000    707.8558      8.7730      1.3698     97.7916
   721.0000      0.0000    707.5653      8.7600      1.3467     98.5786
   721.2500      0.0000    710.3461      8.7379      1.3611     98.4095
   721.5000      0.0000    714.0930      8.6977      1.4103     97.3884
   721.7500      0.0000    716.1426      8.6343      1.4709     95.9236
   722.0000      0.0000    714.7814      8.5513      1.5190     94.4203
   722.2500      0.0000    710.0447      8.4580      1.5350     92.8618
   722.5000      0.0000    704.0305      8.3645      1.5136     91.0230
   722.7500      0.0000    700.1505      8.2812      1.4828     89.1503
   723.0000      0.0000    700.8366      8.2171      1.4874     87.9744
   723.2500      0.0000    705.5548      8.1763      1.5433     87.8574
   723.5000      0.0000    711.4955      8.1552      1.6244     88.2466
   723.7500      0.0000    716.1205      8.1438      1.6930     88.1508
   724.0000      0.0000    718.6724      8.1267      1.7267     86.9027
   724.2500      0.0000    719.6896      8.0870      1.7199     84.2707
   724.5000      0.0000    719.8609      8.0148      1.6741     80.1484
   724.7500      0.0000    719.3630      7.9164      1.5957     74.6243
   725.0000      0.0000    717.6707      7.8182      1.5018     68.4141
   725.2500      0.0000    713.7308      7.7544      1.4183     62.8175
   725.5000      0.0000    706.7915      7.7422      1.3664     58.9598
   725.7500      0.0000    697.6036      7.7704      1.3551     57.1026
   726.0000      0.0000    688.6514      7.8154      1.3880     56.6788
   726.2500      0.0000    682.6312      7.8657      1.4623     56.8422
   726.5000      0.0000    680.6796      7.9225      1.5626     56.9762
   726.7500      0.0000    682.2919      7.9803      1.6622     56.8724
   727.0000      0.0000    686.3909      8.0182      1.7337     56.7862
   727.2500      0.0000    691.7740      8.0127      1.7527     57.5533
   727.5000      0.0000    696.9944      7.9564      1.7040     60.4488
   727.7500      0.0000    700.7781      7.8686      1.6022     66.4312
