~Version Information
 VERS.                                  2.0 : CWLS LAS VERSION
 WRAP.                                   NO : WRAPING MODE
 SWARE .                MController 2.5.0QA : SOFTWARE VERSION
~Well Information
 WELL.                        Fleming 11-02 : WELL
 COMP.    Pioneer Natural Resources USA Inc : COMPANY
 FLD.                      Purgatoire River : FIELD
 LOC.                 NW/NW Sec02 T33S R66W : LOCATION
 DATE.                          06/25-27/06 : DATE(S) LOGGED
 SRVC.       Blanco Geological Services LLC : SERVICE COMPANY
 STAT.                             Colorado : STATE
 CNTY.                           Las Animas : COUNTY
 CTRY.                                  USA : COUNTRY
 API.                       05-071-08491-00 : API NUMBER
 STRT.FT                             347.00 : START DEPTH
 STOP.FT                            2080.00 : STOP DEPTH
 STEP.FT                               1.00 : DEPTH INCREMENT
 NULL.                                -9999 : NULL VALUE
~Curve information
 DEPTH.FT                                   :
 ROP.MIN/FT                                 :
 GAS.UNITS                                  :
~ASCII Log data
# ...
      1347.0         0.33       1292.2 
      1348.0         0.27       1248.0 
      1349.0         0.30       1223.3 
      1350.0         0.27       1186.0 
      1351.0         0.23       1140.2 
      1352.0         0.30       1139.2 
      1353.0         0.30       1139.2 
      1354.0         0.30       1144.1 
      1355.0         0.32       1161.0 
      1356.0         0.50       1186.3 
      1357.0         0.37       1188.3 
      1358.0         0.30       1178.2 
      1359.0         0.27       1151.2 
      1360.0         0.33       1130.1 
      1361.0         0.33       1118.1 
      1362.0         0.27       1102.9 
      1363.0         0.17       1100.9 
      1364.0         0.20       1097.3 
      1365.0         0.27       1112.3 
      1366.0         0.25       1112.3 
      1367.0         0.20       1114.9 
      1368.0         0.27       1108.4 
      1369.0         0.27       1104.8 
      1370.0         0.40        980.1 
      1371.0         0.93        870.7 
      1372.0         3.25       2892.3 
      1373.0         0.53       1576.6 
      1374.0         0.40       1582.5 
      1375.0         0.52       1577.9 
      1376.0         0.43       1474.0 
      1377.0         0.40       1399.6 
      1378.0         0.37       1348.0 
      1379.0         0.37       1265.9 
      1380.0         0.33       1222.4 
      1381.0         0.30       1185.3 
      1382.0         0.30       1156.1 
      1383.0         0.27       1156.1 
      1384.0         0.30       1155.1 
      1385.0         0.38       1160.3 
      1386.0         0.43       1133.1 
      1387.0         0.33       1112.0 
      1388.0         0.37       1096.7 
      1389.0         0.33       1103.2 
      1390.0         0.47       1117.5 
      1391.0         0.47       1118.1 
      1392.0         0.30       1107.4 
      1393.0         0.30       1103.5 
      1394.0         0.35       1102.5 
      1395.0         0.30       1092.1 
      1396.0         0.33       1089.5 
      1397.0         0.33       1094.1 
      1398.0         0.37       1086.0 
      1399.0         0.30       1081.4 
      1400.0         0.30       1076.9 
      1401.0         0.33       1089.2 
      1402.0         3.75       2373.4 
      1403.0         0.55       1843.8 
      1404.0         0.43       1666.2 
      1405.0         0.40       1484.1 
      1406.0         0.43       1397.0 
      1407.0         0.47       1345.7 
      1408.0         0.47       1285.3 
      1409.0         0.47       1211.0 
      1410.0         0.50       1189.6 
      1411.0         0.48       1195.1 
      1412.0         0.47       1185.7 
      1413.0         0.43       1140.5 
      1414.0         0.50       1124.3 
      1415.0         0.40       1121.7 
      1416.0         0.40       1126.6 
      1417.0         0.37       1127.9 
      1418.0         0.38       1122.0 
      1419.0         0.40       1122.3 
      1420.0         0.40       1122.7 
      1421.0         0.40       1144.7 
      1422.0         0.37       1157.4 
      1423.0         0.33       1155.8 
      1424.0         0.40       1157.7 
      1425.0         0.37       1155.5 
      1426.0         0.27       1117.5 
      1427.0         0.30       1116.8 
      1428.0         0.35       1111.3 
      1429.0         0.33       1100.6 
      1430.0         0.27       1072.7 
      1431.0         0.37       1008.0 
      1432.0         3.78       2817.6 
      1433.0         0.47       1737.3 
      1434.0         0.37       1724.3 
      1435.0         0.30       1660.7 
      1436.0         0.33       1488.6 
      1437.0         0.35       1458.4 
      1438.0         0.33       1455.8 
      1439.0         0.30       1384.7 
      1440.0         0.33       1323.7 
      1441.0         0.27       1219.8 
      1442.0         0.27       1190.9 
      1443.0         0.27       1177.9 
      1444.0         0.30       1173.3 
      1445.0         0.30       1146.0 
      1446.0         0.27       1127.9 
      1447.0         0.27       1122.7 
      1448.0         0.23       1129.5 
      1449.0         0.25       1148.0 
      1450.0         0.27       1154.5 
      1451.0         0.27       1165.5 
      1452.0         0.27       1170.1 
      1453.0         0.30       1168.5 
      1454.0         0.27       1157.7 
      1455.0         0.40       1152.2 
      1456.0         0.37       1143.1 
      1457.0         0.30       1123.6 
      1458.0         0.27       1091.2 
      1459.0         0.27       1086.0 
      1460.0         0.25       1088.2 
      1461.0         0.30       1100.6 
      1462.0         3.48       1730.8 
      1463.0         0.50       1684.4 
      1464.0         0.30       1691.2 
      1465.0         0.37       1706.2 
      1466.0         0.47       1665.3 
      1467.0         0.37       1532.1 
      1468.0         0.30       1423.3 
      1469.0         0.68       1348.7 
      1470.0         0.47       1329.2 
      1471.0         0.33       1321.1 
      1472.0         0.27       1284.7 
      1473.0         0.27       1248.7 
      1474.0         0.40       1224.0 
      1475.0         0.30       1201.6 
      1476.0         0.33       1183.7 
      1477.0         0.37       1159.0 
      1478.0         0.37       1158.1 
      1479.0         0.32       1136.6 
      1480.0         0.33       1136.0 
      1481.0         0.27       1142.8 
      1482.0         0.30       1148.3 
      1483.0         0.23       1147.0 
      1484.0         0.30       1146.0 
      1485.0         0.30       1138.3 
      1486.0         0.23       1132.1 
      1487.0         0.27       1137.3 
      1488.0         0.30       1140.2 
      1489.0         0.27       1131.1 
      1490.0         0.23       1119.4 
      1491.0         0.25       1110.0 
      1492.0         3.48       1679.9 
      1493.0         0.40       1626.0 
      1494.0         0.37       1640.3 
      1495.0         0.37       1596.4 
      1496.0         0.27       1494.8 
      1497.0         0.23       1488.3 
      1498.0         0.30       1410.7 
      1499.0         0.33       1388.3 
      1500.0         0.43       1404.5 
      1501.0         0.45       1392.8 
      1502.0         0.37       1346.7 
      1503.0         0.37       1280.5 
      1504.0         0.30       1228.5 
      1505.0         0.37       1214.6 
      1506.0         0.37       1202.2 
      1507.0         0.40       1176.6 
      1508.0         0.40       1173.0 
      1509.0         0.40       1172.3 
      1510.0         0.45       1163.9 
      1511.0         0.43       1164.9 
      1512.0         0.40       1162.6 
      1513.0         0.43       1141.2 
      1514.0         0.43       1138.9 
      1515.0         0.50       1135.3 
      1516.0         0.47       1131.1 
      1517.0         0.40       1120.7 
      1518.0         0.45       1133.7 
      1519.0         0.47       1141.8 
      1520.0         0.53       1142.5 
      1521.0         0.40       1143.1 
      1522.0         3.88       1734.4 
      1523.0         0.97       1683.1 
      1524.0         0.58       1434.4 
      1525.0         0.27       1325.3 
      1526.0         0.27       1329.8 
      1527.0         0.40       1341.2 
      1528.0         0.40       1340.9 
      1529.0         0.33       1270.1 
      1530.0         0.27       1252.2 
      1531.0         0.23       1205.1 
      1532.0         0.30       1204.2 
      1533.0         0.33       1210.7 
      1534.0         0.38       1209.7 
      1535.0         0.33       1201.9 
      1536.0         0.37       1186.0 
      1537.0         0.33       1164.9 
      1538.0         0.30       1147.3 
      1539.0         0.33       1146.0 
      1540.0         0.30       1141.5 
      1541.0         0.27       1138.3 
      1542.0         0.27       1136.6 
      1543.0         0.23       1138.3 
      1544.0         0.32       1160.7 
      1545.0         0.47       1162.6 
      1546.0         0.30       1162.3 
