~Version Information
VERS.                      2.0: CWLS Log ASCII Standard - VERSION 2.0
WRAP.                       NO: One line per depth step
~Well Information Block
STRT.FT               230.0000: 
STOP.FT               706.5000: 
STEP.FT                 0.1000: 
NULL.                -999.2500: 
COMP.          Pioneer Natural Resources: COMPANY
WELL.          Razor Clam 23-27: WELL
FLD.           Purgatoire River: FIELD
LOC.           2499' FSL & 2636' FWL: LOCATION
CNTY.               Las Animas: COUNTY
SRVC.                Patterson: SERVICE COMPANY
DATE.          Mon Feb 13 07:31:47 2006: LOG DATE
UWI.           05 071 08667 00: UNIQUE WELL ID
STAT.                 Colorado: STATE
~Curve Information Block
DEPT.FT            0 000 00 00: Depth
DCAL.in                       : CDL Caliper
RHOB.g/cc                     : CDL Bulk Density
RHOC.g/cc                     : CDL Density Correction
DPOR.pu                       : CDL Density Porosity
GR.GAPI                       : Gamma Ray
NPOR.pu                       : Neutron Porosity
~Parameter Information Block
~A  Depth       DCAL        RHOB        RHOC        DPOR         GR         NPOR    
# ...
   441.2000      8.0137      2.5068      0.0545      8.6806     53.7272     18.1811
   441.3000      8.0141      2.5015     -0.0052      9.0022     52.9330     18.4244
   441.4000      8.0141      2.5052      0.0620      8.7737     54.2868     17.8585
   441.5000      8.0160      2.5064      0.0313      8.7007     55.2124     18.0484
   441.6000      8.0160      2.5028      0.0056      8.9196     53.6145     19.5728
   441.7000      8.0160      2.5035      0.0405      8.8789     52.8905     21.1005
   441.8000      8.0149      2.5056      0.0090      8.7525     57.8081     21.4089
   441.9000      8.0149      2.5126     -0.0021      8.3250     66.8547     21.1697
   442.0000      8.0132      2.5326      0.0435      7.1134     75.9673     21.2297
   442.1000      8.0132      2.5491      0.0710      6.1134     83.3793     21.6125
   442.2000      8.0132      2.5414      0.0633      6.5815     88.6541     22.2094
   442.3000      8.0103      2.5190      0.0280      7.9408     94.5601     23.1650
   442.4000      8.0103      2.5087      0.0165      8.5608    101.5742     24.1886
   442.5000      8.0100      2.5186      0.0494      7.9621    108.3494     24.5056
   442.6000      8.0100      2.5297      0.0773      7.2891    118.9184     24.1628
   442.7000      8.0100      2.5307      0.0329      7.2296    131.5924     23.7674
   442.8000      8.0112      2.5342      0.0629      7.0153    137.0475     23.3832
   442.9000      8.0112      2.5463      0.0750      6.2836    132.7480     23.1592
   443.0000      8.0135      2.5526      0.0956      5.9052    121.7196     23.5184
   443.1000      8.0135      2.5469      0.0448      6.2462    109.8389     24.3414
   443.2000      8.0135      2.5423      0.0407      6.5246    104.3439     25.0943
   443.3000      8.0146      2.5458      0.0900      6.3144    106.4065     25.2821
   443.4000      8.0146      2.5543      0.0509      5.7984    109.0198     24.8574
   443.5000      8.0184      2.5618      0.0867      5.3483    106.9407     24.5555
   443.6000      8.0184      2.5592      0.0618      5.5010    103.7935     25.0281
   443.7000      8.0184      2.5563      0.0462      5.6815    102.1821     25.8783
   443.8000      8.0174      2.5721      0.0398      4.7192    100.9711     26.3332
   443.9000      8.0174      2.6049      0.0726      2.7324    100.8898     26.3685
   444.0000      8.0172      2.6368      0.0827      0.7992    100.4029     26.3970
   444.1000      8.0172      2.6547      0.0933     -0.2874     96.5936     26.5211
   444.2000      8.0172      2.6553      0.0648     -0.3205     91.5983     26.3561
   444.3000      8.0162      2.6438      0.0569      0.3735     88.4069     25.8608
   444.4000      8.0162      2.6310      0.0403      1.1521     85.8018     25.6388
   444.5000      8.0142      2.6217      0.0421      1.7148     83.7087     25.5813
   444.6000      8.0142      2.6081      0.0365      2.5387     83.2660     24.8155
   444.7000      8.0142      2.5795     -0.0053      4.2743     83.1699     23.6166
   444.8000      8.0167      2.5363      0.0011      6.8922     80.6489     22.6447
   444.9000      8.0167      2.4960     -0.0162      9.3323     76.6124     21.7301
   445.0000      8.0140      2.4792     -0.0015     10.3538     75.0092     21.1126
   445.1000      8.0140      2.4861     -0.0156      9.9335     76.3696     20.9624
   445.2000      8.0140      2.4971      0.0252      9.2685     76.7352     20.5507
   445.3000      8.0148      2.5002      0.0031      9.0785     73.7083     19.8000
   445.4000      8.0148      2.5025      0.0683      8.9416     68.1969     19.6090
   445.5000      8.0122      2.5103      0.0361      8.4655     63.8821     20.1223
   445.6000      8.0122      2.5252      0.0705      7.5655     63.2318     20.6307
   445.7000      8.0122      2.5412      0.0747      6.5920     62.2105     20.8696
   445.8000      8.0085      2.5472      0.0880      6.2278     57.4096     20.8419
   445.9000      8.0085      2.5422      0.0720      6.5306     52.6604     20.4901
   446.0000      7.9994      2.5377      0.0632      6.8051     53.3620     19.9984
   446.1000      7.9994      2.5364      0.0771      6.8829     59.1730     19.5589
   446.2000      7.9994      2.5320      0.0677      7.1499     61.0428     19.4490
   446.3000      8.0045      2.5271      0.0344      7.4476     54.9265     19.9803
   446.4000      8.0045      2.5310      0.0609      7.2137     49.8855     20.7129
   446.5000      8.0182      2.5495      0.0440      6.0919     51.6446     20.7644
   446.6000      8.0182      2.5796      0.0714      4.2680     56.9024     20.1799
   446.7000      8.0182      2.6025      0.1340      2.8808     62.4199     19.6862
   446.8000      8.0178      2.5969      0.1382      3.2203     65.5844     19.4771
   446.9000      8.0178      2.5700      0.1003      4.8464     63.9684     19.5669
   447.0000      8.0183      2.5468      0.0674      6.2566     60.1144     19.8735
   447.1000      8.0183      2.5327      0.1152      7.1100     58.1169     19.9388
   447.2000      8.0183      2.5198      0.0582      7.8909     60.1355     19.5309
   447.3000      8.0284      2.5126      0.0474      8.3299     63.6432     19.2940
   447.4000      8.0284      2.5123      0.0678      8.3483     62.3124     19.7079
   447.5000      8.0291      2.5047      0.0634      8.8031     57.3629     19.9729
   447.6000      8.0291      2.4848      0.0404     10.0114     55.8044     19.5941
   447.7000      8.0291      2.4649      0.0182     11.2188     57.3872     19.4740
   447.8000      8.0320      2.4551      0.0245     11.8106     58.0678     19.9404
   447.9000      8.0320      2.4530      0.0399     11.9394     59.0325     20.0785
   448.0000      8.0310      2.4532      0.0267     11.9244     61.3022     19.6902
   448.1000      8.0310      2.4548      0.0546     11.8312     62.5237     19.7289
   448.2000      8.0310      2.4608      0.0455     11.4667     59.7965     20.1890
   448.3000      8.0311      2.4748      0.0728     10.6173     55.2213     20.2158
   448.4000      8.0311      2.4918      0.0737      9.5865     53.9982     19.8722
   448.5000      8.0316      2.5000      0.0802      9.0929     55.1543     19.8976
   448.6000      8.0316      2.4940      0.0535      9.4526     54.3975     20.4275
   448.7000      8.0316      2.4877      0.0359      9.8372     52.5102     21.0146
   448.8000      8.0320      2.4953      0.0613      9.3728     53.2952     21.1027
   448.9000      8.0320      2.5055      0.1151      8.7580     58.9591     20.6524
   449.0000      8.0305      2.4937      0.0847      9.4744     65.0777     20.3710
   449.1000      8.0305      2.4465      0.0802     12.3320     64.6619     20.8044
   449.2000      8.0305      2.3603      0.0534     17.5576     59.4013     22.0823
   449.3000      8.0323      2.2504     -0.0447     24.2205     56.6693     23.9298
   449.4000      8.0323      2.1526     -0.0548     30.1441     58.8129     25.2508
   449.5000      8.0350      2.0898     -0.0813     33.9512     60.2714     25.8030
   449.6000      8.0350      2.0535     -0.0234     36.1501     57.5087     26.7572
   449.7000      8.0350      2.0271     -0.0587     37.7533     56.4137     28.5722
   449.8000      8.0375      2.0105     -0.0275     38.7582     62.0095     30.3158
   449.9000      8.0375      2.0091     -0.0104     38.8405     72.1593     31.0068
   450.0000      8.0363      2.0182      0.0450     38.2899     84.7050     30.8238
   450.1000      8.0363      2.0289      0.1236     37.6404     97.6459     30.7752
   450.2000      8.0363      2.0332      0.1534     37.3827    101.8735     31.2278
   450.3000      8.0381      2.0202      0.1268     38.1688     93.7098     31.5649
   450.4000      8.0381      1.9878      0.0447     40.1346     86.9163     31.3544
   450.5000      8.0406      1.9515     -0.0633     42.3309     90.6290     30.9368
   450.6000      8.0406      1.9318     -0.0685     43.5246     98.4194     31.0827
   450.7000      8.0406      1.9404     -0.0547     43.0052    103.3972     31.8585
