~Version Information
VERS.                      2.0: CWLS Log ASCII Standard - VERSION 2.0
WRAP.                       NO: One line per depth step
~Well Information Block
STRT.FT               325.0000: 
STOP.FT              1014.5000: 
STEP.FT                 0.2500: 
NULL.                -999.2500: 
COMP.          Pioneer Natural Resources: COMPANY
WELL.                Doc 34-30: WELL
FLD.           Purgatoire River: FIELD
LOC.           454' FSL & 1386' FEL: LOCATION
CNTY.               Las Animas: COUNTY
SRVC.                Patterson: SERVICE COMPANY
DATE.          Wed Feb 15 20:26:19 2006: LOG DATE
UWI.           05 071 08694 00: UNIQUE WELL ID
STAT.                 Colorado: STATE
~Curve Information Block
DEPT.FT            0 000 00 00: Depth
SN.Ohm-m                      : IEL Short Normal
SP.mV                         : IEL Spontaneous Potential
DIR.Ohm-m                     : IEL Induction Resistivity
GR.GAPI                       : Gamma Ray
~Parameter Information Block
~A  Depth        SN          SP         DIR          GR     
# ...
   626.5000     15.0534    -60.8340     11.8689    137.3279
   626.7500     15.1612    -60.6436     12.2592    138.7048
   627.0000     15.1498    -60.4294     12.6972    140.2847
   627.2500     15.1534    -60.2011     13.1799    140.7081
   627.5000     15.3175    -59.9731     13.7031    140.6980
   627.7500     15.6796    -59.7624     14.2602    140.8101
   628.0000     16.1502    -59.5814     14.8374    141.8572
   628.2500     16.6555    -59.4296     15.4143    143.1647
   628.5000     17.2190    -59.2914     15.9698    145.4435
   628.7500     17.8669    -59.1462     16.4909    146.4307
   629.0000     18.5780    -58.9812     16.9759    145.2852
   629.2500     19.3288    -58.7974     17.4335    141.8466
   629.5000     20.0795    -58.6050     17.8804    132.4934
   629.7500     20.7872    -58.4164     18.3390    124.3245
   630.0000     21.4953    -58.2424     18.8331    111.4267
   630.2500     22.2954    -58.0915     19.3789    103.5230
   630.5000     23.1553    -57.9689     19.9756     93.7391
   630.7500     23.8992    -57.8744     20.5991     88.7432
   631.0000     24.4165    -57.8017     21.2059     83.3853
   631.2500     24.7405    -57.7433     21.7466     81.0628
   631.5000     24.8900    -57.6986     22.1836     79.0307
   631.7500     24.8502    -57.6772     22.4997     78.3111
   632.0000     24.7203    -57.6939     22.6955     77.8144
   632.2500     24.6908    -57.7582     22.7856     77.9855
   632.5000     24.8168    -57.8649     22.8011     79.3896
   632.7500     24.9257    -57.9930     22.7910     80.9308
   633.0000     24.8434    -58.1135     22.8094     82.9532
   633.2500     24.6105    -58.2043     22.8912     83.3097
   633.5000     24.3790    -58.2606     23.0338     81.8214
   633.7500     24.2246    -58.2935     23.1975     79.8344
   634.0000     24.1401    -58.3176     23.3273     76.6152
   634.2500     24.0980    -58.3395     23.3821     74.9128
   634.5000     24.1007    -58.3565     23.3529     73.1896
   634.7500     24.1937    -58.3601     23.2544     72.2504
   635.0000     24.3936    -58.3376     23.1011     70.4519
   635.2500     24.5974    -58.2735     22.8926     68.8119
   635.5000     24.6225    -58.1541     22.6201     66.0959
   635.7500     24.4225    -57.9745     22.2816     64.8511
   636.0000     24.1732    -57.7409     21.8878     65.5295
   636.2500     23.9810    -57.4692     21.4528     68.3170
   636.5000     23.6736    -57.1835     20.9825     75.6332
   636.7500     23.0714    -56.9110     20.4709     81.6476
   637.0000     22.2749    -56.6711     19.9042     90.3222
   637.2500     21.5129    -56.4674     19.2713     94.8869
   637.5000     20.8207    -56.2879     18.5734     99.3182
   637.7500     20.0120    -56.1127     17.8277    101.0581
   638.0000     19.0020    -55.9218     17.0602    102.9823
   638.2500     17.9970    -55.7029     16.2946    104.2738
   638.5000     17.2456    -55.4568     15.5459    106.8169
   638.7500     16.7768    -55.1962     14.8216    109.3488
   639.0000     16.4268    -54.9343     14.1274    114.7155
   639.2500     15.9951    -54.6763     13.4716    118.8240
   639.5000     15.4042    -54.4202     12.8663    124.0637
   639.7500     14.7352    -54.1644     12.3246    126.1590
   640.0000     14.1051    -53.9127     11.8567    127.0891
   640.2500     13.5828    -53.6770     11.4660    126.7857
   640.5000     13.1978    -53.4763     11.1481    126.2725
   640.7500     12.9240    -53.3297     10.8949    126.5279
   641.0000     12.6956    -53.2436     10.6993    128.2130
   641.2500     12.4943    -53.2035     10.5594    129.9666
   641.5000     12.3399    -53.1771     10.4768    132.5322
   641.7500     12.1975    -53.1278     10.4534    133.5660
   642.0000     12.0288    -53.0300     10.4899    133.5233
   642.2500     11.9344    -52.8778     10.5860    132.4503
   642.5000     12.0604    -52.6842     10.7432    129.5514
   642.7500     12.3507    -52.4732     10.9661    126.8277
   643.0000     12.6339    -52.2670     11.2616    121.4757
   643.2500     12.8914    -52.0766     11.6355    117.1413
   643.5000     13.2491    -51.8998     12.0884    110.2547
   643.7500     13.8306    -51.7260     12.6145    106.0857
   644.0000     14.6466    -51.5406     13.2068    101.3001
   644.2500     15.5713    -51.3276     13.8647     99.1566
   644.5000     16.4826    -51.0763     14.5945     97.0080
   644.7500     17.3904    -50.7879     15.4031     95.7976
   645.0000     18.3935    -50.4770     16.2919     93.4981
   645.2500     19.5452    -50.1651     17.2556     91.3845
   645.5000     20.7599    -49.8746     18.2847     87.5993
   645.7500     21.8824    -49.6239     19.3631     85.2129
   646.0000     22.8882    -49.4230     20.4643     82.8469
   646.2500     23.9269    -49.2701     21.5524     82.2887
   646.5000     25.1117    -49.1519     22.5927     82.7233
   646.7500     26.3440    -49.0506     23.5622     83.7756
   647.0000     27.4028    -48.9517     24.4482     86.6841
   647.2500     28.1792    -48.8475     25.2395     89.3375
   647.5000     28.7137    -48.7338     25.9249     93.0903
   647.7500     29.0428    -48.6050     26.5047     94.6484
   648.0000     29.2057    -48.4557     27.0057     95.5124
   648.2500     29.3563    -48.2895     27.4764     95.6901
   648.5000     29.6837    -48.1237     27.9636     95.8296
   648.7500     30.2337    -47.9780     28.4873     95.3396
   649.0000     30.9120    -47.8596     29.0358     92.3980
   649.2500     31.6419    -47.7637     29.5812     88.6397
   649.5000     32.4304    -47.6847     30.1007     80.9395
   649.7500     33.2973    -47.6228     30.5866     75.1871
   650.0000     34.2172    -47.5775     31.0401     66.8404
   650.2500     35.1141    -47.5410     31.4623     61.9149
   650.5000     35.9309    -47.4978     31.8490     55.9099
   650.7500     36.7093    -47.4329     32.1862     53.0574
   651.0000     37.4783    -47.3399     32.4344     50.9310
   651.2500     38.0858    -47.2228     32.5127     51.0374
   651.5000     38.3032    -47.0898     32.3153     53.0518
   651.7500     38.0741    -46.9481     31.7711     55.0971
   652.0000     37.5334    -46.8035     30.9041     58.2635
   652.2500     36.8049    -46.6616     29.8337     60.1584
   652.5000     35.8569    -46.5257     28.7125     62.9834
   652.7500     34.5733    -46.3956     27.6581     65.3206
   653.0000     32.9546    -46.2672     26.7239     69.9740
   653.2500     31.1869    -46.1347     25.9080     73.6511
   653.5000     29.4645    -45.9930     25.1823     79.1790
   653.7500     27.8422    -45.8396     24.5208     82.4124
   654.0000     26.3250    -45.6753     23.9165     86.3431
   654.2500     24.9857    -45.5041     23.3790     88.6234
   654.5000     23.9362    -45.3359     22.9213     92.4853
   654.7500     23.2224    -45.1875     22.5480     95.8228
   655.0000     22.7815    -45.0774     22.2522    101.9129
   655.2500     22.5272    -45.0129     22.0179    106.0259
   655.5000     22.4503    -44.9809     21.8261    110.4499
   655.7500     22.5845    -44.9532     21.6570    111.2403
   656.0000     22.8275    -44.9004     21.4900    108.5066
   656.2500     22.9349    -44.8042     21.3024    104.5148
   656.5000     22.8388    -44.6616     21.0711     97.1105
   656.7500     22.7348    -44.4805     20.7787     92.4422
   657.0000     22.7578    -44.2736     20.4213     87.4745
   657.2500     22.8344    -44.0510     20.0115     86.1414
   657.5000     22.8146    -43.8159     19.5736     87.6129
   657.7500     22.5518    -43.5661     19.1294     90.8183
   658.0000     21.9450    -43.3039     18.6817     98.3478
   658.2500     21.0231    -43.0435     18.2111    104.7281
   658.5000     19.9306    -42.8076     17.6889    115.1493
   658.7500     18.8287    -42.6147     17.0988    121.4998
   659.0000     17.8120    -42.4681     16.4490    128.1610
   659.2500     16.8535    -42.3531     15.7644    130.5363
   659.5000     15.8806    -42.2447     15.0704    132.9470
   659.7500     14.9445    -42.1167     14.3833    135.2181
