~Version Information
VERS.                      2.0: CWLS Log ASCII Standard - VERSION 2.0
WRAP.                       NO: One line per depth step
~Well Information Block
STRT.FT               452.0000: 
STOP.FT              1726.5000: 
STEP.FT                 0.1000: 
NULL.                -999.2500: 
COMP.          Pioneer Natural Resources: COMPANY
WELL.          Parrothead 31-31 Tr: WELL
FLD.           Purgatoire River: FIELD
LOC.           496' FNL & 1546' FEL: LOCATION
PROV.                 Colorado: PROVINCE
CNTY.               Las Animas: COUNTRY
SRVC.                Patterson: SERVICE COMPANY
DATE.          Thu Nov 10 07:29:36 2005: LOG DATE
UWI.           05 071 08610 00: UNIQUE WELL ID
~Curve Information Block
DEPT.FT            0 000 00 00: Depth
DCAL.in                       : CDL Caliper
RHOB.g/cc                     : CDL Bulk Density
RHOC.g/cc                     : CDL Density Correction
DPOR.pu                       : CDL Density Porosity
GR.GAPI                       : Gamma Ray
NPOR.pu                       : Neutron Porosity
~Parameter Information Block
~A  Depth       DCAL        RHOB        RHOC        DPOR         GR         NPOR    
# ...
  1210.4000      7.9650      2.5294     -0.0031      7.3107    128.7267     23.9647
  1210.5000      7.9618      2.5284      0.0296      7.3670    136.0057     23.8197
  1210.6000      7.9618      2.5338      0.0483      7.0443    142.9651     23.5157
  1210.7000      7.9618      2.5303      0.0471      7.2533    146.2681     23.3028
  1210.8000      7.9778      2.5250     -0.0041      7.5759    141.8649     23.6311
  1210.9000      7.9778      2.5351     -0.0027      6.9633    133.7909     24.5639
  1211.0000      7.9751      2.5585      0.0816      5.5469    129.4607     25.4754
  1211.1000      7.9751      2.5719      0.0760      4.7362    128.6889     25.9042
  1211.2000      7.9751      2.5641      0.0217      5.2056    127.6178     26.1677
  1211.3000      7.9744      2.5424      0.0624      6.5195    125.3097     26.3523
  1211.4000      7.9744      2.5127      0.0678      8.3218    123.1438     26.1514
  1211.5000      7.9670      2.4907     -0.0073      9.6569    123.2520     25.7657
  1211.6000      7.9670      2.4959      0.0569      9.3383    126.4999     25.6763
  1211.7000      7.9670      2.5172      0.0458      8.0464    132.1325     26.2709
  1211.8000      7.9593      2.5286      0.0333      7.3547    136.9748     27.2908
  1211.9000      7.9593      2.5233      0.0469      7.6761    137.9831     28.1956
  1212.0000      7.9581      2.5121      0.0547      8.3546    135.0785     29.1827
  1212.1000      7.9581      2.5156      0.0142      8.1460    129.9031     30.2218
  1212.2000      7.9581      2.5485      0.0553      6.1505    124.0788     30.3371
  1212.3000      7.9615      2.5967      0.0900      3.2284    114.4102     29.2663
  1212.4000      7.9615      2.6333      0.0865      1.0132     99.3598     28.0008
  1212.5000      7.9743      2.6443      0.0778      0.3436     89.0797     27.0761
  1212.6000      7.9743      2.6374      0.0636      0.7607     89.5824     26.2551
  1212.7000      7.9743      2.6375      0.0904      0.7562     93.7167     25.7014
  1212.8000      7.9571      2.6557      0.1504     -0.3477     96.9722     25.7347
  1212.9000      7.9571      2.6681      0.1686     -1.0966    100.4046     25.7833
  1213.0000      7.9165      2.6510      0.1753     -0.0584    104.5240     25.1640
  1213.1000      7.9165      2.6170      0.1457      1.9983    108.5056     24.2732
  1213.2000      7.9165      2.5903      0.1189      3.6183    107.7754     23.7694
  1213.3000      7.8169      2.5747      0.1080      4.5644    101.4032     23.6255
  1213.4000      7.8169      2.5628      0.1311      5.2824     96.2705     23.6322
  1213.5000      7.8201      2.5596      0.0592      5.4796     95.0464     23.7683
  1213.6000      7.8201      2.5827      0.0754      4.0809     93.4076     24.0336
  1213.7000      7.8201      2.6310      0.1202      1.1485     92.6527     24.4592
  1213.8000      7.8626      2.6800      0.1268     -1.8158     95.3203     25.1205
  1213.9000      7.8626      2.7066      0.1899     -3.4306     97.9921     25.6862
  1214.0000      7.8740      2.7106      0.1590     -3.6737     99.0644     25.5678
  1214.1000      7.8740      2.7074      0.1795     -3.4814    100.6275     24.8847
  1214.2000      7.8740      2.7016      0.1186     -3.1268    100.0949     24.5242
  1214.3000      7.8622      2.6920      0.0991     -2.5427     94.8650     25.1077
  1214.4000      7.8622      2.6815      0.0860     -1.9067     87.3897     26.3420
  1214.5000      7.8609      2.6664      0.0604     -0.9911     83.7039     27.1243
  1214.6000      7.8609      2.6421      0.0269      0.4816     88.5729     26.7832
  1214.7000      7.8609      2.6131     -0.0328      2.2380     97.1494     26.0193
  1214.8000      7.8876      2.5822      0.0313      4.1095    101.7013     25.8744
  1214.9000      7.8876      2.5515     -0.0526      5.9690    101.0075     26.1031
  1215.0000      7.9188      2.5335     -0.0027      7.0591     98.7838     25.8462
  1215.1000      7.9188      2.5273      0.0050      7.4338     99.3245     25.1072
  1215.2000      7.9188      2.5225     -0.0226      7.7265    100.6221     24.3038
  1215.3000      7.9216      2.5208     -0.0143      7.8299     96.8848     23.6245
  1215.4000      7.9216      2.5254     -0.0230      7.5505     89.0917     23.1043
  1215.5000      7.9169      2.5422     -0.0089      6.5336     84.4372     22.8465
  1215.6000      7.9169      2.5715      0.0815      4.7580     86.9790     22.9716
  1215.7000      7.9169      2.5931      0.1866      3.4497     90.5893     23.2531
  1215.8000      7.8770      2.5993      0.1240      3.0714     89.1608     23.1128
  1215.9000      7.8770      2.6063      0.2043      2.6476     87.9316     22.4686
  1216.0000      7.7950      2.6185      0.2197      1.9104     91.5835     21.6754
  1216.1000      7.7950      2.6356      0.1767      0.8755     95.9871     20.8868
  1216.2000      7.7950      2.6640      0.1842     -0.8475     98.7944     20.1732
  1216.3000      7.7731      2.6926      0.1855     -2.5799    102.3334     19.8485
  1216.4000      7.7731      2.7062      0.1370     -3.4045    105.7707     20.3230
  1216.5000      7.7968      2.7122      0.1890     -3.7705    105.9506     21.1673
  1216.6000      7.7968      2.7173      0.1855     -4.0807    104.2012     21.3652
  1216.7000      7.7968      2.7157      0.1691     -3.9812    105.2597     20.8034
  1216.8000      7.8900      2.7015      0.1780     -3.1236    109.7461     20.1594
  1216.9000      7.8900      2.6717      0.1345     -1.3169    113.9772     19.8568
  1217.0000      7.9120      2.6344      0.0385      0.9455    116.0499     19.8001
  1217.1000      7.9120      2.6062      0.0943      2.6541    115.8635     19.7846
  1217.2000      7.9120      2.5882      0.0789      3.7465    112.4775     19.7456
  1217.3000      7.9183      2.5743      0.0053      4.5881    107.5309     19.7843
  1217.4000      7.9183      2.5625      0.0884      5.3001    104.7694     19.9737
  1217.5000      7.9374      2.5444      0.0916      6.3993    108.7340     20.2108
  1217.6000      7.9374      2.5122      0.0910      8.3524    118.2809     20.3106
  1217.7000      7.9374      2.4790      0.0351     10.3642    126.5853     20.1623
  1217.8000      7.9441      2.4727      0.0476     10.7474    131.2973     19.7261
  1217.9000      7.9441      2.4900      0.0748      9.6979    134.0162     19.2848
  1218.0000      7.9650      2.5012      0.0843      9.0166    134.6463     19.6335
  1218.1000      7.9650      2.4970      0.1190      9.2746    135.1691     20.8643
  1218.2000      7.9650      2.4870      0.0909      9.8761    138.8626     22.0281
  1218.3000      7.9966      2.4820      0.1248     10.1807    143.2395     22.6810
  1218.4000      7.9966      2.4843      0.1143     10.0426    140.9601     23.0251
  1218.5000      8.0046      2.4863      0.1508      9.9209    133.0879     23.1544
  1218.6000      8.0046      2.4809      0.1466     10.2493    131.0172     22.8822
  1218.7000      8.0046      2.4733      0.0825     10.7076    138.7704     22.3580
  1218.8000      8.0273      2.4683      0.0725     11.0105    147.2782     22.1214
  1218.9000      8.0273      2.4630      0.0318     11.3363    146.0489     22.1495
  1219.0000      8.0718      2.4636      0.0137     11.2983    137.2365     22.1536
  1219.1000      8.0718      2.4754      0.0516     10.5822    132.6263     22.2650
  1219.2000      8.0718      2.4845      0.0827     10.0301    133.1897     22.7574
  1219.3000      8.0506      2.4758      0.0590     10.5605    128.5224     23.3971
  1219.4000      8.0506      2.4537      0.0720     11.8966    117.8966     23.8606
  1219.5000      8.0293      2.4396      0.0601     12.7497    111.1352     24.3600
  1219.6000      8.0293      2.4528      0.0597     11.9509    111.9081     24.9966
  1219.7000      8.0293      2.4943      0.0719      9.4373    117.1617     25.5225
  1219.8000      8.0158      2.5609      0.0723      5.3979    123.9814     25.7519
  1219.9000      8.0158      2.6488      0.1071      0.0698    126.6967     25.6021
