~Version Information
VERS.                      2.0: CWLS Log ASCII Standard - VERSION 2.0
WRAP.                       NO: One line per depth step
~Well Information Block
STRT.FT                -6.7500: 
STOP.FT              1661.0000: 
STEP.FT                 0.2500: 
NULL.                -999.2500: 
COMP.          Pioneer Natural Resources: COMPANY
WELL.           Pedri 42-33 Tr: WELL
FLD.           Purgatorie River: FIELD
LOC.           1933'' FNL & 662' FEL--: LOCATION
PROV.                       CO: PROVINCE
CNTY.               Las Animas: COUNTRY
SRVC.          Patterson Wireline: SERVICE COMPANY
DATE.          Tue Dec 27 08:53:52 2005: LOG DATE
UWI.           05 071 08640 00: UNIQUE WELL ID
~Curve Information Block
DEPT.FT            0 000 00 00: Depth
CCL.                          : Casing Collar Locator
TT3.usec                      : CBL 3' Travel Time
AMP3.mV                       : CBL 3' Amplitude
GR.GAPI                       : Gamma Ray
~Parameter Information Block
~A  Depth       CCL         TT3         AMP3         GR     
# ...
   663.2500      0.0000    772.2972      5.5027    108.4632
   663.5000      0.0000    797.7949      5.5627     96.4128
   663.7500      0.0000    819.5386      5.6235     86.8582
   664.0000      0.0000    834.1392      5.6635     80.4649
   664.2500      0.0000    840.8518      5.6792     77.2512
   664.5000      0.0000    840.8893      5.6874     76.4421
   664.7500      0.0000    835.4394      5.7100     76.9111
   665.0000      0.0000    824.1180      5.7570     77.8720
   665.2500      0.0000    805.2761      5.8181     79.1482
   665.5000      0.0000    778.7213      5.8720     80.8780
   665.7500      0.0000    748.5094      5.9044     83.0913
   666.0000      0.0000    721.9378      5.9160     85.4130
   666.2500      0.0000    705.0824      5.9142     86.9135
   666.5000      0.0000    699.6398      5.9030     86.3702
   666.7500      0.0000    703.2991      5.8821     82.9981
   667.0000      0.0000    711.9551      5.8516     77.0381
   667.2500      0.0000    722.3577      5.8138     69.6956
   667.5000      0.0000    734.1392      5.7743     62.6990
   667.7500      0.0000    748.8641      5.7425     57.7858
   668.0000      0.0000    766.4310      5.7244     55.9326
   668.2500      0.0000    783.5879      5.7151     56.5313
   668.5000      0.0000    796.7460      5.7027     57.5810
   668.7500      0.0000    805.1929      5.6827     57.2569
   669.0000      0.0000    811.0645      5.6682     55.3342
   669.2500      0.0000    816.9288      5.6815     53.0519
   669.5000      0.0000    823.4880      5.7335     52.0038
   669.7500      0.0000    828.8069      5.8095     53.4772
   670.0000      0.0000    829.4146      5.8777     58.4216
   670.2500      0.0000    822.4948      5.9147     67.4292
   670.5000      0.0000    807.5581      5.9242     80.4332
   670.7500      0.0000    786.6819      5.9331     96.3675
   671.0000      0.0000    763.5527      5.9716    113.3506
   671.2500      0.0000    741.8113      6.0563    129.4289
   671.5000      0.0000    723.6583      6.1868    142.9845
   671.7500      0.0000    709.9512      6.3520    152.4940
   672.0000      0.0000    701.4645      6.5364    156.8363
   672.2500      0.0000    699.4080      6.7216    156.6259
   672.5000      0.0000    704.2534      6.8884    154.6113
   672.7500      0.0000    713.8327      7.0224    153.7253
   673.0000      0.0000    722.2784      7.1192    154.8689
   673.2500      0.0000    721.2457      7.1848    157.0163
   673.5000      0.0000    703.8462      7.2301    158.8096
   673.7500      0.0000    669.6070      7.2656    159.3684
   674.0000      0.0000    626.4949      7.2972    158.1693
   674.2500      0.0000    586.9201      7.3253    155.2351
   674.5000      0.0000    560.2952      7.3458    151.5590
   674.7500      0.0000    548.9449      7.3521    148.7811
   675.0000      0.0000    550.2202      7.3380    148.1403
   675.2500      0.0000    560.6098      7.2990    149.6378
   675.5000      0.0000    577.3026      7.2330    152.1166
   675.7500      0.0000    597.5883      7.1412    154.1047
   676.0000      0.0000    618.9920      7.0297    154.7816
   676.2500      0.0000    640.6824      6.9125    154.5180
   676.5000      0.0000    663.7597      6.8136    154.5858
   676.7500      0.0000    688.7439      6.7593    156.0892
   677.0000      0.0000    712.4736      6.7615    158.7347
   677.2500      0.0000    728.6514      6.8029    160.5832
   677.5000      0.0000    732.6787      6.8425    159.4708
   677.7500      0.0000    726.4647      6.8410    154.9521
   678.0000      0.0000    718.3426      6.7889    148.5653
   678.2500      0.0000    717.5831      6.7111    142.1249
   678.5000      0.0000    727.6006      6.6446    136.2840
   678.7500      0.0000    743.5071      6.6061    130.7897
   679.0000      0.0000    756.8475      6.5837    125.3090
   679.2500      0.0000    763.7034      6.5531    119.7053
   679.5000      0.0000    767.5988      6.5002    114.2415
   679.7500      0.0000    774.1854      6.4278    109.9180
   680.0000      0.0000    785.3892      6.3477    108.0704
   680.2500      0.0000    800.8323      6.2715    108.8137
   680.5000      0.0000    822.1817      6.2063    109.9411
   680.7500      0.0000    851.0646      6.1608    108.1836
   681.0000      0.0000    881.9730      6.1535    101.9333
   681.2500      0.0000    900.6349      6.2088     92.5806
   681.5000      0.0000    892.0782      6.3396     83.2985
   681.7500      0.0000    851.3217      6.5301     76.7059
   682.0000      0.0000    786.9908      6.7371     73.4104
   682.2500      0.0000    715.3254      6.9123     72.5098
   682.5000      0.0000    651.1794      7.0296     73.2732
   682.7500      0.0000    604.0623      7.0956     75.9117
   683.0000      0.0000    579.0433      7.1358     80.6809
   683.2500      0.0000    576.3667      7.1728     86.7529
   683.5000      0.0000    589.1245      7.2164     92.1898
   683.7500      0.0000    604.6345      7.2642     94.8837
   684.0000      0.0000    610.7122      7.3078     93.7963
   684.2500      0.0000    601.7776      7.3405     89.8015
   684.5000      0.0000    581.3421      7.3579     85.3321
   684.7500      0.0000    560.6089      7.3492     82.7058
   685.0000      0.0000    552.7334      7.2891     82.5568
   685.2500      0.0000    564.7319      7.1485     83.9924
   685.5000      0.0000    593.5160      6.9166     86.1657
   685.7500      0.0000    629.7966      6.6149     89.3535
   686.0000      0.0000    665.1981      6.2931     94.4030
   686.2500      0.0000    695.3228      6.0112    101.4847
   686.5000      0.0000    718.4257      5.8101    109.8435
   686.7500      0.0000    735.0828      5.6760    118.7950
   687.0000      0.0000    750.8752      5.5371    128.2130
   687.2500      0.0000    776.5259      5.3303    137.2613
   687.5000      0.0000    819.9995      5.0906    143.2403
   687.7500      0.0000    875.8763      4.9526    143.1458
   688.0000      0.0000    925.7748      5.0400    136.7967
   688.2500      0.0000    953.9095      5.3613    127.8521
   688.5000      2.0000    961.4574      5.8131    121.6209
   688.7500      0.0000    962.1461      6.2653    121.7366
   689.0000      0.0000    966.0457      6.6441    128.0546
   689.2500      0.0000    972.2703      6.9625    136.9502
   689.5000      0.0000    973.9732      7.2703    143.9712
   689.7500      0.0000    963.9189      7.5524    147.0200
   690.0000      0.0000    937.9387      7.7059    147.2759
   690.2500      0.0000    899.0542      7.6752    147.2931
   690.5000      0.0000    857.3760      7.5689    148.6289
   690.7500      0.0000    823.2424      7.5641    151.0516
   691.0000      0.0000    801.4991      7.7203    153.2163
   691.2500      0.0000    791.8574      7.9445    153.8344
   691.5000      0.0000    791.3376      8.1121    152.5608
   691.7500      0.0000    795.6739      8.1693    150.1179
   692.0000      0.0000    800.8274      8.1382    147.7672
   692.2500      0.0000    804.6243      8.0730    146.4093
   692.5000      0.0000    806.8805      8.0300    145.7183
   692.7500      0.0000    808.2410      8.0516    144.2195
   693.0000      0.0000    809.1765      8.1541    140.6055
   693.2500      0.0000    809.7425      8.3183    134.7817
   693.5000      0.0000    809.7502      8.5000    127.5736
   693.7500      0.0000    808.8946      8.6548    120.0607
   694.0000      0.0000    806.7433      8.7570    113.4391
   694.2500      0.0000    802.7277      8.8011    108.9664
   694.5000      0.0000    796.1273      8.7909    107.5876
   694.7500      0.0000    786.0297      8.7302    109.8003
   695.0000      0.0000    772.1190      8.6209    115.8200
   695.2500      0.0000    756.8104      8.4689    125.1917
   695.5000      0.0000    746.1301      8.2895    135.8632
   695.7500      0.0000    745.9890      8.1057    144.3586
   696.0000      0.0000    756.3856      7.9381    147.8569
   696.2500      0.0000    770.3060      7.7968    146.2052
   696.5000      0.0000    778.8857      7.6837    141.7465
