~Version Information
VERS.                      2.0: CWLS Log ASCII Standard - VERSION 2.0
WRAP.                       NO: One line per depth step
~Well Information Block
STRT.FT                 0.5000: 
STOP.FT              2166.0000: 
STEP.FT                 0.2500: 
NULL.                -999.2500: 
COMP.          Pioneer Natural Resources: COMPANY
WELL.          Bear Cub Federal 11-23: WELL
FLD.           Purgatoire River: FIELD
LOC.           1225' FNL & 1268 ' FWL--: LOCATION
CNTY.               Las Animas: COUNTY
SRVC.                Patterson: SERVICE COMPANY
DATE.          Mon Jul 17 10:21:31 2006: LOG DATE
UWI.           05 071 08509 00: UNIQUE WELL ID
STAT.                 Colorado: STATE
~Curve Information Block
DEPT.FT            0 000 00 00: Depth
CCL.                          : Casing Collar Locator
TT3.usec                      : CBL 3' Travel Time
AMP3.mV                       : CBL 3' Amplitude
GR.GAPI                       : Gamma Ray
~Parameter Information Block
~A  Depth       CCL         TT3         AMP3         GR     
# ...
  2144.5000      0.0000    510.6379      3.0070     86.6962
  2144.7500      0.0000    501.5614      3.0339     88.1764
  2145.0000      0.0000    473.4955      3.0662     88.2867
  2145.2500      0.0000    453.9551      3.0862     86.6091
  2145.5000      0.0000    434.2944      3.1113     82.8218
  2145.7500      0.0000    428.3875      3.1186     80.7521
  2146.0000      0.0000    425.5998      3.1132     79.4672
  2146.2500      0.0000    424.7810      3.1044     79.4914
  2146.5000      0.0000    422.7751      3.0963     79.5935
  2146.7500      0.0000    421.1295      3.0984     79.3274
  2147.0000      0.0000    419.3655      3.1115     79.0751
  2147.2500      0.0000    418.9685      3.1216     79.8049
  2147.5000      0.0000    419.2786      3.1254     82.7438
  2147.7500      0.0000    419.7665      3.1141     85.1971
  2148.0000      0.0000    420.5155      3.0743     87.4958
  2148.2500      0.0000    420.9276      3.0363     87.4584
  2148.5000      0.0000    421.4194      2.9754     86.0180
  2148.7500      0.0000    421.7185      2.9415     85.3499
  2149.0000      0.0000    422.2413      2.9120     85.7177
  2149.2500      0.0000    422.6801      2.9068     86.1557
  2149.5000      0.0000    423.4413      2.9108     85.0810
  2149.7500      0.0000    423.9446      2.9156     82.4889
  2150.0000      0.0000    424.5630      2.9267     74.9788
  2150.2500      0.0000    424.8511      2.9407     66.8520
  2150.5000      0.0000    425.1185      2.9738     49.6405
  2150.7500      0.0000    425.2141      2.9995     36.3217
  2151.0000      0.0000    425.2626      3.0335     18.3729
  2151.2500      0.0000    425.2394      3.0501      9.9464
  2151.5000      0.0000    425.1390      3.0643      3.0594
  2151.7500      0.0000    425.0495      3.0670      1.1641
  2152.0000      0.0000    424.9434      3.0650      0.2061
  2152.2500      0.0000    424.9387      3.0652      0.0530
  2152.5000      0.0000    425.1034      3.0767      0.0034
  2152.7500      0.0000    425.3427      3.0928   -999.2500
  2153.0000      0.0000    425.8365      3.1220   -999.2500
  2153.2500      0.0000    426.1788      3.1386   -999.2500
  2153.5000      0.0000    426.5902      3.1570   -999.2500
  2153.7500      0.0000    426.7764      3.1692   -999.2500
  2154.0000      0.0000    426.8840      3.1976   -999.2500
  2154.2500      0.0000    426.6870      3.2252   -999.2500
  2154.5000      0.0000    424.6295      3.2676   -999.2500
  2154.7500      0.0000    419.7747      3.2767   -999.2500
  2155.0000      0.0000    399.0386      3.1991   -999.2500
  2155.2500      0.0000    369.6988      3.0415   -999.2500
  2155.5000      0.0000    295.8288      2.6038   -999.2500
  2155.7500      0.0000    230.9328      2.2058   -999.2500
  2156.0000      0.0000    131.8873      1.5886   -999.2500
  2156.2500      0.0000     78.5953      1.2530   -999.2500
  2156.5000      0.0000     28.4532      0.9348   -999.2500
  2156.7500      0.0000     12.1982      0.8309   -999.2500
  2157.0000      0.0000      2.6196      0.7693   -999.2500
  2157.2500      0.0000      0.7783      0.7574   -999.2500
  2157.5000      0.0000      0.0889      0.7529   -999.2500
  2157.7500      0.0000      0.0115      0.7524   -999.2500
  2158.0000      0.0000   -999.2500   -999.2500   -999.2500
  2158.2500      0.0000   -999.2500   -999.2500   -999.2500
  2158.5000      0.0000   -999.2500   -999.2500   -999.2500
  2158.7500      0.0000   -999.2500   -999.2500   -999.2500
  2159.0000      0.0000   -999.2500   -999.2500   -999.2500
  2159.2500      0.0000   -999.2500   -999.2500   -999.2500
  2159.5000      0.0000   -999.2500   -999.2500   -999.2500
  2159.7500      0.0000   -999.2500   -999.2500   -999.2500
  2160.0000      0.0000   -999.2500   -999.2500   -999.2500
  2160.2500      0.0000   -999.2500   -999.2500   -999.2500
  2160.5000      0.0000   -999.2500   -999.2500   -999.2500
  2160.7500      0.0000   -999.2500   -999.2500   -999.2500
  2161.0000      0.0000   -999.2500   -999.2500   -999.2500
  2161.2500      0.0000   -999.2500   -999.2500   -999.2500
  2161.5000      0.0000   -999.2500   -999.2500   -999.2500
  2161.7500      2.0000   -999.2500   -999.2500   -999.2500
  2162.0000      0.0000   -999.2500   -999.2500   -999.2500
  2162.2500      0.0000   -999.2500   -999.2500   -999.2500
  2162.5000      0.0000   -999.2500   -999.2500   -999.2500
  2162.7500      0.0000   -999.2500   -999.2500   -999.2500
  2163.0000      0.0000   -999.2500   -999.2500   -999.2500
  2163.2500      0.0000   -999.2500   -999.2500   -999.2500
  2163.5000   -999.2500   -999.2500   -999.2500   -999.2500
  2163.7500   -999.2500   -999.2500   -999.2500   -999.2500
  2164.0000   -999.2500   -999.2500   -999.2500   -999.2500
  2164.2500   -999.2500   -999.2500   -999.2500   -999.2500
  2164.5000   -999.2500   -999.2500   -999.2500   -999.2500
  2164.7500   -999.2500   -999.2500   -999.2500   -999.2500
  2165.0000   -999.2500   -999.2500   -999.2500   -999.2500
  2165.2500   -999.2500   -999.2500   -999.2500   -999.2500
  2165.5000   -999.2500   -999.2500   -999.2500   -999.2500
  2165.7500   -999.2500   -999.2500   -999.2500   -999.2500
  2166.0000   -999.2500   -999.2500   -999.2500   -999.2500
