~Version Information
VERS.                      2.0: CWLS Log ASCII Standard - VERSION 2.0
WRAP.                       NO: One line per depth step
~Well Information Block
STRT.FT               310.0000: 
STOP.FT              2295.5000: 
STEP.FT                 0.1000: 
NULL.                -999.2500: 
COMP.          Pioneer Natural Resources: COMPANY
WELL.               Relay 12-7: WELL
FLD.           Purgatoire River: FIELD
LOC.           1999' FNL & 848' FWL: LOCATION
PROV.                 Colorado: PROVINCE
CNTY.               Las Animas: COUNTRY
SRVC.                Patterson: SERVICE COMPANY
DATE.          Mon Dec 19 07:37:11 2005: LOG DATE
UWI.           05 071 08453 00: UNIQUE WELL ID
~Curve Information Block
DEPT.FT            0 000 00 00: Depth
DCAL.in                       : CDL Caliper
RHOB.g/cc                     : CDL Bulk Density
RHOC.g/cc                     : CDL Density Correction
DPOR.pu                       : CDL Density Porosity
GR.GAPI                       : Gamma Ray
NPOR.pu                       : Neutron Porosity
~Parameter Information Block
~A  Depth       DCAL        RHOB        RHOC        DPOR         GR         NPOR    
# ...
  1356.4000      8.0219      2.5094      0.0062      8.5232    126.1062     27.7328
  1356.5000      8.0276      2.5292      0.0144      7.3197    124.0020     28.6246
  1356.6000      8.0276      2.5508      0.1032      6.0115    129.0816     29.4095
  1356.7000      8.0276      2.5566      0.0768      5.6635    135.6949     29.1434
  1356.8000      8.0504      2.5567      0.0795      5.6574    138.7945     28.5676
  1356.9000      8.0504      2.5649      0.0650      5.1552    142.2870     28.0329
  1357.0000      8.0453      2.5711      0.1640      4.7812    148.9154     27.4451
  1357.1000      8.0453      2.5569      0.0951      5.6427    156.0377     27.2402
  1357.2000      8.0453      2.5232      0.1110      7.6820    159.6582     27.5053
  1357.3000      8.0483      2.4815      0.0997     10.2096    157.5984     27.7434
  1357.4000      8.0483      2.4461      0.0422     12.3599    152.8116     27.8659
  1357.5000      8.0357      2.4252      0.0503     13.6267    148.6347     28.1994
  1357.6000      8.0357      2.4211      0.0298     13.8703    145.3493     28.6899
  1357.7000      8.0357      2.4344      0.0658     13.0688    143.5021     28.6842
  1357.8000      8.0458      2.4534      0.1139     11.9173    142.8530     28.4614
  1357.9000      8.0458      2.4634      0.1021     11.3066    140.4877     28.7325
  1358.0000      8.0387      2.4677      0.1493     11.0514    135.4930     29.3654
  1358.1000      8.0387      2.4732      0.1561     10.7169    129.6287     30.1141
  1358.2000      8.0387      2.4736      0.1921     10.6924    123.0812     30.4379
  1358.3000      8.0349      2.4614      0.1662     11.4287    115.9190     29.7962
  1358.4000      8.0349      2.4511      0.0991     12.0555    108.7413     28.7071
  1358.5000      8.0301      2.4611      0.1494     11.4459    102.3367     28.2750
  1358.6000      8.0301      2.4846      0.1159     10.0259     96.5887     28.6762
  1358.7000      8.0301      2.5036      0.2117      8.8739     87.9338     29.2235
  1358.8000      8.0098      2.5151      0.1722      8.1738     73.7894     29.2161
  1358.9000      8.0098      2.5353      0.1126      6.9537     60.7814     28.2068
  1359.0000      8.0006      2.5768      0.0775      4.4391     57.2432     26.9479
  1359.1000      8.0006      2.6309      0.0725      1.1579     58.6111     26.5189
  1359.2000      8.0006      2.6756      0.0364     -1.5535     54.2706     26.4905
  1359.3000      7.9935      2.7031      0.0863     -3.2174     44.9361     26.2796
  1359.4000      7.9935      2.7196      0.1018     -4.2178     39.2226     26.4139
  1359.5000      7.9456      2.7239      0.1250     -4.4800     40.6622     26.9754
  1359.6000      7.9456      2.7157      0.1008     -3.9821     44.6664     26.8868
  1359.7000      7.9456      2.7096      0.0413     -3.6147     48.9786     25.8406
  1359.8000      7.9186      2.7139      0.0449     -3.8721     56.0422     25.1462
  1359.9000      7.9186      2.7213      0.0283     -4.3222     62.1724     25.1615
  1360.0000      7.9052      2.7244      0.0839     -4.5088     61.0113     24.9104
  1360.1000      7.9052      2.7154      0.0378     -3.9629     55.4424     24.5839
  1360.2000      7.9052      2.6987     -0.0082     -2.9530     50.8845     24.5105
  1360.3000      7.8998      2.6864      0.0102     -2.2057     48.3323     24.0759
  1360.4000      7.8998      2.6750      0.0024     -1.5137     49.5764     23.3892
  1360.5000      7.9116      2.6618     -0.0388     -0.7169     55.5530     23.1312
  1360.6000      7.9116      2.6580     -0.0229     -0.4870     63.3874     23.3373
  1360.7000      7.9116      2.6694     -0.0061     -1.1782     69.4335     23.3168
  1360.8000      7.9418      2.6905     -0.0156     -2.4517     69.5094     22.7018
  1360.9000      7.9418      2.7121      0.0580     -3.7649     64.0705     22.2853
  1361.0000      7.9752      2.7245      0.0773     -4.5156     61.4839     22.9155
  1361.1000      7.9752      2.7304      0.0233     -4.8714     64.9187     23.9220
  1361.2000      7.9752      2.7403      0.0719     -5.4728     68.8726     23.8967
  1361.3000      7.9954      2.7529      0.0392     -6.2342     69.2449     23.1632
  1361.4000      7.9954      2.7607      0.0939     -6.7083     68.6565     22.9307
  1361.5000      7.9889      2.7603      0.0281     -6.6847     72.2178     22.8869
  1361.6000      7.9889      2.7622     -0.0136     -6.7978     80.5250     22.2117
  1361.7000      7.9889      2.7827      0.0118     -8.0434     88.0945     21.4920
  1361.8000      7.9338      2.8081      0.1322     -9.5840     88.1780     21.5928
  1361.9000      7.9338      2.8178      0.0364    -10.1707     83.3361     22.0792
  1362.0000      7.9444      2.8266      0.0604    -10.7011     78.6831     22.1304
  1362.1000      7.9444      2.8411      0.0635    -11.5807     75.6773     21.9549
  1362.2000      7.9444      2.8417      0.0703    -11.6177     77.2921     22.0595
  1362.3000      7.9388      2.8179     -0.0083    -10.1746     80.9181     22.1138
  1362.4000      7.9388      2.7763     -0.0013     -7.6564     77.6889     21.6249
  1362.5000      7.9365      2.7324     -0.0480     -4.9948     70.8210     21.0124
  1362.6000      7.9365      2.7091     -0.0931     -3.5792     68.0183     21.2467
  1362.7000      7.9365      2.7114     -0.0818     -3.7194     64.0917     22.5391
  1362.8000      7.9391      2.7155     -0.0072     -3.9718     59.7420     23.6745
  1362.9000      7.9391      2.7072     -0.0217     -3.4695     64.1037     23.4573
  1363.0000      7.9502      2.6960      0.0118     -2.7865     73.2890     22.2724
  1363.1000      7.9502      2.6892     -0.0190     -2.3737     77.2861     21.4138
  1363.2000      7.9502      2.6903     -0.0148     -2.4432     79.5131     21.3679
  1363.3000      7.9547      2.7016      0.0483     -3.1258     83.8930     21.7330
  1363.4000      7.9547      2.7120      0.0800     -3.7584     84.0078     22.1874
  1363.5000      7.9521      2.7109      0.0252     -3.6899     79.0802     22.5148
  1363.6000      7.9521      2.6993      0.0293     -2.9861     76.8757     22.8156
  1363.7000      7.9521      2.6784      0.0396     -1.7217     79.7253     23.1873
  1363.8000      7.9466      2.6574      0.0226     -0.4477     81.2464     22.7362
  1363.9000      7.9466      2.6526      0.0282     -0.1569     76.6848     21.4611
  1364.0000      7.9440      2.6661      0.0195     -0.9739     72.5240     21.3295
  1364.1000      7.9440      2.6843      0.0301     -2.0811     75.1959     22.5656
  1364.2000      7.9440      2.6953      0.0477     -2.7426     78.5392     23.2521
  1364.3000      7.9502      2.6973      0.0426     -2.8693     77.7719     23.5776
  1364.4000      7.9502      2.6866      0.0593     -2.2158     78.3786     24.6167
  1364.5000      7.9503      2.6632     -0.0043     -0.7985     82.4871     25.7281
  1364.6000      7.9503      2.6496     -0.0245      0.0233     83.3912     26.4252
  1364.7000      7.9503      2.6653     -0.0492     -0.9285     79.9106     26.7078
  1364.8000      7.9468      2.6968      0.0752     -2.8351     78.0679     26.2378
  1364.9000      7.9468      2.7107      0.0826     -3.6780     79.2710     25.5357
  1365.0000      7.9426      2.6968      0.0537     -2.8388     80.1191     25.5863
  1365.1000      7.9426      2.6730      0.0384     -1.3936     77.5905     25.7112
  1365.2000      7.9426      2.6615      0.0292     -0.6988     71.7790     25.1945
  1365.3000      7.9416      2.6738      0.0098     -1.4447     67.0530     24.6823
  1365.4000      7.9416      2.6923      0.0897     -2.5633     65.0500     24.2299
  1365.5000      7.9414      2.6808      0.1036     -1.8644     63.5501     23.3800
  1365.6000      7.9414      2.6265      0.0441      1.4248     62.3598     22.6301
  1365.7000      7.9414      2.5499     -0.0173      6.0671     61.3948     22.7874
  1365.8000      7.9401      2.4698      0.0152     10.9241     57.9433     23.8305
  1365.9000      7.9401      2.3885     -0.0528     15.8511     53.2360     24.6904
