~Version Information
VERS.                      2.0: CWLS Log ASCII Standard - VERSION 2.0
WRAP.                       NO: One line per depth step
~Well Information Block
STRT.FT               892.0000: 
STOP.FT              2094.0000: 
STEP.FT                 0.1000: 
NULL.                -999.2500: 
COMP.          Pioneer Natural Resources: COMPANY
WELL.          Greenwood 43-29 Tr: WELL
FLD.           Purgatoire River: FIELD
LOC.           1478' FSL & 744' FEL: LOCATION
STAT.                 Colorado: State
CNTY.               Las Animas: COUNTY
CTRY. USA : Country
SECT. 29 : Section
TOWN. 32S : Township
RANG. 67W : Range
SRVC.                Patterson: SERVICE COMPANY
DATE.          Wed Aug 31 10:39:20 2005: LOG DATE
API.           05 071 08478 00: UNIQUE WELL ID
~Curve Information Block
DEPT.FT            0 000 00 00: Depth
DCAL.in                       : CDL Caliper
RHOB.g/cc                     : CDL Bulk Density
RHOC.g/cc                     : CDL Density Correction
DPOR.pu                       : CDL Density Porosity
GR.GAPI                       : Gamma Ray
NPOR.pu                       : Neutron Porosity
~Parameter Information Block
~A  Depth       DCAL        RHOB        RHOC        DPOR         GR         NPOR    
# ...
  1919.2000      8.0365      2.4782      0.0289     10.4096     62.8362     17.5261
  1919.3000      8.0460      2.4849      0.0577     10.0063     60.1114     17.1877
  1919.4000      8.0460      2.4954      0.0846      9.3682     58.7144     16.4706
  1919.5000      8.0306      2.5027      0.0602      8.9278     58.8729     15.9603
  1919.6000      8.0306      2.5136      0.0125      8.2673     60.4540     15.1959
  1919.7000      8.0306      2.5411      0.0311      6.6021     62.2217     14.0978
  1919.8000      8.0258      2.5644      0.1370      5.1865     62.5076     13.7727
  1919.9000      8.0258      2.5563      0.0381      5.6760     59.4994     14.6365
  1920.0000      8.0408      2.5345      0.0255      7.0011     55.3293     16.0181
  1920.1000      8.0408      2.5228      0.0795      7.7092     54.3712     17.0455
  1920.2000      8.0408      2.5236      0.0063      7.6611     55.7327     17.3242
  1920.3000      8.0450      2.5339      0.0673      7.0371     56.1861     17.3008
  1920.4000      8.0450      2.5487      0.0290      6.1391     54.8770     17.6949
  1920.5000      8.0484      2.5666      0.0671      5.0570     54.3424     18.4166
  1920.6000      8.0484      2.5861      0.0307      3.8727     59.2134     18.4823
  1920.7000      8.0484      2.5994      0.0712      3.0673     70.9271     17.9612
  1920.8000      8.0617      2.5915      0.0781      3.5465     83.4324     18.1786
  1920.9000      8.0617      2.5590      0.0387      5.5180     89.4043     19.0272
  1921.0000      8.0393      2.5148      0.0101      8.1961     87.8730     19.0127
  1921.1000      8.0393      2.4781      0.0015     10.4154     83.0283     18.0644
  1921.2000      8.0393      2.4680      0.0364     11.0318     79.8014     17.2171
  1921.3000      8.0320      2.4803      0.0438     10.2830     78.4772     16.7509
  1921.4000      8.0320      2.4929      0.0504      9.5239     76.0431     16.5502
  1921.5000      8.0346      2.4908      0.0274      9.6486     73.8503     16.7743
  1921.6000      8.0346      2.4721      0.0743     10.7826     74.7175     17.4101
  1921.7000      8.0346      2.4505      0.0370     12.0898     77.7436     18.1633
  1921.8000      8.0255      2.4465      0.0331     12.3308     80.8935     18.7918
  1921.9000      8.0255      2.4645      0.0693     11.2422     82.9480     19.0247
  1922.0000      8.0044      2.4943      0.0969      9.4347     86.0512     18.9492
  1922.1000      8.0044      2.5287      0.0660      7.3539     90.1331     18.6812
  1922.2000      8.0044      2.5582      0.1382      5.5631     89.2378     17.8517
  1922.3000      7.9955      2.5599      0.1725      5.4603     82.3623     16.8686
  1922.4000      7.9955      2.5301      0.1116      7.2663     75.2566     16.7546
  1922.5000      7.9956      2.4976      0.0974      9.2383     72.8693     17.6072
  1922.6000      7.9956      2.4790      0.0850     10.3612     76.6473     18.4962
  1922.7000      7.9956      2.4639      0.0922     11.2769     81.9580     18.2322
  1922.8000      7.9887      2.4497      0.0445     12.1375     83.7112     17.0317
  1922.9000      7.9887      2.4579      0.0034     11.6395     81.6769     16.3305
  1923.0000      7.9879      2.4914      0.0722      9.6148     77.0324     16.8136
  1923.1000      7.9879      2.5142      0.0682      8.2303     72.4653     17.8376
  1923.2000      7.9879      2.5047      0.0805      8.8069     71.6649     18.4898
  1923.3000      8.0147      2.4837      0.0480     10.0785     72.5138     18.9602
  1923.4000      8.0147      2.4734      0.0398     10.7034     71.2117     19.6715
  1923.5000      7.9873      2.4681      0.0804     11.0269     69.4752     20.2157
  1923.6000      7.9873      2.4655      0.0182     11.1810     70.9128     20.0620
  1923.7000      7.9873      2.4816      0.0662     10.2040     74.1355     19.2023
  1923.8000      7.9687      2.5091      0.1079      8.5396     76.1433     18.2236
  1923.9000      7.9687      2.5184      0.0959      7.9753     77.2585     17.7695
  1924.0000      7.9807      2.5011      0.0648      9.0242     78.5172     17.9037
  1924.1000      7.9807      2.4767      0.0379     10.5010     81.8474     18.0216
  1924.2000      7.9807      2.4686      0.0313     10.9955     88.5885     17.8097
  1924.3000      8.0137      2.4758      0.0636     10.5559     94.5737     17.7038
  1924.4000      8.0137      2.4832      0.0013     10.1114     95.1683     17.7239
  1924.5000      8.0188      2.4906      0.0470      9.6578     92.3946     17.6420
  1924.6000      8.0188      2.5022      0.0264      8.9546     90.6319     17.9177
  1924.7000      8.0188      2.5088      0.0904      8.5560     91.9997     18.4910
  1924.8000      8.0351      2.5037      0.0476      8.8657     95.8586     18.7622
  1924.9000      8.0351      2.4981      0.0591      9.2076    100.9953     18.3392
  1925.0000      8.0419      2.4956      0.0828      9.3573    103.5327     17.6115
  1925.1000      8.0419      2.4847      0.0545     10.0166    100.8227     17.5036
  1925.2000      8.0419      2.4695      0.0083     10.9384     98.8253     18.2567
  1925.3000      8.0460      2.4728     -0.0135     10.7390    103.6121     19.2299
  1925.4000      8.0460      2.5091      0.0143      8.5393    110.4945     19.8057
  1925.5000      8.0240      2.5549      0.1200      5.7647    110.5882     20.3807
  1925.6000      8.0240      2.5605      0.1376      5.4259    103.6650     21.3846
  1925.7000      8.0240      2.5187      0.0314      7.9575     95.3877     22.2647
  1925.8000      8.0163      2.4746     -0.0086     10.6323     91.2247     22.3683
  1925.9000      8.0163      2.4572     -0.0028     11.6855     91.6247     21.4667
  1926.0000      8.0217      2.4577      0.0166     11.6560     94.4282     19.7674
  1926.1000      8.0217      2.4620     -0.0018     11.3939     98.3664     18.0632
  1926.2000      8.0217      2.4701     -0.0027     10.9013    101.3851     17.3096
  1926.3000      8.0188      2.4852      0.0029      9.9870    102.1371     17.7542
  1926.4000      8.0188      2.5065      0.0401      8.6962     98.3684     18.7149
  1926.5000      8.0105      2.5228      0.0828      7.7115     91.1726     19.4683
  1926.6000      8.0105      2.5258      0.0118      7.5282     90.1213     20.0285
  1926.7000      8.0105      2.5294     -0.0371      7.3072     98.0656     20.7656
  1926.8000      7.9814      2.5368      0.0733      6.8605    103.2092     21.4767
  1926.9000      7.9814      2.5284      0.0675      7.3726    100.4862     21.7653
  1927.0000      7.9859      2.5126      0.0089      8.3245     96.5480     21.7079
  1927.1000      7.9859      2.5185      0.0666      7.9689     94.5215     21.1593
  1927.2000      7.9859      2.5392      0.1063      6.7175     92.3589     20.1977
  1927.3000      7.9751      2.5472      0.0956      6.2282     89.2749     19.9981
  1927.4000      7.9751      2.5409      0.0894      6.6134     87.5272     20.8271
  1927.5000      7.9767      2.5315      0.1206      7.1845     88.3771     21.4255
  1927.6000      7.9767      2.5186      0.0941      7.9644     90.2910     21.1368
  1927.7000      7.9767      2.5023      0.0665      8.9534     88.3199     20.6273
  1927.8000      7.9789      2.4919      0.0241      9.5845     81.9091     20.5245
  1927.9000      7.9789      2.4942      0.0192      9.4410     76.5899     20.8879
  1928.0000      7.9889      2.5051      0.0445      8.7801     77.1289     20.9762
  1928.1000      7.9889      2.5167      0.0514      8.0818     81.1596     20.0872
  1928.2000      7.9889      2.5211      0.0774      7.8130     81.6405     19.0274
  1928.3000      7.9991      2.5118      0.0430      8.3779     80.1936     18.6312
  1928.4000      7.9991      2.4911      0.0639      9.6275     84.3833     18.4493
  1928.5000      8.0334      2.4723      0.0015     10.7693     91.9874     18.1431
  1928.6000      8.0334      2.4701     -0.0235     10.9034     96.4546     18.1215
  1928.7000      8.0334      2.4830      0.0126     10.1198     97.9598     18.0703
