~Version Information
VERS.                      2.0: CWLS Log ASCII Standard - VERSION 2.0
WRAP.                       NO: One line per depth step
~Well Information Block
STRT.FT               505.0000: 
STOP.FT               770.5000: 
STEP.FT                 0.1000: 
NULL.                -999.2500: 
COMP.          Pioneer Natural Resources: COMPANY
WELL.                Zed 11-23: WELL
FLD.           Purgatoire River: FIELD
LOC.           641' FNL & 952' FWL: LOCATION
CNTY.               Las Animas: COUNTY
SRVC.                Patterson: SERVICE COMPANY
DATE.          Mon Feb 27 07:12:43 2006: LOG DATE
UWI.           05 071 08702 00: UNIQUE WELL ID
STAT.                 Colorado: STATE
~Curve Information Block
DEPT.FT            0 000 00 00: Depth
DCAL.in                       : CDL Caliper
RHOB.g/cc                     : CDL Bulk Density
RHOC.g/cc                     : CDL Density Correction
DPOR.pu                       : CDL Density Porosity
GR.GAPI                       : Gamma Ray
NPOR.pu                       : Neutron Porosity
~Parameter Information Block
~A  Depth       DCAL        RHOB        RHOC        DPOR         GR         NPOR    
# ...
   572.2000      7.9427      2.5315      0.0092      7.1820     90.0826     21.7582
   572.3000      7.9318      2.5265     -0.0084      7.4837     80.6715     20.8650
   572.4000      7.9318      2.5406      0.0355      6.6292     83.1157     21.1055
   572.5000      7.9395      2.5590      0.0491      5.5131     87.6873     21.5727
   572.6000      7.9395      2.5559      0.0599      5.7012     87.2119     21.1717
   572.7000      7.9395      2.5258     -0.0209      7.5273     88.1827     20.4003
   572.8000      7.9478      2.4949     -0.0318      9.3990     94.2086     19.6217
   572.9000      7.9478      2.4851     -0.0193      9.9915     98.8386     19.1546
   573.0000      7.9494      2.4993     -0.0182      9.1324     96.9204     19.8189
   573.1000      7.9494      2.5279      0.0433      7.4004     93.7696     20.7248
   573.2000      7.9494      2.5478      0.0998      6.1917     94.6082     20.4818
   573.3000      7.9536      2.5485      0.0435      6.1490     93.5402     20.3216
   573.4000      7.9536      2.5446      0.0409      6.3867     89.1702     21.5177
   573.5000      7.9538      2.5450      0.0037      6.3631     86.8569     22.8561
   573.6000      7.9538      2.5510      0.0266      5.9982     86.0865     22.9359
   573.7000      7.9538      2.5642      0.0441      5.2016     86.0553     22.1063
   573.8000      7.9553      2.5744      0.0581      4.5795     87.5929     21.0913
   573.9000      7.9553      2.5686      0.0807      4.9307     88.4335     19.6638
   574.0000      7.9583      2.5559     -0.0048      5.7032     88.3083     18.4842
   574.1000      7.9583      2.5578      0.0295      5.5864     89.3008     18.8325
   574.2000      7.9583      2.5701      0.0429      4.8430     88.0636     19.7685
   574.3000      7.9507      2.5722      0.0432      4.7149     81.7383     19.9036
   574.4000      7.9507      2.5633      0.0146      5.2569     75.5340     19.4526
   574.5000      7.9656      2.5589      0.0113      5.5206     74.2439     18.4787
   574.6000      7.9656      2.5661      0.0399      5.0864     75.0678     17.9038
   574.7000      7.9656      2.5814      0.0306      4.1585     73.2154     19.0536
   574.8000      7.9611      2.5980      0.0684      3.1536     69.2973     20.4722
   574.9000      7.9611      2.6034      0.0658      2.8228     70.3321     20.3909
   575.0000      7.9554      2.5918      0.0717      3.5260     79.0976     20.2607
   575.1000      7.9554      2.5722      0.0093      4.7164     88.1338     20.4709
   575.2000      7.9554      2.5589     -0.0206      5.5202     90.7966     19.8040
   575.3000      7.9560      2.5589      0.0022      5.5207     91.2580     19.2595
   575.4000      7.9560      2.5722      0.0190      4.7173     94.8560     20.3924
   575.5000      7.9667      2.5878      0.0456      3.7712    100.4806     22.7371
   575.6000      7.9667      2.5868      0.0752      3.8298    105.3838     23.8774
   575.7000      7.9667      2.5627      0.0720      5.2884    108.1775     23.0260
   575.8000      7.9560      2.5279      0.0527      7.3982    107.3763     22.4912
   575.9000      7.9560      2.5063      0.0376      8.7061    102.1057     23.3704
   576.0000      7.9521      2.5099      0.0395      8.4923     99.5177     23.7552
   576.1000      7.9521      2.5250      0.0679      7.5761    105.9436     22.1115
   576.2000      7.9521      2.5371      0.0493      6.8440    116.7649     20.5678
   576.3000      7.9582      2.5452      0.0953      6.3537    124.1405     21.6125
   576.4000      7.9582      2.5438      0.0996      6.4347    124.7524     24.8917
   576.5000      7.9528      2.5305      0.0828      7.2406    121.4583     27.7233
   576.6000      7.9528      2.5196      0.0510      7.9053    121.3163     27.9043
   576.7000      7.9528      2.5173      0.0441      8.0423    127.5079     25.8788
   576.8000      7.9620      2.5072      0.1011      8.6538    134.8227     23.2377
   576.9000      7.9620      2.4832      0.0285     10.1096    137.9215     21.5383
   577.0000      7.9453      2.4678      0.0160     11.0417    140.1433     21.4774
   577.1000      7.9453      2.4751      0.0459     10.5972    146.3177     22.5253
   577.2000      7.9453      2.4945      0.0534      9.4272    154.1596     23.0218
   577.3000      7.9484      2.5152      0.0195      8.1727    157.6141     22.2071
   577.4000      7.9484      2.5360      0.0363      6.9062    153.1835     21.9888
   577.5000      7.9589      2.5574      0.0686      5.6139    144.5073     23.3551
   577.6000      7.9589      2.5748      0.0690      4.5590    135.8522     24.2291
   577.7000      7.9589      2.5755      0.0897      4.5153    123.2686     23.1079
   577.8000      7.9600      2.5555      0.0415      5.7245    103.8238     21.5961
   577.9000      7.9600      2.5404     -0.0260      6.6429     86.7129     21.9325
   578.0000      7.9624      2.5538      0.0406      5.8319     82.0092     24.2256
   578.1000      7.9624      2.5764      0.0776      4.4608     85.8970     25.8874
   578.2000      7.9624      2.5754      0.0913      4.5225     86.3897     25.5013
   578.3000      7.9661      2.5542      0.0420      5.8031     82.1495     24.5476
   578.4000      7.9661      2.5426     -0.0127      6.5113     81.6516     23.8749
   578.5000      7.9588      2.5517      0.0434      5.9598     84.5255     22.7430
   578.6000      7.9588      2.5646      0.0498      5.1747     85.5760     20.4054
   578.7000      7.9588      2.5682      0.0423      4.9557     86.9524     18.1226
   578.8000      7.9455      2.5710      0.0409      4.7893     90.5653     18.3078
   578.9000      7.9455      2.5797      0.0724      4.2604     93.0039     20.7924
   579.0000      7.9461      2.5909      0.0165      3.5795     90.7448     22.2633
   579.1000      7.9461      2.5997      0.0831      3.0502     83.1055     21.1098
   579.2000      7.9461      2.5961      0.0713      3.2681     73.1367     19.7412
   579.3000      7.9406      2.5794      0.0447      4.2793     65.6235     20.0232
   579.4000      7.9406      2.5635      0.0608      5.2440     64.4342     20.7940
   579.5000      7.9511      2.5631      0.0357      5.2684     71.2222     20.7831
   579.6000      7.9511      2.5768      0.0973      4.4379     81.6920     20.7757
   579.7000      7.9511      2.5876      0.0669      3.7832     86.9237     21.1916
   579.8000      7.9471      2.5911      0.0956      3.5724     81.8171     21.2238
   579.9000      7.9471      2.5944      0.0409      3.3672     70.9505     19.9764
   580.0000      7.9506      2.5935      0.0780      3.4220     64.8913     18.1172
   580.1000      7.9506      2.5749      0.0721      4.5523     67.4146     17.6715
   580.2000      7.9506      2.5473     -0.0283      6.2213     72.6818     19.0250
   580.3000      7.9550      2.5357      0.0285      6.9254     76.8464     20.3103
   580.4000      7.9550      2.5366      0.0615      6.8748     80.1729     20.6404
   580.5000      7.9559      2.5291      0.0656      7.3244     80.1578     20.7731
   580.6000      7.9559      2.5147      0.0695      8.2007     75.3019     21.2105
   580.7000      7.9559      2.5100      0.0372      8.4821     71.3919     21.5654
   580.8000      7.9551      2.5202      0.0519      7.8645     73.0160     20.9918
   580.9000      7.9551      2.5345      0.0397      6.9990     77.4580     19.9157
   581.0000      7.9517      2.5421      0.0643      6.5394     78.8923     19.9590
   581.1000      7.9517      2.5376      0.0312      6.8129     77.1447     21.2182
   581.2000      7.9517      2.5304      0.0314      7.2502     77.5927     21.7838
   581.3000      7.9508      2.5361      0.0670      6.9013     79.9198     21.2489
   581.4000      7.9508      2.5511      0.0712      5.9968     77.6331     20.9027
   581.5000      7.9450      2.5613      0.0574      5.3779     71.7286     21.1284
   581.6000      7.9450      2.5598      0.1059      5.4676     71.5912     20.9558
   581.7000      7.9450      2.5450      0.0874      6.3657     78.2899     20.1394
