~Version Information
VERS.                      2.0: CWLS Log ASCII Standard - VERSION 2.0
WRAP.                       NO: One line per depth step
~Well Information Block
STRT.FT               -10.0000: 
STOP.FT              2073.0000: 
STEP.FT                 0.2500: 
NULL.                -999.2500: 
COMP.          Pioneer Natural Resources: COMPANY
WELL.              Joplin 44-5: WELL
FLD.           Purgatorie River: FIELD
LOC.           262' FSL & 418' FEL--: LOCATION
PROV.                       CO: PROVINCE
CNTY.               Las Animas: COUNTRY
SRVC.          Patterson Wireline: SERVICE COMPANY
DATE.          Mon Dec 19 09:21:33 2005: LOG DATE
UWI.           05 071 08623 00: UNIQUE WELL ID
~Curve Information Block
DEPT.FT            0 000 00 00: Depth
CCL.                          : Casing Collar Locator
TT3.usec                      : CBL 3' Travel Time
AMP3.mV                       : CBL 3' Amplitude
GR.GAPI                       : Gamma Ray
~Parameter Information Block
~A  Depth       CCL         TT3         AMP3         GR     
   -10.0000   -999.2500   -999.2500   -999.2500    103.8525
    -9.7500   -999.2500   -999.2500   -999.2500    102.2275
    -9.5000   -999.2500   -999.2500   -999.2500    100.7099
    -9.2500   -999.2500   -999.2500   -999.2500     99.9628
    -9.0000   -999.2500   -999.2500   -999.2500    100.5067
    -8.7500   -999.2500   -999.2500   -999.2500    102.1883
    -8.5000   -999.2500   -999.2500   -999.2500    104.1514
    -8.2500   -999.2500   -999.2500   -999.2500    105.5044
    -8.0000   -999.2500   -999.2500   -999.2500    106.0646
    -7.7500   -999.2500   -999.2500   -999.2500    106.7192
    -7.5000   -999.2500   -999.2500   -999.2500    109.1174
    -7.2500   -999.2500   -999.2500   -999.2500    114.3209
    -7.0000   -999.2500   -999.2500   -999.2500    121.2174
    -6.7500   -999.2500   -999.2500   -999.2500    126.6501
    -6.5000   -999.2500   -999.2500   -999.2500    127.7039
    -6.2500   -999.2500   -999.2500   -999.2500    123.8627
    -6.0000   -999.2500   -999.2500   -999.2500    116.9947
    -5.7500   -999.2500   -999.2500   -999.2500    109.7496
    -5.5000   -999.2500   -999.2500   -999.2500    104.1151
    -5.2500   -999.2500   -999.2500   -999.2500    100.8029
    -5.0000   -999.2500   1149.0000      0.7777     99.2969
    -4.7500   -999.2500   1149.0000      0.8003     98.3895
    -4.5000   -999.2500   1149.0000      0.8223     96.8889
    -4.2500   -999.2500   1149.0000      0.8370     94.0574
    -4.0000   -999.2500   1149.0000      0.8383     89.8406
    -3.7500   -999.2500   1149.0000      0.8257     84.9800
    -3.5000   -999.2500   1149.0000      0.8054     80.5828
    -3.2500   -999.2500   1149.0000      0.7860     77.1217
    -3.0000   -999.2500   1149.0000      0.7732     73.7832
    -2.7500   -999.2500   1149.0000      0.7679     69.0496
    -2.5000   -999.2500   1149.0000      0.7689     62.1469
    -2.2500   -999.2500   1149.0000      0.7740     53.9685
    -2.0000   -999.2500   1149.0000      0.7804     46.5430
    -1.7500   -999.2500   1149.0000      0.7855     41.6775
    -1.5000   -999.2500   1149.0000      0.7896     40.0941
    -1.2500   -999.2500   1149.0000      0.7955     41.3937
    -1.0000   -999.2500   1149.0000      0.8051     44.1961
    -0.7500   -999.2500   1149.0000      0.8150     46.4325
    -0.5000   -999.2500   1149.0000      0.8181     46.4535
    -0.2500   -999.2500   1149.0000      0.8098     44.3867
     0.0000   -999.2500   1149.0000      0.7915     42.1170
     0.2500   -999.2500   1149.0000      0.7695     41.6475
     0.5000      0.0000   1149.0000      0.7375     46.4376
     0.7500      0.0000   1149.0000      0.7315     48.9986
     1.0000      0.0000   1149.0000      0.7315     50.6015
     1.2500      0.0000   1149.0000      0.7371     51.9982
     1.5000      0.0000   1149.0000      0.7487     54.3194
     1.7500      0.0000   1149.0000      0.7650     57.9311
     2.0000      0.0000   1149.0000      0.7818     62.1311
     2.2500      0.0000   1149.0000      0.7940     65.8236
     2.5000      0.0000   1149.0000      0.8000     68.5114
     2.7500      0.0000   1149.0000      0.8016     70.7051
     3.0000      0.0000   1149.0000      0.8009     73.2026
     3.2500      0.0000   1149.0000      0.7971     75.8637
     3.5000      0.0000   1149.0000      0.7899     77.4295
     3.7500      0.0000   1149.0000      0.7825     76.9274
     4.0000      0.0000   1149.0000      0.7805     75.1011
     4.2500      0.0000   1149.0000      0.7875     73.9937
     4.5000      0.0000   1149.0000      0.8026     75.0915
     4.7500      0.0000   1149.0000      0.8205     78.2173
     5.0000      0.0000   1149.0000      0.8344     82.3162
     5.2500      0.0000   1149.0000      0.8400     86.7841
     5.5000      0.0000   1149.0000      0.8375     91.5682
     5.7500      0.0000   1149.0000      0.8293     96.1233
     6.0000      0.0000   1149.0000      0.8162     98.7903
     6.2500      0.0000   1149.0000      0.7984     97.7831
     6.5000      0.0000   1149.0000      0.7793     92.9829
     6.7500      0.0000   1148.9772      0.7667     86.4421
     7.0000      0.0000   1148.8262      0.7680     80.8341
     7.2500      0.0000   1148.0216      0.7904     77.6419
     7.5000      0.0000   1144.7352      0.8555     76.8414
     7.7500      0.0000   1134.1002      1.0711     77.6799
     8.0000      0.0000   1106.6227      1.8018     79.2415
     8.2500      0.0000   1049.3762      3.9245     80.5924
     8.5000      0.0000    952.1678      8.8837     80.9022
     8.7500      0.0000    816.4070     18.0309     79.6393
     9.0000      0.0000    659.7761     31.2663     76.8012
     9.2500      0.0000    510.7870     46.2490     73.0166
     9.5000      0.0000    394.8217     59.4997     69.2757
     9.7500      0.0000    321.7266     68.6384     66.3608
    10.0000      0.0000    284.7991     73.5284     64.4123
    10.2500      0.0000    269.9724     75.5323     63.0377
    10.5000      0.0000    265.2692     76.1624     61.9735
    10.7500      0.0000    264.0971     76.3777     61.6130
    11.0000      0.0000    263.8793     76.5666     62.5845
    11.2500      0.0000    263.8684     76.7271     64.6655
    11.5000      0.0000    263.9229     76.5909     66.3772
    11.7500      0.0000    264.0781     75.7105     66.0971
    12.0000      0.0000    264.5471     73.5836     63.6417
    12.2500      0.0000    265.8012     69.8656     60.4822
    12.5000      0.0000    268.5723     64.5785     58.3840
    12.7500      0.0000    273.5468     58.1316     58.2139
    13.0000      0.0000    280.8208     51.0997     60.0493
    13.2500      0.0000    289.7460     43.9768     63.6583
    13.5000      0.0000    299.6296     37.1176     68.2931
    13.7500      0.0000    310.7518     30.8065     72.4768
    14.0000      0.0000    324.6801     25.2771     74.7456
    14.2500      0.0000    343.8224     20.6527     74.7788
    14.5000      0.0000    370.5657     16.9133     73.7098
    14.7500      0.0000    405.2785     13.9402     73.3201
    15.0000      0.0000    443.3235     11.5971     74.6448
    15.2500      0.0000    475.0034      9.7853     77.0475
    15.5000      0.0000    492.0152      8.4521     78.8930
    15.7500      0.0000    496.0666      7.5564     79.2946
    16.0000      0.0000    499.9307      7.0253     78.9125
    16.2500      0.0000    518.1423      6.7466     79.0849
    16.5000      0.0000    555.5864      6.6068     80.5510
    16.7500      0.0000    604.3422      6.5331     82.9410
    17.0000      0.0000    650.9198      6.4972     85.1211
    17.2500      0.0000    686.3359      6.4905     85.9178
    17.5000      0.0000    710.2101      6.5029     84.7416
    17.7500      0.0000    727.8155      6.5201     81.8884
    18.0000      0.0000    744.9680      6.5298     78.4764
    18.2500      0.0000    764.6957      6.5272     75.9505
    18.5000      0.0000    786.4732      6.5182     75.2375
    18.7500      0.0000    807.4738      6.5143     76.2159
    19.0000      0.0000    824.6090      6.5216     78.0682
    19.2500      0.0000    835.9422      6.5336     80.0994
    19.5000      0.0000    841.1025      6.5374     81.8897
    19.7500      0.0000    841.5277      6.5256     82.6942
    20.0000      0.0000    840.5288      6.5010     81.5078
    20.2500      0.0000    842.0837      6.4707     78.3078
    20.5000      0.0000    848.2485      6.4402     74.7966
    20.7500      0.0000    857.3627      6.4114     73.2871
    21.0000      0.0000    865.6592      6.3831     74.7981
    21.2500      0.0000    871.2097      6.3527     78.2824
    21.5000      0.0000    875.8771      6.3191     81.5958
    21.7500      0.0000    883.4142      6.2836     83.3379
    22.0000      0.0000    896.5344      6.2476     83.9923
    22.2500      0.0000    915.6907      6.2114     85.1835
    22.5000      0.0000    938.6654      6.1764     87.8665
    22.7500      0.0000    959.7388      6.1442     91.5433
    23.0000      0.0000    970.4113      6.1134     95.0589
    23.2500      0.0000    964.4534      6.0804     97.4897
