~Version Information
VERS.                      2.0: CWLS Log ASCII Standard - VERSION 2.0
WRAP.                       NO: One line per depth step
~Well Information Block
STRT.FT               260.0000: 
STOP.FT               713.2000: 
STEP.FT                 0.1000: 
NULL.                -999.2500: 
COMP.          Pioneer Natural Resources: COMPANY
WELL.           Quintessa 23-7: WELL
FLD.           Purgatoire River: FIELD
LOC.           1964' FSL & 2589' FWL--: LOCATION
PROV.                 Colorado: PROVINCE
CNTY.               Las Animas: COUNTRY
SRVC.                Patterson: SERVICE COMPANY
DATE.          Sat Nov 19 09:15:07 2005: LOG DATE
UWI.           05 071 08558 00: UNIQUE WELL ID
~Curve Information Block
DEPT.FT            0 000 00 00: Depth
DCAL.in                       : CDL Caliper
RHOB.g/cc                     : CDL Bulk Density
RHOC.g/cc                     : CDL Density Correction
DPOR.pu                       : CDL Density Porosity
NPOR.pu                       : Neutron Porosity
GR.GAPI                       : Gamma Ray
~Parameter Information Block
~A  Depth       DCAL        RHOB        RHOC        DPOR        NPOR         GR     
# ...
   509.6000      7.9270      2.6640      0.0908     -0.8481     21.7113     78.5381
   509.7000      7.9270      2.6778      0.1119     -1.6879     21.5440     77.4396
   509.8000      7.9331      2.6739      0.1130     -1.4460     21.9431     78.5946
   509.9000      7.9331      2.6466      0.0739      0.2059     22.9439     83.1377
   510.0000      7.9416      2.5995      0.0567      3.0620     24.1220     90.2048
   510.1000      7.9416      2.5537     -0.0718      5.8360     25.4141     92.9218
   510.2000      7.9416      2.5304      0.0004      7.2481     26.8353     89.1264
   510.3000      7.9433      2.5143      0.0262      8.2219     28.0835     89.6873
   510.4000      7.9433      2.4909     -0.0002      9.6414     28.9336     99.9632
   510.5000      7.9520      2.4753     -0.0079     10.5869     29.3630    110.6130
   510.6000      7.9520      2.4744      0.0403     10.6403     29.5012    115.8303
   510.7000      7.9520      2.4777      0.0218     10.4444     29.5504    118.5037
   510.8000      7.9761      2.4782      0.0419     10.4149     29.7121    122.1361
   510.9000      7.9761      2.4803      0.0151     10.2819     29.9176    126.7715
   511.0000      7.9944      2.4870      0.0729      9.8775     29.8572    130.9969
   511.1000      7.9944      2.4894      0.0769      9.7328     29.6379    135.0280
   511.2000      7.9944      2.4854      0.0596      9.9729     29.6362    138.1449
   511.3000      7.9925      2.4799      0.0643     10.3068     29.8430    134.2924
   511.4000      7.9925      2.4684      0.0792     11.0037     30.1253    121.2155
   511.5000      7.9862      2.4439      0.0412     12.4910     30.4547    111.4375
   511.6000      7.9862      2.4140      0.0054     14.3024     30.7416    115.8352
   511.7000      7.9862      2.3905      0.0209     15.7261     30.9727    123.7061
   511.8000      7.9883      2.3679      0.0323     17.0955     31.1332    124.1296
   511.9000      7.9883      2.3434     -0.0080     18.5800     30.9683    122.9386
   512.0000      7.9958      2.3289     -0.0115     19.4630     30.5794    122.3769
   512.1000      7.9958      2.3267      0.0025     19.5925     30.3697    115.9261
   512.2000      7.9958      2.3362     -0.0225     19.0152     30.0472    106.0911
   512.3000      7.9986      2.3602      0.0516     17.5657     29.1029    100.3784
   512.4000      7.9986      2.3922      0.0552     15.6217     27.6792    102.1090
   512.5000      7.9899      2.4263      0.1059     13.5555     26.4876    107.4520
   512.6000      7.9899      2.4595      0.1022     11.5467     26.0019    110.5025
   512.7000      7.9899      2.4902      0.0822      9.6838     26.1701    112.5617
   512.8000      7.9794      2.5208      0.0680      7.8326     26.7819    118.1282
   512.9000      7.9794      2.5426      0.1167      6.5101     27.2382    124.3236
   513.0000      7.9722      2.5411      0.0652      6.5990     26.9713    122.7042
   513.1000      7.9722      2.5282      0.0018      7.3789     26.1097    115.6174
   513.2000      7.9722      2.5320      0.0159      7.1513     25.2069    112.7143
   513.3000      7.9645      2.5495      0.0529      6.0905     24.7710    115.6953
   513.4000      7.9645      2.5569      0.0342      5.6434     24.8706    119.4509
   513.5000      7.9600      2.5561      0.0320      5.6931     25.2061    122.1330
   513.6000      7.9600      2.5669      0.0123      5.0362     25.3700    124.5201
   513.7000      7.9600      2.5919      0.0263      3.5207     25.0383    125.6612
   513.8000      7.9607      2.6133      0.0358      2.2260     24.2003    124.5681
   513.9000      7.9607      2.6230      0.0248      1.6338     23.2672    123.7114
   514.0000      7.9615      2.6319      0.0238      1.0963     22.7746    121.4231
   514.1000      7.9615      2.6397      0.0590      0.6268     22.4641    112.1366
   514.2000      7.9615      2.6312      0.0391      1.1374     21.8604    100.5504
   514.3000      7.9596      2.6093      0.0447      2.4680     21.3601     94.3819
   514.4000      7.9596      2.5925      0.0015      3.4872     21.5599     94.2139
   514.5000      7.9588      2.5918      0.0280      3.5265     22.0655     98.1458
   514.6000      7.9588      2.6024      0.0222      2.8854     22.3106    103.1451
   514.7000      7.9588      2.6124      0.0566      2.2813     22.6117    102.6705
   514.8000      7.9668      2.6151      0.0353      2.1124     23.0219     95.8708
   514.9000      7.9668      2.6100      0.0583      2.4266     23.0692     89.3895
   515.0000      7.9797      2.5930      0.0208      3.4527     23.0713     86.6312
   515.1000      7.9797      2.5661      0.0071      5.0876     23.5848     85.7737
   515.2000      7.9797      2.5404     -0.0029      6.6406     24.0069     82.7948
   515.3000      7.9822      2.5301      0.0057      7.2668     23.7121     79.4673
   515.4000      7.9822      2.5444      0.0107      6.3976     23.2841     82.7926
   515.5000      7.9756      2.5754      0.0630      4.5194     23.2239     91.6450
   515.6000      7.9756      2.6020      0.0624      2.9064     23.4820     99.8183
   515.7000      7.9756      2.6139      0.0888      2.1858     23.8338    105.1035
   515.8000      7.9735      2.6097      0.0865      2.4406     24.0737    107.5232
   515.9000      7.9735      2.5936      0.0370      3.4186     24.2743    107.1501
   516.0000      7.9773      2.5816      0.0511      4.1483     24.4627    102.9700
   516.1000      7.9773      2.5808      0.0375      4.1936     24.0649     96.4223
   516.2000      7.9773      2.5819      0.0515      4.1291     23.0712     94.5659
   516.3000      7.9808      2.5764      0.0712      4.4615     22.4088    102.6521
   516.4000      7.9808      2.5689      0.0143      4.9126     22.3633    114.3111
   516.5000      7.9820      2.5663      0.0470      5.0727     22.5160    119.0616
   516.6000      7.9820      2.5637      0.0160      5.2303     22.5797    115.4681
   516.7000      7.9820      2.5564      0.0180      5.6718     22.7041    109.4563
   516.8000      7.9843      2.5420      0.0463      6.5468     23.2403    103.7409
   516.9000      7.9843      2.5231     -0.0018      7.6925     24.0399     99.0707
   517.0000      7.9829      2.5123      0.0057      8.3431     24.5411     99.7858
   517.1000      7.9829      2.5092      0.0230      8.5343     24.8078    105.1216
   517.2000      7.9829      2.5023     -0.0083      8.9529     25.1438    107.7549
   517.3000      7.9769      2.4968     -0.0162      9.2830     25.1350    106.3236
   517.4000      7.9769      2.4997      0.0371      9.1113     24.5320    107.6918
   517.5000      7.9718      2.5055     -0.0004      8.7579     23.9556    113.0463
   517.6000      7.9718      2.5120      0.0217      8.3659     24.0825    117.8781
   517.7000      7.9718      2.5175      0.0247      8.0290     24.7367    120.5570
   517.8000      7.9695      2.5224      0.0173      7.7316     25.0300    121.0874
   517.9000      7.9695      2.5335      0.0176      7.0594     24.7888    118.3975
   518.0000      7.9722      2.5500      0.0422      6.0598     24.6093    111.8840
   518.1000      7.9722      2.5593      0.0509      5.4976     24.5204    104.6814
   518.2000      7.9722      2.5602      0.0280      5.4414     24.1498    101.9285
   518.3000      7.9789      2.5651      0.0254      5.1452     23.5682    103.0863
   518.4000      7.9789      2.5769      0.0206      4.4327     23.0443    105.0569
   518.5000      7.9809      2.5898      0.0298      3.6515     22.5697    108.1597
   518.6000      7.9809      2.5963      0.0432      3.2561     21.9802    111.1134
   518.7000      7.9809      2.5896      0.0483      3.6590     21.6274    111.6691
   518.8000      7.9763      2.5670      0.0388      5.0313     22.0564    108.0063
   518.9000      7.9763      2.5384     -0.0083      6.7629     22.8852    101.3464
   519.0000      7.9672      2.5302     -0.0293      7.2621     23.3023    100.1722
   519.1000      7.9672      2.5519      0.0266      5.9458     23.4265    103.5422
