~Version Information
VERS.                      2.0: CWLS Log ASCII Standard - VERSION 2.0
WRAP.                       NO: One line per depth step
~Well Information Block
STRT.FT                -6.5000: 
STOP.FT              1317.5000: 
STEP.FT                 0.2500: 
NULL.                -999.2500: 
COMP.          Pioneer Natural Resources: COMPANY
WELL.              Dicks 32-5R: WELL
FLD.           Purgatorie River: FIELD
LOC.           1485' FNL & 1684' FEL--: LOCATION
PROV.                       CO: PROVINCE
CNTY.               Las Animas: COUNTRY
SRVC.          Patterson Wireline: SERVICE COMPANY
DATE.          Tue Dec 13 09:33:22 2005: LOG DATE
UWI.           05 071 08596 00: UNIQUE WELL ID
~Curve Information Block
DEPT.FT            0 000 00 00: Depth
CCL.                          : Casing Collar Locator
TT3.usec                      : CBL 3' Travel Time
AMP3.mV                       : CBL 3' Amplitude
GR.GAPI                       : Gamma Ray
~Parameter Information Block
~A  Depth       CCL         TT3         AMP3         GR     
    -6.5000   -999.2500   -999.2500   -999.2500    105.1310
    -6.2500   -999.2500   -999.2500   -999.2500    105.5257
    -6.0000   -999.2500   -999.2500   -999.2500    106.0222
    -5.7500   -999.2500   -999.2500   -999.2500    105.2124
    -5.5000   -999.2500   -999.2500   -999.2500    103.6218
    -5.2500   -999.2500   -999.2500   -999.2500    102.6117
    -5.0000   -999.2500   -999.2500   -999.2500    103.0591
    -4.7500   -999.2500   -999.2500   -999.2500    105.0474
    -4.5000   -999.2500   -999.2500   -999.2500    108.1865
    -4.2500   -999.2500   -999.2500   -999.2500    111.9715
    -4.0000   -999.2500   -999.2500   -999.2500    115.9616
    -3.7500   -999.2500   -999.2500   -999.2500    119.6927
    -3.5000   -999.2500   -999.2500   -999.2500    122.5103
    -3.2500   -999.2500   -999.2500   -999.2500    123.5576
    -3.0000   -999.2500   -999.2500   -999.2500    122.2363
    -2.7500   -999.2500   -999.2500   -999.2500    119.1373
    -2.5000   -999.2500   -999.2500   -999.2500    116.2449
    -2.2500   -999.2500   -999.2500   -999.2500    115.3734
    -2.0000   -999.2500   -999.2500   -999.2500    116.4580
    -1.7500   -999.2500   1167.0000     -0.3085    117.9318
    -1.5000   -999.2500   1167.0000     -0.3132    118.4436
    -1.2500   -999.2500   1167.0000     -0.3160    117.8441
    -1.0000   -999.2500   1167.0000     -0.3138    116.9395
    -0.7500   -999.2500   1167.0000     -0.3081    116.5874
    -0.5000   -999.2500   1167.0000     -0.3020    116.7885
    -0.2500   -999.2500   1167.0000     -0.2971    116.4144
     0.0000   -999.2500   1167.0000     -0.2932    113.6940
     0.2500   -999.2500   1167.0000     -0.2902    107.1889
     0.5000   -999.2500   1167.0000     -0.2896     97.0781
     0.7500   -999.2500   1167.0000     -0.2935     85.8069
     1.0000   -999.2500   1167.0000     -0.3071     72.6696
     1.2500   -999.2500   1167.0000     -0.3089     72.3251
     1.5000   -999.2500   1167.0000     -0.3078     72.8507
     1.7500   -999.2500   1167.0000     -0.3083     71.0522
     2.0000   -999.2500   1167.0000     -0.3114     65.5996
     2.2500   -999.2500   1167.0000     -0.3133     57.5457
     2.5000   -999.2500   1167.0000     -0.3109     49.5059
     2.7500   -999.2500   1167.0000     -0.3058     44.2126
     3.0000   -999.2500   1167.0000     -0.3037     43.0712
     3.2500   -999.2500   1167.0000     -0.3072     45.6259
     3.5000   -999.2500   1167.0000     -0.3138     50.4624
     3.7500      0.0000   1167.0000     -0.3169     56.5157
     4.0000      0.0000   1167.0000     -0.3120     63.1898
     4.2500      0.0000   1167.0000     -0.3009     69.5263
     4.5000      0.0000   1167.0000     -0.2905     74.0745
     4.7500      0.0000   1167.0000     -0.2858     75.8808
     5.0000      0.0000   1167.0000     -0.2851     75.2110
     5.2500      0.0000   1167.0000     -0.2826     73.2135
     5.5000      0.0000   1166.9932     -0.2758     71.2473
     5.7500      0.0000   1166.8960     -0.2607     70.6019
     6.0000      0.0000   1166.3270     -0.2112     72.3276
     6.2500      0.0000   1163.6921     -0.0023     76.6735
     6.5000      0.0000   1154.0566      0.7626     82.4855
     6.7500      0.0000   1126.2610      3.0032     87.4885
     7.0000      0.0000   1063.1022      8.1998     89.7809
     7.2500      0.0000    950.2265     17.7008     89.1715
     7.5000      0.0000    791.7955     31.3452     86.7198
     7.7500      0.0000    617.3889     46.6966     83.2101
     8.0000      0.0000    466.9923     60.2037     78.7719
     8.2500      0.0000    365.5067     69.4841     73.8916
     8.5000      0.0000    311.9681     74.4589     69.9688
     8.7500      0.0000    289.9051     76.5512     68.5290
     9.0000      0.0000    282.8101     77.2787     70.0822
     9.2500      0.0000    281.0338     77.5449     73.7132
     9.5000      0.0000    280.6909     77.6940     77.4307
     9.7500      0.0000    280.6443     77.8038     79.0991
    10.0000      0.0000    280.6515     77.8872     77.7418
    10.2500      0.0000    280.6620     77.9605     74.2765
    10.5000      0.0000    280.6758     78.0380     70.6682
    10.7500      0.0000    280.6913     78.1237     68.1792
    11.0000      0.0000    280.7051     78.2113     66.8025
    11.2500      0.0000    280.7150     78.2887     66.3914
    11.5000      0.0000    280.7206     78.3435     67.4574
    11.7500      0.0000    280.7235     78.3700     70.3080
    12.0000      0.0000    280.7257     78.3753     74.0102
    12.2500      0.0000    280.7289     78.3748     76.7789
    12.5000      0.0000    280.7337     78.3825     77.2390
    12.7500      0.0000    280.7403     78.4033     75.2936
    13.0000      0.0000    280.7472     78.4340     72.1384
    13.2500      0.0000    280.7553     78.4640     69.5098
    13.5000      0.0000    280.7760     78.4498     68.6892
    13.7500      0.0000    280.8490     78.2623     70.0160
    14.0000      0.0000    281.0576     77.6540     72.9048
    14.2500      0.0000    281.5168     76.3710     75.9293
    14.5000      0.0000    282.3107     74.4194     77.2578
    14.7500      0.0000    283.4079     72.2016     75.7469
    15.0000      0.0000    284.6394     70.2237     71.8267
    15.2500      0.0000    285.7814     68.6515     67.2122
    15.5000      0.0000    286.6737     67.2962     63.7714
    15.7500      0.0000    287.2724     65.9878     62.5711
    16.0000      0.0000    287.6176     64.7712     63.6561
    16.2500      2.0000    287.7781     63.7565     66.4026
    16.5000      2.0000    287.8132     62.9484     69.9608
    16.7500      0.0000    287.7547     62.2553     73.4521
    17.0000      0.0000    287.5962     61.6486     75.8890
    17.2500      0.0000    287.2782     61.3479     76.2149
    17.5000      0.0000    286.6849     61.8057     73.9703
    17.7500      0.0000    285.7098     63.3386     70.2181
    18.0000      0.0000    284.3870     65.7246     67.3689
    18.2500      0.0000    282.9529     68.3222     67.3592
    18.5000      0.0000    281.7238     70.5968     69.7469
    18.7500      0.0000    280.8932     72.3901     71.8763
    19.0000      0.0000    280.4516     73.7444     71.2491
    19.2500      0.0000    280.2680     74.7042     67.7804
    19.5000      0.0000    280.2101     75.3145     63.7065
    19.7500      0.0000    280.1983     75.6641     61.5267
    20.0000      0.0000    280.1994     75.8571     62.2208
    20.2500      0.0000    280.2047     75.9639     65.1761
    20.5000      0.0000    280.2128     76.0119     69.2889
    20.7500      0.0000    280.2231     76.0104     73.8908
    21.0000      0.0000    280.2325     75.9834     78.8145
    21.2500      0.0000    280.2365     75.9739     83.9891
    21.5000      0.0000    280.2326     76.0198     89.2588
    21.7500      0.0000    280.2231     76.1334     94.5426
    22.0000      0.0000    280.2135     76.3102     99.7388
    22.2500      0.0000    280.2104     76.5401    104.1274
    22.5000      0.0000    280.2173     76.7985    106.2839
    22.7500      0.0000    280.2332     77.0399    105.3704
    23.0000      0.0000    280.2521     77.2151    102.5868
    23.2500      0.0000    280.2662     77.2953    100.7700
    23.5000      0.0000    280.2695     77.2775    102.1496
    23.7500      0.0000    280.2609     77.1780    106.3775
    24.0000      0.0000    280.2443     77.0305    110.7120
    24.2500      0.0000    280.2267     76.8889    112.1840
    24.5000      0.0000    280.2151     76.8113    109.7322
    24.7500      0.0000    280.2130     76.8232    104.6460
    25.0000      0.0000    280.2180     76.8943     99.4052
    25.2500      0.0000    280.2248     76.9613     96.1085
    25.5000      0.0000    280.2303     76.9830     95.5641
    25.7500      0.0000    280.2368     76.9753     97.4038
    26.0000      0.0000    280.2473     76.9913    100.6465
    26.2500      0.0000    280.2600     77.0687    103.9674
    26.5000      0.0000    280.2702     77.2008    105.8448
    26.7500      0.0000    280.2762     77.3501    105.2608
