~Version Information
VERS.                      2.0: CWLS Log ASCII Standard - VERSION 2.0
WRAP.                       NO: One line per depth step
~Well Information Block
STRT.FT               575.0000: 
STOP.FT              1558.5000: 
STEP.FT                 0.2500: 
NULL.                -999.2500: 
COMP.          Pioneer Natural Resources: COMPANY
WELL.          McClaren 13-34 Tr: WELL
FLD.           Purgatoire River: FIELD
LOC.           1934' FSL & 826' FWL: LOCATION
PROV.                 Colorado: PROVINCE
CNTY.               Las Animas: COUNTRY
SRVC.                Patterson: SERVICE COMPANY
DATE.          Mon Jul 11 20:01:13 2005: LOG DATE
UWI.           05 071 08437 00: UNIQUE WELL ID
~Curve Information Block
DEPT.FT            0 000 00 00: Depth
SN.Ohm-m                      : IEL Short Normal
SP.mV                         : IEL Spontaneous Potential
DIR.Ohm-m                     : IEL Induction Resistivity
GR.GAPI                       : Gamma Ray
~Parameter Information Block
~A  Depth        SN          SP         DIR          GR     
# ...
  1312.0000     24.1733    130.4260     11.8520     60.0336
  1312.2500     26.9201    130.8596     12.0012     62.0958
  1312.5000     27.3803    131.1676     12.1244     71.8468
  1312.7500     25.6785    131.3602     12.2006     81.7292
  1313.0000     22.8590    131.4749     12.2026     98.9548
  1313.2500     19.9099    131.5480     12.1067    110.3872
  1313.5000     17.3748    131.5908     11.9010    125.5243
  1313.7500     15.4279    131.5833     11.5885    133.9022
  1314.0000     14.0020    131.4852     11.1863    143.8478
  1314.2500     12.9503    131.2657     10.7226    148.4986
  1314.5000     12.1853    130.9279     10.2337    151.6902
  1314.7500     11.6817    130.5095      9.7587    151.1228
  1315.0000     11.4050    130.0611      9.3325    147.4460
  1315.2500     11.2968    129.6264      8.9799    144.5451
  1315.5000     11.2712    129.2349      8.7146    141.6827
  1315.7500     11.2176    128.9063      8.5421    141.0949
  1316.0000     11.1031    128.6542      8.4626    141.1474
  1316.2500     11.0122    128.4823      8.4730    140.9260
  1316.5000     11.0125    128.3735      8.5658    139.5754
  1316.7500     11.0866    128.2879      8.7293    138.3266
  1317.0000     11.2155    128.1850      8.9486    136.9130
  1317.2500     11.4034    128.0556      9.2098    136.5022
  1317.5000     11.6285    127.9352      9.5006    136.0615
  1317.7500     11.8893    127.8845      9.8092    135.1988
  1318.0000     12.2504    127.9553     10.1218    132.2150
  1318.2500     12.7878    128.1712     10.4238    129.0728
  1318.5000     13.5592    128.5229     10.7048    122.9196
  1318.7500     14.5699    128.9658     10.9633    117.8143
  1319.0000     15.6704    129.4257     11.2061    108.4858
  1319.2500     16.5854    129.8272     11.4437    101.6122
  1319.5000     17.1294    130.1327     11.6848     92.3811
  1319.7500     17.3035    130.3600     11.9322     88.3041
  1320.0000     17.1755    130.5597     12.1789     86.5048
  1320.2500     16.8002    130.7705     12.4079     87.9084
  1320.5000     16.2339    130.9935     12.5964     92.1530
  1320.7500     15.5478    131.1973     12.7240     95.2085
  1321.0000     14.8557    131.3416     12.7792     98.8520
  1321.2500     14.3025    131.3990     12.7610    100.5772
  1321.5000     13.9871    131.3663     12.6774    102.7382
  1321.7500     13.8937    131.2642     12.5447    104.3337
  1322.0000     13.8920    131.1264     12.3876    107.1783
  1322.2500     13.8615    130.9818     12.2356    109.0043
  1322.5000     13.8254    130.8408     12.1161    110.5585
  1322.7500     13.8589    130.6963     12.0468    110.4768
  1323.0000     13.9329    130.5344     12.0327    109.1731
  1323.2500     13.9776    130.3456     12.0663    108.0959
  1323.5000     14.0198    130.1281     12.1332    106.7579
  1323.7500     14.1631    129.8859     12.2225    106.0678
  1324.0000     14.4427    129.6279     12.3358    105.1466
  1324.2500     14.7474    129.3707     12.4847    104.4989
  1324.5000     14.9320    129.1412     12.6768    103.5096
  1324.7500     14.9642    128.9711     12.9017    103.1147
  1325.0000     14.9024    128.8836     13.1326    103.5116
  1325.2500     14.8153    128.8818     13.3435    104.3836
  1325.5000     14.7577    128.9453     13.5274    105.6008
  1325.7500     14.7422    129.0368     13.6965    105.7794
  1326.0000     14.7551    129.1139     13.8675    105.2357
  1326.2500     14.8150    129.1434     14.0469    104.9920
  1326.5000     14.9476    129.1091     14.2290    105.7446
  1326.7500     15.1113    129.0076     14.4055    106.9422
  1327.0000     15.2396    128.8364     14.5738    108.8601
  1327.2500     15.3449    128.5852     14.7382    109.6502
  1327.5000     15.4818    128.2357     14.9051    109.6644
  1327.7500     15.6364    127.7675     15.0763    108.9695
  1328.0000     15.7567    127.1697     15.2487    107.2962
  1328.2500     15.8337    126.4516     15.4197    106.0824
  1328.5000     15.8930    125.6446     15.5952    104.7768
  1328.7500     15.9909    124.7909     15.7920    104.6460
  1329.0000     16.2078    123.9330     16.0313    105.7537
  1329.2500     16.5601    123.1091     16.3291    106.8621
  1329.5000     16.9844    122.3444     16.6943    107.4250
  1329.7500     17.4507    121.6417     17.1341    106.4374
  1330.0000     17.9696    120.9844     17.6597    103.6794
  1330.2500     18.5123    120.3539     18.2865    102.1607
  1330.5000     19.0762    119.7439     19.0287    101.7430
  1330.7500     19.7756    119.1618     19.8941    102.6041
  1331.0000     20.7051    118.6267     20.8828    104.3531
  1331.2500     21.7889    118.1719     21.9905    104.9245
  1331.5000     22.8891    117.8420     23.2118    103.6679
  1331.7500     23.9723    117.6738     24.5404    101.1026
  1332.0000     25.1629    117.6708     25.9627     94.8368
  1332.2500     26.6634    117.7968     27.4531     89.4065
  1332.5000     28.6308    117.9941     28.9810     80.1756
  1332.7500     31.1783    118.2076     30.5233     73.8202
  1333.0000     34.3926    118.3985     32.0608     64.9196
  1333.2500     38.2407    118.5497     33.5501     59.8770
  1333.5000     42.5506    118.6617     34.9012     54.1047
  1333.7500     47.1026    118.7396     36.0018     51.5174
  1334.0000     51.5229    118.7764     36.7744     49.5470
  1334.2500     55.1139    118.7519     37.2011     49.5237
  1334.5000     57.1120    118.6480     37.2827     51.1729
  1334.7500     57.2157    118.4616     36.9894     53.0067
  1335.0000     55.7006    118.2036     36.2802     56.2540
  1335.2500     52.9888    117.8908     35.1757     58.7496
  1335.5000     49.3787    117.5441     33.7925     63.4911
  1335.7500     45.2381    117.1924     32.2900     67.5665
  1336.0000     41.0757    116.8703     30.7854     75.0415
  1336.2500     37.2925    116.6036     29.3184     80.6738
  1336.5000     34.0236    116.3928     27.8752     89.2744
  1336.7500     31.2171    116.2118     26.4342     94.5394
  1337.0000     28.7834    116.0210     24.9921    101.1755
  1337.2500     26.6842    115.7856     23.5630    104.8372
  1337.5000     24.9451    115.4917     22.1709    109.4696
  1337.7500     23.5825    115.1575     20.8474    111.8928
  1338.0000     22.4814    114.8354     19.6299    114.2461
  1338.2500     21.4242    114.5961     18.5530    115.1683
  1338.5000     20.2758    114.5021     17.6375    116.6043
  1338.7500     19.0673    114.5850     16.8869    118.1311
  1339.0000     17.9505    114.8393     16.2919    121.4162
  1339.2500     17.1048    115.2326     15.8362    123.9688
  1339.5000     16.5529    115.7228     15.4999    127.8527
  1339.7500     16.1059    116.2692     15.2626    130.4753
  1340.0000     15.6452    116.8372     15.1065    134.6220
  1340.2500     15.3530    117.4020     15.0215    137.2979
  1340.5000     15.4484    117.9544     15.0054    140.0646
  1340.7500     15.8227    118.4975     15.0597    140.4743
  1341.0000     16.1950    119.0317     15.1844    138.8633
  1341.2500     16.4683    119.5429     15.3778    136.7194
  1341.5000     16.7093    120.0063     15.6406    132.2757
  1341.7500     16.9584    120.4023     15.9817    128.1679
  1342.0000     17.2409    120.7294     16.4189    119.5902
  1342.2500     17.6457    121.0101     16.9742    112.4716
  1342.5000     18.3157    121.2862     17.6641    101.2571
  1342.7500     19.4039    121.6041     18.4941     94.3758
  1343.0000     21.0214    121.9945     19.4584     85.5347
  1343.2500     23.1966    122.4598     20.5499     80.4351
  1343.5000     25.8460    122.9811     21.7706     73.5582
  1343.7500     28.7989    123.5347     23.1332     69.3853
  1344.0000     31.9080    124.1024     24.6484     63.4858
  1344.2500     35.0831    124.6692     26.3047     59.5023
  1344.5000     38.2089    125.2211     28.0577     53.2023
  1344.7500     41.0963    125.7484     29.8393     49.0683
  1345.0000     43.5270    126.2498     31.5780     43.8720
  1345.2500     45.3973    126.7361     33.2104     41.3774
