~Version Information
VERS.                      2.0: CWLS Log ASCII Standard - VERSION 2.0
WRAP.                       NO: One line per depth step
~Well Information Block
STRT.FT                 6.0000: 
STOP.FT              1577.7500: 
STEP.FT                 0.2500: 
NULL.                -999.2500: 
COMP.          Pioneer Natural Resources: COMPANY
WELL.           Kermit 32-7 Tr: WELL
FLD.           Purgatoire River: FIELD
LOC.           2009' FNL & 2196' FEL: LOCATION
PROV.                 Colorado: PROVINCE
CNTY.               Las Animas: COUNTRY
SRVC.                Patterson: SERVICE COMPANY
DATE.          Wed Jan 18 14:19:39 2006: LOG DATE
UWI.           05 071 08664 00: UNIQUE WELL ID
~Curve Information Block
DEPT.FT            0 000 00 00: Depth
GR.GAPI                       : Gamma Ray
CCL.                          : Casing Collar Locator
TT3.usec                      : CBL 3' Travel Time
AMP3.mV                       : CBL 3' Amplitude
~Parameter Information Block
~A  Depth        GR         CCL         TT3         AMP3    
# ...
  1145.0000     99.6709      0.0000    782.1315      7.4709
  1145.2500    102.6848      0.0000    783.5001      7.2081
  1145.5000    102.3551      0.0000    779.2834      7.0446
  1145.7500     99.0392      0.0000    772.3331      6.9878
  1146.0000     93.2517      0.0000    765.6991      7.0192
  1146.2500     85.9849      0.0000    761.1771      7.1029
  1146.5000     79.0515      0.0000    758.9927      7.2029
  1146.7500     74.6261      0.0000    758.5804      7.2976
  1147.0000     74.1682      0.0000    759.5142      7.3866
  1147.2500     77.6721      0.0000    761.6862      7.4899
  1147.5000     83.9804      0.0000    764.5986      7.6395
  1147.7500     91.7840      0.0000    766.6442      7.8590
  1148.0000    100.1593      0.0000    765.8304      8.1462
  1148.2500    108.1850      0.0000    762.0051      8.4724
  1148.5000    114.5462      0.0000    757.9131      8.7917
  1148.7500    117.9242      0.0000    756.8771      9.0502
  1149.0000    117.7753      0.0000    759.2530      9.2016
  1149.2500    114.7350      0.0000    761.7386      9.2313
  1149.5000    110.3090      0.0000    760.5138      9.1675
  1149.7500    106.0231      0.0000    755.4634      9.0598
  1150.0000    102.6657      0.0000    751.1816      8.9494
  1150.2500    100.1550      0.0000    752.5248      8.8585
  1150.5000     97.7830      0.0000    759.0496      8.7979
  1150.7500     94.6111      0.0000    765.6292      8.7707
  1151.0000     90.1794      0.0000    768.6613      8.7674
  1151.2500     85.1281      0.0000    769.3262      8.7633
  1151.5000     80.9628      0.0000    770.4315      8.7300
  1151.7500     79.0996      0.0000    772.7797      8.6562
  1152.0000     80.1536      0.0000    775.5543      8.5559
  1152.2500     83.8970      0.0000    777.9578      8.4522
  1152.5000     89.5369      0.0000    779.2896      8.3551
  1152.7500     95.9720      0.0000    779.0535      8.2587
  1153.0000    102.0739      0.0000    778.0350      8.1575
  1153.2500    107.0617      0.0000    777.8547      8.0585
  1153.5000    110.8259      0.0000    778.4932      7.9774
  1153.7500    113.9464      0.0000    777.7471      7.9269
  1154.0000    117.2691      0.0000    774.2968      7.9091
  1154.2500    121.2354      0.0000    769.5402      7.9129
  1154.5000    125.4123      0.0000    764.9193      7.9161
  1154.7500    128.5955      0.0000    759.6290      7.8970
  1155.0000    129.5004      0.0000    753.4341      7.8496
  1155.2500    127.6973      0.0000    750.2405      7.7903
  1155.5000    124.1507      0.0000    755.8821      7.7453
  1155.7500    120.5643      0.0000    772.2588      7.7265
  1156.0000    117.7011      0.0000    795.2496      7.7217
  1156.2500    114.5405      0.0000    817.9797      7.7123
  1156.5000    109.6297      0.0000    834.6443      7.6976
  1156.7500    103.0601      0.0000    842.0298      7.6971
  1157.0000     96.6530      0.0000    840.0418      7.7321
  1157.2500     92.5835      0.0000    831.5562      7.8151
  1157.5000     92.4062      0.0000    820.2582      7.9522
  1157.7500     96.9240      0.0000    807.6309      8.1357
  1158.0000    105.9271      0.0000    792.8344      8.3133
  1158.2500    117.6342      0.0000    776.0483      8.3616
  1158.5000    128.8551      0.0000    761.0871      8.1230
  1158.7500    136.4828      0.0000    753.4366      7.5206
  1159.0000    139.1696      0.0000    755.4275      6.6613
  1159.2500    137.5241      0.0000    764.2520      5.7971
  1159.5000    133.0004      0.0000    774.8554      5.1541
  1159.7500    127.0448      0.0000    783.5583      4.8006
  1160.0000    121.0677      0.0000    788.9401      4.6668
  1160.2500    116.3621     -3.0000    791.4135      4.6546
  1160.5000    113.5686     -3.0000    793.1130      4.7241
  1160.7500    112.4358      0.0000    796.4736      4.9190
  1161.0000    112.4056      0.0000    801.1790      5.3279
  1161.2500    113.3195      0.0000    803.3057      5.9823
  1161.5000    115.3448      0.0000    798.9919      6.7688
  1161.7500    118.2974      0.0000    788.7167      7.4766
  1162.0000    121.3864      0.0000    777.1312      7.9600
  1162.2500    123.6940      0.0000    768.9517      8.2228
  1162.5000    124.7191      0.0000    765.6451      8.3439
  1162.7500    124.5076      0.0000    765.4553      8.3780
  1163.0000    123.5263      0.0000    765.5987      8.3444
  1163.2500    122.3831      0.0000    764.4390      8.2666
  1163.5000    121.4139      0.0000    762.1615      8.1873
  1163.7500    120.5532      0.0000    759.8558      8.1515
  1164.0000    119.6832      0.0000    758.2803      8.1784
  1164.2500    118.9206      0.0000    757.4785      8.2472
  1164.5000    118.4500      0.0000    757.1389      8.3153
  1164.7500    118.3210      0.0000    756.9760      8.3532
  1165.0000    118.4881      0.0000    756.8431      8.3577
  1165.2500    118.7578      0.0000    756.6899      8.3347
  1165.5000    118.6402      0.0000    756.5132      8.2802
  1165.7500    117.6975      0.0000    756.3345      8.1859
  1166.0000    116.2801      0.0000    756.1939      8.0587
  1166.2500    115.5221      0.0000    756.1344      7.9272
  1166.5000    116.2747      0.0000    756.1819      7.8273
  1166.7500    118.1936      0.0000    756.3221      7.7800
  1167.0000    120.0084      0.0000    756.5048      7.7816
  1167.2500    120.5213      0.0000    756.6809      7.8133
  1167.5000    119.1146      0.0000    756.8173      7.8566
  1167.7500    115.3574      0.0000    756.8719      7.8980
  1168.0000    108.7204      0.0000    756.7968      7.9279
  1168.2500     99.3188      0.0000    756.5952      7.9409
  1168.5000     88.7780      0.0000    756.3427      7.9369
  1168.7500     79.5556      0.0000    756.1256      7.9194
  1169.0000     73.0587      0.0000    755.9749      7.8955
  1169.2500     68.8633      0.0000    755.8766      7.8758
  1169.5000     65.8518      0.0000    755.8210      7.8688
  1169.7500     63.4735      0.0000    755.8113      7.8726
  1170.0000     61.7117      0.0000    755.8378      7.8760
  1170.2500     60.4995      0.0000    755.8728      7.8696
  1170.5000     59.6779      0.0000    755.8978      7.8537
  1170.7500     59.3177      0.0000    755.9293      7.8348
  1171.0000     59.7124      0.0000    756.0099      7.8170
  1171.2500     60.9850      0.0000    756.1688      7.8000
  1171.5000     62.7834      0.0000    756.3589      7.7810
  1171.7500     64.4366      0.0000    756.3829      7.7568
  1172.0000     65.4168      0.0000    755.8497      7.7257
  1172.2500     65.5704      0.0000    754.2557      7.6889
  1172.5000     64.9586      0.0000    751.3281      7.6507
  1172.7500     63.7581      0.0000    747.5010      7.6180
  1173.0000     62.3422      0.0000    743.9796      7.5965
  1173.2500     61.0635      0.0000    741.9746      7.5861
  1173.5000     59.8058      0.0000    741.6294      7.5810
  1173.7500     58.1408      0.0000    741.5555      7.5745
  1174.0000     56.0998      0.0000    739.3702      7.5626
  1174.2500     54.3682      0.0000    733.3473      7.5434
  1174.5000     53.5993      0.0000    724.6346      7.5143
  1174.7500     54.0184      0.0000    717.6581      7.4710
  1175.0000     55.6693      0.0000    716.8864      7.4111
  1175.2500     58.2663      0.0000    722.7797      7.3419
  1175.5000     60.6400      0.0000    731.7736      7.2830
  1175.7500     61.2925      0.0000    740.0015      7.2542
  1176.0000     60.1504      0.0000    745.8549      7.2607
  1176.2500     59.2583      0.0000    749.2715      7.2904
  1176.5000     61.1066      0.0000    750.0685      7.3269
  1176.7500     66.4352      0.0000    747.5222      7.3612
  1177.0000     73.9228      0.0000    741.4056      7.3965
  1177.2500     81.6162      0.0000    733.5166      7.4445
  1177.5000     88.1723      0.0000    727.8091      7.5154
  1177.7500     93.0022      0.0000    727.8615      7.6110
  1178.0000     96.0184      0.0000    733.7794      7.7262
  1178.2500     97.5691      0.0000    742.2033      7.8547
