~Version Information
VERS.                      2.0: CWLS Log ASCII Standard - VERSION 2.0
WRAP.                       NO: One line per depth step
~Well Information Block
STRT.FT               -10.0000: 
STOP.FT              1935.0000: 
STEP.FT                 0.2500: 
NULL.                -999.2500: 
COMP.          Pioneer Natural Resources: COMPANY
WELL.           Willys 32-8 Tr: WELL
FLD.           Purgatorie River: FIELD
LOC.           1843' FNL & 2355' FEL--: LOCATION
CNTY.               Las Animas: COUNTY
SRVC.          Patterson Wireline: SERVICE COMPANY
DATE.          Wed Feb 15 13:29:41 2006: LOG DATE
UWI.           05 071 08688 00: UNIQUE WELL ID
STAT.                       CO: STATE
~Curve Information Block
DEPT.FT            0 000 00 00: Depth
CCL.                          : Casing Collar Locator
TT3.usec                      : CBL 3' Travel Time
AMP3.mV                       : CBL 3' Amplitude
GR.GAPI                       : Gamma Ray
~Parameter Information Block
~A  Depth       CCL         TT3         AMP3         GR     
# ...
  1631.5000      0.0000    582.2618     10.5585    137.5863
  1631.7500      0.0000    628.0012     10.2610    138.9959
  1632.0000      0.0000    676.8777     10.0458    140.0077
  1632.2500      0.0000    713.3667      9.9257    141.8453
  1632.5000      0.0000    728.7238      9.8977    143.5795
  1632.7500      0.0000    724.0192      9.9391    143.5321
  1633.0000      0.0000    708.9849     10.0175    141.1399
  1633.2500      0.0000    696.4645     10.1067    137.1658
  1633.5000      0.0000    694.5179     10.1994    132.9291
  1633.7500      0.0000    701.2726     10.3054    129.7083
  1634.0000      0.0000    707.1697     10.4356    128.3846
  1634.2500      0.0000    701.9929     10.5909    129.1680
  1634.5000      0.0000    679.3224     10.7649    131.5752
  1634.7500      0.0000    637.0250     10.9523    134.7664
  1635.0000      0.0000    578.4489     11.1482    137.9756
  1635.2500      0.0000    514.1146     11.3419    140.4849
  1635.5000      0.0000    458.1584     11.5140    141.2225
  1635.7500      0.0000    420.3979     11.6419    138.8562
  1636.0000      0.0000    402.6053     11.7070    132.7508
  1636.2500      0.0000    402.7740     11.7034    123.9225
  1636.5000      0.0000    420.9979     11.6455    114.8473
  1636.7500      0.0000    459.1277     11.5640    108.2111
  1637.0000      0.0000    514.0278     11.4907    105.8232
  1637.2500      0.0000    572.5399     11.4427    108.3477
  1637.5000      0.0000    616.2980     11.4198    115.1796
  1637.7500      0.0000    634.0012     11.4088    124.0395
  1638.0000      0.0000    628.8293     11.3879    131.3262
  1638.2500      0.0000    613.0848     11.3333    134.0695
  1638.5000      0.0000    596.4912     11.2298    132.0810
  1638.7500      0.0000    580.8261     11.0782    127.9542
  1639.0000      0.0000    563.5604     10.8965    124.7852
  1639.2500      0.0000    542.8238     10.7151    123.9925
  1639.5000      0.0000    519.4847     10.5654    125.1064
  1639.7500      0.0000    497.8160     10.4621    126.8989
  1640.0000      0.0000    484.5844     10.3974    128.5171
  1640.2500      0.0000    486.2546     10.3501    130.1180
  1640.5000      0.0000    506.1120     10.2991    132.6261
  1640.7500      0.0000    542.2990     10.2279    136.4721
  1641.0000      0.0000    587.4445     10.1254    140.3695
  1641.2500      0.0000    631.4285      9.9876    141.7646
  1641.5000      0.0000    666.3531      9.8247    139.0917
  1641.7500      0.0000    689.3380      9.6769    133.5828
  1642.0000      0.0000    701.0444      9.6195    128.2241
  1642.2500      0.0000    702.3750      9.7359    124.7833
  1642.5000      0.0000    692.6225     10.0702    122.5343
  1642.7500      0.0000    670.7229     10.6002    120.0708
  1643.0000      0.0000    638.8925     11.2546    117.4290
  1643.2500      0.0000    604.5862     11.9540    115.7892
  1643.5000      0.0000    576.4240     12.6432    115.8383
  1643.7500      0.0000    556.9234     13.2986    117.2383
  1644.0000      0.0000    540.9024     13.9175    119.2553
  1644.2500      0.0000    522.4805     14.5066    121.0739
  1644.5000      0.0000    501.8012     15.0690    121.6367
  1644.7500      0.0000    483.0293     15.5775    119.9794
  1645.0000      0.0000    467.7276     15.9529    116.1012
  1645.2500      0.0000    453.8898     16.0831    111.2916
  1645.5000      0.0000    441.9704     15.8872    107.3098
  1645.7500      0.0000    437.6197     15.3731    105.2155
  1646.0000      0.0000    444.6779     14.6393    105.0223
  1646.2500      0.0000    457.2902     13.8222    106.0664
  1646.5000      0.0000    463.4809     13.0351    107.1813
  1646.7500      0.0000    457.4205     12.3379    106.7664
  1647.0000      0.0000    446.4311     11.7491    103.5200
  1647.2500      0.0000    445.4809     11.2737     97.5833
  1647.5000      0.0000    464.8181     10.9250     90.8595
  1647.7500      0.0000    500.2323     10.7284     86.0784
  1648.0000      0.0000    533.0646     10.7057     85.4384
  1648.2500      0.0000    542.4571     10.8495     89.6643
  1648.5000      0.0000    521.4126     11.1100     97.8422
  1648.7500      0.0000    481.4335     11.4124    108.0626
  1649.0000      0.0000    441.4496     11.6907    118.3581
  1649.2500      0.0000    413.6815     11.9093    127.1625
  1649.5000      0.0000    399.3766     12.0608    133.1874
  1649.7500      0.0000    393.7463     12.1544    135.3695
  1650.0000      0.0000    391.8731     12.2026    133.3831
  1650.2500      0.0000    390.9983     12.2120    128.1986
  1650.5000      0.0000    390.0907     12.1824    121.7841
  1650.7500      0.0000    388.7868     12.1132    116.0162
  1651.0000      0.0000    386.6872     12.0072    111.8424
  1651.2500      0.0000    383.1577     11.8722    109.2878
  1651.5000      0.0000    377.7538     11.7187    107.9096
  1651.7500      0.0000    371.0848     11.5560    107.1123
  1652.0000      0.0000    365.2266     11.3856    106.2301
  1652.2500      0.0000    362.7244     11.2015    104.7064
  1652.5000      0.0000    364.6917     10.9992    102.5127
  1652.7500      0.0000    369.8733     10.7829    100.2552
  1653.0000      0.0000    375.7117     10.5682     98.6263
  1653.2500      0.0000    380.2607     10.3796     97.7486
  1653.5000      0.0000    383.3328     10.2430     97.2791
  1653.7500      0.0000    386.5319     10.1725     97.0996
  1654.0000      0.0000    392.8509     10.1572     97.5768
  1654.2500      0.0000    405.3472     10.1645     98.9406
  1654.5000      0.0000    423.8891     10.1616    100.6004
  1654.7500      0.0000    442.1769     10.1378    101.4118
  1655.0000      0.0000    450.6918     10.1045    100.7048
  1655.2500      0.0000    445.9901     10.0770     98.9241
  1655.5000      0.0000    436.9707     10.0611     97.2045
  1655.7500      0.0000    440.1754     10.0534     96.3310
  1656.0000      0.0000    468.0184     10.0484     96.1297
  1656.2500      0.0000    519.2495     10.0413     95.7472
  1656.5000      0.0000    578.0423     10.0244     94.2589
  1656.7500      0.0000    624.2718      9.9838     91.0998
  1657.0000      0.0000    648.8380      9.9008     86.4168
  1657.2500      0.0000    659.4314      9.7575     81.2137
  1657.5000      0.0000    669.3439      9.5445     77.0352
  1657.7500      0.0000    681.9754      9.2723     75.1909
  1658.0000      0.0000    689.2899      8.9830     75.9509
  1658.2500      0.0000    684.0660      8.7443     78.3881
  1658.5000      0.0000    669.1612      8.6146     81.1810
  1658.7500      0.0000    653.9501      8.5950     83.5329
  1659.0000      0.0000    644.4215      8.6073     85.1727
  1659.2500      0.0000    637.2949      8.5377     85.8647
  1659.5000      0.0000    622.7663      8.3342     85.4611
  1659.7500      0.0000    594.0355      8.0580     84.2145
  1660.0000      0.0000    555.0331      7.8231     82.5757
  1660.2500      0.0000    517.9949      7.6997     80.8383
  1660.5000      0.0000    494.2926      7.6960     79.3514
  1660.7500      0.0000    489.3854      7.8054     78.8477
  1661.0000      0.0000    504.4885      8.0398     80.0001
  1661.2500      0.0000    537.5464      8.4167     82.6237
  1661.5000      0.0000    579.7872      8.9272     85.7358
  1661.7500      0.0000    614.8163      9.5136     88.4827
  1662.0000      0.0000    626.5345     10.0990     90.7211
  1662.2500      0.0000    609.7406     10.6573     92.5554
  1662.5000      0.0000    572.1609     11.2220     93.7035
  1662.7500      0.0000    527.4920     11.8055     93.6826
  1663.0000      0.0000    487.4164     12.3510     92.3447
  1663.2500      0.0000    457.3692     12.7910     89.8649
  1663.5000      0.0000    436.5108     13.1168     86.5181
  1663.7500      0.0000    421.1110     13.3657     82.7330
  1664.0000      0.0000    408.3636     13.5621     78.9743
  1664.2500      0.0000    397.6106     13.6907     75.2923
  1664.5000      0.0000    389.3655     13.7202     71.3187
  1664.7500      0.0000    384.5123     13.6380     66.9688
