~Version Information
VERS.                      2.0: CWLS Log ASCII Standard - VERSION 2.0
WRAP.                       NO: One line per depth step
~Well Information Block
STRT.FT               480.0000: 
STOP.FT              1946.0000: 
STEP.FT                 0.1000: 
NULL.                -999.2500: 
COMP.          XTO Energy Inc.: COMPANY
WELL.          Golden Eagle 19-15: WELL
FLD.           Purgatoire River: FIELD
LOC.           1121' FSL & 2332' FEL--: LOCATION
CNTY.               Las Animas: COUNTY
SRVC.                Patterson: SERVICE COMPANY
DATE.          Mon Mar 13 10:27:20 2006: LOG DATE
UWI.           05 071 08717 00: UNIQUE WELL ID
STAT.                 Colorado: STATE
~Curve Information Block
DEPT.FT            0 000 00 00: Depth
DCAL.in                       : CDL Caliper
RHOB.g/cc                     : CDL Bulk Density
RHOC.g/cc                     : CDL Density Correction
DPOR.pu                       : CDL Density Porosity
NPOR.pu                       : Neutron Porosity
GR.GAPI                       : Gamma Ray
~Parameter Information Block
~A  Depth       DCAL        RHOB        RHOC        DPOR        NPOR         GR     
# ...
  1152.0000      7.8634      2.5162     -0.0189      8.1091      9.0130     84.6909
  1152.1000      7.8634      2.5130      0.0402      8.3027      8.0494     80.4328
  1152.2000      7.8634      2.5164      0.0307      8.0965      7.9257     72.6364
  1152.3000      7.8647      2.5199      0.0375      7.8866      7.1247     62.2778
  1152.4000      7.8647      2.5286      0.0278      7.3584      5.1919     53.9368
  1152.5000      7.8663      2.5394      0.0658      6.7016      4.3493     50.5571
  1152.6000      7.8663      2.5428      0.0562      6.4980      5.9644     49.7743
  1152.7000      7.8663      2.5365      0.0684      6.8798      7.8284     49.1608
  1152.8000      7.8644      2.5230      0.0508      7.6982      8.2097     48.0876
  1152.9000      7.8644      2.5125      0.0288      8.3335      8.1852     45.3328
  1153.0000      7.8610      2.5143      0.0560      8.2237      8.6814     41.9913
  1153.1000      7.8610      2.5228      0.0358      7.7118      8.8670     40.5350
  1153.2000      7.8610      2.5263      0.0702      7.4940      7.7527     41.5421
  1153.3000      7.8598      2.5212      0.0249      7.8064      6.3726     45.0403
  1153.4000      7.8598      2.5182      0.0275      7.9855      6.1855     51.1568
  1153.5000      7.8608      2.5246      0.0501      7.6005      6.6600     56.8982
  1153.6000      7.8608      2.5300      0.0603      7.2718      6.7810     58.6625
  1153.7000      7.8608      2.5256      0.0691      7.5372      6.6177     57.0805
  1153.8000      7.8636      2.5155      0.0488      8.1538      6.7904     55.3871
  1153.9000      7.8636      2.5074      0.0518      8.6411      7.5199     54.0375
  1154.0000      7.8709      2.5064      0.0214      8.7017      8.4601     52.2049
  1154.1000      7.8709      2.5203      0.0091      7.8624      9.2088     51.9977
  1154.2000      7.8709      2.5456      0.0686      6.3262      9.5238     54.5593
  1154.3000      7.8850      2.5618      0.0527      5.3465      9.4807     58.7160
  1154.4000      7.8850      2.5647      0.0255      5.1676      9.4472     63.6135
  1154.5000      7.8958      2.5656      0.0603      5.1168      9.8174     67.9164
  1154.6000      7.8958      2.5610      0.0708      5.3949     10.3230     72.3135
  1154.7000      7.8958      2.5472      0.0296      6.2323     10.5296     78.7858
  1154.8000      7.8939      2.5329      0.0597      7.0995     10.7954     86.2755
  1154.9000      7.8939      2.5310      0.0171      7.2107     11.3175     91.5001
  1155.0000      7.8833      2.5487      0.0697      6.1382     12.1224     94.4599
  1155.1000      7.8833      2.5749      0.0912      4.5534     13.5168     96.7206
  1155.2000      7.8833      2.5930      0.0998      3.4575     15.2577     98.7454
  1155.3000      7.8726      2.5932      0.1161      3.4442     16.6777    102.8981
  1155.4000      7.8726      2.5769      0.0841      4.4274     17.4251    112.9886
  1155.5000      7.8666      2.5613      0.0456      5.3735     17.9473    128.5772
  1155.6000      7.8666      2.5603      0.1056      5.4350     18.9240    141.4894
  1155.7000      7.8666      2.5645      0.1405      5.1841     20.0598    146.0548
  1155.8000      7.8661      2.5537      0.1299      5.8384     20.8719    148.3585
  1155.9000      7.8661      2.5284      0.0505      7.3721     21.4379    155.3305
  1156.0000      7.8704      2.5142      0.0329      8.2316     21.8631    163.2904
  1156.1000      7.8704      2.5215      0.0352      7.7861     22.0280    171.4102
  1156.2000      7.8704      2.5315      0.0494      7.1794     21.9081    182.4665
  1156.3000      7.8763      2.5297      0.0347      7.2887     21.4905    189.0145
  1156.4000      7.8763      2.5211      0.0112      7.8132     21.0245    186.7301
  1156.5000      7.8779      2.5206      0.0268      7.8394     20.8492    183.1120
  1156.6000      7.8779      2.5372      0.0303      6.8368     20.8315    183.0760
  1156.7000      7.8779      2.5537      0.0907      5.8394     20.8767    183.1066
  1156.8000      7.8745      2.5435      0.0381      6.4562     21.0663    182.4210
  1156.9000      7.8745      2.5157     -0.0138      8.1415     20.8912    185.1124
  1157.0000      7.8739      2.4956      0.0079      9.3581     19.9566    189.0770
  1157.1000      7.8739      2.4837      0.0401     10.0797     19.1113    187.9118
  1157.2000      7.8739      2.4788     -0.0364     10.3734     19.4479    185.0327
  1157.3000      7.8802      2.4900      0.0225      9.6965     20.6353    186.5667
  1157.4000      7.8802      2.5137      0.0410      8.2616     21.4757    189.3246
  1157.5000      7.8869      2.5434      0.0527      6.4604     21.3497    186.7805
  1157.6000      7.8869      2.5708      0.0860      4.7997     20.4381    179.3001
  1157.7000      7.8869      2.5782      0.0801      4.3487     18.8918    174.4993
  1157.8000      7.8856      2.5608      0.0573      5.4086     16.9602    175.6548
  1157.9000      7.8856      2.5319      0.0295      7.1580     16.1250    178.3916
  1158.0000      7.8758      2.5090      0.0162      8.5457     17.0846    181.0915
  1158.1000      7.8758      2.5015      0.0209      9.0020     18.0371    182.7648
  1158.2000      7.8758      2.5046      0.0365      8.8127     17.9495    175.4055
  1158.3000      7.8673      2.5082      0.0482      8.5962     17.5308    157.9758
  1158.4000      7.8673      2.5131      0.0073      8.2976     17.1719    143.3186
  1158.5000      7.8640      2.5215      0.0579      7.7872     17.1474    138.8542
  1158.6000      7.8640      2.5243      0.0748      7.6185     17.4125    141.8357
  1158.7000      7.8640      2.5221      0.0391      7.7518     17.5356    146.6715
  1158.8000      7.8578      2.5220      0.0371      7.7601     17.6834    150.1790
  1158.9000      7.8578      2.5231      0.0440      7.6885     18.2793    157.0839
  1159.0000      7.8526      2.5307      0.0280      7.2298     19.3184    170.5614
  1159.1000      7.8526      2.5470      0.1091      6.2424     20.2896    185.2547
  1159.2000      7.8526      2.5524      0.1407      5.9153     20.6692    193.0386
  1159.3000      7.8615      2.5356      0.1082      6.9329     20.4806    192.4061
  1159.4000      7.8615      2.5126      0.0929      8.3246     20.3618    188.3269
  1159.5000      7.8784      2.4937      0.0845      9.4746     20.9266    183.2835
  1159.6000      7.8784      2.4711      0.0629     10.8444     21.6532    174.6765
  1159.7000      7.8784      2.4437      0.0438     12.5029     21.3775    160.7210
  1159.8000      7.8920      2.4168      0.0246     14.1331     20.2264    149.6178
  1159.9000      7.8920      2.3942      0.0202     15.5048     19.4972    148.1357
  1160.0000      7.9028      2.3881     -0.0048     15.8698     19.7748    152.0226
  1160.1000      7.9028      2.4082      0.0475     14.6517     20.4882    152.9292
  1160.2000      7.9028      2.4472      0.0608     12.2902     20.4796    148.8817
  1160.3000      7.9142      2.4904      0.1070      9.6699     19.3219    149.3486
  1160.4000      7.9142      2.5221      0.1322      7.7511     18.2195    159.6070
  1160.5000      7.9234      2.5400      0.0796      6.6659     18.3016    171.1077
  1160.6000      7.9234      2.5479      0.1523      6.1893     19.0628    174.4043
  1160.7000      7.9234      2.5386      0.1118      6.7524     19.4505    168.0784
  1160.8000      7.9262      2.5221      0.0372      7.7500     19.2217    159.3347
  1160.9000      7.9262      2.5135      0.0658      8.2749     19.1025    158.3768
  1161.0000      7.9262      2.5034      0.0570      8.8836     19.5915    169.7592
  1161.1000      7.9262      2.4873      0.0067      9.8601     20.0873    185.6876
  1161.2000      7.9262      2.4775     -0.0066     10.4567     20.1455    194.0487
  1161.3000      7.9257      2.4798      0.0258     10.3141     20.0498    190.4647
  1161.4000      7.9257      2.4924      0.0544      9.5494     20.2246    180.3154
  1161.5000      7.9255      2.5108      0.0427      8.4379     20.9084    173.3650
