~Version Information
VERS.                      2.0: CWLS Log ASCII Standard - VERSION 2.0
WRAP.                       NO: One line per depth step
~Well Information Block
STRT.FT                 0.0000: 
STOP.FT              1426.7500: 
STEP.FT                 0.2500: 
NULL.                -999.2500: 
COMP.          Pioneer Natural Resources: COMPANY
WELL.            Bordeaux 42-2: WELL
FLD.           Purgatorie River: FIELD
LOC.           1963' FNL & 1148' FEL: LOCATION
PROV.                 Colorado: PROVINCE
CNTY.               Las Animas: COUNTRY
SRVC.                Patterson: SERVICE COMPANY
DATE.          Fri Dec 02 09:28:20 2005: LOG DATE
UWI.                          : UNIQUE WELL ID
~Curve Information Block
DEPT.FT            0 000 00 00: Depth
CCL.                          : Casing Collar Locator
TT3.usec                      : CBL 3' Travel Time
AMP3.mV                       : CBL 3' Amplitude
GR.GAPI                       : Gamma Ray
~Parameter Information Block
~A  Depth       CCL         TT3         AMP3         GR     
     0.0000   -999.2500   1197.0000     -0.0692     56.3984
     0.2500   -999.2500   1197.0000     -0.0896     50.5288
     0.5000   -999.2500   1197.0000     -0.0941     47.8242
     0.7500   -999.2500   1197.0000     -0.0924     46.7556
     1.0000   -999.2500   1197.0000     -0.0962     45.5153
     1.2500   -999.2500   1197.0000     -0.1182     43.5486
     1.5000   -999.2500   1197.0000     -0.1447     41.6207
     1.7500   -999.2500   1197.0000     -0.1550     40.4834
     2.0000   -999.2500   1197.0000     -0.1487     39.9263
     2.2500   -999.2500   1197.0000     -0.1292     39.2214
     2.5000   -999.2500   1197.0000     -0.0942     37.9824
     2.7500   -999.2500   1197.0000     -0.0535     36.3519
     3.0000   -999.2500   1197.0000     -0.0200     34.7624
     3.2500      0.0000   1197.0000      0.0059     33.9787
     3.5000      0.0000   1197.0000      0.0130     35.2225
     3.7500      0.0000   1197.0000     -0.0134     39.6147
     4.0000      0.0000   1197.0000     -0.0478     47.0457
     4.2500      0.0000   1197.0000     -0.0521     55.7424
     4.5000      0.0000   1197.0000     -0.0345     63.3449
     4.7500      0.0000   1197.0000     -0.0258     68.4793
     5.0000      0.0000   1197.0000     -0.0272     71.1778
     5.2500      0.0000   1197.0000     -0.0270     72.0849
     5.5000      0.0000   1197.0000     -0.0368     71.7014
     5.7500      0.0000   1197.0000     -0.0665     70.4282
     6.0000      0.0000   1197.0000     -0.0916     68.9334
     6.2500      0.0000   1197.0000     -0.0952     68.0790
     6.5000      0.0000   1197.0000     -0.0919     68.3473
     6.7500      0.0000   1197.0000     -0.0872     69.4442
     7.0000      0.0000   1197.0000     -0.0734     70.6724
     7.2500      0.0000   1197.0000     -0.0571     71.7574
     7.5000      0.0000   1197.0000     -0.0533     73.1339
     7.7500      0.0000   1197.0000     -0.0558     75.3803
     8.0000      0.0000   1197.0000     -0.0440     78.4727
     8.2500      0.0000   1197.0000     -0.0349     81.5484
     8.5000      0.0000   1197.0000     -0.0674     83.2136
     8.7500      0.0000   1197.0000     -0.1275     82.1917
     9.0000      0.0000   1197.0000     -0.1586     78.1019
     9.2500      0.0000   1197.0000     -0.1359     71.8294
     9.5000      0.0000   1197.0000     -0.0895     65.0544
     9.7500      0.0000   1197.0000     -0.0588     59.3796
    10.0000      0.0000   1197.0000     -0.0514     55.7436
    10.2500      0.0000   1197.0000     -0.0597     54.2672
    10.5000      0.0000   1197.0000     -0.0829     54.3209
    10.7500      0.0000   1197.0000     -0.1129     54.7066
    11.0000      0.0000   1196.9424     -0.1306     54.1565
    11.2500      0.0000   1196.2527     -0.1107     52.1932
    11.5000      0.0000   1191.0492      0.0733     49.5653
    11.7500      0.0000   1165.6055      1.0381     47.6442
    12.0000      0.0000   1084.5663      4.6882     47.5480
    12.2500      0.0000    915.3376     14.3965     49.9082
    12.5000      0.0000    681.8193     31.9250     54.9152
    12.7500      0.0000    467.1346     52.9040     62.1447
    13.0000      0.0000    334.7286     69.3642     70.5116
    13.2500      0.0000    279.7411     77.8718     78.6577
    13.5000      0.0000    264.3535     80.9297     85.5044
    13.7500      0.0000    261.4183     81.8904     90.7262
    14.0000      0.0000    260.9835     82.3009     94.8081
    14.2500      0.0000    260.9195     82.5378     98.2966
    14.5000      0.0000    260.9482     82.6569    100.8609
    14.7500      0.0000    261.0049     82.7013    101.5388
    15.0000      0.0000    261.0468     82.7425    100.0188
    15.2500      0.0000    261.0699     82.8335     97.1322
    15.5000      0.0000    261.0819     82.9776     93.8099
    15.7500      0.0000    261.0833     83.1431     90.0717
    16.0000      0.0000    261.0782     83.3159     85.6124
    16.2500      0.0000    261.0734     83.5104     81.1133
    16.5000      0.0000    261.0698     83.6995     78.1777
    16.7500      0.0000    261.0632     83.8221     77.8284
    17.0000      0.0000    261.0517     83.8861     79.7398
    17.2500      0.0000    261.0377     83.9547     82.9308
    17.5000      0.0000    261.0264     84.0467     86.3719
    17.7500      0.0000    261.0213     84.1384     88.9310
    18.0000      0.0000    261.0210     84.2196     89.7161
    18.2500      0.0000    261.0234     84.2924     88.8552
    18.5000      0.0000    261.0316     84.3515     87.5074
    18.7500      0.0000    261.0464     84.3898     86.9382
    19.0000      0.0000    261.0565     84.4218     87.5910
    19.2500      0.0000    261.0443     84.4878     88.8473
    19.5000      0.0000    260.9918     84.6170     89.4955
    19.7500      0.0000    260.8898     84.7934     88.6603
    20.0000      0.0000    260.7690     84.9486     86.5773
    20.2500      0.0000    260.7014     85.0015     84.4122
    20.5000      0.0000    260.7357     84.9568     83.0517
    20.7500      0.0000    260.8440     84.9218     81.9908
    21.0000      0.0000    260.9548     84.9530     79.7381
    21.2500      0.0000    261.0269     84.9605     75.5134
    21.5000      0.0000    261.0624     84.7734     70.2526
    21.7500      0.0000    261.0709     84.0980     65.8141
    22.0000      0.0000    261.0680     82.3242     63.5782
    22.2500      0.0000    261.1121     78.6992     63.8013
    22.5000      0.0000    261.3321     73.0523     65.7213
    22.7500      0.0000    262.0310     66.1172     68.0645
    23.0000      0.0000    264.0330     58.8480     69.7606
    23.2500      0.0000    268.9028     51.7368     70.4337
    23.5000      0.0000    277.6257     44.9059     70.3407
    23.7500      0.0000    288.3742     38.4677     70.0448
    24.0000      0.0000    298.0511     32.6215     70.0691
    24.2500      0.0000    308.5397     27.5277     70.4782
    24.5000      0.0000    331.9514     23.2068     70.7253
    24.7500      0.0000    387.6141     19.5828     70.2294
    25.0000      0.0000    482.6792     16.5816     69.2666
    25.2500      0.0000    591.6396     14.1977     69.0623
    25.5000      0.0000    674.0878     12.4961     70.7519
    25.7500      0.0000    714.9468     11.4922     74.2792
    26.0000      0.0000    728.0969     11.0217     78.4737
    26.2500      0.0000    730.6379     10.8257     82.1626
    26.5000      0.0000    730.3713     10.7348     85.1344
    26.7500      0.0000    727.6232     10.6942     88.1340
    27.0000      0.0000    715.2430     10.6799     92.0171
    27.2500      0.0000    677.6080     10.6623     96.6770
    27.5000      0.0000    604.1193     10.6349    100.6475
    27.7500      0.0000    512.2488     10.6134    102.1281
    28.0000      0.0000    438.7085     10.5996    100.6738
    28.2500      0.0000    401.0379     10.5732     97.6326
    28.5000      0.0000    388.6266     10.5276     94.8099
    28.7500      0.0000    385.7255     10.4912     92.9968
    29.0000      0.0000    384.8055     10.4864     91.8156
    29.2500      0.0000    384.1736     10.4939     90.4747
    29.5000      0.0000    383.6845     10.4859     88.4092
    29.7500      0.0000    383.2809     10.4767     85.6497
    30.0000      0.0000    383.1975     10.5015     82.9592
    30.2500      0.0000    385.0470     10.5601     81.3674
    30.5000      0.0000    394.0739     10.6204     81.3180
    30.7500      0.0000    419.0581     10.6710     82.2888
    31.0000      0.0000    462.6924     10.7445     83.2067
    31.2500      0.0000    515.1224     10.8565     83.1596
    31.5000      0.0000    568.4260     10.9676     81.8889
    31.7500      0.0000    620.6968     11.0462     79.7921
    32.0000      0.0000    661.5920     11.1125     77.4362
    32.2500      0.0000    682.0906     11.1811     75.0702
    32.5000      0.0000    687.6461     11.2215     72.5991
    32.7500      0.0000    687.7854     11.2191     69.8677
    33.0000      0.0000    687.0808     11.1995     66.8921
    33.2500      0.0000    686.6583     11.1720     63.9989
