~Version Information
VERS.                      2.0: CWLS Log ASCII Standard - VERSION 2.0
WRAP.                       NO: One line per depth step
~Well Information Block
STRT.FT                 0.0000: 
STOP.FT              1147.5000: 
STEP.FT                 0.2500: 
NULL.                -999.2500: 
COMP.          Pioneer Natural Resources: COMPANY
WELL.          Tin Barn 14-20 TR: WELL
FLD.           Purgatorie River: FIELD
LOC.           925 FSL & 1151 FWL: LOCATION
PROV.                 Colorado: PROVINCE
CNTY.               Las Animas: COUNTRY
SRVC.                Patterson: SERVICE COMPANY
DATE.          Wed Jan 18 12:02:25 2006: LOG DATE
UWI.                          : UNIQUE WELL ID
~Curve Information Block
DEPT.FT            0 000 00 00: Depth
CCL.                          : Casing Collar Locator
TT3.usec                      : CBL 3' Travel Time
AMP3.mV                       : CBL 3' Amplitude
GR.GAPI                       : Gamma Ray
~Parameter Information Block
~A  Depth       CCL         TT3         AMP3         GR     
# ...
   435.5000      0.0000    373.4266     19.5444     76.4894
   435.7500      0.0000    441.9004     19.6258     72.5119
   436.0000      0.0000    506.1202     19.5729     70.5611
   436.2500      0.0000    505.9293     19.4893     70.8500
   436.5000      0.0000    439.7840     19.5131     72.6723
   436.7500      0.0000    364.8289     19.6148     74.6984
   437.0000      0.0000    321.5630     19.6812     76.0611
   437.2500      0.0000    306.5691     19.6879     76.9916
   437.5000      0.0000    303.3370     19.6578     77.9788
   437.7500      0.0000    303.4303     19.5794     78.7275
   438.0000      0.0000    306.8123     19.4899     78.5710
   438.2500      0.0000    321.8027     19.4778     77.6879
   438.5000      0.0000    365.2609     19.4850     77.1826
   438.7500      0.0000    442.6221     19.3238     77.8831
   439.0000      0.0000    517.3978     18.9681     79.5257
   439.2500      0.0000    536.2438     18.5726     81.2171
   439.5000      0.0000    502.7696     18.2162     82.3340
   439.7500      0.0000    481.7972     17.8527     82.9080
   440.0000      0.0000    518.6830     17.4504     83.4963
   440.2500      0.0000    588.7556     17.0228     84.7653
   440.5000      0.0000    632.4377     16.5863     86.8804
   440.7500      0.0000    624.3566     16.1846     89.1792
   441.0000      0.0000    592.9193     15.9055     90.5317
   441.2500      0.0000    577.6109     15.7839     89.9671
   441.5000      0.0000    594.9537     15.7104     87.1699
   441.7500      0.0000    638.0623     15.5522     82.9257
   442.0000      0.0000    681.6338     15.3476     79.0290
   442.2500      0.0000    699.7328     15.2293     77.1695
   442.5000      0.0000    679.5709     15.2381     77.7151
   442.7500      0.0000    619.2426     15.2930     79.6157
   443.0000      0.0000    537.0327     15.2081     81.2901
   443.2500      0.0000    474.5011     14.7988     81.7116
   443.5000      0.0000    466.2254     14.1245     81.1053
   443.7500      0.0000    515.8934     13.3800     80.5895
   444.0000      0.0000    609.9026     12.5444     80.8270
   444.2500      0.0000    722.0662     11.6313     81.2633
   444.5000      0.0000    803.5917     10.9695     81.0286
   444.7500      0.0000    822.3446     10.7580     80.2289
   445.0000      0.0000    800.6581     10.8170     80.0888
   445.2500     -2.0000    776.5896     10.9072     81.9391
   445.5000     -2.0000    762.8530     10.9713     85.9279
   445.7500      0.0000    756.3352     11.1308     90.6296
   446.0000      0.0000    751.1591     11.6455     94.1794
   446.2500      0.0000    735.0737     12.8054     95.7520
   446.5000      0.0000    690.6023     14.5192     95.6420
   446.7500      0.0000    616.1186     16.0988     94.2152
   447.0000      0.0000    551.5393     16.9625     91.4791
   447.2500      0.0000    548.8433     17.2691     87.6764
   447.5000      0.0000    599.0060     17.4803     83.8093
   447.7500      0.0000    634.6243     17.8024     81.3277
   448.0000      0.0000    607.7614     18.2164     81.2536
   448.2500      0.0000    525.3565     18.6783     83.5567
   448.5000      0.0000    427.3631     19.1579     87.3405
   448.7500      0.0000    353.6598     19.5960     91.4787
   449.0000      0.0000    317.1592     19.9525     94.9468
   449.2500      0.0000    305.3347     20.2521     96.7564
   449.5000      0.0000    302.7671     20.5199     96.0907
   449.7500      0.0000    302.2609     20.7544     92.8341
   450.0000      0.0000    302.0839     20.9667     87.8733
   450.2500      0.0000    302.0636     21.1483     82.7473
   450.5000      0.0000    302.1360     21.2471     79.0117
   450.7500      0.0000    302.1624     21.2545     77.6666
   451.0000      0.0000    302.0652     21.2429     78.7040
   451.2500      0.0000    301.9049     21.2408     81.1326
   451.5000      0.0000    301.8114     21.1639     83.6499
   451.7500      0.0000    301.8414     20.9768     85.1922
   452.0000      0.0000    301.9146     20.8036     85.0269
   452.2500      0.0000    301.9369     20.7616     83.0699
   452.5000      0.0000    301.9512     20.7709     80.2765
   452.7500      0.0000    302.0786     20.6522     77.9614
   453.0000      0.0000    302.3430     20.3707     76.4480
   453.2500      0.0000    302.6596     20.0637     74.8803
   453.5000      0.0000    303.2470     19.8752     72.5102
   453.7500      0.0000    306.4482     19.8462     69.7122
   454.0000      0.0000    321.4022     19.9174     67.5514
   454.2500      0.0000    365.5022     19.9784     66.6447
   454.5000      0.0000    443.4016     19.9420     66.6499
   454.7500      0.0000    514.1310     19.8381     66.6752
   455.0000      0.0000    516.5208     19.8058     65.9363
   455.2500      0.0000    448.1255     19.9047     64.1363
   455.5000      0.0000    369.3609     20.0042     61.4945
   455.7500      0.0000    326.1872     19.9823     58.4937
   456.0000      0.0000    322.2766     19.9152     55.6259
   456.2500      0.0000    349.6630     19.9140     53.4170
   456.5000      0.0000    393.0993     19.9262     52.4907
   456.7500      0.0000    418.1675     19.8604     53.2473
   457.0000      0.0000    408.2797     19.7642     55.3870
   457.2500      0.0000    397.6736     19.7341     58.0455
   457.5000      0.0000    416.3570     19.7430     60.6782
   457.7500      0.0000    437.3094     19.7103     63.7466
   458.0000      0.0000    428.1193     19.6666     68.3434
   458.2500      0.0000    410.8766     19.6716     74.9846
   458.5000      0.0000    415.7224     19.7023     82.7482
   458.7500      0.0000    420.5559     19.7533     89.6406
   459.0000      0.0000    393.3481     19.8720     93.8918
   459.2500      0.0000    348.7942     20.0413     95.0631
   459.5000      0.0000    317.6951     20.1944     94.1608
   459.7500      0.0000    305.5385     20.3467     92.7263
   460.0000      0.0000    302.5279     20.5729     91.6092
   460.2500      0.0000    301.9441     20.8256     90.5789
   460.5000      0.0000    301.9024     20.9212     89.2356
   460.7500      0.0000    302.0796     20.8080     88.0248
   461.0000      0.0000    302.2764     20.6667     87.8446
   461.2500      0.0000    302.4000     20.6407     88.7264
   461.5000      0.0000    302.8331     20.6798     89.5215
   461.7500      0.0000    306.0290     20.6813     89.1338
   462.0000      0.0000    321.2199     20.5855     87.6588
   462.2500      0.0000    367.3689     20.3467     85.9987
   462.5000      0.0000    457.2610     19.9469     84.6057
   462.7500      0.0000    569.4567     19.4526     82.9136
   463.0000      0.0000    658.8688     18.9738     79.9321
   463.2500      0.0000    702.3658     18.5340     75.2685
   463.5000      0.0000    706.7001     18.1084     69.6801
   463.7500      0.0000    682.0761     17.7697     64.7606
   464.0000      0.0000    642.8992     17.5978     62.0845
   464.2500      0.0000    619.9584     17.5069     62.3287
   464.5000      0.0000    626.4766     17.3511     64.7785
   464.7500      0.0000    626.5995     17.1507     67.5139
   465.0000      0.0000    586.3564     17.0602     68.4076
   465.2500      0.0000    535.0035     17.1604     66.5656
   465.5000      0.0000    527.6501     17.4110     63.1237
   465.7500      0.0000    562.4402     17.7542     60.3684
   466.0000      0.0000    593.8707     18.1470     59.7458
   466.2500      0.0000    611.1519     18.5426     60.7437
   466.5000      0.0000    627.3916     18.9260     61.7636
   466.7500      0.0000    619.7776     19.3115     61.7986
   467.0000      0.0000    555.9008     19.6642     60.9725
   467.2500      0.0000    454.0941     19.9037     59.7279
   467.5000      0.0000    367.0244     20.0223     58.1444
   467.7500      0.0000    321.4455     20.1240     56.3694
   468.0000      0.0000    306.2727     20.2949     55.2311
   468.2500      0.0000    302.9807     20.4845     55.6738
   468.5000      0.0000    302.5938     20.5664     57.5001
   468.7500      0.0000    303.1538     20.4867     59.2328
