~Version Information
VERS.                      2.0: CWLS Log ASCII Standard - VERSION 2.0
WRAP.                       NO: One line per depth step
~Well Information Block
STRT.FT               625.0000: 
STOP.FT              2053.7000: 
STEP.FT                 0.1000: 
NULL.                -999.2500: 
COMP.          Pioneer Natural Resources: COMPANY
WELL.            Zink 44-10 Tr: WELL
FLD.           Purgatoire River: FIELD
LOC.           486' FSL & 554' FEL--: LOCATION
PROV.                 Colorado: PROVINCE
CNTY.               Las Animas: COUNTRY
SRVC.                Patterson: SERVICE COMPANY
DATE.          Sun Jul 24 08:46:57 2005: LOG DATE
UWI.           05 071 08446 00: UNIQUE WELL ID
~Curve Information Block
DEPT.FT            0 000 00 00: Depth
DCAL.in                       : CDL Caliper
RHOB.g/cc                     : CDL Bulk Density
RHOC.g/cc                     : CDL Density Correction
DPOR.pu                       : CDL Density Porosity
NPOR.pu                       : Neutron Porosity
GR.GAPI                       : Gamma Ray
~Parameter Information Block
~A  Depth       DCAL        RHOB        RHOC        DPOR        NPOR         GR     
   625.0000      2.3557      5.1225      1.5308   -149.8508     44.7578     47.1261
   625.1000      2.3557      4.8719      1.2284   -134.6577     44.5461     45.6821
   625.2000      2.3557      4.6230      1.0968   -119.5751     44.2557     46.8914
   625.3000      2.3538      4.5109      1.1844   -112.7818     44.2260     53.2643
   625.4000      2.3538      4.4081      1.1990   -106.5541     44.5136     65.0234
   625.5000      2.3527      4.2269      1.0487    -95.5727     44.7993     76.5329
   625.6000      2.3527      4.0872      0.9366    -87.1037     44.7531     82.0140
   625.7000      2.3527      4.1238      0.9370    -89.3240     44.2107     80.6591
   625.8000      2.3516      4.2479      1.2214    -96.8409     43.4939     74.1780
   625.9000      2.3516      4.2727      1.1063    -98.3428     43.2792     65.7572
   626.0000      2.3494      4.1892      1.0546    -93.2823     43.6074     58.9793
   626.1000      2.3494      4.0756      1.1073    -86.3993     43.8820     55.5913
   626.2000      2.3494      3.9876      0.9273    -81.0656     43.8721     55.7401
   626.3000      2.3486      3.9583      1.0531    -79.2911     43.7397     55.9840
   626.4000      2.3486      3.9248      1.0257    -77.2611     43.6273     53.6978
   626.5000      2.3501      3.8407      0.9255    -72.1655     43.6371     50.5206
   626.6000      2.3501      3.7508      0.9609    -66.7145     43.8023     49.0649
   626.7000      2.3501      3.6761      0.9311    -62.1903     43.9769     49.7443
   626.8000      2.3518      3.6046      0.9142    -57.8542     44.0738     49.6977
   626.9000      2.3518      3.5460      0.9188    -54.3032     44.2104     47.7168
   627.0000      2.3518      3.5477      0.8508    -54.4088     44.5283     46.4911
   627.1000      2.3518      3.6543      0.9075    -60.8667     45.1461     48.2351
   627.2000      2.3518      3.8182      1.0452    -70.8022     45.7678     51.6409
   627.3000      2.3510      3.9429      1.0705    -78.3598     45.7766     54.0075
   627.4000      2.3510      4.0001      1.0660    -81.8212     45.2840     55.0180
   627.5000      2.3518      4.0034      1.0995    -82.0256     44.9630     57.2780
   627.6000      2.3518      3.9652      1.0724    -79.7083     45.0390     62.2083
   627.7000      2.3518      3.9440      0.9703    -78.4226     45.3914     67.6890
   627.8000      2.3520      3.9858      1.0743    -80.9599     45.7411     70.6502
   627.9000      2.3520      4.0416      1.0994    -84.3403     46.0574     71.0227
   628.0000      2.3520      4.0818      1.0452    -86.7739     46.3847     72.0598
   628.1000      2.3520      4.1380      1.0663    -90.1841     46.5026     74.9077
   628.2000      2.3520      4.1829      1.1622    -92.9022     46.4349     76.1185
   628.3000      2.3528      4.1586      1.1013    -91.4315     46.4674     73.6449
   628.4000      2.3528      4.0991      1.0547    -87.8253     46.9521     71.9487
   628.5000      2.3536      4.0768      1.0505    -86.4749     47.7853     74.4292
   628.6000      2.3536      4.1132      1.0876    -88.6809     48.2818     75.8325
   628.7000      2.3536      4.2053      1.0671    -94.2624     48.2993     72.0453
   628.8000      2.3543      4.3307      1.1717   -101.8619     48.1495     66.6457
   628.9000      2.3543      4.4202      1.2265   -107.2873     47.8443     64.4174
   629.0000      2.3551      4.4306      1.1864   -107.9124     47.3513     66.6875
   629.1000      2.3551      4.3808      1.2065   -104.8967     46.9234     71.6281
   629.2000      2.3551      4.3120      1.1356   -100.7261     46.7195     75.6974
   629.3000      2.3555      4.2919      1.1051    -99.5099     46.7156     78.2534
   629.4000      2.3555      4.3827      1.1155   -105.0100     46.8645     82.1884
   629.5000      2.3555      4.5619      1.2424   -115.8733     46.9579     87.4351
   629.6000      2.3555      4.7123      1.3326   -124.9858     46.8756     89.1537
   629.7000      2.3555      4.7276      1.3265   -125.9136     46.7010     84.4380
   629.8000      2.3557      4.6196      1.2152   -119.3719     46.4365     76.2709
   629.9000      2.3557      4.4692      1.1907   -110.2549     46.1030     70.0988
   630.0000      2.3576      4.3111      1.1481   -100.6718     46.0415     69.8198
   630.1000      2.3576      4.1438      1.0919    -90.5360     46.3309     75.2045
   630.2000      2.3576      3.9854      1.0044    -80.9359     46.6144     82.5771
   630.3000      2.3583      3.8531      1.0035    -72.9142     46.7566     87.9705
   630.4000      2.3583      3.7300      0.9286    -65.4561     46.8951     88.0737
   630.5000      2.3565      3.5788      0.9342    -56.2893     47.1689     84.2869
   630.6000      2.3565      3.3700      0.8807    -43.6356     47.6465     80.6149
   630.7000      2.3565      3.1223      0.7604    -28.6228     48.1816     77.3913
   630.8000      2.3561      2.8852      0.7287    -14.2519     48.5857     73.5302
   630.9000      2.3561      2.6896      0.6438     -2.4001     48.8730     70.3812
   631.0000      2.3881      2.5515      0.6138      5.9710     49.0988     69.4533
   631.1000      2.3881      2.4777      0.5972     10.4435     49.4590     69.6335
   631.2000      2.3881      2.4579      0.5909     11.6430     49.8005     70.2476
   631.3000      2.7780      2.4505      0.6304     12.0921     49.5218     72.2853
   631.4000      2.7780      2.4004      0.6232     15.1243     48.2381     75.7611
   631.5000      4.4774      2.3280      0.4961     19.5135     45.9951     81.1103
   631.6000      4.4774      2.3447      0.4502     18.5044     42.7978     89.1399
   631.7000      4.4774      2.4862      0.6118      9.9248     38.4002     96.5440
   631.8000      7.0673      2.6414      0.6918      0.5234     33.1016     98.9020
   631.9000      7.0673      2.7184      0.6907     -4.1482     27.6613     97.7206
   632.0000      8.3430      2.7250      0.7145     -4.5452     22.8253     98.7075
   632.1000      8.3430      2.6698      0.8109     -1.1987     19.2299    102.2146
   632.2000      8.3430      2.5312      0.6525      7.1979     17.0795    104.7142
   632.3000      8.5871      2.3497      0.2422     18.2016     16.0920    104.5976
   632.4000      8.5871      2.2217      0.1733     25.9571     15.6972    104.2477
   632.5000      8.7666      2.1806      0.2038     28.4465     15.5786    107.3598
   632.6000      8.7666      2.1903      0.2264     27.8608     15.7381    112.6379
   632.7000      8.7666      2.2158      0.2533     26.3163     15.8519    116.6838
   632.8000      8.8959      2.2388      0.2506     24.9241     15.8888    119.2967
   632.9000      8.8959      2.2473      0.2800     24.4057     16.1786    119.9902
   633.0000      8.9527      2.2405      0.2635     24.8204     16.2954    119.7005
   633.1000      8.9527      2.2372      0.2496     25.0185     15.9210    118.8504
   633.2000      8.9527      2.2504      0.2962     24.2208     15.5641    113.0498
   633.3000      8.9441      2.2571      0.3189     23.8150     15.3508    104.1674
   633.4000      8.9441      2.2344      0.2425     25.1851     15.1882    100.5208
   633.5000      8.8536      2.2036      0.1817     27.0548     15.1776    103.4599
   633.6000      8.8536      2.1955      0.1986     27.5460     15.1246    108.2018
   633.7000      8.8536      2.2047      0.2351     26.9891     14.9786    112.4898
   633.8000      8.7331      2.2107      0.2216     26.6227     15.2365    114.7831
   633.9000      8.7331      2.2091      0.2307     26.7185     16.0508    111.7601
   634.0000      8.6685      2.1990      0.2591     27.3306     16.8184    103.0064
   634.1000      8.6685      2.1788      0.2551     28.5567     17.0695     94.7848
   634.2000      8.6685      2.1632      0.2225     29.5057     16.8007     93.7607
   634.3000      8.6263      2.1711      0.2297     29.0267     16.1688     97.7522
   634.4000      8.6263      2.1979      0.2601     27.4003     15.5877    100.6478
   634.5000      8.5572      2.2190      0.2858     26.1238     15.3575    101.1848
