~Version Information
VERS.                      2.0: CWLS Log ASCII Standard - VERSION 2.0
WRAP.                       NO: One line per depth step
~Well Information Block
STRT.FT               550.0000: 
STOP.FT              1979.0000: 
STEP.FT                 0.1000: 
NULL.                -999.2500: 
COMP.          Pioneer Natural Resources: COMPANY
WELL.          Flying Horse 12-11 Tr: WELL
FLD.           Purgatoire River: FIELD
LOC.           2459' FNL & 410' FWL: LOCATION
STAT.                 Colorado: PROVINCE
CNTY.               Las Animas: COUNTY
CTRY. USA : Country
SECT. 11 : Section
TOWN. 32S : Township
RANG. 66W : Range
SRVC.                Patterson: SERVICE COMPANY
DATE.          Tue Sep 06 07:09:24 2005: LOG DATE
API.           05 071 08485 00: UNIQUE WELL ID
~Curve Information Block
DEPT.FT            0 000 00 00: Depth
DCAL.in                       : CDL Caliper
RHOB.g/cc                     : CDL Bulk Density
RHOC.g/cc                     : CDL Density Correction
DPOR.pu                       : CDL Density Porosity
GR.GAPI                       : Gamma Ray
NPOR.pu                       : Neutron Porosity
~Parameter Information Block
~A  Depth       DCAL        RHOB        RHOC        DPOR         GR         NPOR    
# ...
  1961.2000      7.9225      2.6476     -0.0523      0.1478     61.2093     19.4874
  1961.3000      7.9417      2.6538      0.0416     -0.2273     67.5384     20.3173
  1961.4000      7.9417      2.6698      0.0554     -1.2025     73.3596     21.3564
  1961.5000      7.9473      2.6661      0.0836     -0.9772     74.0353     21.9927
  1961.6000      7.9473      2.6277      0.1049      1.3524     71.4984     21.8109
  1961.7000      7.9473      2.5783      0.0103      4.3480     69.9608     21.3067
  1961.8000      7.9213      2.5565     -0.0047      5.6637     71.0465     21.3841
  1961.9000      7.9213      2.5567      0.0614      5.6570     73.3432     21.7056
  1962.0000      7.9214      2.5491      0.0181      6.1156     70.5348     21.2002
  1962.1000      7.9214      2.5334      0.0235      7.0639     53.8476     20.3113
  1962.2000      7.9214      2.5235      0.0303      7.6655     27.9328     19.9840
  1962.3000      7.9097      2.5288     -0.0047      7.3464      8.8632     20.3956
  1962.4000      7.9097      2.5583      0.0207      5.5588      1.6141     21.6772
  1962.5000      7.9170      2.5976      0.0822      3.1758      0.1623     23.1981
  1962.6000      7.9170      2.6177      0.0866      1.9605      0.0086     23.9726
  1962.7000      7.9170      2.6197      0.0692      1.8373      0.0000     23.8640
  1962.8000      7.9201      2.6264      0.1132      1.4304   -999.2500     23.5332
  1962.9000      7.9201      2.6444      0.0960      0.3379   -999.2500     23.4615
  1963.0000      7.9210      2.6592      0.1410     -0.5558   -999.2500     22.9493
  1963.1000      7.9210      2.6505      0.1658     -0.0294   -999.2500     21.6921
  1963.2000      7.9210      2.6189      0.1374      1.8846   -999.2500     20.7275
  1963.3000      7.8971      2.5862      0.0900      3.8651   -999.2500     20.8866
  1963.4000      7.8971      2.5735      0.0554      4.6336   -999.2500     21.9453
  1963.5000      7.8513      2.5913      0.0342      3.5587   -999.2500     22.7381
  1963.6000      7.8513      2.6237      0.1036      1.5923   -999.2500     22.4713
  1963.7000      7.8513      2.6403      0.1024      0.5899   -999.2500     21.6541
  1963.8000      7.8362      2.6399      0.0692      0.6134   -999.2500     21.0840
  1963.9000      7.8362      2.6348      0.1452      0.9206   -999.2500     20.7644
  1964.0000      7.8712      2.6186      0.1384      1.9003   -999.2500     21.1653
  1964.1000      7.8712      2.5965      0.0429      3.2440   -999.2500     24.5352
  1964.2000      7.8712      2.5857      0.1167      3.8948   -999.2500     32.6410
  1964.3000      7.8731      2.5802      0.1230      4.2300   -999.2500     42.4516
  1964.4000      7.8731      2.5687      0.0586      4.9295   -999.2500     48.5683
  1964.5000      7.8819      2.5541      0.0651      5.8102   -999.2500     50.6453
  1964.6000      7.8819      2.5490      0.0301      6.1193   -999.2500     51.0419
  1964.7000      7.8819      2.5619      0.1183      5.3380   -999.2500     51.0833
  1964.8000      7.8945      2.5819      0.0915      4.1258   -999.2500     51.0856
  1964.9000      7.8945      2.6030      0.1248      2.8456   -999.2500   -999.2500
  1965.0000      7.9059      2.6220      0.1510      1.6986   -999.2500   -999.2500
  1965.1000      7.9059      2.6239      0.1658      1.5838   -999.2500   -999.2500
  1965.2000      7.9059      2.6095      0.1399      2.4532   -999.2500   -999.2500
  1965.3000      7.8851      2.5911      0.1042      3.5675   -999.2500   -999.2500
  1965.4000      7.8851      2.5678      0.1079      4.9848   -999.2500   -999.2500
  1965.5000      7.8623      2.5388      0.1110      6.7393   -999.2500   -999.2500
  1965.6000      7.8623      2.5180      0.0553      7.9995   -999.2500   -999.2500
  1965.7000      7.8623      2.5201      0.0545      7.8744   -999.2500   -999.2500
  1965.8000      7.8727      2.5383      0.0937      6.7678   -999.2500   -999.2500
  1965.9000      7.8727      2.5487      0.0874      6.1423   -999.2500   -999.2500
  1966.0000      7.9438      2.5408      0.0557      6.6195   -999.2500   -999.2500
  1966.1000      7.9438      2.5284      0.0316      7.3698   -999.2500   -999.2500
  1966.2000      7.9438      2.5266      0.0369      7.4785   -999.2500   -999.2500
  1966.3000      7.9561      2.5241      0.0975      7.6291   -999.2500   -999.2500
  1966.4000      7.9561      2.5079      0.0382      8.6125   -999.2500   -999.2500
  1966.5000      7.9426      2.4962      0.0541      9.3239   -999.2500   -999.2500
  1966.6000      7.9426      2.4926      0.0840      9.5388   -999.2500   -999.2500
  1966.7000      7.9426      2.4721      0.0649     10.7789   -999.2500   -999.2500
  1966.8000      7.9359      2.4373     -0.0058     12.8900   -999.2500   -999.2500
  1966.9000      7.9359      2.4206      0.0321     13.9006   -999.2500   -999.2500
  1967.0000      7.9346      2.4354      0.0362     13.0036   -999.2500   -999.2500
  1967.1000      7.9346      2.4629      0.0992     11.3373   -999.2500   -999.2500
  1967.2000      7.9346      2.4826      0.0852     10.1426   -999.2500   -999.2500
  1967.3000      7.9565      2.4962      0.1010      9.3235   -999.2500   -999.2500
  1967.4000      7.9565      2.5105      0.1147      8.4538   -999.2500   -999.2500
  1967.5000      7.9402      2.5232      0.0678      7.6873   -999.2500   -999.2500
  1967.6000      7.9402      2.5330      0.0501      7.0907   -999.2500   -999.2500
  1967.7000      7.9402      2.5435      0.1106      6.4556   -999.2500   -999.2500
  1967.8000      7.9493      2.5539      0.0875      5.8214   -999.2500   -999.2500
  1967.9000      7.9493      2.5581      0.1227      5.5672   -999.2500   -999.2500
  1968.0000      7.9629      2.5537      0.0381      5.8361   -999.2500   -999.2500
  1968.1000      7.9629      2.5511      0.0871      5.9921   -999.2500   -999.2500
  1968.2000      7.9629      2.5601      0.0704      5.4467   -999.2500   -999.2500
  1968.3000      7.9644      2.5798      0.1139      4.2563   -999.2500   -999.2500
  1968.4000      7.9644      2.5992      0.0994      3.0801   -999.2500   -999.2500
  1968.5000      7.9629      2.6117      0.0890      2.3224   -999.2500   -999.2500
  1968.6000      7.9629      2.6191      0.1250      1.8752   -999.2500   -999.2500
  1968.7000      7.9629      2.6259      0.0892      1.4584   -999.2500   -999.2500
  1968.8000      7.9589      2.6376      0.0973      0.7521   -999.2500   -999.2500
  1968.9000      7.9589      2.6443      0.1531      0.3444   -999.2500   -999.2500
  1969.0000      7.9583      2.6326      0.0850      1.0525   -999.2500   -999.2500
  1969.1000      7.9583      2.6163      0.0646      2.0449   -999.2500   -999.2500
  1969.2000      7.9583      2.6160      0.1082      2.0616   -999.2500   -999.2500
  1969.3000      7.9388      2.6271      0.0886      1.3877   -999.2500   -999.2500
  1969.4000      7.9388      2.6321      0.0945      1.0869   -999.2500   -999.2500
  1969.5000      7.9481      2.6180      0.0716      1.9378   -999.2500   -999.2500
  1969.6000      7.9481      2.5875      0.0342      3.7890   -999.2500   -999.2500
  1969.7000      7.9481      2.5633      0.0673      5.2556   -999.2500   -999.2500
  1969.8000      7.9731      2.5653      0.0598      5.1313   -999.2500   -999.2500
  1969.9000      7.9731      2.5877      0.0724      3.7779   -999.2500   -999.2500
  1970.0000      7.9715      2.6027      0.0898      2.8663   -999.2500   -999.2500
  1970.1000      7.9715      2.5929      0.0949      3.4616   -999.2500   -999.2500
  1970.2000      7.9715      2.5758      0.0343      4.4998   -999.2500   -999.2500
  1970.3000      7.9430      2.5747      0.0952      4.5646   -999.2500   -999.2500
  1970.4000      7.9430      2.5868      0.0945      3.8328   -999.2500   -999.2500
  1970.5000      7.9464      2.6012      0.0849      2.9554   -999.2500   -999.2500
  1970.6000      7.9464      2.6081      0.1152      2.5394   -999.2500   -999.2500
  1970.7000      7.9464      2.5925      0.1477      3.4870   -999.2500   -999.2500
