~Version Information
VERS.                      2.0: CWLS Log ASCII Standard - VERSION 2.0
WRAP.                       NO: One line per depth step
~Well Information Block
STRT.FT               230.0000: 
STOP.FT              1028.0000: 
STEP.FT                 0.2500: 
NULL.                -999.2500: 
COMP.          Pioneer Natural Resources: COMPANY
WELL.              Gough 14-29: WELL
FLD.           Purgatoire River: FIELD
LOC.           1199' FSL & 676' FWL: LOCATION
PROV.                 Colorado: PROVINCE
CNTY.               Las Animas: COUNTRY
SRVC.                Patterson: SERVICE COMPANY
DATE.          Thu Dec 22 16:27:18 2005: LOG DATE
UWI.           05 071 08612 00: UNIQUE WELL ID
~Curve Information Block
DEPT.FT            0 000 00 00: Depth
SN.Ohm-m                      : IEL Short Normal
SP.mV                         : IEL Spontaneous Potential
DIR.Ohm-m                     : IEL Induction Resistivity
GR.GAPI                       : Gamma Ray
~Parameter Information Block
SNDERRM.mmho-m         10.0000: Medium Sonde Error Correction
~A  Depth        SN          SP         DIR          GR     
# ...
   900.0000     22.4096     50.8600     22.4490     83.4202
   900.2500     22.5439     50.7868     22.3968     82.9864
   900.5000     22.6375     50.6818     22.4064     82.5742
   900.7500     22.7223     50.5780     22.4642     82.7205
   901.0000     22.7568     50.5028     22.5355     83.4625
   901.2500     22.7267     50.4656     22.5879     84.0340
   901.5000     22.7072     50.4562     22.6152     84.4226
   901.7500     22.7260     50.4541     22.6396     84.0519
   902.0000     22.7370     50.4441     22.6906     82.2957
   902.2500     22.7348     50.4236     22.7794     80.5183
   902.5000     22.7640     50.4007     22.8939     77.9120
   902.7500     22.8659     50.3861     23.0160     76.8657
   903.0000     23.0319     50.3856     23.1457     76.8258
   903.2500     23.2016     50.3949     23.3055     77.6143
   903.5000     23.3354     50.3995     23.5236     79.3688
   903.7500     23.4559     50.3826     23.8121     80.7572
   904.0000     23.6210     50.3363     24.1557     83.3799
   904.2500     23.8568     50.2682     24.5159     85.6412
   904.5000     24.1283     50.2006     24.8478     89.8156
   904.7500     24.4099     50.1619     25.1190     93.0343
   905.0000     24.6969     50.1754     25.3211     98.2847
   905.2500     24.9553     50.2524     25.4644    101.8521
   905.5000     25.1430     50.3892     25.5673    106.8850
   905.7500     25.2222     50.5685     25.6544    109.7296
   906.0000     25.2002     50.7645     25.7592    112.4081
   906.2500     25.2065     50.9517     25.9162    112.5903
   906.5000     25.4159     51.1143     26.1373    110.1359
   906.7500     25.8534     51.2520     26.3942    107.0467
   907.0000     26.3863     51.3773     26.6266    101.3503
   907.2500     26.8653     51.5079     26.7780     97.4193
   907.5000     27.1729     51.6573     26.8270     91.9235
   907.7500     27.2383     51.8284     26.7865     88.7651
   908.0000     27.1044     52.0145     26.6779     85.2481
   908.2500     26.9209     52.2054     26.5100     84.0021
   908.5000     26.7851     52.3949     26.2828     83.9305
   908.7500     26.6277     52.5830     26.0032     84.7650
   909.0000     26.3542     52.7714     25.6929     86.2488
   909.2500     26.0050     52.9554     25.3779     86.8139
   909.5000     25.6699     53.1222     25.0718     86.6623
   909.7500     25.3416     53.2595     24.7700     86.0279
   910.0000     24.9689     53.3676     24.4615     84.7939
   910.2500     24.5841     53.4595     24.1484     84.1324
   910.5000     24.2583     53.5488     23.8535     83.7586
   910.7500     23.9903     53.6374     23.6090     83.8238
   911.0000     23.7375     53.7144     23.4336     83.7959
   911.2500     23.5152     53.7670     23.3179     83.4934
   911.5000     23.3869     53.7899     23.2281     83.0057
   911.7500     23.3593     53.7875     23.1280     82.9572
   912.0000     23.3418     53.7696     23.0041     83.0243
   912.2500     23.2475     53.7426     22.8725     82.6879
   912.5000     23.1056     53.7018     22.7615     81.3815
   912.7500     23.0265     53.6342     22.6866     80.4043
   913.0000     23.0597     53.5326     22.6427     79.7254
   913.2500     23.1578     53.4059     22.6191     79.9569
   913.5000     23.2509     53.2754     22.6202     80.6907
   913.7500     23.2985     53.1642     22.6704     80.8467
   914.0000     23.3285     53.0915     22.7996     80.1780
   914.2500     23.3909     53.0716     23.0264     79.6315
   914.5000     23.4393     53.1100     23.3497     80.3727
   914.7500     23.4017     53.1998     23.7492     82.4954
   915.0000     23.3255     53.3228     24.1878     86.9027
   915.2500     23.3075     53.4549     24.6091     88.9316
   915.5000     23.3906     53.5733     24.9383     88.3329
   915.7500     23.5591     53.6671     25.1015     85.6704
   916.0000     23.7671     53.7446     25.0703     80.9696
   916.2500     23.9966     53.8317     24.8973     79.2921
   916.5000     24.2886     53.9579     24.7011     80.8336
   916.7500     24.7087     54.1386     24.6085     84.3374
   917.0000     25.2536     54.3648     24.6996     91.2376
   917.2500     25.7934     54.6070     24.9834     95.5698
   917.5000     26.1550     54.8310     25.4024    100.3770
   917.7500     26.2479     55.0112     25.8540    102.4772
   918.0000     26.1288     55.1357     26.2247    104.8034
   918.2500     25.9649     55.2053     26.4331    106.4169
   918.5000     25.8802     55.2343     26.4569    109.8266
   918.7500     25.8235     55.2466     26.3287    113.0982
   919.0000     25.6419     55.2666     26.1056    119.8644
   919.2500     25.2793     55.3077     25.8424    125.8481
   919.5000     24.8497     55.3671     25.5788    137.3522
   919.7500     24.5297     55.4295     25.3379    146.4315
   920.0000     24.3742     55.4772     25.1279    159.9724
   920.2500     24.2582     55.4991     24.9481    166.6216
   920.5000     24.0863     55.4928     24.7931    169.0000
   920.7500     23.9337     55.4623     24.6570    164.7376
   921.0000     23.8515     55.4116     24.5353    152.4430
   921.2500     23.7683     55.3415     24.4286    143.4927
   921.5000     23.6643     55.2484     24.3484    133.4291
   921.7500     23.5804     55.1259     24.3194    129.9136
   922.0000     23.5098     54.9711     24.3731    128.7186
   922.2500     23.4726     54.7897     24.5302    129.7037
   922.5000     23.5435     54.5968     24.7814    132.3418
   922.7500     23.7235     54.4116     25.0838    134.1394
   923.0000     23.9606     54.2502     25.3815    135.5488
   923.2500     24.2708     54.1187     25.6414    134.6520
   923.5000     24.6679     54.0130     25.8703    129.0492
   923.7500     25.0787     53.9220     26.0970    122.3408
   924.0000     25.4122     53.8359     26.3400    109.4473
   924.2500     25.6549     53.7504     26.5911    100.5976
   924.5000     25.9120     53.6675     26.8270     89.4910
   924.7500     26.2608     53.5951     27.0322     84.2320
   925.0000     26.5711     53.5473     27.2094     79.1074
   925.2500     26.6863     53.5419     27.3704     76.7402
   925.5000     26.6957     53.5903     27.5193     73.9252
   925.7500     26.7600     53.6900     27.6430     72.7654
   926.0000     26.8127     53.8255     27.7169     73.0929
   926.2500     26.7161     53.9760     27.7155     74.9599
   926.5000     26.5135     54.1197     27.6233     79.7661
   926.7500     26.2797     54.2365     27.4412     83.8375
   927.0000     25.9515     54.3111     27.1915     90.6295
   927.2500     25.4689     54.3384     26.9129     95.1854
   927.5000     24.9157     54.3230     26.6469    100.8900
   927.7500     24.4743     54.2762     26.4236    103.2696
   928.0000     24.2646     54.2114     26.2575    104.2944
   928.2500     24.2174     54.1417     26.1522    103.4698
   928.5000     24.1829     54.0770     26.1035    100.4762
   928.7500     24.1227     54.0198     26.1012     97.5175
   929.0000     24.1024     53.9628     26.1312     91.9380
   929.2500     24.1630     53.8941     26.1806     87.8098
   929.5000     24.2390     53.8041     26.2397     82.0993
   929.7500     24.2434     53.6869     26.2974     79.2592
   930.0000     24.2446     53.5318     26.3368     76.7568
   930.2500     24.3667     53.3112     26.3421     75.9720
   930.5000     24.5408     52.9865     26.3124     75.6436
   930.7500     24.6294     52.5402     26.2657     75.9375
   931.0000     24.6647     52.0070     26.2291     77.2000
   931.2500     24.7104     51.4652     26.2206     78.6639
   931.5000     24.7079     50.9901     26.2387     82.1023
   931.7500     24.6655     50.6166     26.2644     85.3076
   932.0000     24.7065     50.3405     26.2731     90.8735
   932.2500     24.8451     50.1389     26.2500     94.2820
   932.5000     24.9857     49.9845     26.2048     97.3872
   932.7500     25.1263     49.8496     26.1780     97.5456
   933.0000     25.3934     49.7102     26.2311     95.0747
   933.2500     25.8540     49.5499     26.4199     92.2966
