~Version Information
VERS.                      2.0: CWLS Log ASCII Standard - VERSION 2.0
WRAP.                       NO: One line per depth step
~Well Information Block
STRT.FT                -7.2500: 
STOP.FT              1221.7500: 
STEP.FT                 0.2500: 
NULL.                -999.2500: 
COMP.          Pioneer Natural Resources: COMPANY
WELL.           Tennis 7-12 Tr: WELL
FLD.           Purgatorie River: FIELD
LOC.           1794' FNL & 1563' FEL--: LOCATION
PROV.                       CO: PROVINCE
CNTY.               Las Animas: COUNTRY
SRVC.          Patterson Wireline: SERVICE COMPANY
DATE.          Tue Dec 27 14:16:59 2005: LOG DATE
UWI.           05 071 008635 00: UNIQUE WELL ID
~Curve Information Block
DEPT.FT            0 000 00 00: Depth
CCL.                          : Casing Collar Locator
TT3.usec                      : CBL 3' Travel Time
AMP3.mV                       : CBL 3' Amplitude
GR.GAPI                       : Gamma Ray
~Parameter Information Block
~A  Depth       CCL         TT3         AMP3         GR     
# ...
   327.7500      0.0000    717.1635      6.0994     80.3195
   328.0000      0.0000    722.3610      6.0881     80.7281
   328.2500      0.0000    731.7744      6.0132     79.4252
   328.5000      0.0000    745.1490      5.8661     78.9757
   328.7500      0.0000    762.7686      5.6632     81.0779
   329.0000      0.0000    785.9570      5.4418     85.1029
   329.2500      0.0000    815.6521      5.2424     88.7137
   329.5000      0.0000    849.4521      5.0948     89.9463
   329.7500      0.0000    880.2216      5.0142     88.7204
   330.0000      0.0000    899.0023      4.9962     86.4816
   330.2500      0.0000    900.5465      5.0163     84.7163
   330.5000      0.0000    886.1913      5.0420     84.0041
   330.7500      0.0000    861.6143      5.0494     84.1461
   331.0000      0.0000    833.3227      5.0283     84.5531
   331.2500      0.0000    808.3583      4.9810     84.4202
   331.5000      0.0000    795.1332      4.9225     83.1146
   331.7500      0.0000    800.3801      4.8796     80.7085
   332.0000      0.0000    823.4955      4.8796     77.9198
   332.2500      0.0000    854.7107      4.9317     75.5778
   332.5000      0.0000    880.2413      5.0190     74.3820
   332.7500      0.0000    890.9779      5.1101     74.8127
   333.0000      0.0000    887.8425      5.1788     76.5894
   333.2500      0.0000    879.3199      5.2134     78.2415
   333.5000      0.0000    873.4402      5.2132     77.9523
   333.7500      0.0000    872.1675      5.1805     75.3460
   334.0000      0.0000    873.0225      5.1187     72.1993
   334.2500      0.0000    873.5928      5.0341     70.8882
   334.5000      0.0000    872.4005      4.9335     72.2084
   334.7500      0.0000    867.1103      4.8221     74.9866
   335.0000      0.0000    855.3526      4.7032     77.6293
   335.2500      0.0000    838.1814      4.5806     79.5961
   335.5000      0.0000    820.6012      4.4603     81.3690
   335.7500      0.0000    807.0386      4.3485     83.5215
   336.0000      0.0000    796.5021      4.2477     86.1442
   336.2500      0.0000    783.4427      4.1583     88.9519
   336.5000      0.0000    764.0906      4.0964     91.5822
   336.7500      0.0000    741.3473      4.1095     93.6231
   337.0000      0.0000    723.2441      4.2450     94.4136
   337.2500      0.0000    717.3347      4.4753     93.1927
   337.5000      0.0000    726.3450      4.6808     89.8127
   337.7500      0.0000    748.0285      4.7512     85.1861
   338.0000      0.0000    777.7863      4.6922     80.7682
   338.2500      0.0000    810.5438      4.5964     77.6908
   338.5000      0.0000    841.7656      4.5329     76.5295
   338.7500      2.0000    870.1191      4.5014     77.6528
   339.0000      0.0000    898.7563      4.4757     81.4999
   339.2500      0.0000    930.0691      4.4606     88.2753
   339.5000      0.0000    957.7766      4.5047     97.0098
   339.7500      0.0000    966.9214      4.6505    105.0796
   340.0000      0.0000    945.1426      4.8576    109.6880
   340.2500      0.0000    896.1707      4.9954    110.3964
   340.5000      0.0000    841.0052      4.9527    109.5361
   340.7500      0.0000    803.0463      4.7457    109.7323
   341.0000      0.0000    790.7665      4.4904    111.5018
   341.2500      0.0000    794.3977      4.2859    113.2573
   341.5000      0.0000    797.5723      4.1550    113.0214
   341.7500      0.0000    791.1323      4.0714    110.2424
   342.0000      0.0000    778.0928      4.0056    106.5396
   342.2500      0.0000    768.3797      3.9438    104.5146
   342.5000      0.0000    769.2787      3.8847    105.2642
   342.7500      0.0000    780.4343      3.8325    107.2185
   343.0000      0.0000    796.9635      3.7909    107.9342
   343.2500      0.0000    814.8029      3.7617    106.7193
   343.5000      0.0000    831.5630      3.7455    104.9530
   343.7500      0.0000    844.2595      3.7456    104.0785
   344.0000      0.0000    848.9731      3.7698    103.9090
   344.2500      0.0000    842.9792      3.8271    103.0203
   344.5000      0.0000    826.7335      3.9215    100.2796
   344.7500      0.0000    804.6170      4.0491     95.4909
   345.0000      0.0000    783.2458      4.1987     88.7997
   345.2500      0.0000    767.3752      4.3480     80.3671
   345.5000      0.0000    757.1887      4.4630     71.0559
   345.7500      0.0000    750.0795      4.5128     62.8802
   346.0000      0.0000    744.1711      4.4925     57.9294
   346.2500      0.0000    739.7814      4.4305     56.5945
   346.5000      0.0000    739.0654      4.3686     57.1546
   346.7500      0.0000    745.8859      4.3330     57.4097
   347.0000      0.0000    764.6143      4.3242     56.8199
   347.2500      0.0000    795.6522      4.3273     57.1582
   347.5000      0.0000    830.5762      4.3284     61.1029
   347.7500      0.0000    854.5795      4.3181     69.8161
   348.0000      0.0000    857.3812      4.2879     81.5120
   348.2500      0.0000    841.0121      4.2299     92.3376
   348.5000      0.0000    814.0303      4.1407     98.8401
   348.7500      0.0000    779.2098      4.0277     99.9880
   349.0000      0.0000    730.4773      3.9117     97.4422
   349.2500      0.0000    662.7540      3.8224     94.1215
   349.5000      0.0000    582.5195      3.7867     92.0585
   349.7500      0.0000    506.1605      3.8141     91.2706
   350.0000      0.0000    448.0135      3.8883     90.7530
   350.2500      0.0000    411.8508      3.9745     90.2962
   350.5000      0.0000    392.8057      4.0434     90.7085
   350.7500      0.0000    383.9297      4.0929     92.2886
   351.0000      0.0000    380.0721      4.1440     93.9578
   351.2500      0.0000    378.3639      4.2166     94.3283
   351.5000      0.0000    377.4917      4.3147     93.1797
   351.7500      0.0000    376.9856      4.4357     91.5570
   352.0000      0.0000    376.6826      4.5799     90.5893
   352.2500      0.0000    376.4942      4.7409     90.4080
   352.5000      0.0000    376.3428      4.8955     90.2339
   352.7500      0.0000    376.2003      5.0164     89.3283
   353.0000      0.0000    376.0975      5.0959     87.6966
   353.2500      0.0000    376.0718      5.1511     86.0811
   353.5000      0.0000    376.1114      5.2054     85.5506
   353.7500      0.0000    376.1767      5.2657     86.8315
   354.0000      0.0000    376.3232      5.3180     89.7428
   354.2500      0.0000    377.0700      5.3457     93.5704
   354.5000      0.0000    380.2544      5.3525     98.0049
   354.7500      0.0000    390.4309      5.3636    103.1066
   355.0000      0.0000    415.5969      5.3978    108.2957
   355.2500      0.0000    464.4914      5.4414    112.0182
   355.5000      0.0000    539.4132      5.4557    112.5867
   355.7500      0.0000    630.1578      5.4127    109.1439
   356.0000      0.0000    717.5389      5.3238    102.2115
   356.2500      0.0000    785.5325      5.2334     93.8253
   356.5000      0.0000    829.7900      5.1873     86.7503
   356.7500      0.0000    853.7881      5.2009     82.8432
   357.0000      0.0000    858.8219      5.2512     81.9174
   357.2500      0.0000    840.1049      5.3014     82.3318
   357.5000      0.0000    792.5298      5.3364     82.6814
   357.7500      0.0000    718.2983      5.3715     82.6848
   358.0000      0.0000    628.5283      5.4285     82.4435
   358.2500      0.0000    539.2438      5.5096     81.6010
   358.5000      0.0000    465.2057      5.6005     79.8414
   358.7500      0.0000    413.8228      5.6942     77.6737
   359.0000      0.0000    382.9923      5.7988     75.8830
   359.2500      0.0000    365.2724      5.9196     74.4186
   359.5000      0.0000    354.1197      6.0429     72.5334
   359.7500      0.0000    346.5150      6.1432     70.1004
   360.0000      0.0000    341.6452      6.2068     68.2334
   360.2500      0.0000    339.0007      6.2415     68.2438
   360.5000      0.0000    337.8281      6.2653     70.1883
   360.7500      0.0000    337.3902      6.2901     72.6945
   361.0000      0.0000    337.2462      6.3177     74.1419
