~Version Information
VERS.                      2.0: CWLS Log ASCII Standard - VERSION 2.0
WRAP.                       NO: One line per depth step
~Well Information Block
STRT.FT                -7.0000: 
STOP.FT              1155.0000: 
STEP.FT                 0.2500: 
NULL.                -999.2500: 
COMP.          Pioneer Natural Resources: COMPANY
WELL.          Whitecoat 14-36: WELL
FLD.           Purgatorie River: FIELD
LOC.           606' FSL & 260' FWL--: LOCATION
PROV.                       CO: PROVINCE
CNTY.               Las Animas: COUNTRY
SRVC.          Patterson Wireline: SERVICE COMPANY
DATE.          Mon Dec 12 12:56:49 2005: LOG DATE
UWI.           08 071 08593 00: UNIQUE WELL ID
~Curve Information Block
DEPT.FT            0 000 00 00: Depth
CCL.                          : Casing Collar Locator
TT3.usec                      : CBL 3' Travel Time
AMP3.mV                       : CBL 3' Amplitude
GR.GAPI                       : Gamma Ray
~Parameter Information Block
~A  Depth       CCL         TT3         AMP3         GR     
# ...
  1065.0000      0.0000    569.9233      3.5998     74.8550
  1065.2500      0.0000    549.9918      3.5505     76.2273
  1065.5000      0.0000    544.3289      3.5591     74.5859
  1065.7500      0.0000    557.4581      3.6098     70.0831
  1066.0000      0.0000    585.3190      3.6902     64.3362
  1066.2500      0.0000    617.0421      3.7894     59.2083
  1066.5000      0.0000    641.2065      3.8850     55.7818
  1066.7500      0.0000    651.7169      3.9452     54.3069
  1067.0000      0.0000    649.9170      3.9473     54.6868
  1067.2500      0.0000    643.0744      3.8944     56.9448
  1067.5000      0.0000    639.9269      3.8129     61.2956
  1067.7500      0.0000    644.8856      3.7366     67.5852
  1068.0000      0.0000    655.5437      3.6905     74.6537
  1068.2500      0.0000    666.2000      3.6806     80.5890
  1068.5000      0.0000    673.1740      3.6920     83.7515
  1068.7500      0.0000    676.3691      3.7002     83.5115
  1069.0000      0.0000    677.3865      3.6879     80.3220
  1069.2500      0.0000    677.5995      3.6535     75.5959
  1069.5000      0.0000    677.6409      3.6068     71.3192
  1069.7500      0.0000    677.6522      3.5580     68.9890
  1070.0000      0.0000    677.4018      3.5142     68.6096
  1070.2500      0.0000    675.9783      3.4851     68.9975
  1070.5000      0.0000    671.0938      3.4833     69.0123
  1070.7500      0.0000    658.9044      3.5138     68.1856
  1071.0000      0.0000    635.7864      3.5630     66.5304
  1071.2500      0.0000    602.0209      3.6072     64.5152
  1071.5000      0.0000    564.0529      3.6341     63.2111
  1071.7500      0.0000    531.9142      3.6541     63.7714
  1072.0000      0.0000    513.9239      3.6897     66.4708
  1072.2500      0.0000    513.9547      3.7546     70.3361
  1072.5000      0.0000    531.8986      3.8399     73.6273
  1072.7500      0.0000    563.7460      3.9163     74.7995
  1073.0000      0.0000    601.2173      3.9496     73.4493
  1073.2500      0.0000    634.4529      3.9222     70.4956
  1073.5000      0.0000    657.1760      3.8450     67.3271
  1073.7500      0.0000    669.1531      3.7524     64.9028
  1074.0000      0.0000    673.9218      3.6869     63.6918
  1074.2500      0.0000    675.1194      3.6808     64.0239
  1074.5000      0.0000    674.6169      3.7450     66.0078
  1074.7500      0.0000    672.4982      3.8634     69.0650
  1075.0000      0.0000    667.8110      3.9982     72.0181
  1075.2500      0.0000    659.9017      4.1039     74.1154
  1075.5000      0.0000    650.1373      4.1458     75.7193
  1075.7500      0.0000    642.3900      4.1148     77.5265
  1076.0000      0.0000    640.7827      4.0316     79.4060
  1076.2500      0.0000    646.2473      3.9361     80.2976
  1076.5000      0.0000    655.4820      3.8672     78.9033
  1076.7500      0.0000    663.1857      3.8449     74.6063
  1077.0000      0.0000    664.5345      3.8646     68.3593
  1077.2500      0.0000    655.9957      3.9012     62.5038
  1077.5000      0.0000    636.3777      3.9186     59.0099
  1077.7500      0.0000    609.9251      3.8815     57.9628
  1078.0000      0.0000    587.7799      3.7687     58.1694
  1078.2500      0.0000    582.3950      3.5846     58.9614
  1078.5000      0.0000    597.6382      3.3593     60.8151
  1078.7500      0.0000    625.4993      3.1285     64.1813
  1079.0000      0.0000    653.8579      2.9127     68.2053
  1079.2500      0.0000    675.9427      2.7273     71.0620
  1079.5000      0.0000    691.5887      2.6137     71.6076
  1079.7500      0.0000    702.8820      2.6246     70.4139
  1080.0000      0.0000    711.6789      2.7593     68.9577
  1080.2500      2.0000    719.6455      2.9418     67.9880
  1080.5000      0.0000    727.4452      3.0828     66.9966
  1080.7500      0.0000    733.4532      3.1437     65.2453
  1081.0000      0.0000    734.7792      3.1392     62.9752
  1081.2500      0.0000    730.2339      3.1088     61.3568
  1081.5000      0.0000    721.7185      3.0930     61.2933
  1081.7500      0.0000    712.2631      3.1084     62.6841
  1082.0000      0.0000    702.4812      3.1331     65.0920
  1082.2500      0.0000    689.2059      3.1415     68.5502
  1082.5000      0.0000    668.8027      3.1537     73.0158
  1082.7500      0.0000    643.2589      3.2207     77.5631
  1083.0000      0.0000    622.1929      3.3576     81.0998
  1083.2500      0.0000    616.0451      3.5195     83.6272
  1083.5000      0.0000    626.4351      3.6508     85.9395
  1083.7500      0.0000    645.0025      3.7374     88.1933
  1084.0000      0.0000    661.5794      3.8047     89.3853
  1084.2500      0.0000    671.5416      3.8816     88.3266
  1084.5000      0.0000    676.0027      3.9773     84.9328
  1084.7500      0.0000    678.2134      4.0816     80.5189
  1085.0000      0.0000    681.1319      4.1740     76.8615
  1085.2500      0.0000    686.8564      4.2306     74.9297
  1085.5000      0.0000    696.4060      4.2314     74.3138
  1085.7500      0.0000    709.3400      4.1696     73.6936
  1086.0000      0.0000    723.8062      4.0605     72.0622
  1086.2500      0.0000    737.3809      3.9419     69.8397
  1086.5000      0.0000    748.0797      3.8604     68.6606
  1086.7500      0.0000    754.4557      3.8469     69.7596
  1087.0000      0.0000    754.8556      3.8992     72.6426
  1087.2500      0.0000    747.4083      3.9831     75.6682
  1087.5000      0.0000    731.5012      4.0523     77.7581
  1087.7500      0.0000    708.5162      4.0734     79.0043
  1088.0000      0.0000    679.9904      4.0388     79.7055
  1088.2500      0.0000    645.9536      3.9617     79.6082
  1088.5000      0.0000    607.1164      3.8617     78.4626
  1088.7500      0.0000    568.5908      3.7571     76.8969
  1089.0000      0.0000    539.4219      3.6643     76.3468
  1089.2500      0.0000    527.3906      3.5962     78.1256
  1089.5000      0.0000    533.8101      3.5565     82.4387
  1089.7500      0.0000    551.9578      3.5386     87.8902
  1090.0000      0.0000    570.7185      3.5309     91.9160
  1090.2500      0.0000    582.8241      3.5229     92.4294
  1090.5000      0.0000    590.8485      3.5116     89.5096
  1090.7500      0.0000    602.9737      3.5045     85.2967
  1091.0000      0.0000    622.5172      3.5143     82.2021
  1091.2500      0.0000    644.0387      3.5480     81.3614
  1091.5000      0.0000    659.3015      3.6001     82.3769
  1091.7500      0.0000    664.1898      3.6581     83.9612
  1092.0000      0.0000    660.2249      3.7154     84.9151
  1092.2500      0.0000    652.2084      3.7748     84.9771
  1092.5000      0.0000    644.2474      3.8424     84.9082
  1092.7500      0.0000    635.6777      3.9163     85.6254
  1093.0000      0.0000    621.0721      3.9834     87.3089
  1093.2500      0.0000    596.3188      4.0258     89.5086
  1093.5000      0.0000    564.5132      4.0332     91.9346
  1093.7500      0.0000    534.2707      4.0082     94.6665
  1094.0000      0.0000    512.6356      3.9618     97.4025
  1094.2500      0.0000    500.8199      3.9064     98.9723
  1094.5000      0.0000    495.8434      3.8519     98.0805
  1094.7500      0.0000    494.2037      3.8047     94.4865
  1095.0000      0.0000    493.7447      3.7685     89.2313
  1095.2500      0.0000    493.5833      3.7449     83.8793
  1095.5000      0.0000    493.4729      3.7353     79.7248
  1095.7500      0.0000    493.3991      3.7383     77.5091
  1096.0000      0.0000    493.3915      3.7489     77.3949
  1096.2500      0.0000    493.4587      3.7602     78.8171
  1096.5000      0.0000    493.5760      3.7689     80.3549
  1096.7500      0.0000    493.7056      3.7772     80.0937
  1097.0000      0.0000    493.8013      3.7902     76.6638
  1097.2500      0.0000    493.8020      3.8126     70.4120
  1097.5000      0.0000    493.6779      3.8467     63.5966
  1097.7500      0.0000    493.5745      3.8922     58.9813
  1098.0000      0.0000    494.0169      3.9461     57.8068
  1098.2500      0.0000    495.9570      4.0014     59.0549
