~Version Information
VERS.                      2.0: CWLS Log ASCII Standard - VERSION 2.0
WRAP.                       NO: One line per depth step
~Well Information Block
STRT.FT                 7.7500: 
STOP.FT              2101.0000: 
STEP.FT                 0.2500: 
NULL.                -999.2500: 
COMP.          Pioneer Natural Resources: COMPANY
WELL.          Gunslinger 13-24: WELL
FLD.           Purgatoire River: FIELD
LOC.           1968' FSL & 633' FWL: LOCATION
PROV.                 Colorado: PROVINCE
CNTY.               Las Animas: COUNTRY
SRVC.                Patterson: SERVICE COMPANY
DATE.          Mon Aug 15 11:00:02 2005: LOG DATE
UWI.           05 071 08442 00: UNIQUE WELL ID
~Curve Information Block
DEPT.FT            0 000 00 00: Depth
GR.GAPI                       : Gamma Ray
CCL.                          : Casing Collar Locator
TT3.usec                      : CBL 3' Travel Time
AMP3.mV                       : CBL 3' Amplitude
~Parameter Information Block
~A  Depth        GR         CCL         TT3         AMP3    
# ...
   677.7500    119.4972      0.0000    272.2117     49.3426
   678.0000    119.3705      0.0000    269.0319     48.8862
   678.2500    118.7518      0.0000    265.3968     48.8356
   678.5000    117.4636      0.0000    262.8997     48.8720
   678.7500    116.4805      0.0000    261.9464     48.8191
   679.0000    117.6789     -2.3914    262.4937     48.6085
   679.2500    122.3262     -2.5319    264.6741     48.2600
   679.5000    129.5614      0.0000    268.4665     47.9874
   679.7500    136.8217      0.0000    272.7927     48.3485
   680.0000    141.9952      0.0000    275.3718     50.0973
   680.2500    144.6642      0.0000    274.1909     53.5679
   680.5000    145.1875      0.0000    269.3625     58.1671
   680.7500    143.4980      0.0000    263.1192     62.6834
   681.0000    139.2897      0.0000    257.8980     66.1186
   681.2500    132.8950      0.0000    254.7273     68.1562
   681.5000    125.5885      0.0000    253.2737     69.0247
   681.7500    119.1517      0.0000    252.7724     69.1617
   682.0000    115.0375      0.0000    252.6628     68.9680
   682.2500    113.6732      0.0000    252.6799     68.6954
   682.5000    114.4789      0.0000    252.7277     68.4426
   682.7500    116.4663      0.0000    252.7740     68.2085
   683.0000    118.7216      0.0000    252.8075     67.9539
   683.2500    120.5923      0.0000    252.8280     67.6423
   683.5000    121.8993      0.0000    252.8391     67.2579
   683.7500    122.9075      0.0000    252.8442     66.8018
   684.0000    123.5959      0.0000    252.8454     66.2874
   684.2500    123.1262      0.0000    252.8436     65.7300
   684.5000    120.7820      0.0000    252.8409     65.1312
   684.7500    117.4922      0.0000    252.8409     64.4837
   685.0000    115.6757      0.0000    252.8495     63.8130
   685.2500    117.1660      0.0000    252.8724     63.1985
   685.5000    121.5216      0.0000    252.9104     62.7268
   685.7500    126.5104      0.0000    252.9567     62.4206
   686.0000    129.9638      0.0000    253.0008     62.2303
   686.2500    131.0202      0.0000    253.0347     62.0999
   686.5000    129.9162      0.0000    253.0527     62.0403
   686.7500    127.2409      0.0000    253.0496     62.1414
   687.0000    123.7314      0.0000    253.0233     62.5094
   687.2500    120.3977      0.0000    252.9766     63.1814
   687.5000    118.3352      0.0000    252.9153     64.0985
   687.7500    118.4535      0.0000    252.8460     65.1614
   688.0000    121.3421      0.0000    252.7775     66.3052
   688.2500    126.7684      0.0000    252.7200     67.5163
   688.5000    133.1121      0.0000    252.6816     68.7847
   688.7500    137.9864      0.0000    252.6652     70.0509
   689.0000    139.8685      0.0000    252.6683     71.2143
   689.2500    138.9919      0.0000    252.6832     72.1974
   689.5000    136.7998      0.0000    252.6981     72.9915
   689.7500    134.8141      0.0000    252.7015     73.6275
   690.0000    133.7813      0.0000    252.6899     74.1157
   690.2500    133.4359      0.0000    252.6689     74.4343
   690.5000    132.9817      0.0000    252.6474     74.5728
   690.7500    131.9386      0.0000    252.6305     74.5641
   691.0000    130.6307      0.0000    252.6160     74.4662
   691.2500    129.8951      0.0000    252.5989     74.3232
   691.5000    130.3497      0.0000    252.5789     74.1456
   691.7500    131.9152      0.0000    252.5644     73.9203
   692.0000    133.8702      0.0000    252.5677     73.6354
   692.2500    135.2108      0.0000    252.5958     73.2930
   692.5000    135.1159      0.0000    252.6447     72.8976
   692.7500    133.3671      0.0000    252.7007     72.4312
   693.0000    130.5241      0.0000    252.7497     71.8474
   693.2500    127.6811      0.0000    252.7863     71.1039
   693.5000    125.7103      0.0000    252.8161     70.2083
   693.7500    124.3751      0.0000    252.8467     69.2267
   694.0000    122.3609      0.0000    252.8800     68.2454
   694.2500    118.5707      0.0000    252.9105     67.3252
   694.5000    113.3982      0.0000    252.9326     66.4994
   694.7500    108.6791      0.0000    252.9463     65.8083
   695.0000    106.4867      0.0000    252.9564     65.3099
   695.2500    107.7560      0.0000    252.9674     65.0373
   695.5000    111.6189      0.0000    252.9826     64.9506
   695.7500    116.0299      0.0000    253.0039     64.9502
   696.0000    119.3553      0.0000    253.0298     64.9466
   696.2500    121.5010      0.0000    253.0532     64.9174
   696.5000    123.4808      0.0000    253.0660     64.9104
   696.7500    125.9166      0.0000    253.0646     64.9969
   697.0000    128.1009      0.0000    253.0510     65.2177
   697.2500    128.5976      0.0000    253.0287     65.5592
   697.5000    126.7000      0.0000    253.0004     65.9742
   697.7500    123.1775      0.0000    252.9699     66.4169
   698.0000    119.6107      0.0000    252.9433     66.8520
   698.2500    117.0932      0.0000    252.9274     67.2415
   698.5000    115.6005      0.0000    252.9267     67.5416
   698.7500    114.4859      0.0000    252.9424     67.7252
   699.0000    113.3749      0.0000    252.9724     67.7978
   699.2500    112.4940      0.0000    253.0121     67.7887
   699.5000    112.2477      0.0000    253.0530     67.7289
   699.7500    112.7780      0.0000    253.0845     67.6404
   700.0000    114.0172      0.0000    253.0996     67.5364
   700.2500    115.8003      0.0000    253.0990     67.4263
   700.5000    117.7850      0.0000    253.0903     67.3185
   700.7500    119.7254      0.0000    253.0812     67.2221
   701.0000    122.0454      0.0000    253.0757     67.1442
   701.2500    125.7107      0.0000    253.0752     67.0843
   701.5000    131.3010      0.0000    253.0804     67.0294
   701.7500    138.3511      0.0000    253.0917     66.9556
   702.0000    145.5557      0.0000    253.1077     66.8401
   702.2500    151.4195      0.0000    253.1276     66.6740
   702.5000    154.6505      0.0000    253.1515     66.4666
   702.7500    154.2020      0.0000    253.1785     66.2416
   703.0000    149.6538      0.0000    253.2042     66.0270
   703.2500    142.0662      0.0000    253.2221     65.8441
   703.5000    133.9738      0.0000    253.2279     65.7024
   703.7500    127.7987      0.0000    253.2225     65.6003
   704.0000    124.1705      0.0000    253.2124     65.5261
   704.2500    121.9131      0.0000    253.2062     65.4599
   704.5000    119.5767      0.0000    253.2096     65.3816
   704.7500    116.9904      0.0000    253.2219     65.2803
   705.0000    115.4210      0.0000    253.2394     65.1547
   705.2500    116.2098      0.0000    253.2603     65.0061
   705.5000    119.4032      0.0000    253.2845     64.8339
   705.7500    123.7715      0.0000    253.3108     64.6383
   706.0000    127.7622      0.0000    253.3348     64.4256
   706.2500    130.0873      0.0000    253.3509     64.2115
   706.5000    129.7363      0.0000    253.3561     64.0205
   706.7500    126.2161      0.0000    253.3507     63.8769
   707.0000    120.2432      0.0000    253.3383     63.7910
   707.2500    114.0160      0.0000    253.3236     63.7541
   707.5000    110.2738      0.0000    253.3101     63.7453
   707.7500    110.6557      0.0000    253.2991     63.7414
   708.0000    114.8330      0.0000    253.2894     63.7188
   708.2500    121.3343      0.0000    253.2788     63.6569
   708.5000    128.9923      0.0000    253.2670     63.5479
   708.7500    137.1716      0.0000    253.2570     63.4026
   709.0000    144.8796      0.0000    253.2528     63.2411
   709.2500    150.5355      0.0000    253.2543     63.0781
   709.5000    152.9225      0.0000    253.2580     62.9168
   709.7500    152.0357      0.0000    253.2607     62.7555
   710.0000    148.9559      0.0000    253.2620     62.5944
   710.2500    145.0903      0.0000    253.2617     62.4406
   710.5000    141.2554      0.0000    253.2565     62.3154
   710.7500    137.0935      0.0000    253.2408     62.2538
   711.0000    131.6214      0.0000    253.2094     62.2899
