~Version Information
VERS.                      2.0: CWLS Log ASCII Standard - VERSION 2.0
WRAP.                       NO: One line per depth step
~Well Information Block
STRT.FT               547.0000: 
STOP.FT              1685.5000: 
STEP.FT                 0.1000: 
NULL.                -999.2500: 
COMP.          Pioneer Natural Resources: COMPANY
WELL.           Pedri 42-33 Tr: WELL
FLD.           Purgatorie River: FIELD
LOC.           1933' FNL & 662' FEL: LOCATION
PROV.                 Colorado: PROVINCE
CNTY.               Las Animas: COUNTRY
SRVC.                Patterson: SERVICE COMPANY
DATE.          Mon Dec 19 13:36:44 2005: LOG DATE
UWI.                          : UNIQUE WELL ID
~Curve Information Block
DEPT.FT            0 000 00 00: Depth
DCAL.in                       : CDL Caliper
RHOB.g/cc                     : CDL Bulk Density
RHOC.g/cc                     : CDL Density Correction
DPOR.pu                       : CDL Density Porosity
GR.GAPI                       : Gamma Ray
~Parameter Information Block
~A  Depth       DCAL        RHOB        RHOC        DPOR         GR     
# ...
  1521.4000      8.0370      2.5574      0.0710      5.6115    109.8826
  1521.5000      8.0260      2.5547      0.0660      5.7768    107.4603
  1521.6000      8.0260      2.5555      0.0673      5.7273    106.9317
  1521.7000      8.0260      2.5520      0.0731      5.9371    108.6057
  1521.8000      8.0182      2.5380      0.0216      6.7863    110.3441
  1521.9000      8.0182      2.5244      0.0498      7.6110    109.3666
  1522.0000      8.0277      2.5183      0.0792      7.9848    106.3579
  1522.1000      8.0277      2.5126      0.0477      8.3248    103.4077
  1522.2000      8.0277      2.5007      0.1011      9.0472    102.0321
  1522.3000      8.0422      2.4843      0.0199     10.0398    103.9200
  1522.4000      8.0422      2.4773      0.0110     10.4641    107.5490
  1522.5000      8.0717      2.4853      0.0593      9.9802    109.6492
  1522.6000      8.0717      2.5012      0.0309      9.0154    111.4446
  1522.7000      8.0717      2.5133      0.1409      8.2876    116.5519
  1522.8000      8.0610      2.5092      0.1061      8.5332    123.2847
  1522.9000      8.0610      2.5039      0.0516      8.8518    129.0683
  1523.0000      7.9951      2.5262      0.0226      7.5042    133.9408
  1523.1000      7.9951      2.5733      0.0892      4.6470    136.0865
  1523.2000      7.9951      2.6147      0.1202      2.1368    137.3523
  1523.3000      7.9509      2.6334      0.1332      1.0082    140.9891
  1523.4000      7.9509      2.6403      0.0828      0.5889    143.0423
  1523.5000      7.9683      2.6456      0.1425      0.2665    142.7112
  1523.6000      7.9683      2.6398      0.0844      0.6205    142.7364
  1523.7000      7.9683      2.6189      0.0843      1.8856    139.7682
  1523.8000      8.0065      2.5963      0.0422      3.2521    133.7458
  1523.9000      8.0065      2.5884      0.0461      3.7325    129.9565
  1524.0000      7.9863      2.5985      0.0444      3.1204    129.6893
  1524.1000      7.9863      2.6107      0.0850      2.3810    131.4359
  1524.2000      7.9863      2.6021      0.0941      2.9060    133.7532
  1524.3000      8.0076      2.5750      0.0531      4.5454    135.5411
  1524.4000      8.0076      2.5550      0.0561      5.7565    135.8587
  1524.5000      8.0019      2.5511      0.0430      5.9917    133.1298
  1524.6000      8.0019      2.5530      0.0599      5.8767    130.2752
  1524.7000      8.0019      2.5530      0.0735      5.8759    131.4661
  1524.8000      8.0019      2.5526      0.0478      5.9051    134.3713
  1524.9000      8.0019      2.5560      0.0355      5.6988    135.2052
  1525.0000      8.0094      2.5656      0.0503      5.1129    133.6130
  1525.1000      8.0094      2.5835      0.0447      4.0314    130.9496
  1525.2000      8.0094      2.6001      0.0935      3.0229    129.5116
  1525.3000      7.9983      2.5995      0.0789      3.0614    131.0356
  1525.4000      7.9983      2.5821      0.0487      4.1122    134.3657
  1525.5000      8.0073      2.5554      0.0621      5.7313    137.0282
  1525.6000      8.0073      2.5294      0.0073      7.3069    138.1544
  1525.7000      8.0073      2.5248      0.0106      7.5884    136.9248
  1525.8000      8.0382      2.5492      0.0433      6.1117    134.8492
  1525.9000      8.0382      2.5862      0.0781      3.8669    133.7676
  1526.0000      8.0358      2.6188      0.0617      1.8906    130.7711
  1526.1000      8.0358      2.6443      0.0213      0.3464    124.7289
  1526.2000      8.0358      2.6593      0.0858     -0.5609    119.4240
  1526.3000      8.0244      2.6584      0.0693     -0.5106    117.5458
  1526.4000      8.0244      2.6570      0.0878     -0.4236    117.9687
  1526.5000      8.0633      2.6693      0.1114     -1.1721    117.7267
  1526.6000      8.0633      2.6782      0.1356     -1.7109    115.8362
  1526.7000      8.0633      2.6635      0.1018     -0.8207    113.3811
  1526.8000      7.9387      2.6366     -0.0202      0.8143    113.1924
  1526.9000      7.9387      2.6198     -0.0098      1.8281    116.1077
  1527.0000      7.8108      2.6258     -0.0256      1.4653    117.8702
  1527.1000      7.8108      2.6568      0.0561     -0.4144    115.3507
  1527.2000      7.8108      2.6884      0.1631     -2.3294    111.6455
  1527.3000      7.8879      2.6830      0.1673     -2.0002    112.3293
  1527.4000      7.8879      2.6407      0.1065      0.5664    117.4528
  1527.5000      7.9169      2.6047      0.0180      2.7475    121.0858
  1527.6000      7.9169      2.5987      0.0780      3.1119    121.5626
  1527.7000      7.9169      2.5960      0.0722      3.2709    122.8199
  1527.8000      7.9867      2.5705      0.0584      4.8170    127.3631
  1527.9000      7.9867      2.5291      0.0452      7.3285    134.6843
  1528.0000      8.0398      2.4947      0.0056      9.4131    140.9374
  1528.1000      8.0398      2.4879      0.0036      9.8213    143.6648
  1528.2000      8.0398      2.5133      0.0922      8.2865    143.6754
  1528.3000      8.0411      2.5578      0.1460      5.5875    142.7710
  1528.4000      8.0411      2.6087      0.1866      2.5040    142.8424
  1528.5000      8.0993      2.6548      0.2377     -0.2892    145.9382
  1528.6000      8.0993      2.6757      0.2896     -1.5601    152.9548
  1528.7000      8.0993      2.6655      0.2139     -0.9395    158.8882
  1528.8000      8.0948      2.6459      0.1779      0.2484    159.1862
  1528.9000      8.0948      2.6315      0.1465      1.1233    154.7526
  1529.0000      8.0584      2.6164      0.1187      2.0355    148.5644
  1529.1000      8.0584      2.5945      0.0488      3.3663    144.9329
  1529.2000      8.0584      2.5726      0.0080      4.6924    146.1352
  1529.3000      8.0563      2.5642      0.0187      5.1999    149.5125
  1529.4000      8.0563      2.5655      0.0533      5.1190    151.7605
  1529.5000      8.0466      2.5570      0.0705      5.6349    151.2174
  1529.6000      8.0466      2.5412     -0.0312      6.5910    148.0966
  1529.7000      8.0466      2.5369      0.0097      6.8535    144.4374
  1529.8000      8.0436      2.5419      0.0533      6.5532    141.3970
  1529.9000      8.0436      2.5504      0.0100      6.0342    139.7572
  1530.0000      8.0780      2.5664      0.0462      5.0694    140.0737
  1530.1000      8.0780      2.5787      0.0764      4.3183    140.1880
  1530.2000      8.0780      2.5750      0.0406      4.5464    136.4836
  1530.3000      8.0707      2.5647      0.0305      5.1676    131.0099
  1530.4000      8.0707      2.5568      0.0393      5.6474    128.4929
  1530.5000      8.0128      2.5501      0.0347      6.0521    130.0023
  1530.6000      8.0128      2.5515      0.0552      5.9718    134.5579
  1530.7000      8.0128      2.5620      0.0571      5.3345    138.6693
  1530.8000      8.0223      2.5724      0.0546      4.7014    139.5947
  1530.9000      8.0223      2.5800      0.0684      4.2435    138.9503
  1531.0000      8.0262      2.5875      0.0525      3.7880    137.9345
  1531.1000      8.0262      2.5987      0.0689      3.1115    136.0576
  1531.2000      8.0262      2.6165      0.0985      2.0320    133.8618
  1531.3000      8.0157      2.6390      0.1205      0.6669    131.3703
  1531.4000      8.0157      2.6511      0.1229     -0.0675    127.7328
  1531.5000      7.9916      2.6407      0.0853      0.5662    123.8727
  1531.6000      7.9916      2.6185      0.0524      1.9070    121.0008
  1531.7000      7.9916      2.5997      0.0276      3.0472    118.1853
  1531.8000      7.9757      2.5906      0.0741      3.6007    113.5692
  1531.9000      7.9757      2.5934      0.0144      3.4297    108.8809
  1532.0000      7.9781      2.6038      0.0332      2.7988    108.7229
  1532.1000      7.9781      2.6112      0.0154      2.3510    109.8163
  1532.2000      7.9781      2.6090      0.0238      2.4870    105.2959
  1532.3000      8.0009      2.6003      0.0380      3.0111     97.8159
  1532.4000      8.0009      2.5979      0.0309      3.1567     92.9781
  1532.5000      8.0077      2.6071      0.0345      2.6023     90.1507
