~Version Information
VERS.                      2.0: CWLS Log ASCII Standard - VERSION 2.0
WRAP.                       NO: One line per depth step
~Well Information Block
STRT.FT                -2.7500: 
STOP.FT               973.2500: 
STEP.FT                 0.2500: 
NULL.                -999.2500: 
COMP.          Pioneer Natural Resources: COMPANY
WELL.          Red Raider 22-15: WELL
FLD.           Purgatoire River: FIELD
LOC.           1809' FNL & 2107' FWL: LOCATION
CNTY.               Las Animas: COUNTY
SRVC.                Patterson: SERVICE COMPANY
DATE.          Mon Apr 17 16:50:50 2006: LOG DATE
UWI.           05 071 08718 00: UNIQUE WELL ID
STAT.                 Colorado: STATE
~Curve Information Block
DEPT.FT            0 000 00 00: Depth
GR.GAPI                       : Gamma Ray
CCL.                          : Casing Collar Locator
TT3.usec                      : CBL 3' Travel Time
AMP3.mV                       : CBL 3' Amplitude
~Parameter Information Block
~A  Depth        GR         CCL         TT3         AMP3    
# ...
   432.7500     88.0060      0.0000    256.5204     65.3143
   433.0000     77.5384      0.0000    256.5411     65.1283
   433.2500     68.1545      0.0000    256.5652     64.8746
   433.5000     62.0771      0.0000    256.5896     64.5211
   433.7500     60.1465      0.0000    256.6198     64.0531
   434.0000     61.8166      0.0000    256.6676     63.4804
   434.2500     65.5317      0.0000    256.7433     62.8202
   434.5000     69.2606      0.0000    256.8497     62.0784
   434.7500     71.3781      0.0000    256.9817     61.2523
   435.0000     71.5474      0.0000    257.1350     60.3403
   435.2500     70.8080      0.0000    257.3199     59.3464
   435.5000     70.7146      0.0000    257.6005     58.2835
   435.7500     72.2978      0.0000    258.1757     57.1824
   436.0000     75.6340      0.0000    259.4925     56.0852
   436.2500     80.0639      0.0000    262.2570     55.0163
   436.5000     84.5966      0.0000    267.1018     53.9616
   436.7500     88.2602      0.0000    273.9332     52.8856
   437.0000     90.3217      0.0000    281.5763     51.7702
   437.2500     90.3790      0.0000    288.3410     50.6337
   437.5000     88.4801      0.0000    293.1152     49.5128
   437.7500     85.2658      0.0000    295.8834     48.4357
   438.0000     81.8848      0.0000    297.3091     47.4124
   438.2500     79.5587      0.0000    298.0510     46.4467
   438.5000     78.9627      0.0000    298.4532     45.5530
   438.7500     79.8131      0.0000    298.6179     44.7574
   439.0000     81.1660      0.0000    298.5865     44.0743
   439.2500     82.2717      0.0000    298.4872     43.4749
   439.5000     83.0681      0.0000    298.6278     42.8782
   439.7500     83.8016      0.0000    299.5406     42.1820
   440.0000     84.3821      0.0000    301.9159     41.3214
   440.2500     84.2805      0.0000    306.2784     40.3109
   440.5000     82.9826      0.0000    312.4461     39.2439
   440.7500     80.3996      0.0000    319.2721     38.2543
   441.0000     76.8569      0.0000    325.1564     37.4582
   441.2500     72.8644      0.0000    328.9751     36.9016
   441.5000     68.9574      0.0000    330.4949     36.5444
   441.7500     65.5900      0.0000    330.0885     36.2987
   442.0000     62.9786      0.0000    328.4483     36.0899
   442.2500     60.9751      0.0000    326.6137     35.8801
   442.5000     59.1526      0.0000    325.7544     35.6414
   442.7500     57.1639      0.0000    326.4443     35.3357
   443.0000     55.0785      0.0000    328.2186     34.9432
   443.2500     53.3888      0.0000    330.0793     34.5027
   443.5000     52.7191      0.0000    331.3481     34.0999
   443.7500     53.4134      0.0000    331.9553     33.8057
   444.0000     55.1825      0.0000    332.1535     33.6261
   444.2500     57.2350      0.0000    332.1885     33.5064
   444.5000     58.9793      0.0000    332.1907     33.3688
   444.7500     60.4983      0.0000    332.2033     33.1497
   445.0000     62.1251      0.0000    332.2245     32.8233
   445.2500     63.7716      0.0000    332.2320     32.4085
   445.5000     64.9340      0.0000    332.2005     31.9507
   445.7500     65.2478      0.0000    332.1260     31.4943
   446.0000     64.9881      0.0000    332.0337     31.0698
   446.2500     65.2240      0.0000    331.9594     30.6955
   446.5000     67.4338      0.0000    331.9284     30.3747
   446.7500     72.5348      0.0000    331.9478     30.0957
   447.0000     80.0656      0.0000    332.0107     29.8424
   447.2500     88.4156      0.0000    332.1291     29.6038
   447.5000     95.7970      0.0000    332.3828     29.3756
   447.7500    100.8694      0.0000    333.2280     29.1607
   448.0000    102.7820      0.0000    336.0714     28.9671
   448.2500    101.3945      0.0000    344.0537     28.7949
   448.5000     97.8139      0.0000    361.5681     28.6231
   448.7500     94.2366      0.0000    390.9101     28.4206
   449.0000     92.5957      0.0000    427.4730     28.1718
   449.2500     93.3341      0.0000    459.0008     27.8826
   449.5000     95.7520      0.0000    472.3528     27.5628
   449.7500     99.2584      0.0000    463.5018     27.2142
   450.0000    103.6637      0.0000    443.0512     26.8376
   450.2500    108.4289      0.0000    432.3784     26.4400
   450.5000    112.5881      0.0000    451.0006     26.0315
   450.7500    115.6759      0.0000    502.9322     25.6201
   451.0000    117.9829      0.0000    573.3616     25.2136
   451.2500    119.6280      0.0000    639.4901     24.8223
   451.5000    120.0930      0.0000    685.8615     24.4600
   451.7500    119.0571      0.0000    710.7407     24.1441
   452.0000    117.2790      0.0000    721.0216     23.8937
   452.2500    116.2210      0.0000    724.3062     23.7206
   452.5000    116.7536      0.0000    725.1055     23.6203
   452.7500    118.3061      0.0000    725.2199     23.5743
   453.0000    119.3516      0.0000    725.1631     23.5596
   453.2500    118.6496      0.0000    725.0549     23.5558
   453.5000    115.9551      0.0000    724.9346     23.5442
   453.7500    111.7054      0.0000    724.8052     23.5061
   454.0000    106.3113      0.0000    724.6644     23.4280
   454.2500     99.8764      0.0000    724.5146     23.3037
   454.5000     92.6622      0.0000    724.3615     23.1292
   454.7500     85.6818      0.0000    724.2092     22.8955
   455.0000     80.4312      0.0000    724.0671     22.5972
   455.2500     77.8625      0.0000    723.9542     22.2504
   455.5000     77.8865      0.0000    723.8881     21.8918
   455.7500     79.8540      0.0000    723.8646     21.5567
   456.0000     83.0452      0.0000    723.8513     21.2680
   456.2500     86.5940      0.0000    723.8052     21.0435
   456.5000     89.5064      0.0000    723.7021     20.9018
   456.7500     91.0601      0.0000    723.5505     20.8552
   457.0000     90.9720      0.0000    723.3751     20.9039
   457.2500     89.1861      0.0000    723.1934     21.0396
   457.5000     85.8439      0.0000    723.0182     21.2569
   457.7500     81.4909      0.0000    722.9189     21.5714
   458.0000     77.0681      0.0000    723.1005     22.0271
   458.2500     73.6134      0.0000    723.9391     22.6656
   458.5000     72.0106      0.0000    725.8199     23.4673
   458.7500     72.7805      0.0000    728.6642     24.3230
   459.0000     75.6679      0.0000    731.4961     25.0825
   459.2500     79.3566      0.0000    732.8302     25.6434
   459.5000     81.9987      0.0000    731.9493     25.9967
   459.7500     82.3953      0.0000    729.7404     26.1994
   460.0000     80.8628      0.0000    728.0890     26.3187
   460.2500     78.9966      0.0000    728.2645     26.3994
   460.5000     78.5780      0.0000    729.3092     26.4513
   460.7500     80.5539      0.0000    726.8492     26.4388
   461.0000     84.7636      0.0000    714.2268     26.2774
   461.2500     90.2621      0.0000    687.8206     25.8593
   461.5000     95.6254      0.0000    653.3674     25.1321
   461.7500     99.1839      0.0000    625.1296     24.1749
   462.0000     99.7514      0.0000    615.8746     23.1486
   462.2500     97.6108      0.0000    626.7584     22.1424
   462.5000     94.4421      0.0000    646.8420     21.1650
   462.7500     91.7700      0.0000    662.3196     20.3339
   463.0000     89.5386      0.0000    667.4936     19.9188
   463.2500     86.5057      0.0000    667.2928     20.0955
   463.5000     81.8535      0.0000    667.8065     20.7524
   463.7500     76.0420      0.0000    665.2056     21.6097
   464.0000     70.3484     -3.0000    647.7794     22.4462
   464.2500     66.0068     -3.0000    610.1340     23.2029
   464.5000     63.6491      0.0000    561.6390     23.9623
   464.7500     63.3013      0.0000    517.9297     24.8546
   465.0000     64.9706      0.0000    487.7302     25.9174
   465.2500     69.0252      0.0000    471.6880     27.0485
   465.5000     75.6143      0.0000    469.0386     28.1512
   465.7500     83.7928      0.0000    479.2215     29.2335
   466.0000     91.4613      0.0000    499.7444     30.2587
