~Version Information
VERS.                      2.0: CWLS Log ASCII Standard - VERSION 2.0
WRAP.                       NO: One line per depth step
~Well Information Block
STRT.FT               480.0000: 
STOP.FT              1817.0000: 
STEP.FT                 0.1000: 
NULL.                -999.2500: 
COMP.          Pioneer Natural Resources: COMPANY
WELL.           Bobsy 34-11 Tr: WELL
FLD.           Purgatoire River: FIELD
LOC.           514' FSL & 1784' FEL: LOCATION
PROV.                 Colorado: PROVINCE
CNTY.               Las Animas: COUNTRY
SRVC.                Patterson: SERVICE COMPANY
DATE.          Tue Jul 19 10:30:09 2005: LOG DATE
UWI.           05 071 08438 00: UNIQUE WELL ID
~Curve Information Block
DEPT.FT            0 000 00 00: Depth
DCAL.in                       : CDL Caliper
DPOR.pu                       : CDL Density Porosity
GR.GAPI                       : Gamma Ray
NPOR.pu                       : Neutron Porosity
RHOB.g/cc                     : CDL Bulk Density
RHOC.g/cc                     : CDL Density Correction
~Parameter Information Block
~A  Depth       DCAL        DPOR         GR         NPOR        RHOB        RHOC    
# ...
  1804.8000      7.8131     11.2408   -999.2500     20.7889      2.4645      0.0152
  1804.9000      7.8131     10.7367   -999.2500     20.0083      2.4728      0.0413
  1805.0000      7.8129      9.5675   -999.2500     19.1534      2.4921      0.0896
  1805.1000      7.8129      8.8505   -999.2500     18.3753      2.5040      0.0717
  1805.2000      7.8129      8.4743   -999.2500     18.0772      2.5102      0.1120
  1805.3000      7.7869      8.0880   -999.2500     18.6050      2.5165      0.0660
  1805.4000      7.7869      7.3833   -999.2500     19.5969      2.5282      0.0800
  1805.5000      7.7200      6.4068   -999.2500     20.3947      2.5443      0.1090
  1805.6000      7.7200      5.5859   -999.2500     20.4729      2.5578      0.0978
  1805.7000      7.7200      4.7853   -999.2500     20.0356      2.5710      0.1019
  1805.8000      7.6976      3.7829   -999.2500     20.2397      2.5876      0.1184
  1805.9000      7.6976      3.2755   -999.2500     22.8019      2.5960      0.1437
  1806.0000      7.7419      4.1876   -999.2500     30.0811      2.5809      0.1133
  1806.1000      7.7419      5.9914   -999.2500     40.7776      2.5511      0.0531
  1806.2000      7.7419      7.2424   -999.2500     48.3946      2.5305      0.0565
  1806.3000      7.7826      7.7403   -999.2500     51.1544      2.5223      0.0505
  1806.4000      7.7826      8.1902   -999.2500     51.6978      2.5149      0.0763
  1806.5000      7.7814      8.3895   -999.2500     51.7555      2.5116      0.0120
  1806.6000      7.7814      7.7708   -999.2500     51.7587      2.5218      0.0487
  1806.7000      7.7814      6.9301   -999.2500   -999.2500      2.5357      0.0695
  1806.8000      7.7824      6.5981   -999.2500   -999.2500      2.5411      0.0705
  1806.9000      7.7824      6.6697   -999.2500   -999.2500      2.5400      0.0825
  1807.0000      7.7833      6.6573   -999.2500   -999.2500      2.5402      0.0740
  1807.1000      7.7833      6.0726   -999.2500   -999.2500      2.5498      0.0670
  1807.2000      7.7833      5.1848   -999.2500   -999.2500      2.5645      0.1278
  1807.3000      7.7876      4.5025   -999.2500   -999.2500      2.5757      0.0985
  1807.4000      7.7876      3.4640   -999.2500   -999.2500      2.5928      0.0775
  1807.5000      7.7868      1.7620   -999.2500   -999.2500      2.6209      0.1020
  1807.6000      7.7868      0.6471   -999.2500   -999.2500      2.6393      0.1396
  1807.7000      7.7868      1.3905   -999.2500   -999.2500      2.6271      0.1301
  1807.8000      7.7834      3.6473   -999.2500   -999.2500      2.5898      0.0801
  1807.9000      7.7834      6.0100   -999.2500   -999.2500      2.5508      0.0517
  1808.0000      7.7852      7.4077   -999.2500   -999.2500      2.5278      0.0176
  1808.1000      7.7852      7.8905   -999.2500   -999.2500      2.5198      0.0374
  1808.2000      7.7852      7.9677   -999.2500   -999.2500      2.5185      0.0309
  1808.3000      7.7872      7.2612   -999.2500   -999.2500      2.5302      0.0104
  1808.4000      7.7872      5.3670   -999.2500   -999.2500      2.5614      0.0676
  1808.5000      7.7704      3.2558   -999.2500   -999.2500      2.5963      0.0766
  1808.6000      7.7704      2.0007   -999.2500   -999.2500      2.6170      0.0852
  1808.7000      7.7704      1.8877   -999.2500   -999.2500      2.6189      0.1222
  1808.8000      7.7394      2.8562   -999.2500   -999.2500      2.6029      0.1288
  1808.9000      7.7394      4.2278   -999.2500   -999.2500      2.5802      0.0747
  1809.0000      7.7248      5.0510   -999.2500   -999.2500      2.5667      0.1014
  1809.1000      7.7248      4.9958   -999.2500   -999.2500      2.5676      0.0424
  1809.2000      7.7248      4.3234   -999.2500   -999.2500      2.5787      0.0928
  1809.3000      7.7302      3.9505   -999.2500   -999.2500      2.5848      0.0873
  1809.4000      7.7302      4.4592   -999.2500   -999.2500      2.5764      0.0713
  1809.5000      7.7804      4.9271   -999.2500   -999.2500      2.5687      0.0525
  1809.6000      7.7804      4.4973   -999.2500   -999.2500      2.5758      0.1203
  1809.7000      7.7804      3.9824   -999.2500   -999.2500      2.5843      0.1225
  1809.8000      7.7896      4.2806   -999.2500   -999.2500      2.5794      0.0680
  1809.9000      7.7896      4.8740   -999.2500   -999.2500      2.5696      0.0032
  1810.0000      7.8072      5.0857   -999.2500   -999.2500      2.5661      0.0470
  1810.1000      7.8072      5.0306   -999.2500   -999.2500      2.5670      0.0535
  1810.2000      7.8072      4.4685   -999.2500   -999.2500      2.5763      0.0400
  1810.3000      7.8069      3.1159   -999.2500   -999.2500      2.5986      0.0377
  1810.4000      7.8069      1.8507   -999.2500   -999.2500      2.6195      0.0715
  1810.5000      7.8077      1.5561   -999.2500   -999.2500      2.6243      0.0666
  1810.6000      7.8077      2.1177   -999.2500   -999.2500      2.6151      0.0676
  1810.7000      7.8077      3.0992   -999.2500   -999.2500      2.5989      0.0647
  1810.8000      7.8148      3.8600   -999.2500   -999.2500      2.5863      0.0316
  1810.9000      7.8148      3.8433   -999.2500   -999.2500      2.5866      0.0412
  1811.0000      7.8089      3.3976   -999.2500   -999.2500      2.5939      0.0870
  1811.1000      7.8089      3.5518   -999.2500   -999.2500      2.5914      0.0791
  1811.2000      7.8089      4.8747   -999.2500   -999.2500      2.5696      0.0761
  1811.3000      7.8083      6.7272   -999.2500   -999.2500      2.5390      0.0235
  1811.4000      7.8083      8.0324   -999.2500   -999.2500      2.5175      0.0405
  1811.5000      7.7903      8.7293   -999.2500   -999.2500      2.5060      0.0514
  1811.6000      7.7903      9.5290   -999.2500   -999.2500      2.4928      0.0571
  1811.7000      7.7903     10.6125   -999.2500   -999.2500      2.4749      0.0501
  1811.8000      7.7282     11.6003   -999.2500   -999.2500      2.4586      0.0818
  1811.9000      7.7282     12.1749   -999.2500   -999.2500      2.4491      0.0668
  1812.0000      7.6631     12.1506   -999.2500   -999.2500      2.4495      0.0797
  1812.1000      7.6631     11.7466   -999.2500   -999.2500      2.4562      0.1089
  1812.2000      7.6631     11.3900   -999.2500   -999.2500      2.4621      0.1262
  1812.3000      7.5489     11.0987   -999.2500   -999.2500      2.4669      0.1101
  1812.4000      7.5489     10.5310   -999.2500   -999.2500      2.4762      0.1128
  1812.5000      7.4890      9.5063   -999.2500   -999.2500      2.4931      0.0904
  1812.6000      7.4890      8.2063   -999.2500   -999.2500      2.5146      0.1339
  1812.7000      7.4890      7.0680   -999.2500   -999.2500      2.5334      0.1536
  1812.8000      7.5196      6.3220   -999.2500   -999.2500      2.5457      0.1097
  1812.9000      7.5196      6.0942   -999.2500   -999.2500      2.5494      0.1344
  1813.0000      7.5401      6.5743   -999.2500   -999.2500      2.5415      0.1142
  1813.1000      7.5401      7.5385   -999.2500   -999.2500      2.5256      0.0956
  1813.2000      7.5401      8.5941   -999.2500   -999.2500      2.5082      0.0847
  1813.3000      7.5654      9.3586   -999.2500   -999.2500      2.4956      0.0484
  1813.4000      7.5654      8.2776   -999.2500   -999.2500      2.5134      0.0724
  1813.5000      7.5603      3.0183   -999.2500   -999.2500      2.6002      0.0477
  1813.6000      7.5603      1.1008   -999.2500   -999.2500      2.6318      0.1048
  1813.7000      7.5603     27.5241   -999.2500   -999.2500      2.1959      0.6004
  1813.8000      7.4641     85.3129   -999.2500   -999.2500      1.2423      0.0730
  1813.9000      7.4641    135.1460   -999.2500   -999.2500      0.4201      0.0730
  1814.0000      6.6588    155.7799   -999.2500   -999.2500      0.0796   -999.2500
  1814.1000      6.6588    160.1091   -999.2500   -999.2500      0.0082   -999.2500
  1814.2000      6.6588    160.5791   -999.2500   -999.2500      0.0004   -999.2500
  1814.3000      1.9270    160.6061   -999.2500   -999.2500      0.0000   -999.2500
