~Version Information
VERS.                      2.0: CWLS Log ASCII Standard - VERSION 2.0
WRAP.                       NO: One line per depth step
~Well Information Block
STRT.FT                -8.2500: 
STOP.FT              1439.2500: 
STEP.FT                 0.2500: 
NULL.                -999.2500: 
COMP.          Pioneer Natural Resources: COMPANY
WELL.          Old Faithful 21-2: WELL
FLD.           Purgatorie River: FIELD
LOC.           806' FNL & 2509' FWL--: LOCATION
PROV.                       CO: PROVINCE
CNTY.               Las Animas: COUNTRY
SRVC.          Patterson Wireline: SERVICE COMPANY
DATE.          Mon Dec 12 11:21:25 2005: LOG DATE
UWI.           08 071 08617 00: UNIQUE WELL ID
~Curve Information Block
DEPT.FT            0 000 00 00: Depth
CCL.                          : Casing Collar Locator
TT3.usec                      : CBL 3' Travel Time
AMP3.mV                       : CBL 3' Amplitude
GR.GAPI                       : Gamma Ray
~Parameter Information Block
~A  Depth       CCL         TT3         AMP3         GR     
# ...
   460.7500      0.0000    684.2062      9.4703     50.0803
   461.0000      0.0000    670.0662      9.5925     46.0219
   461.2500      0.0000    647.5075      9.9324     42.4993
   461.5000      0.0000    624.2244     10.4322     41.2529
   461.7500      0.0000    602.2841     10.9522     42.7182
   462.0000      0.0000    574.7390     11.4086     45.8631
   462.2500      0.0000    533.4544     11.8513     49.2257
   462.5000      0.0000    480.3924     12.3481     51.9111
   462.7500      0.0000    427.8701     12.8564     53.6728
   463.0000      0.0000    387.2647     13.2746     54.3715
   463.2500      0.0000    361.0408     13.5633     53.7518
   463.5000      0.0000    345.4944     13.7661     51.8127
   463.7500      0.0000    337.1984     13.9486     49.0723
   464.0000      0.0000    336.1605     14.1462     46.2478
   464.2500      0.0000    346.2309     14.3463     43.8730
   464.5000      0.0000    374.1343     14.4955     42.2812
   464.7500      0.0000    424.6589     14.5365     41.6711
   465.0000      0.0000    492.1966     14.4546     42.0698
   465.2500      0.0000    556.7757     14.2986     43.4469
   465.5000      0.0000    593.2202     14.1542     45.7726
   465.7500      0.0000    588.3680     14.0949     48.6239
   466.0000      0.0000    549.7727     14.1507     50.8985
   466.2500      0.0000    498.3041     14.3040     51.4421
   466.5000      0.0000    454.6039     14.4970     50.1216
   466.7500      0.0000    431.2238     14.6469     48.0774
   467.0000      0.0000    430.7658     14.6729     46.8472
   467.2500      0.0000    446.3948     14.5313     47.1185
   467.5000      0.0000    465.8202     14.2378     48.1458
   467.7500      0.0000    478.5493     13.8652     48.5893
   468.0000      0.0000    480.7335     13.5170     48.0325
   468.2500      0.0000    473.9251     13.2881     47.2364
   468.5000      0.0000    460.5783     13.2328     46.8549
   468.7500      0.0000    441.4944     13.3551     46.7094
   469.0000      0.0000    417.2954     13.6137     46.5825
   469.2500      0.0000    391.7557     13.9265     46.8896
   469.5000      0.0000    373.1682     14.1829     47.9696
   469.7500      0.0000    372.3952     14.2778     49.1631
   470.0000      0.0000    398.7587     14.1535     49.2487
   470.2500      0.0000    454.7538     13.8174     47.8997
   470.5000      0.0000    531.7053     13.3355     46.3361
   470.7500      0.0000    611.4881     12.8158     46.2843
   471.0000      0.0000    676.0232     12.3821     48.5362
   471.2500      0.0000    716.9989     12.1300     52.8742
   471.5000      0.0000    736.8785     12.0842     59.1675
   471.7500      0.0000    741.9622     12.1887     67.7898
   472.0000      0.0000    735.3044     12.3378     78.6057
   472.2500      0.0000    714.9432     12.4317     90.0536
   472.5000      0.0000    677.8144     12.4255     99.7745
   472.7500      0.0000    626.0568     12.3383    106.0614
   473.0000      0.0000    569.7067     12.2175    108.4637
   473.2500      0.0000    522.0294     12.0965    107.5153
   473.5000      0.0000    491.8750     11.9867    104.7974
   473.7500      0.0000    481.1246     11.8929    103.1052
   474.0000      0.0000    487.9229     11.8174    105.2110
   474.2500      0.0000    508.6598     11.7497    111.6929
   474.5000      0.0000    535.3716     11.6627    120.4065
   474.7500      0.0000    555.0497     11.5276    128.3870
   475.0000      0.0000    557.3889     11.3384    133.8905
   475.2500      0.0000    545.1110     11.1250    136.7168
   475.5000      0.0000    534.0107     10.9353    137.4698
   475.7500      0.0000    540.7521     10.7994    136.9990
   476.0000      0.0000    570.1628     10.7122    136.0417
   476.2500      0.0000    613.0656     10.6571    134.7011
   476.5000      0.0000    654.7246     10.6349    132.3606
   476.7500      0.0000    685.2263     10.6655    128.5430
   477.0000      0.0000    703.1344     10.7624    123.8627
   477.2500      0.0000    711.8733     10.9132    120.0877
   477.5000      0.0000    715.1086     11.0872    119.3314
   477.7500      0.0000    715.5762     11.2579    122.7268
   478.0000      0.0000    715.9180     11.4130    129.0464
   478.2500      0.0000    718.5059     11.5458    134.5006
   478.5000      0.0000    724.1155     11.6500    134.7788
   478.7500      0.0000    731.3258     11.7322    128.3076
   479.0000      0.0000    737.2633     11.8364    117.7101
   479.2500      0.0000    738.3539     12.0530    107.7287
   479.5000      0.0000    729.5226     12.4886    101.8197
   479.7500      0.0000    703.2530     13.2023    100.5963
   480.0000      0.0000    652.5053     14.1554    102.2474
   480.2500      0.0000    578.1700     15.2276    103.5068
   480.5000      0.0000    493.7088     16.2844    101.3120
   480.7500      0.0000    418.9673     17.2310     94.9984
   481.0000      0.0000    367.3860     18.0255     86.9497
   481.2500      0.0000    339.5662     18.6758     80.6463
   481.5000      0.0000    327.7551     19.2355     78.2570
   481.7500      0.0000    323.6883     19.7800     79.9665
   482.0000      0.0000    322.4138     20.3514     84.5916
   482.2500      0.0000    321.9471     20.9032     90.4256
   482.5000      0.0000    321.7621     21.2935     96.2271
   482.7500      0.0000    321.7871     21.3544    101.9508
   483.0000      0.0000    322.0147     21.0039    108.2826
   483.2500      0.0000    322.5050     20.3083    115.2278
   483.5000      0.0000    323.7813     19.4342    121.4176
   483.7500      0.0000    327.8336     18.5432    124.9091
   484.0000      0.0000    339.6232     17.7308    124.6301
   484.2500      0.0000    367.4253     17.0343    121.1786
   484.5000      0.0000    419.0070     16.4591    116.4031
   484.7500      0.0000    493.7744     15.9875    112.2655
   485.0000      0.0000    578.2725     15.5831    110.2148
   485.2500      0.0000    652.6636     15.2138    111.1417
   485.5000      0.0000    703.6548     14.8740    114.8756
   485.7500      0.0000    730.8596     14.5792    119.6055
   486.0000      0.0000    742.1677     14.3395    122.7876
   486.2500      0.0000    745.8592     14.1481    123.1456
   486.5000      0.0000    746.8511     14.0024    121.6675
   486.7500      0.0000    747.1240     13.9243    120.7058
   487.0000      0.0000    747.2386     13.9433    122.0927
   487.2500      0.0000    747.2900     14.0542    125.7069
   487.5000      0.0000    747.2890     14.2002    129.5335
   487.7500      0.0000    747.2477     14.3036    131.2362
   488.0000      0.0000    747.2021     14.3169    130.0509
   488.2500      0.0000    747.1903     14.2469    127.2981
   488.5000      0.0000    747.2300     14.1321    125.0186
   488.7500      0.0000    747.3071     14.0021    124.1699
   489.0000      0.0000    747.3845     13.8627    124.2689
   489.2500      0.0000    747.4292     13.7175    124.7003
   489.5000      0.0000    747.4398     13.5904    125.9850
   489.7500      0.0000    747.4386     13.5096    129.3568
   490.0000      0.0000    747.4261     13.4737    134.9851
   490.2500      0.0000    747.3434     13.4452    140.7846
   490.5000      0.0000    747.1021     13.3855    143.3795
   490.7500      0.0000    746.6671     13.2911    140.5509
   491.0000      0.0000    746.1071     13.1923    132.7743
   491.2500      0.0000    745.5553     13.1195    122.6294
   491.5000      0.0000    745.1307     13.0719    113.1757
   491.7500      0.0000    744.8935     13.0217    106.4993
   492.0000      0.0000    744.8475     12.9532    102.7079
   492.2500      0.0000    744.9541     12.8997    100.0290
   492.5000      0.0000    745.1416     12.9321     96.6128
   492.7500      0.0000    745.3268     13.1009     92.6293
   493.0000      0.0000    745.4294     13.3886     90.3350
   493.2500      0.0000    745.3546     13.7246     92.1497
   493.5000      0.0000    744.6749     14.0436     98.9168
   493.7500      0.0000    741.9797     14.3266    109.4757
   494.0000      0.0000    734.2366     14.5896    121.0602
