~Version Information
VERS.                      2.0: CWLS Log ASCII Standard - VERSION 2.0
WRAP.                       NO: One line per depth step
~Well Information Block
STRT.FT               575.0000: 
STOP.FT              1557.5000: 
STEP.FT                 0.1000: 
NULL.                -999.2500: 
COMP.          Pioneer Natural Resources: COMPANY
WELL.          McClaren 13-34 Tr: WELL
FLD.           Purgatoire River: FIELD
LOC.           1934' FSL & 826' FWL: LOCATION
PROV.                 Colorado: PROVINCE
CNTY.               Las Animas: COUNTRY
SRVC.                Patterson: SERVICE COMPANY
DATE.          Tue Jul 12 07:15:27 2005: LOG DATE
UWI.           05 071 08437 00: UNIQUE WELL ID
~Curve Information Block
DEPT.FT            0 000 00 00: Depth
DCAL.in                       : CDL Caliper
RHOB.g/cc                     : CDL Bulk Density
RHOC.g/cc                     : CDL Density Correction
DPOR.pu                       : CDL Density Porosity
GR.GAPI                       : Gamma Ray
NPOR.pu                       : Neutron Porosity
~Parameter Information Block
~A  Depth       DCAL        RHOB        RHOC        DPOR         GR         NPOR    
# ...
  1093.4000      7.9155      2.5172      0.0324      8.0486     55.7185     18.9665
  1093.5000      7.9152      2.5298      0.0319      7.2834     64.4391     19.7023
  1093.6000      7.9152      2.5578      0.0597      5.5852     73.0305     20.4471
  1093.7000      7.9152      2.5744      0.0832      4.5794     77.7940     20.7330
  1093.8000      7.9157      2.5680      0.0358      4.9714     81.6527     20.4519
  1093.9000      7.9157      2.5524      0.0443      5.9158     88.1991     20.8627
  1094.0000      7.9164      2.5411      0.0467      6.6000     97.6324     22.7420
  1094.1000      7.9164      2.5340      0.0678      7.0282    105.3957     24.6722
  1094.2000      7.9164      2.5284      0.0459      7.3727    110.1021     25.2711
  1094.3000      7.9162      2.5212      0.0636      7.8066    116.3282     25.1151
  1094.4000      7.9162      2.5073      0.0545      8.6465    123.3780     25.3186
  1094.5000      7.9154      2.4971     -0.0057      9.2666    124.8414     25.8514
  1094.6000      7.9154      2.5070      0.0535      8.6653    123.2065     26.1603
  1094.7000      7.9154      2.5299      0.0991      7.2776    125.0782     26.2404
  1094.8000      7.9150      2.5474      0.0488      6.2152    125.8704     26.0854
  1094.9000      7.9150      2.5497      0.0500      6.0793    119.5718     25.4276
  1095.0000      7.9149      2.5417      0.0132      6.5658    113.4871     24.4999
  1095.1000      7.9149      2.5473      0.0331      6.2223    113.5559     24.1269
  1095.2000      7.9149      2.5743      0.0735      4.5877    116.0546     24.4051
  1095.3000      7.9146      2.5951      0.0817      3.3283    117.2645     24.5610
  1095.4000      7.9146      2.5947      0.0334      3.3501    113.0651     24.4593
  1095.5000      7.9146      2.5903      0.0569      3.6178    103.2248     24.3024
  1095.6000      7.9146      2.5930      0.0672      3.4524     95.0052     23.8999
  1095.7000      7.9146      2.5989      0.0431      3.0981     93.7816     23.4004
  1095.8000      7.9148      2.6063      0.0436      2.6501     97.3126     23.1769
  1095.9000      7.9148      2.6146      0.0730      2.1468     99.7752     23.3303
  1096.0000      7.9150      2.6180      0.0754      1.9400     98.1918     23.7140
  1096.1000      7.9150      2.6144      0.0331      2.1588     95.3710     23.7952
  1096.2000      7.9150      2.6125     -0.0002      2.2733     93.8155     23.5716
  1096.3000      7.9152      2.6196      0.0232      1.8425     93.3732     23.7370
  1096.4000      7.9152      2.6297      0.0504      1.2317     94.6099     24.3253
  1096.5000      7.9157      2.6380      0.0470      0.7292     96.0165     24.5012
  1096.6000      7.9157      2.6496      0.0623      0.0271     94.1143     23.8855
  1096.7000      7.9157      2.6639      0.0536     -0.8417     88.8219     22.9712
  1096.8000      7.9160      2.6716      0.0939     -1.3113     83.7309     22.3995
  1096.9000      7.9160      2.6659      0.0854     -0.9667     82.6396     22.4165
  1097.0000      7.9158      2.6561      0.0152     -0.3705     85.3090     22.8636
  1097.1000      7.9158      2.6520      0.0801     -0.1232     86.4426     23.6168
  1097.2000      7.9158      2.6450      0.0558      0.3003     85.8466     24.5229
  1097.3000      7.9154      2.6284      0.0582      1.3088     90.1926     25.3958
  1097.4000      7.9154      2.6063      0.0722      2.6484    100.7173     25.7257
  1097.5000      7.9149      2.5870      0.0334      3.8152    112.3883     25.7162
  1097.6000      7.9149      2.5796      0.0289      4.2648    121.3681     25.6043
  1097.7000      7.9149      2.5766      0.0915      4.4484    124.8385     24.8819
  1097.8000      7.9145      2.5667      0.0449      5.0491    124.0912     24.3259
  1097.9000      7.9145      2.5652      0.0324      5.1407    126.0709     25.0593
  1098.0000      7.9143      2.5855      0.0718      3.9088    131.9543     26.2669
  1098.1000      7.9143      2.6112      0.1126      2.3505    135.2477     26.6880
  1098.2000      7.9143      2.6294      0.0731      1.2473    132.6283     26.4908
  1098.3000      7.9144      2.6413      0.1140      0.5267    129.3686     26.2346
  1098.4000      7.9144      2.6376      0.0873      0.7491    132.8037     26.1747
  1098.5000      7.9150      2.6165      0.0581      2.0320    138.0118     26.1744
  1098.6000      7.9150      2.5900      0.0748      3.6339    135.7462     26.3446
  1098.7000      7.9150      2.5652      0.0515      5.1410    129.3322     26.8718
  1098.8000      7.9153      2.5481      0.0328      6.1759    128.2413     27.1001
  1098.9000      7.9153      2.5426      0.0566      6.5097    134.2752     26.8032
  1099.0000      7.9155      2.5454      0.0400      6.3424    140.9529     26.5325
  1099.1000      7.9155      2.5572      0.0306      5.6228    143.8246     26.1893
  1099.2000      7.9155      2.5795      0.0551      4.2751    145.0714     25.4088
  1099.3000      7.9155      2.6002      0.0846      3.0200    143.9563     24.7401
  1099.4000      7.9155      2.6029      0.1320      2.8527    139.0346     24.9897
  1099.5000      7.9150      2.5881      0.0935      3.7502    136.0124     25.7357
  1099.6000      7.9150      2.5696      0.0678      4.8712    135.3219     26.1312
  1099.7000      7.9150      2.5530      0.0509      5.8806    134.4197     26.6067
  1099.8000      7.9147      2.5411      0.0557      6.6029    135.3386     27.4104
  1099.9000      7.9147      2.5421      0.0205      6.5420    137.6949     27.6703
  1100.0000      7.9144      2.5546      0.0572      5.7797    137.8004     27.1118
  1100.1000      7.9144      2.5654      0.0768      5.1299    133.4389     26.6529
  1100.2000      7.9144      2.5685      0.0267      4.9373    127.0420     27.0945
  1100.3000      7.9142      2.5755      0.0306      4.5124    122.1921     28.3101
  1100.4000      7.9142      2.5985      0.0701      3.1230    121.4837     29.3291
  1100.5000      7.9141      2.6335      0.0706      0.9993    124.2824     29.3702
  1100.6000      7.9141      2.6713      0.0504     -1.2880    124.9614     28.7608
  1100.7000      7.9141      2.6980      0.0928     -2.9069    124.3738     28.0953
  1100.8000      7.9150      2.6928      0.0814     -2.5960    127.9879     27.6879
  1100.9000      7.9150      2.6489      0.0853      0.0676    132.6335     27.6864
  1101.0000      7.9160      2.5752      0.0491      4.5319    135.2961     28.2716
  1101.1000      7.9160      2.4945     -0.0401      9.4257    139.0571     29.6339
  1101.2000      7.9160      2.4408     -0.0631     12.6801    141.6818     31.1748
  1101.3000      7.9169      2.4234     -0.0168     13.7328    138.4609     31.6133
  1101.4000      7.9169      2.4104      0.0150     14.5220    131.9791     31.0810
  1101.5000      7.9185      2.3725     -0.0284     16.8199    125.4080     30.8964
  1101.6000      7.9185      2.3096      0.0024     20.6280    123.5722     31.3385
  1101.7000      7.9185      2.2311     -0.0645     25.3878    127.7622     31.7852
  1101.8000      7.9204      2.1346     -0.0048     31.2367    129.8134     31.4316
  1101.9000      7.9204      2.0196     -0.0495     38.2070    128.6872     30.5430
  1102.0000      7.9233      1.9174     -0.0938     44.4022    126.7904     30.1218
  1102.1000      7.9233      1.8459     -0.0501     48.7334    120.8963     30.4062
  1102.2000      7.9233      1.7678      0.0002     53.4663    111.7952     31.1828
  1102.3000      7.9292      1.6696     -0.1116     59.4171    105.4472     32.2072
  1102.4000      7.9292      1.6057     -0.0609     63.2915    104.7802     32.9325
  1102.5000      7.9370      1.6110      0.0010     62.9699    106.7291     32.8362
  1102.6000      7.9370      1.6663      0.0759     59.6196    104.6059     32.5379
  1102.7000      7.9370      1.7438      0.0850     54.9223     98.0143     32.7252
  1102.8000      7.9300      1.8288      0.1129     49.7714     95.1975     32.7634
  1102.9000      7.9300      1.9211      0.1419     44.1734     99.8583     32.3043
