~Version Information
VERS.                      2.0: CWLS Log ASCII Standard - VERSION 2.0
WRAP.                       NO: One line per depth step
~Well Information Block
STRT.FT               262.2500: 
STOP.FT              1942.0000: 
STEP.FT                 0.2500: 
NULL.                -999.2500: 
COMP.          XTO Energy Inc.: COMPANY
WELL.          Golden Eagle 19-11: WELL
FLD.           Purgatoire River: FIELD
LOC.           2351' FSL & 1926' FWL--: LOCATION
CNTY.               Las Animas: COUNTY
SRVC.                Patterson: SERVICE COMPANY
DATE.          Wed Mar 08 23:33:01 2006: LOG DATE
UWI.           05 071 08696 00: UNIQUE WELL ID
STAT.                 Colorado: STATE
~Curve Information Block
DEPT.FT            0 000 00 00: Depth
SP.mV                         : DIL Spontaneous Potential
RILD.Ohm-m                    : DIL Deep Resistivity
RILM.Ohm-m                    : DIL Medium Resistivity
RLL3.Ohm-m                    : DIL Shallow Resistivity
GR.GAPI                       : Gamma Ray
~Parameter Information Block
~A  Depth        SP         RILD        RILM        RLL3         GR     
# ...
   290.2500   -999.2500   -999.2500   -999.2500   -999.2500     80.0879
   290.5000   -999.2500   -999.2500   -999.2500   -999.2500     78.0895
   290.7500   -999.2500   -999.2500   -999.2500   -999.2500     77.0012
   291.0000   -999.2500   -999.2500   -999.2500   -999.2500     76.3596
   291.2500   -999.2500   -999.2500   -999.2500   -999.2500     76.5717
   291.5000   -999.2500   -999.2500   -999.2500   -999.2500     77.1958
   291.7500   -999.2500   -999.2500   -999.2500   -999.2500     77.2811
   292.0000   -999.2500   -999.2500   -999.2500   -999.2500     76.1155
   292.2500   -999.2500   -999.2500   -999.2500   -999.2500     74.1808
   292.5000   -999.2500   -999.2500   -999.2500   -999.2500     69.4099
   292.7500   -999.2500   -999.2500   -999.2500   -999.2500     65.2001
   293.0000   -999.2500   -999.2500   -999.2500   -999.2500     58.2098
   293.2500   -999.2500   -999.2500   -999.2500   -999.2500     53.7613
   293.5000   -999.2500   -999.2500   -999.2500   -999.2500     48.5621
   293.7500   -999.2500   -999.2500   -999.2500   -999.2500     46.6369
   294.0000   -999.2500   -999.2500   -999.2500   -999.2500     46.5022
   294.2500   -999.2500   -999.2500   -999.2500   -999.2500     48.1067
   294.5000   -999.2500   -999.2500   -999.2500   -999.2500     52.3805
   294.7500   -999.2500   -999.2500   -999.2500   -999.2500     56.0856
   295.0000   -999.2500   -999.2500   -999.2500   -999.2500     62.4130
   295.2500   -999.2500   -999.2500   -999.2500   -999.2500     66.7614
   295.5000   -999.2500   -999.2500   -999.2500   -999.2500     72.3679
   295.7500   -999.2500   -999.2500   -999.2500   -999.2500     74.6820
   296.0000   -999.2500   -999.2500   -999.2500   -999.2500     75.0780
   296.2500   -999.2500      7.4796   -999.2500   -999.2500     73.4243
   296.5000   -999.2500      7.4456   -999.2500   -999.2500     69.5490
   296.7500   -999.2500      7.4075   -999.2500   -999.2500     67.1638
   297.0000   -999.2500      7.3713   -999.2500   -999.2500     65.0965
   297.2500   -999.2500      7.3410   -999.2500   -999.2500     64.7449
   297.5000   -999.2500      7.3191   -999.2500   -999.2500     65.0906
   297.7500   -999.2500      7.3067   -999.2500   -999.2500     65.5611
   298.0000   -999.2500      7.3044   -999.2500   -999.2500     66.5025
   298.2500   -999.2500      7.3122   -999.2500   2000.0000     67.3425
   298.5000   -999.2500      7.3288   -999.2500   2000.0000     68.8261
   298.7500   -999.2500      7.3501   -999.2500   2000.0000     69.7430
   299.0000   -999.2500      7.3707   -999.2500   2000.0000     70.5096
   299.2500   -999.2500      7.3853   -999.2500   2000.0000     70.4150
   299.5000   -999.2500      7.3901   -999.2500   2000.0000     69.5504
   299.7500   -999.2500      7.3837   -999.2500   2000.0000     68.9654
   300.0000   -999.2500      7.3656   -999.2500   2000.0000     69.0082
   300.2500   -999.2500      7.3376   -999.2500   2000.0000     69.8755
   300.5000   -999.2500      7.3038   -999.2500   2000.0000     72.1202
   300.7500   -999.2500      7.2719   -999.2500   2000.0000     73.9034
   301.0000   -999.2500      7.2499 100000.0000   2000.0000     76.5321
   301.2500   -999.2500      7.2431 100000.0000   2000.0000     77.9821
   301.5000   -999.2500      7.2508 100000.0000   2000.0000     79.0846
   301.7500   -999.2500      7.2662 100000.0000   2000.0000     78.8269
   302.0000   -999.2500      7.2791 100000.0000   2000.0000     77.0922
   302.2500   -999.2500      7.2800 100000.0000   2000.0000     75.4205
   302.5000   -999.2500      7.2638 100000.0000   2000.0000     72.6580
   302.7500   -999.2500      7.2315 100000.0000   2000.0000     70.7070
   303.0000   -999.2500      7.1906 100000.0000   2000.0000     67.6914
   303.2500   -999.2500      7.1528 100000.0000   2000.0000     65.8809
   303.5000   -999.2500      7.1308 100000.0000   2000.0000     64.1750
   303.7500   -999.2500      7.1339 100000.0000   2000.0000     64.0614
   304.0000   -999.2500      7.1630 100000.0000   2000.0000     65.6981
   304.2500   -999.2500      7.2077 100000.0000   2000.0000     67.9172
   304.5000   -999.2500      7.2489 100000.0000   2000.0000     72.2429
   304.7500   -999.2500      7.2674 100000.0000   2000.0000     75.0891
   305.0000   -999.2500      7.2556 100000.0000   2000.0000     78.2852
   305.2500   -999.2500      7.2230 100000.0000   2000.0000     79.5984
   305.5000   -999.2500      7.1911 100000.0000   2000.0000     80.7078
   305.7500   -999.2500      7.1807 100000.0000   2000.0000     80.9019
   306.0000   -999.2500      7.2022 100000.0000   2000.0000     79.8807
   306.2500   -999.2500      7.2532 100000.0000   2000.0000     78.0553
   306.5000   -999.2500      7.3228 100000.0000   2000.0000     73.6808
   306.7500   -999.2500      7.3996 100000.0000   2000.0000     70.0650
   307.0000   -999.2500      7.4768 100000.0000   2000.0000     64.7508
   307.2500   -999.2500      7.5544 100000.0000   2000.0000     62.1500
   307.5000   -999.2500      7.6359 100000.0000   2000.0000     61.0108
   307.7500   -999.2500      7.7233 100000.0000   2000.0000     62.4109
   308.0000   -999.2500      7.8143 100000.0000   2000.0000     66.9998
   308.2500   -999.2500      7.8999 100000.0000   2000.0000     70.6438
   308.5000   -999.2500      7.9668 100000.0000   2000.0000     74.9535
   308.7500   -999.2500      7.9994 100000.0000   2000.0000     76.3008
   309.0000   -999.2500      7.9847 100000.0000   2000.0000     76.0292
   309.2500   -999.2500      7.9179 100000.0000   2000.0000     74.9628
   309.5000   -999.2500      7.8052 100000.0000   2000.0000     73.3271
   309.7500   -999.2500      7.6637 100000.0000   2000.0000     72.5189
   310.0000   -999.2500      7.5182 100000.0000   2000.0000     71.3008
   310.2500   -999.2500      7.4006 100000.0000   2000.0000     70.1719
   310.5000   -999.2500      7.3485 100000.0000   2000.0000     68.4872
   310.7500   -999.2500      7.4004 100000.0000   2000.0000     68.3127
   311.0000   -999.2500      7.5810 100000.0000   2000.0000     70.9576
   311.2500   -999.2500      7.8835 100000.0000   2000.0000     74.5285
   311.5000   -999.2500      8.2555 100000.0000   2000.0000     80.1348
   311.7500   -999.2500      8.6059 100000.0000   2000.0000     82.0799
   312.0000   -999.2500      8.8449 100000.0000   2000.0000     80.5214
   312.2500   -999.2500      8.9360 100000.0000   2000.0000     77.0614
   312.5000   -999.2500      8.9114 100000.0000   2000.0000     70.7851
   312.7500   -999.2500      8.8464 100000.0000   2000.0000     67.0924
   313.0000   -999.2500      8.8304 100000.0000   2000.0000     63.0280
   313.2500   -999.2500      8.9569 100000.0000   2000.0000     61.3095
   313.5000   -999.2500      9.3170 100000.0000   2000.0000     60.0908
   313.7500   -999.2500      9.9718 100000.0000   2000.0000     59.9478
   314.0000   -999.2500     10.8776 100000.0000   2000.0000     60.0376
   314.2500   -999.2500     11.7707 100000.0000   2000.0000     60.0019
   314.5000   -999.2500     12.1694 100000.0000   2000.0000     59.7849
   314.7500   -999.2500     11.7495 100000.0000   2000.0000     59.5865
   315.0000   -999.2500     10.7271 100000.0000   2000.0000     58.9408
   315.2500   -999.2500      9.5928 100000.0000   2000.0000     58.0420
   315.5000   -999.2500      8.6720 100000.0000   2000.0000     56.1303
   315.7500   -999.2500      8.0695 100000.0000   2000.0000     54.9717
   316.0000   -999.2500      7.8103 100000.0000   2000.0000     54.3369
   316.2500   -999.2500      7.9639 100000.0000   2000.0000     54.8767
   316.5000   -999.2500      8.7327 100000.0000   2000.0000     56.9121
   316.7500   -999.2500     10.5646 100000.0000   2000.0000     58.7982
   317.0000   -999.2500     14.2966 100000.0000   2000.0000     61.9957
   317.2500   -999.2500     20.4769 100000.0000   2000.0000     64.3013
   317.5000   -999.2500     24.4465 100000.0000   2000.0000     68.4337
   317.7500   -999.2500     19.2916 100000.0000   2000.0000     72.1602
   318.0000   -999.2500     12.5041 100000.0000   2000.0000     80.0633
