~Version Information
 VERS.                                  2.0 : CWLS LAS VERSION
 WRAP.                                   NO : WRAPING MODE
 SWARE .                 MController 2.5.0N : SOFTWARE VERSION
~Well Information
 WELL.                         Andrew 23-15 : WELL
 COMP.    Pioneer Natural Resources USA Inc : COMPANY
 FLD.                      Purgatoire River : FIELD
 LOC.               NE/SW Sec 15 T32S  R65W : LOCATION
 DATE.                             08/12/05 : DATE(S) LOGGED
 SRVC.       BLANCO Geological Services LLC : SERVICE COMPANY
 STAT.                                   CO : STATE
 CNTY.                           Las Animas : COUNTY
 CTRY.                                  USA : COUNTRY
 API.                       05 071 08460 00 : API NUMBER
 STRT.FT                             447.00 : START DEPTH
 STOP.FT                            1521.00 : STOP DEPTH
 STEP.FT                               1.00 : DEPTH INCREMENT
 NULL.                                -9999 : NULL VALUE
~Curve information
 DEPTH.FT                                   :
 ROP.MIN/FT                                 :
 GAS.UNITS                                  :
~ASCII Log data
# ...
      1247.0         0.60          1.7 
      1248.0         0.43          2.3 
      1249.0         0.30          3.0 
      1250.0         0.63          3.4 
      1251.0         0.20          1.5 
      1252.0        13.23       1170.0 
      1253.0         0.28         16.6 
      1254.0         0.43         15.4 
      1255.0         0.43         13.7 
      1256.0         0.37         11.1 
      1257.0         0.37          7.8 
      1258.0         0.80          4.5 
      1259.0         0.50          1.8 
      1260.0         0.82          1.3 
      1261.0         0.43          0.4 
      1262.0         0.57          0.3 
      1263.0         0.37          0.7 
      1264.0         0.53          0.7 
      1265.0         0.30          0.7 
      1266.0         0.50          0.9 
      1267.0         0.65          0.7 
      1268.0         0.43          0.3 
      1269.0         0.57          0.2 
      1270.0         0.73          0.4 
      1271.0         0.27          0.3 
      1272.0         0.73          1.1 
      1273.0         0.55          1.5 
      1274.0         0.30          1.0 
      1275.0         0.37          0.7 
      1276.0         0.53          0.5 
      1277.0         0.53          0.4 
      1278.0         0.87          0.1 
      1279.0         0.78          0.1 
      1280.0         0.57          5.2 
      1281.0         0.47         14.0 
      1282.0         3.72        982.4 
      1283.0         0.53         19.9 
      1284.0         0.47         15.5 
      1285.0         0.65         10.1 
      1286.0         0.67          1.8 
      1287.0         0.40          0.2 
      1288.0         0.63          1.4 
      1289.0         0.40          1.5 
      1290.0         0.60          0.6 
      1291.0         0.65          0.9 
      1292.0         0.70          1.6 
      1293.0         0.90          4.3 
      1294.0         0.43          2.0 
      1295.0         0.60          1.1 
      1296.0         0.62          1.8 
      1297.0         0.67          2.7 
      1298.0         0.33          4.4 
      1299.0         0.67          8.0 
      1300.0         0.70          7.3 
      1301.0         0.40          3.2 
      1302.0         0.52          0.7 
      1303.0         0.67          7.8 
      1304.0         0.27         10.6 
      1305.0         0.67         11.9 
      1306.0         0.40          8.1 
      1307.0         0.37          3.4 
      1308.0         0.43          1.1 
      1309.0         0.55          0.3 
      1310.0         0.50          0.4 
      1311.0         0.57          0.3 
      1312.0        20.50       1007.6 
      1313.0         0.43          9.8 
      1314.0         0.73          5.9 
      1315.0         0.62          2.7 
      1316.0         0.80          2.1 
      1317.0         0.70          3.6 
      1318.0         0.80          4.2 
      1319.0         0.52          2.0 
      1320.0         0.37          1.2 
      1321.0         0.80         13.2 
      1322.0         0.30         24.9 
      1323.0         0.60         26.4 
      1324.0         0.30         13.0 
      1325.0         0.98          8.4 
      1326.0         0.37          0.8 
      1327.0         0.87          0.3 
      1328.0         0.47          0.2 
      1329.0         0.57          0.0 
      1330.0         0.43          0.2 
      1331.0         0.82          0.2 
      1332.0         0.63          0.3 
      1333.0         0.70          0.2 
      1334.0         1.03          0.3 
      1335.0         0.50          0.4 
      1336.0         0.68          0.2 
      1337.0         0.43          0.2 
      1338.0         0.83          0.5 
      1339.0         0.47          0.2 
      1340.0         0.60          0.1 
      1341.0         0.58          0.2 
      1342.0        23.52       1066.5 
      1343.0         0.33         71.4 
      1344.0         1.03         83.6 
      1345.0         0.90         93.0 
      1346.0         0.53         88.0 
      1347.0         0.42         77.1 
      1348.0         0.73         67.0 
      1349.0         0.53         51.9 
      1350.0         0.67         47.2 
      1351.0         0.53         45.7 
      1352.0         0.62         44.7 
      1353.0         0.63         44.2 
      1354.0         0.80         44.1 
      1355.0         0.80         42.4 
      1356.0         0.70         64.8 
      1357.0         0.82         69.7 
      1358.0         1.50         53.3 
      1359.0         1.38         27.7 
      1360.0         1.30         23.6 
      1361.0         1.30         23.8 
      1362.0         1.32         21.6 
      1363.0         0.90         19.7 
      1364.0         1.40         24.7 
      1365.0         1.22         25.5 
      1366.0         1.57         31.6 
      1367.0         1.35         23.4 
      1368.0         1.27         19.9 
      1369.0         1.27         21.0 
      1370.0         0.82         16.9 
      1371.0         1.00          9.6 
      1372.0         6.57       1280.5 
      1373.0         1.07         27.3 
      1374.0         1.12         17.3 
      1375.0         1.10         10.5 
      1376.0         1.95         14.0 
      1377.0         1.20         14.0 
      1378.0         0.90         12.5 
      1379.0         1.92         11.1 
      1380.0         2.17         11.1 
      1381.0         1.62         11.6 
      1382.0         1.60         13.6 
      1383.0         1.82         21.4 
      1384.0         2.02         37.9 
      1385.0         1.87         35.7 
      1386.0         1.85         41.3 
      1387.0         1.40         42.8 
      1388.0         1.38         32.0 
      1389.0         1.13         26.2 
      1390.0         0.90         25.5 
      1391.0         1.13         21.9 
      1392.0         0.82         21.2 
      1393.0         1.13         21.7 
      1394.0         0.90         20.6 
      1395.0         1.12         25.1 
      1396.0         0.80         20.1 
      1397.0         1.03         13.8 
      1398.0         0.77         18.4 
      1399.0         0.85         31.5 
      1400.0         0.50         31.1 
      1401.0         0.37         24.6 
      1402.0        11.25       2256.3 
      1403.0         1.08         76.8 
      1404.0         1.57         41.0 
      1405.0         0.87         35.9 
      1406.0         1.48         23.0 
      1407.0         0.83         18.4 
      1408.0         0.87         19.4 
      1409.0         1.32         19.7 
      1410.0         1.20         21.2 
      1411.0         1.52         25.3 
      1412.0         1.40         48.7 
      1413.0         1.27         25.0 
      1414.0         1.35         25.3 
      1415.0         1.43         16.6 
      1416.0         1.08         12.2 
      1417.0         1.20         11.7 
      1418.0         1.27          9.4 
      1419.0         1.02          8.1 
      1420.0         1.00          7.0 
      1421.0         0.70          7.4 
      1422.0         0.90          7.7 
      1423.0         1.62          9.3 
      1424.0         1.50          9.2 
      1425.0         1.28         12.4 
      1426.0         1.37         18.2 
      1427.0         2.12         14.9 
      1428.0         2.00         13.2 
      1429.0         1.72         22.2 
      1430.0         2.05        149.1 
      1431.0         1.53        156.6 
      1432.0         9.78       1129.1 
      1433.0         0.63        138.6 
      1434.0         1.58        105.3 
      1435.0         1.10         56.0 
      1436.0         1.43         39.5 
      1437.0         1.68         43.5 
      1438.0         1.63         40.1 
      1439.0         1.35         36.9 
      1440.0         1.30         35.0 
      1441.0         1.22         30.9 
      1442.0         1.47         49.6 
      1443.0         1.23         41.8 
      1444.0         1.58         36.3 
      1445.0         1.30         31.2 
      1446.0         1.08         29.6 
