~Version Information
VERS.                      2.0: CWLS Log ASCII Standard - VERSION 2.0
WRAP.                       NO: One line per depth step
~Well Information Block
STRT.FT               860.0000: 
STOP.FT              2360.5000: 
STEP.FT                 0.1000: 
NULL.                -999.2500: 
COMP.          Pioneer Natural Resources: COMPANY
WELL.            Cayenne 23-23: WELL
FLD.           Purgatoire River: FIELD
LOC.           2555' FSL & 2386' FWL: LOCATION
PROV.                 Colorado: PROVINCE
CNTY.               Las Animas: COUNTRY
SRVC.                Patterson: SERVICE COMPANY
DATE.          Wed Aug 17 08:28:25 2005: LOG DATE
UWI.           05 071 08476 00: UNIQUE WELL ID
~Curve Information Block
DEPT.FT            0 000 00 00: Depth
DCAL.in                       : CDL Caliper
RHOB.g/cc                     : CDL Bulk Density
RHOC.g/cc                     : CDL Density Correction
DPOR.pu                       : CDL Density Porosity
GR.GAPI                       : Gamma Ray
NPOR.pu                       : Neutron Porosity
~Parameter Information Block
~A  Depth       DCAL        RHOB        RHOC        DPOR         GR         NPOR    
# ...
  1656.8000      7.9559      2.5113      0.0346      8.4054    107.3465     25.2889
  1656.9000      7.9559      2.5180      0.0639      7.9992    108.6951     24.2767
  1657.0000      7.9961      2.5224      0.0765      7.7359    116.0972     23.4323
  1657.1000      7.9961      2.5220      0.0549      7.7604    124.3599     23.8132
  1657.2000      7.9961      2.5099      0.0515      8.4881    129.1188     25.1048
  1657.3000      8.0058      2.4774      0.0875     10.4613    129.2823     26.3308
  1657.4000      8.0058      2.4101      0.0524     14.5387    128.9571     26.9763
  1657.5000      7.9982      2.3171      0.0306     20.1769    134.3468     27.3934
  1657.6000      7.9982      2.2320     -0.0294     25.3349    143.9171     27.8545
  1657.7000      7.9982      2.1766     -0.0079     28.6916    149.3174     28.4436
  1657.8000      7.9940      2.1492      0.0229     30.3538    146.2899     29.0486
  1657.9000      7.9940      2.1487      0.0030     30.3801    138.4519     29.1278
  1658.0000      8.0182      2.1785      0.0528     28.5735    132.8961     28.7145
  1658.1000      8.0182      2.2254      0.1143     25.7318    131.2063     28.4154
  1658.2000      8.0182      2.2702      0.1891     23.0190    129.7653     28.6950
  1658.3000      8.0409      2.3082      0.2456     20.7178    127.8884     29.0974
  1658.4000      8.0409      2.3423      0.2569     18.6459    123.3803     29.2339
  1658.5000      8.0232      2.3610      0.2728     17.5172    114.3397     29.4932
  1658.6000      8.0232      2.3347      0.2043     19.1084    107.7821     30.0735
  1658.7000      8.0232      2.2540      0.0283     23.9974    111.1788     30.2369
  1658.8000      7.9606      2.1412     -0.0366     30.8380    119.4164     29.2527
  1658.9000      7.9606      2.0145     -0.0883     38.5160    121.1300     28.2987
  1659.0000      7.9286      1.8920     -0.1428     45.9407    116.4875     28.4791
  1659.1000      7.9286      1.8113     -0.1242     50.8275    112.0833     29.0846
  1659.2000      7.9286      1.7846      0.0656     52.4487    108.9644     29.7806
  1659.3000      8.0287      1.7649      0.1349     53.6428    107.9113     30.6063
  1659.4000      8.0287      1.7196      0.0885     56.3866    107.6404     31.3209
  1659.5000      8.1204      1.6750      0.1359     59.0921    107.4630     31.8664
  1659.6000      8.1204      1.6596      0.1293     60.0268    110.3542     32.0993
  1659.7000      8.1204      1.6696      0.1517     59.4194    117.7780     32.1290
  1659.8000      8.0572      1.6915      0.1376     58.0898    126.5635     32.0123
  1659.9000      8.0572      1.7270      0.1293     55.9412    128.9063     31.8037
  1660.0000      7.9424      1.7757      0.1483     52.9888    122.1332     31.9186
  1660.1000      7.9424      1.8097      0.1897     50.9279    112.7629     32.9681
  1660.2000      7.9424      1.7982      0.0977     51.6222    109.0084     34.7893
  1660.3000      7.9410      1.7432      0.0164     54.9590    113.1991     36.0591
  1660.4000      7.9410      1.6622     -0.0509     59.8678    119.6503     35.8763
  1660.5000      8.0249      1.5663     -0.0611     65.6807    122.2856     34.3843
  1660.6000      8.0249      1.4707     -0.0924     71.4707    119.0444     32.5301
  1660.7000      8.0249      1.4002     -0.1609     75.7435    110.3626     31.8220
  1660.8000      8.0485      1.3737     -0.1343     77.3533     99.7638     32.7784
  1660.9000      8.0485      1.4007     -0.1007     75.7155     94.3086     34.0147
  1661.0000      8.1337      1.4859     -0.0560     70.5513     96.0011     33.9171
  1661.1000      8.1337      1.6107      0.0518     62.9852     98.0509     32.5002
  1661.2000      8.1337      1.7290      0.1590     55.8191     95.9164     31.2586
  1661.3000      8.4119      1.8121      0.1731     50.7838     94.5104     31.1352
  1661.4000      8.4119      1.8894      0.1544     46.0968     97.9501     31.2445
  1661.5000      8.9376      2.0115      0.1727     38.6955    100.6220     30.5270
  1661.6000      8.9376      2.1742      0.1806     28.8359     96.6477     29.5433
  1661.7000      8.9376      2.3174      0.1901     20.1595     92.6121     29.1437
  1661.8000      9.1195      2.4038      0.1250     14.9210     96.0061     29.2204
  1661.9000      9.1195      2.4539      0.0864     11.8851    104.0555     29.2118
  1662.0000      8.4713      2.4907      0.1312      9.6558    111.5832     28.9524
  1662.1000      8.4713      2.5105      0.1171      8.4570    116.7116     28.5654
  1662.2000      8.4713      2.5190      0.0374      7.9408    117.9880     27.5810
  1662.3000      8.1214      2.5378     -0.0048      6.7975    113.3207     26.2917
  1662.4000      8.1214      2.5736      0.0014      4.6276    107.4204     25.9245
  1662.5000      8.0575      2.6062      0.0918      2.6515    105.9796     26.2899
  1662.6000      8.0575      2.6066      0.1357      2.6333    106.7388     26.3418
  1662.7000      8.0575      2.5698      0.0632      4.8600    106.6245     26.1796
  1662.8000      8.0158      2.5235      0.0112      7.6639    106.6243     26.1825
  1662.9000      8.0158      2.4882      0.0145      9.8068    105.1727     25.7745
  1663.0000      7.9798      2.4486      0.0119     12.2079    102.3970     24.7416
  1663.1000      7.9798      2.3908     -0.0522     15.7077    107.9110     24.0337
  1663.2000      7.9798      2.3361     -0.0846     19.0270    123.1269     24.2167
  1663.3000      8.0043      2.3112     -0.0454     20.5310    137.1458     24.6846
  1663.4000      8.0043      2.3212     -0.0460     19.9258    147.7614     24.7039
  1663.5000      8.0733      2.3574     -0.0140     17.7303    156.6898     24.5869
  1663.6000      8.0733      2.4076      0.0113     14.6903    160.2491     24.8795
  1663.7000      8.0733      2.4570      0.0775     11.6981    160.4418     25.2463
  1663.8000      8.1065      2.4913      0.1690      9.6190    160.4272     25.2992
  1663.9000      8.1065      2.5016      0.1437      8.9959    156.6551     25.4773
  1664.0000      8.1094      2.4859      0.1503      9.9425    149.7220     26.2916
  1664.1000      8.1094      2.4515      0.1185     12.0305    146.1025     27.4305
  1664.2000      8.1094      2.4094      0.0829     14.5839    147.7545     28.4455
  1664.3000      8.1170      2.3756     -0.0003     16.6295    150.6740     29.4826
  1664.4000      8.1170      2.3734     -0.0049     16.7655    152.9522     30.3217
  1664.5000      8.1196      2.4129      0.0487     14.3687    157.8573     30.5190
  1664.6000      8.1196      2.4781      0.0944     10.4207    162.7530     30.0438
  1664.7000      8.1196      2.5376      0.1443      6.8121    163.0374     29.0944
  1664.8000      8.0653      2.5709      0.1191      4.7930    159.8985     28.1713
  1664.9000      8.0653      2.5774      0.1028      4.3978    154.5871     27.7348
  1665.0000      8.0744      2.5581      0.1203      5.5696    151.3339     27.7438
  1665.1000      8.0744      2.5202      0.0796      7.8687    152.5761     27.6153
  1665.2000      8.0744      2.4931     -0.0078      9.5110    152.8749     26.9733
  1665.3000      8.1042      2.4948      0.0838      9.4044    149.1087     26.4008
  1665.4000      8.1042      2.5091      0.0501      8.5382    145.1887     26.4073
  1665.5000      8.0884      2.5178      0.0706      8.0125    144.4485     26.4086
  1665.6000      8.0884      2.5174      0.0384      8.0383    145.1656     26.1357
  1665.7000      8.0884      2.5188      0.0130      7.9534    146.2736     26.2349
  1665.8000      8.0944      2.5397      0.0084      6.6830    147.1966     26.5989
  1665.9000      8.0944      2.5720      0.1119      4.7283    146.2453     26.1568
  1666.0000      8.1002      2.5738      0.1098      4.6179    145.3800     25.2098
  1666.1000      8.1002      2.5347      0.0579      6.9853    146.0788     24.9720
  1666.2000      8.1002      2.4980      0.0092      9.2121    147.4164     25.2143
  1666.3000      8.0870      2.4923      0.0269      9.5588    149.1466     25.1010
