~Version Information
VERS.                      2.0: CWLS Log ASCII Standard - VERSION 2.0
WRAP.                       NO: One line per depth step
~Well Information Block
STRT.FT               555.0000: 
STOP.FT              1158.0000: 
STEP.FT                 0.1000: 
NULL.                -999.2500: 
COMP.          Pioneer Natural Resources: COMPANY
WELL.              Draco 31-21: WELL
FLD.           Purgatoire River: FIELD
LOC.           491' FNL & 2446' FEL: LOCATION
CNTY.               Las Animas: COUNTY
SRVC.                Patterson: SERVICE COMPANY
DATE.          Wed Feb 01 07:01:32 2006: LOG DATE
UWI.           05 071 08672 00: UNIQUE WELL ID
STAT.                 Colorado: STATE
~Curve Information Block
DEPT.FT            0 000 00 00: Depth
DCAL.in                       : CDL Caliper
RHOB.g/cc                     : CDL Bulk Density
RHOC.g/cc                     : CDL Density Correction
DPOR.pu                       : CDL Density Porosity
GR.GAPI                       : Gamma Ray
NPOR.pu                       : Neutron Porosity
~Parameter Information Block
~A  Depth       DCAL        RHOB        RHOC        DPOR         GR         NPOR    
# ...
   631.8000      7.9177      2.5319      0.0765      7.1550    133.8311     24.7558
   631.9000      7.9177      2.5362      0.0890      6.8961    125.5445     25.0566
   632.0000      7.9163      2.5203      0.0802      7.8601    124.1108     25.7200
   632.1000      7.9163      2.5006      0.0541      9.0533    129.3015     26.1838
   632.2000      7.9163      2.4924      0.0812      9.5529    132.6787     26.3193
   632.3000      7.9074      2.4929      0.0852      9.5205    130.8132     26.1638
   632.4000      7.9074      2.4914      0.0865      9.6109    127.9362     26.0337
   632.5000      7.9149      2.4829      0.0265     10.1277    128.9647     26.1755
   632.6000      7.9149      2.4715      0.0278     10.8157    135.2604     26.1702
   632.7000      7.9149      2.4669      0.0430     11.0967    143.7119     25.7308
   632.8000      7.9159      2.4775      0.0383     10.4530    146.2472     25.1457
   632.9000      7.9159      2.4946      0.0620      9.4208    142.1414     24.8122
   633.0000      7.9167      2.5014      0.0376      9.0071    136.7154     24.6254
   633.1000      7.9167      2.5057      0.0422      8.7449    129.3513     24.0622
   633.2000      7.9167      2.5212      0.0534      7.8086    121.0491     23.2978
   633.3000      7.9162      2.5381      0.0638      6.7794    116.5702     22.8261
   633.4000      7.9162      2.5405      0.0601      6.6365    119.1649     22.4154
   633.5000      7.9209      2.5276      0.0525      7.4178    126.9253     21.6968
   633.6000      7.9209      2.5059      0.0737      8.7344    135.6145     20.9174
   633.7000      7.9209      2.4764      0.0846     10.5227    141.8619     20.5384
   633.8000      7.9173      2.4434      0.0213     12.5219    143.7439     20.7327
   633.9000      7.9173      2.4229     -0.0275     13.7645    143.3419     21.2090
   634.0000      7.9149      2.4241      0.0308     13.6934    141.1953     21.3952
   634.1000      7.9149      2.4353      0.0080     13.0135    137.0924     21.0449
   634.2000      7.9149      2.4433      0.0373     12.5287    134.7150     20.8656
   634.3000      7.9156      2.4419      0.0506     12.6119    135.0443     21.3907
   634.4000      7.9156      2.4287      0.0476     13.4148    137.4353     22.0139
   634.5000      7.9157      2.4101      0.0323     14.5369    141.9638     22.3794
   634.6000      7.9157      2.4039      0.0326     14.9122    145.5498     22.7377
   634.7000      7.9157      2.4167      0.0855     14.1424    146.1712     23.2199
   634.8000      7.9152      2.4314      0.0820     13.2462    143.0339     23.6381
   634.9000      7.9152      2.4329      0.0706     13.1564    137.6031     23.7887
   635.0000      7.9141      2.4229      0.0567     13.7626    133.3794     24.2377
   635.1000      7.9141      2.4091      0.0624     14.5994    129.9115     25.7241
   635.2000      7.9141      2.4001      0.0757     15.1479    127.5725     27.4985
   635.3000      7.9170      2.4097      0.0468     14.5662    127.9769     28.1946
   635.4000      7.9170      2.4414      0.1513     12.6407    127.8178     27.5609
   635.5000      7.9117      2.4873      0.1192      9.8576    122.7677     26.5547
   635.6000      7.9117      2.5484      0.1508      6.1562    115.0180     26.1708
   635.7000      7.9117      2.6169      0.2092      2.0060    109.1507     26.2332
   635.8000      7.9029      2.6721      0.2423     -1.3375    106.7568     26.0637
   635.9000      7.9029      2.7050      0.2713     -3.3333    103.6241     25.4277
   636.0000      7.9006      2.7150      0.2504     -3.9417     96.9486     24.5833
   636.1000      7.9006      2.6985      0.2450     -2.9406     90.0715     24.0880
   636.2000      7.9006      2.6610      0.1802     -0.6671     86.1026     23.9179
   636.3000      7.9023      2.6196      0.1148      1.8406     82.6095     23.4789
   636.4000      7.9023      2.5827      0.0530      4.0807     78.2265     22.6825
   636.5000      7.9135      2.5537      0.0132      5.8391     76.9634     22.1234
   636.6000      7.9135      2.5447     -0.0123      6.3845     76.5722     22.2519
   636.7000      7.9135      2.5551      0.0619      5.7510     74.6095     22.8097
   636.8000      7.9134      2.5606      0.0762      5.4191     75.9183     23.2212
   636.9000      7.9134      2.5516      0.0367      5.9645     77.8571     23.2455
   637.0000      7.8982      2.5498      0.0176      6.0722     73.2287     22.8809
   637.1000      7.8982      2.5653      0.0731      5.1347     66.1732     22.1572
   637.2000      7.8982      2.5783      0.0704      4.3452     63.0479     21.4153
   637.3000      7.8854      2.5797      0.0299      4.2579     62.5569     21.1816
   637.4000      7.8854      2.5857     -0.0250      3.8952     60.8389     21.5083
   637.5000      7.8728      2.6012      0.0613      2.9599     57.4933     21.9240
   637.6000      7.8728      2.6060      0.1229      2.6662     55.5966     21.8660
   637.7000      7.8728      2.6020      0.0345      2.9071     55.3333     21.1683
   637.8000      7.8811      2.6184      0.0726      1.9144     55.6850     20.4531
   637.9000      7.8811      2.6593      0.0962     -0.5663     59.4839     20.1345
   638.0000      7.8896      2.6998      0.0887     -3.0198     67.0205     19.7737
   638.1000      7.8896      2.7148      0.1072     -3.9302     72.9016     19.1846
   638.2000      7.8896      2.6960      0.0460     -2.7893     74.1460     18.8902
   638.3000      7.9138      2.6580      0.0354     -0.4856     73.0481     19.1090
   638.4000      7.9138      2.6165      0.0304      2.0310     74.0406     19.3862
   638.5000      7.9212      2.5733      0.0107      4.6498     77.4568     19.2443
   638.6000      7.9212      2.5327     -0.0630      7.1087     79.3533     18.5255
   638.7000      7.9212      2.5017     -0.0577      8.9877     80.0425     17.4273
   638.8000      7.9137      2.4762     -0.0133     10.5310     83.8758     16.4197
   638.9000      7.9137      2.4533      0.0246     11.9218     93.0807     15.8496
   639.0000      7.9097      2.4313      0.0078     13.2521    105.9431     15.6043
   639.1000      7.9097      2.4034      0.0264     14.9484    116.0533     15.1850
   639.2000      7.9097      2.3583      0.1213     17.6780    117.8532     14.5218
   639.3000      7.9231      2.2824      0.1000     22.2769    115.5548     14.1945
   639.4000      7.9231      2.1733      0.0449     28.8912    119.3267     14.8255
   639.5000      7.9300      2.0463      0.0301     36.5854    128.6062     16.5724
   639.6000      7.9300      1.9342     -0.0670     43.3813    135.8621     18.6469
   639.7000      7.9300      1.8727     -0.0688     47.1073    138.6598     20.2128
   639.8000      7.9318      1.8714     -0.0577     47.1894    135.1480     21.3620
   639.9000      7.9318      1.9163      0.0069     44.4653    124.8240     22.3305
   640.0000      7.9373      1.9889      0.0736     40.0661    114.9292     23.2824
   640.1000      7.9373      2.0783      0.1375     34.6464    112.8199     24.3354
   640.2000      7.9373      2.1849      0.2053     28.1904    116.4999     25.3462
   640.3000      7.9351      2.3045      0.2623     20.9387    124.2652     26.0242
   640.4000      7.9351      2.4181      0.2927     14.0518    134.8278     26.1680
   640.5000      7.9292      2.4981      0.2904      9.2039    139.4280     26.3203
   640.6000      7.9292      2.5343      0.1897      7.0119    135.0900     27.0746
   640.7000      7.9292      2.5550      0.0518      5.7596    129.1242     27.8532
   640.8000      7.9261      2.5841      0.1325      3.9962    126.4193     27.7887
   640.9000      7.9261      2.6009      0.1222      2.9750    124.6438     26.7657
   641.0000      7.9208      2.5872      0.0975      3.8039    120.9491     25.5205
   641.1000      7.9208      2.5608      0.0819      5.4046    116.6426     24.8878
   641.2000      7.9208      2.5426      0.0921      6.5084    113.6829     24.5568
   641.3000      7.9214      2.5373      0.0543      6.8314    110.1341     23.9068
