~Version Information
VERS.                      2.0: CWLS Log ASCII Standard - VERSION 2.0
WRAP.                       NO: One line per depth step
~Well Information Block
STRT.FT               295.7500: 
STOP.FT              1461.0000: 
STEP.FT                 0.2500: 
NULL.                -999.2500: 
COMP.          Pioneer Natural Resources: COMPANY
WELL.              Lucky 21-36: WELL
FLD.           Purgatoire River: FIELD
LOC.           799' FNL & 1578' FWL--: LOCATION
CDN. :
PROV. :
UWI. :
STAT. :
CNTY. :
CTRY. :
API. :
COMP. :
WELL. :
FLD. :
LOC. :
DATE. :
SRVC. :
CNTY.               Las Animas: COUNTY
SRVC.          Superior Well Services: SERVICE COMPANY
DATE.          Mon Jul 07 19-13-01 2008: LOG DATE
UWI.           05 071 08456 00: UNIQUE WELL ID
STAT.                 Colorado: STATE
~Curve Information Block
DEPT.FT            0 000 00 00: Depth
SN.Ohm-m                      : IEL Short Normal
SP.mV                         : IEL Spontaneous Potential
DIR.Ohm-m                     : IEL Induction Resistivity
GR.GAPI                       : Gamma Ray
~Parameter Information Block
~A  Depth        SN          SP         DIR          GR     
# ...
   329.2500   2000.0000   1980.0000 100000.0000     81.1499
   329.5000   2000.0000   1980.0000 100000.0000     82.9093
   329.7500   2000.0000   1980.0000 100000.0000     85.4414
   330.0000   2000.0000   1980.0000 100000.0000     86.7016
   330.2500   2000.0000   1980.0000 100000.0000     87.6369
   330.5000   2000.0000   1980.0000 100000.0000     87.8632
   330.7500   2000.0000   1980.0000 100000.0000     88.3363
   331.0000   2000.0000   1980.0000 100000.0000     88.8930
   331.2500   2000.0000   1980.0000 100000.0000     89.6834
   331.5000   2000.0000   1980.0000 100000.0000     89.8581
   331.7500   2000.0000   1980.0000 100000.0000     89.3179
   332.0000   2000.0000   1980.0000 100000.0000     88.3909
   332.2500   2000.0000   1980.0000 100000.0000     86.2803
   332.5000   2000.0000   1980.0000 100000.0000     84.6985
   332.7500   2000.0000   1980.0000 100000.0000     82.8648
   333.0000   2000.0000   1980.0000 100000.0000     82.2363
   333.2500   2000.0000   1980.0000 100000.0000     81.6911
   333.5000   2000.0000   1980.0000 100000.0000     81.0860
   333.7500   2000.0000   1980.0000 100000.0000     79.5363
   334.0000   2000.0000   1980.0000 100000.0000     78.2764
   334.2500   2000.0000   1980.0000 100000.0000     76.3133
   334.5000   2000.0000   1980.0000 100000.0000     74.9526
   334.7500   2000.0000   1980.0000 100000.0000     73.0112
   335.0000   2000.0000   1980.0000 100000.0000     72.0813
   335.2500   2000.0000   1980.0000 100000.0000     71.6048
   335.5000   2000.0000   1980.0000 100000.0000     71.8383
   335.7500   2000.0000   1980.0000 100000.0000     72.6857
   336.0000   2000.0000   1980.0000 100000.0000     73.4753
   336.2500   2000.0000   1980.0000 100000.0000     74.9116
   336.5000   2000.0000   1980.0000 100000.0000     75.9613
   336.7500   2000.0000   1980.0000 100000.0000     77.7756
   337.0000   2000.0000   1980.0000 100000.0000     79.4911
   337.2500   2000.0000   1980.0000 100000.0000     83.3205
   337.5000   2000.0000   1980.0000 100000.0000     86.3684
   337.7500   2000.0000   1980.0000 100000.0000     89.8155
   338.0000   2000.0000   1980.0000 100000.0000     90.1843
   338.2500   2000.0000   1980.0000 100000.0000     87.3214
   338.5000   2000.0000   1980.0000 100000.0000     84.0520
   338.7500   2000.0000   1980.0000 100000.0000     79.6842
   339.0000   2000.0000   1980.0000 100000.0000     78.1693
   339.2500   2000.0000   1980.0000 100000.0000     77.9826
   339.5000   2000.0000   1980.0000 100000.0000     78.5849
   339.7500   2000.0000   1980.0000 100000.0000     79.7798
   340.0000   2000.0000   1980.0000 100000.0000     80.9032
   340.2500   2000.0000   1980.0000 100000.0000     83.8448
   340.5000   2000.0000   1980.0000 100000.0000     86.8357
   340.7500   2000.0000   1980.0000 100000.0000     92.1665
   341.0000   2000.0000   1980.0000 100000.0000     95.3706
   341.2500   2000.0000   1980.0000 100000.0000     97.9531
   341.5000   2000.0000   1980.0000 100000.0000     97.6175
   341.7500   2000.0000   1980.0000 100000.0000     94.4202
   342.0000   2000.0000   1980.0000 100000.0000     91.4568
   342.2500   2000.0000   1980.0000 100000.0000     87.7722
   342.5000   2000.0000   1980.0000 100000.0000     86.6404
   342.7500   2000.0000   1980.0000 100000.0000     87.1677
   343.0000   2000.0000   1980.0000 100000.0000     88.5109
   343.2500   2000.0000   1980.0000 100000.0000     90.7525
   343.5000   2000.0000   1980.0000 100000.0000     91.8677
   343.7500   2000.0000   1980.0000 100000.0000     92.7307
   344.0000   2000.0000   1980.0000 100000.0000     92.9015
   344.2500   2000.0000   1980.0000 100000.0000     93.0918
   344.5000   2000.0000   1980.0000 100000.0000     93.6254
   344.7500   2000.0000   1980.0000 100000.0000     95.6148
   345.0000   2000.0000   1980.0000 100000.0000     97.7100
   345.2500   2000.0000   1980.0000 100000.0000    101.5030
   345.5000   2000.0000   1980.0000 100000.0000    104.2351
   345.7500   2000.0000   1980.0000 100000.0000    108.6986
   346.0000   2000.0000   1980.0000 100000.0000    112.0991
   346.2500   2000.0000   1980.0000 100000.0000    117.9652
   346.5000   2000.0000   1980.0000 100000.0000    122.2638
   346.7500   2000.0000   1980.0000 100000.0000    128.8938
   347.0000   2000.0000   1980.0000 100000.0000    133.1710
   347.2500   2000.0000   1980.0000 100000.0000    138.8705
   347.5000   2000.0000   1980.0000 100000.0000    141.8912
   347.7500   2000.0000   1980.0000 100000.0000    144.9919
   348.0000   2000.0000   1980.0000 100000.0000    146.2661
   348.2500   2000.0000   1980.0000 100000.0000    147.6908
   348.5000   2000.0000   1980.0000 100000.0000    148.6749
   348.7500   2000.0000   1980.0000      9.5529    150.3166
   349.0000   2000.0000   1980.0000      4.6175    151.3591
   349.2500   2000.0000   1980.0000      3.9494    152.4574
   349.5000   2000.0000   1980.0000      4.5602    152.6336
   349.7500   2000.0000   1980.0000      6.8293    151.7408
   350.0000   2000.0000   1980.0000     14.2186    150.4467
   350.2500   2000.0000   1980.0000     64.1406    148.1015
   350.5000   2000.0000   1980.0000 100000.0000    146.5835
   350.7500   2000.0000   1980.0000 100000.0000    144.2861
   351.0000   2000.0000   1980.0000     36.4098    142.5635
   351.2500   2000.0000   1980.0000     14.2196    139.7844
   351.5000   2000.0000   1980.0000      8.7457    137.9905
   351.7500   2000.0000   1980.0000      6.6690    135.4541
   352.0000   2000.0000   1980.0000      5.7877    133.7469
   352.2500   2000.0000   1980.0000      5.4544    131.0070
   352.5000   2000.0000   1980.0000      5.4070    129.0895
   352.7500   2000.0000   1980.0000      5.5053    126.3825
   353.0000   2000.0000   1980.0000      5.6550    124.9883
   353.2500   2000.0000   1980.0000      5.7885    123.9805
   353.5000   2000.0000   1980.0000      5.8695    124.0691
   353.7500   2000.0000   1980.0000      5.9019    124.8369
   354.0000   2000.0000   1980.0000      5.9287    125.3340
   354.2500   2000.0000   1980.0000      6.0148    125.6246
   354.5000   2000.0000   1980.0000      6.2233    125.6147
   354.7500   2000.0000   1980.0000      6.5966    125.9093
   355.0000   2000.0000   1980.0000      7.1367    126.6105
   355.2500   2000.0000   1980.0000      7.7855    128.0357
   355.5000   2000.0000   1980.0000      8.4256    128.3419
   355.7500   2000.0000   1980.0000      8.9340    126.0929
   356.0000   2000.0000   1980.0000      9.2630    122.5011
   356.2500   2000.0000   1980.0000      9.4660    115.4147
   356.5000   2000.0000   1980.0000      9.6469    111.0576
   356.7500   2000.0000   1980.0000      9.9027    107.2850
   357.0000   2000.0000   1980.0000     10.2970    107.1461
   357.2500   2000.0000   1980.0000     10.8530    109.8290
   357.5000   2000.0000   1980.0000     11.5493    112.4110
   357.7500   2000.0000   1980.0000     12.3213    115.2555
   358.0000   2000.0000   1980.0000     13.0793    115.6609
   358.2500   2000.0000   1980.0000     13.7453    113.9635
   358.5000   2000.0000   1980.0000     14.2856    111.7668
   358.7500   2000.0000   1980.0000     14.7180    107.8667
   359.0000   2000.0000   1980.0000     15.0909    105.3475
   359.2500   2000.0000   1980.0000     15.4545    102.1512
   359.5000   2000.0000   1980.0000     15.8406    100.4283
   359.7500   2000.0000   1980.0000     16.2563     98.3387
   360.0000   2000.0000   1980.0000     16.6866     97.2867
   360.2500   2000.0000   1980.0000     17.1032     96.1852
   360.5000   2000.0000   1980.0000     17.4757     95.5554
   360.7500   2000.0000   1980.0000     17.7815     94.3479
   361.0000   2000.0000   1980.0000     18.0083     93.3871
   361.2500   2000.0000   1980.0000     18.1498     92.2177
   361.5000   2000.0000   1980.0000     18.2024     91.9614
   361.7500   2000.0000   1980.0000     18.1690     92.6879
   362.0000   2000.0000   1980.0000     18.0669     93.8876
   362.2500   2000.0000   1980.0000     17.9315     96.4174
   362.5000   2000.0000   1980.0000     17.8080     98.3560
