~Version Information
VERS.                      2.0: CWLS Log ASCII Standard - VERSION 2.0
WRAP.                       NO: One line per depth step
~Well Information Block
STRT.FT               550.0000: 
STOP.FT              1500.5000: 
STEP.FT                 0.2500: 
NULL.                -999.2500: 
COMP.          Pioneer Natural Resources: COMPANY
WELL.          Surtees 23-34 Tr: WELL
FLD.           Purgatoire River: FIELD
LOC.           1559' FSL & 1997' FWL: LOCATION
PROV.                 Colorado: PROVINCE
CNTY.               Las Animas: COUNTRY
SRVC.                Patterson: SERVICE COMPANY
DATE.          Tue Jul 26 23:47:42 2005: LOG DATE
UWI.           05 071 08449 00: UNIQUE WELL ID
~Curve Information Block
DEPT.FT            0 000 00 00: Depth
SN.Ohm-m                      : IEL Short Normal
SP.mV                         : IEL Spontaneous Potential
DIR.Ohm-m                     : IEL Induction Resistivity
GR.GAPI                       : Gamma Ray
~Parameter Information Block
~A  Depth        SN          SP         DIR          GR     
# ...
  1153.0000     16.1519     -7.1557     15.9705    115.2090
  1153.2500     16.5295     -7.3729     16.3584    110.4806
  1153.5000     17.1343     -7.5857     16.7704    104.7110
  1153.7500     17.9761     -7.8062     17.1931    102.2809
  1154.0000     18.9930     -8.0368     17.6198    100.7512
  1154.2500     20.1458     -8.2624     18.0474    100.3730
  1154.5000     21.3979     -8.4717     18.4669     98.8913
  1154.7500     22.5902     -8.6830     18.8586     96.8080
  1155.0000     23.4520     -8.9426     19.1985     93.1845
  1155.2500     23.7923     -9.2981     19.4678     91.7049
  1155.5000     23.6065     -9.7680     19.6562     92.2316
  1155.7500     23.0262    -10.3299     19.7592     94.2892
  1156.0000     22.2556    -10.9362     19.7752     99.0175
  1156.2500     21.5096    -11.5435     19.7083    102.9616
  1156.5000     20.8929    -12.1301     19.5728    109.9694
  1156.7500     20.3468    -12.6903     19.3931    115.0239
  1157.0000     19.7836    -13.2233     19.1957    121.6236
  1157.2500     19.2172    -13.7273     18.9978    124.2918
  1157.5000     18.7264    -14.1972     18.8022    124.5567
  1157.7500     18.4019    -14.6209     18.6043    122.2222
  1158.0000     18.3167    -14.9779     18.4060    115.9988
  1158.2500     18.4752    -15.2406     18.2218    111.1325
  1158.5000     18.8358    -15.3821     18.0706    105.0172
  1158.7500     19.3657    -15.3870     17.9605    102.8289
  1159.0000     20.0500    -15.2664     17.8825    102.9390
  1159.2500     20.8997    -15.0667     17.8155    104.6136
  1159.5000     21.8943    -14.8531     17.7355    107.5397
  1159.7500     22.8662    -14.6687     17.6149    108.9117
  1160.0000     23.5859    -14.5098     17.4137    109.8668
  1160.2500     24.0038    -14.3458     17.0808    110.0645
  1160.5000     24.2432    -14.1571     16.5779    110.0530
  1160.7500     24.4088    -13.9491     15.9198    109.7958
  1161.0000     24.5592    -13.7393     15.1943    108.8621
  1161.2500     24.7577    -13.5417     14.5442    107.9187
  1161.5000     25.0230    -13.3643     14.1297    106.4017
  1161.7500     25.2898    -13.2162     14.1126    105.5528
  1162.0000     25.4942    -13.1122     14.6880    104.5150
  1162.2500     25.6486    -13.0707     16.1900    103.7784
  1162.5000     25.7358    -13.1016     19.3909    102.5067
  1162.7500     25.6424    -13.1974     26.6416    101.8853
  1163.0000     25.3533    -13.3312     49.6632    102.2135
  1163.2500     25.0658    -13.4680   2417.9250    103.5522
  1163.5000     25.0105    -13.5806 100000.0000    106.6603
  1163.7500     25.2432    -13.6616 100000.0000    108.5683
  1164.0000     25.5897    -13.7231 100000.0000    109.5950
  1164.2500     25.8158    -13.7859 100000.0000    108.7213
  1164.5000     25.8746    -13.8652 100000.0000    105.9583
  1164.7500     25.8836    -13.9606 100000.0000    104.1516
  1165.0000     25.8887    -14.0529 100000.0000    102.9681
  1165.2500     25.7644    -14.1114 100000.0000    103.6007
  1165.5000     25.3403    -14.1103 100000.0000    106.5300
  1165.7500     24.5842    -14.0467 100000.0000    109.2611
  1166.0000     23.6200    -13.9465 100000.0000    113.0693
  1166.2500     22.5721    -13.8520 100000.0000    114.5953
  1166.5000     21.4940    -13.8049 100000.0000    114.7266
  1166.7500     20.4422    -13.8382 100000.0000    113.6602
  1167.0000     19.4295    -13.9828 100000.0000    111.7619
  1167.2500     18.3216    -14.2830 100000.0000    111.2542
  1167.5000     16.9949    -14.8066 100000.0000    112.5175
  1167.7500     15.5453    -15.6478 100000.0000    114.5729
  1168.0000     14.1909    -16.9301 100000.0000    118.5967
  1168.2500     13.0702    -18.8175 100000.0000    121.4249
  1168.5000     12.1843    -21.5333 100000.0000    125.4560
  1168.7500     11.3992    -25.3716      7.1691    127.9899
  1169.0000     10.5463    -30.6874      2.4068    131.9647
  1169.2500      9.5928    -37.8496      1.2028    135.1163
  1169.5000      8.6412    -47.1343      0.6977    140.7582
  1169.7500      7.8031    -58.5356      0.4340    144.4867
  1170.0000      7.1137    -71.5319      0.2796    148.0497
  1170.2500      6.5343    -84.9320      0.1861    148.2464
  1170.5000      5.9845    -96.9913      0.1304    145.4400
  1170.7500      5.3519   -105.9127      0.0984    142.0065
  1171.0000      4.5697   -110.5810      0.0804    134.2694
  1171.2500      3.7194   -111.0701      0.0704    126.4709
  1171.5000      2.9800   -108.5026      0.0645    109.8099
  1171.7500      2.4898   -104.3733      0.0605     96.1785
  1172.0000      2.2859    -99.8833      0.0569     75.3331
  1172.2500      2.4318    -95.6775      0.0534     63.2194
  1172.5000      3.4069    -91.9214      0.0497     49.6154
  1172.7500      6.2506    -88.4459      0.0463     43.5995
  1173.0000     11.7097    -84.8264      0.0439     38.0786
  1173.2500     18.8892    -80.4506      0.0435     36.0006
  1173.5000     25.2105    -74.6830      0.0465     34.5570
  1173.7500     28.1365    -67.1615      0.0549     34.7484
  1174.0000     26.7392    -58.0906      0.0715     37.5668
  1174.2500     21.8823    -48.2879      0.1006     41.8915
  1174.5000     15.5780    -38.8718      0.1464     53.2470
  1174.7500      9.9855    -30.7816      0.2111     64.1175
  1175.0000      6.3205    -24.4661      0.2929     83.3520
  1175.2500      4.5012    -19.8871      0.3877     95.8531
  1175.5000      3.8504    -16.7247      0.4905    110.3398
  1175.7500      3.9645    -14.5934      0.5960    116.2342
  1176.0000      4.8964    -13.1663      0.6997    120.3797
  1176.2500      6.6710    -12.2096      0.8003    121.1752
  1176.5000      8.8697    -11.5697      0.9042    120.9659
  1176.7500     10.8917    -11.1467      1.0269    120.3495
  1177.0000     12.4521    -10.8709      1.1939    118.9293
  1177.2500     13.6440    -10.6870      1.4417    117.5802
  1177.5000     14.6979    -10.5476      1.8259    114.7195
  1177.7500     15.7709    -10.4143      2.4435    112.1245
  1178.0000     16.8769    -10.2660      3.4882    107.2031
  1178.2500     17.9640    -10.1044      5.4180    103.5967
  1178.5000     18.9860     -9.9508      9.6195     98.9101
  1178.7500     19.9126     -9.8290     22.9743     96.8657
  1179.0000     20.7564     -9.7463   1087.0869     95.3892
  1179.2500     21.5665     -9.6858 100000.0000     94.8611
  1179.5000     22.3408     -9.6144 100000.0000     93.5861
  1179.7500     22.9507     -9.5011 100000.0000     92.1296
  1180.0000     23.1997     -9.3382 100000.0000     89.6152
  1180.2500     22.9745     -9.1551 100000.0000     88.5626
  1180.5000     22.3256     -9.0094 100000.0000     89.4671
  1180.7500     21.4509     -8.9490 100000.0000     92.1260
  1181.0000     20.6120     -8.9747 100000.0000     98.4839
  1181.2500     19.9722     -9.0413    103.2134    103.3282
  1181.5000     19.5229     -9.1011     45.0083    109.9087
  1181.7500     19.1690     -9.1428     31.2348    113.2784
  1182.0000     18.7942     -9.1889     25.5821    116.4722
  1182.2500     18.3512     -9.2647     22.8270    117.4695
  1182.5000     17.9342     -9.3784     21.4329    117.9616
  1182.7500     17.6655     -9.5267     20.7600    118.2685
  1183.0000     17.5698     -9.7122     20.4432    119.7421
  1183.2500     17.5762     -9.9478     20.2157    121.4947
  1183.5000     17.5709    -10.2406     19.8868    124.0932
  1183.7500     17.4945    -10.5698     19.3733    124.8225
  1184.0000     17.3900    -10.8868     18.7052    123.7754
  1184.2500     17.3566    -11.1398     17.9805    122.0377
  1184.5000     17.5165    -11.3065     17.3028    118.7650
  1184.7500     17.9328    -11.4091     16.7431    116.5414
  1185.0000     18.5186    -11.4992     16.3329    114.2712
  1185.2500     19.1135    -11.6267     16.0751    114.4796
  1185.5000     19.6470    -11.8146     15.9586    118.5595
  1185.7500     20.1590    -12.0504     15.9678    123.5148
  1186.0000     20.6318    -12.2933     16.0847    132.3531
  1186.2500     20.8904    -12.4954     16.2854    137.8754
