~Version Information
 VERS.                                  2.0 : CWLS LAS VERSION
 WRAP.                                   NO : WRAPING MODE
 SWARE .                 MController 2.5.0N : SOFTWARE VERSION
~Well Information
 WELL.                     Red Raider 22-15 : WELL
 COMP.       Pioneer Natural Resources, LLC : COMPANY
 FLD.                       Purgatory River : FIELD
 LOC.                 SE/NW Sec15 T33S R65W : LOCATION
 DATE.                              4/10/06 : DATE(S) LOGGED
 SRVC.      Blanco Geological Services, LLC : SERVICE COMPANY
 STAT.                             Colorado : STATE
 CNTY.                           Las Animas : COUNTY
 CTRY.                                  USA : COUNTRY
 API.                       05-071-08718-00 : API NUMBER
 STRT.FT                             442.00 : START DEPTH
 STOP.FT                            1036.00 : STOP DEPTH
 STEP.FT                               1.00 : DEPTH INCREMENT
 NULL.                                -9999 : NULL VALUE
~Curve information
 DEPTH.FT                                   :
 ROP.MIN/FT                                 :
 GAS.UNITS                                  :
~ASCII Log data
       442.0     -9999.00          2.7 
       443.0         0.23          2.9 
       444.0         0.27          3.1 
       445.0         0.20          3.0 
       446.0         0.22          2.9 
       447.0         0.17          2.6 
       448.0         0.20          2.8 
       449.0         0.17          2.6 
       450.0         0.13          2.6 
       451.0         0.13          2.8 
       452.0         0.17          2.7 
       453.0         0.13          2.4 
       454.0         0.13          2.7 
       455.0         0.13          2.4 
       456.0         0.13          2.3 
       457.0         0.17          2.5 
       458.0         0.13          2.3 
       459.0         0.10          2.2 
       460.0         0.13          3.0 
       461.0         0.13          2.2 
       462.0         0.13          2.4 
       463.0         0.10          2.0 
       464.0         0.13          2.2 
       465.0         0.13          2.4 
       466.0         0.13          2.2 
       467.0         0.10          1.8 
       468.0         0.13          2.2 
       469.0         0.10          2.0 
       470.0         0.13          1.9 
       471.0         0.15          2.1 
       472.0         4.82          2.4 
       473.0         0.30          1.6 
       474.0         0.23          1.3 
       475.0         0.20          1.7 
       476.0         0.20          1.7 
       477.0         0.17          1.3 
       478.0         0.13          1.3 
       479.0         0.17          1.4 
       480.0         0.13          1.5 
       481.0         0.17          1.3 
       482.0         0.15          1.4 
       483.0         0.17          1.4 
       484.0         0.17          1.6 
       485.0         0.13          1.4 
       486.0         0.17          1.4 
       487.0         0.17          1.7 
       488.0         0.17          1.7 
       489.0         0.13          1.6 
       490.0         0.17          1.7 
       491.0         0.17          1.7 
       492.0         0.17          1.6 
       493.0         0.17          1.6 
       494.0         0.17          1.9 
       495.0         0.17          2.2 
       496.0         0.13          2.1 
       497.0         0.17          1.7 
       498.0         0.17          2.1 
       499.0         0.17          2.0 
       500.0         0.17          2.1 
       501.0         0.20          2.1 
       502.0         4.60          2.2 
       503.0         0.17          2.0 
       504.0         0.17          2.1 
       505.0         0.17          2.3 
       506.0         0.17          2.3 
       507.0         0.17          2.0 
       508.0         0.17          2.1 
       509.0         0.17          2.5 
       510.0         0.17          2.3 
       511.0         0.17          2.0 
       512.0         0.17          2.1 
       513.0         0.13          2.0 
       514.0         0.17          2.4 
       515.0         0.13          2.1 
       516.0         0.13          1.8 
       517.0         0.15          2.2 
       518.0         0.13          2.0 
       519.0         0.13          1.9 
       520.0         0.20          2.1 
       521.0         0.27          2.3 
       522.0         0.30          2.2 
       523.0         0.33          2.2 
       524.0         0.27          2.5 
       525.0         0.27          2.2 
       526.0         0.30          2.3 
       527.0         0.23          2.0 
       528.0         0.23          1.6 
       529.0         0.20          1.7 
       530.0         0.27          2.0 
       531.0         0.48          6.9 
       532.0         5.88         10.4 
       533.0         0.58          2.7 
       534.0         0.43          2.9 
       535.0         0.40          3.0 
       536.0         0.33          2.8 
       537.0         0.27          2.6 
       538.0         0.27          2.5 
       539.0         0.23          2.5 
       540.0         0.27          2.6 
       541.0         0.27          2.4 
       542.0         0.30          2.4 
       543.0         0.45          2.5 
       544.0         0.30          2.5 
       545.0         0.27          2.6 
       546.0         0.40          2.4 
       547.0         0.23          2.4 
       548.0         0.33          3.5 
       549.0         0.27          7.0 
       550.0         0.20         11.5 
       551.0         0.33         14.2 
       552.0         0.37         13.0 
       553.0         0.20         11.7 
       554.0         0.20         10.1 
       555.0         0.20          9.4 
       556.0         0.22          8.9 
       557.0         0.27          8.2 
       558.0         0.23         11.6 
       559.0         0.23         23.1 
       560.0         0.20         29.7 
       561.0         0.57         31.5 
       562.0         5.03         41.4 
       563.0         0.43         13.8 
       564.0         0.37         12.1 
       565.0         0.33         15.6 
       566.0         0.33         15.6 
       567.0         0.33         14.0 
       568.0         0.27         12.2 
       569.0         0.23         11.9 
       570.0         0.30         10.9 
       571.0         0.30         12.0 
       572.0         0.27         17.4 
       573.0         0.32         24.6 
       574.0         0.33         27.5 
       575.0         0.30         27.9 
       576.0         0.30         27.5 
       577.0         0.33         27.8 
       578.0         0.30         27.5 
       579.0         0.30         27.4 
       580.0         0.30         25.7 
       581.0         0.30         24.7 
       582.0         0.27         24.0 
       583.0         0.30         23.3 
       584.0         0.25         22.6 
       585.0         0.30         20.9 
       586.0         0.27         20.3 
       587.0         0.27         19.4 
       588.0         0.23         19.0 
       589.0         0.30         19.3 
       590.0         0.30         19.2 
       591.0         0.27         19.0 
       592.0         4.25         47.7 
       593.0         0.45         30.2 
       594.0         0.37         19.9 
       595.0         0.27         20.3 
       596.0         0.27         23.7 
       597.0         0.27         24.1 
       598.0         0.27         23.9 
       599.0         0.30         22.6 
       600.0         0.27         18.5 
       601.0         0.30         17.5 
       602.0         0.27         16.5 
       603.0         0.20         16.4 
       604.0         0.30         16.1 
       605.0         0.32         15.3 
       606.0         0.30         15.5 
       607.0         0.20         14.9 
       608.0         0.27         15.1 
       609.0         0.20         14.0 
       610.0         0.20         14.4 
       611.0         0.20         14.5 
       612.0         0.20         14.0 
       613.0         0.20         13.6 
       614.0         0.17         13.8 
       615.0         0.20         16.5 
       616.0         0.30         27.3 
       617.0         0.23         30.2 
       618.0         0.23         31.4 
       619.0         0.17         34.0 
       620.0         0.25         37.4 
       621.0         0.30         39.9 
       622.0         4.28         73.2 
       623.0         0.53         50.8 
       624.0         0.50         34.1 
       625.0         0.37         41.1 
       626.0         0.30         43.2 
       627.0         0.23         40.0 
       628.0         0.25         34.2 
       629.0         0.27         31.6 
       630.0         0.27         29.7 
       631.0         0.27         25.6 
       632.0         0.23         23.7 
       633.0         0.27         22.3 
       634.0         0.23         22.6 
       635.0         0.23         22.5 
       636.0         0.27         22.5 
       637.0         0.30         22.1 
       638.0         0.30         21.8 
       639.0         0.37         22.6 
       640.0         0.28         23.0 
       641.0         0.27         22.4 
