~Version Information
VERS.                      2.0: CWLS Log ASCII Standard - VERSION 2.0
WRAP.                       NO: One line per depth step
~Well Information Block
STRT.FT               360.0000: 
STOP.FT              2475.0000: 
STEP.FT                 0.1000: 
NULL.                -999.2500: 
COMP.          Pioneer Natural Resources: COMPANY
WELL.          Hellzonfire 32-31: WELL
FLD.           Purgatoire River: FIELD
LOC.           1993' FNL & 2265' FEL: LOCATION
STAT.                 Colorado: State
CNTY.               Las Animas: COUNTY
CTRY. USA : Country
SECT. 31 : Section
TOWN. 32S : Township
RANG. 66W : Range
SRVC.                Patterson: SERVICE COMPANY
DATE.          Fri Sep 02 07:26:13 2005: LOG DATE
API.           05 071 08483 00: UNIQUE WELL ID
~Curve Information Block
DEPT.FT            0 000 00 00: Depth
DCAL.in                       : CDL Caliper
RHOB.g/cc                     : CDL Bulk Density
RHOC.g/cc                     : CDL Density Correction
DPOR.pu                       : CDL Density Porosity
GR.GAPI                       : Gamma Ray
NPOR.pu                       : Neutron Porosity
~Parameter Information Block
~A  Depth       DCAL        RHOB        RHOC        DPOR         GR         NPOR    
# ...
  1204.8000      8.1320      2.4930      0.0439      9.5147    131.1468     27.5218
  1204.9000      8.1320      2.5057     -0.0189      8.7468    124.4216     26.9231
  1205.0000      8.1288      2.5272     -0.0091      7.4401    116.8820     25.4166
  1205.1000      8.1288      2.5572      0.0437      5.6244    118.6703     24.7859
  1205.2000      8.1288      2.5723      0.0746      4.7105    129.8140     25.5657
  1205.3000      8.1474      2.5663      0.0886      5.0754    137.1592     26.7420
  1205.4000      8.1474      2.5556      0.1295      5.7190    133.6704     26.9341
  1205.5000      8.1534      2.5472      0.1443      6.2285    126.2296     26.3418
  1205.6000      8.1534      2.5410      0.1047      6.6050    121.8754     25.9827
  1205.7000      8.1534      2.5431      0.0968      6.4802    120.2102     25.8126
  1205.8000      8.1269      2.5473      0.0727      6.2228    118.1753     25.6525
  1205.9000      8.1269      2.5361      0.1136      6.9026    116.3578     26.4212
  1206.0000      8.1391      2.5092      0.0162      8.5320    117.0109     28.1224
  1206.1000      8.1391      2.4896      0.0257      9.7223    117.3837     29.5765
  1206.2000      8.1391      2.4871      0.0501      9.8729    114.8424     30.0195
  1206.3000      8.1514      2.4873      0.0208      9.8584    112.8672     29.2734
  1206.4000      8.1514      2.4795     -0.0198     10.3308    112.6699     27.9998
  1206.5000      8.1617      2.4735     -0.0250     10.6987    111.1947     26.9417
  1206.6000      8.1617      2.4879     -0.0297      9.8217    109.6167     25.7903
  1206.7000      8.1617      2.5216      0.0392      7.7826    110.0666     24.6531
  1206.8000      8.1565      2.5532      0.0317      5.8637    110.8951     24.3856
  1206.9000      8.1565      2.5703      0.0489      4.8319    113.5086     25.0858
  1207.0000      8.1495      2.5707      0.0506      4.8087    119.4309     25.9124
  1207.1000      8.1495      2.5611      0.0297      5.3853    123.9185     26.0272
  1207.2000      8.1495      2.5609      0.0054      5.4014    125.5982     25.3991
  1207.3000      8.1506      2.5742      0.0729      4.5962    131.8811     24.7442
  1207.4000      8.1506      2.5824      0.0632      4.0983    142.7923     24.5893
  1207.5000      8.1494      2.5726      0.0434      4.6893    145.8117     24.6712
  1207.6000      8.1494      2.5518      0.0416      5.9520    135.7495     24.6706
  1207.7000      8.1494      2.5311      0.0530      7.2035    122.1634     24.8864
  1207.8000      8.1556      2.5132      0.0667      8.2906    114.2505     25.3366
  1207.9000      8.1556      2.5078      0.0214      8.6190    110.7349     25.1701
  1208.0000      8.1617      2.5251      0.0485      7.5696    107.1252     23.7130
  1208.1000      8.1617      2.5478      0.1118      6.1964    102.8954     21.9449
  1208.2000      8.1617      2.5542      0.0771      5.8063     97.9938     21.2686
  1208.3000      8.1538      2.5528      0.0570      5.8890     92.9373     21.4509
  1208.4000      8.1538      2.5610      0.0619      5.3961     91.3924     22.1264
  1208.5000      8.1503      2.5722      0.0821      4.7171     95.0480     23.5995
  1208.6000      8.1503      2.5648      0.0786      5.1631    100.5944     25.1880
  1208.7000      8.1503      2.5376      0.0324      6.8118    105.2511     25.7456
  1208.8000      8.1529      2.5194      0.0451      7.9165    109.3685     25.0327
  1208.9000      8.1529      2.5312      0.0554      7.1982    112.9531     23.8728
  1209.0000      8.1507      2.5578      0.1019      5.5908    112.8346     23.2313
  1209.1000      8.1507      2.5775      0.0909      4.3965    107.7267     22.7464
  1209.2000      8.1507      2.5945      0.0570      3.3621    103.7323     21.6057
  1209.3000      8.1437      2.6140      0.1111      2.1832    105.9532     20.1083
  1209.4000      8.1437      2.6250      0.1283      1.5139    110.4038     19.6120
  1209.5000      8.1424      2.6240      0.1124      1.5734    111.5318     21.0787
  1209.6000      8.1424      2.6201      0.0786      1.8122    111.0687     23.0019
  1209.7000      8.1424      2.6081      0.1676      2.5411    113.3696     23.0613
  1209.8000      8.1631      2.5751      0.0883      4.5397    116.7848     21.6792
  1209.9000      8.1631      2.5439      0.0044      6.4289    114.9815     20.2654
  1210.0000      8.0992      2.5438      0.0883      6.4392    109.2331     19.7006
  1210.1000      8.0992      2.5653      0.0598      5.1339    109.7474     20.6438
  1210.2000      8.0992      2.5829      0.0959      4.0659    117.4972     22.3031
  1210.3000      8.1107      2.5811      0.0827      4.1735    121.6083     22.9413
  1210.4000      8.1107      2.5633      0.0528      5.2552    117.8391     22.6508
  1210.5000      8.1183      2.5366      0.0668      6.8708    112.6910     22.8012
  1210.6000      8.1183      2.5041      0.0513      8.8406    110.9777     23.4657
  1210.7000      8.1183      2.4823     -0.0027     10.1609    113.0914     24.3028
  1210.8000      8.1336      2.4876      0.0275      9.8449    117.4326     25.7261
  1210.9000      8.1336      2.5115      0.0483      8.3927    120.8262     27.3000
  1211.0000      8.1358      2.5372      0.0505      6.8373    122.9110     27.3252
  1211.1000      8.1358      2.5529      0.0836      5.8820    124.3202     26.2878
  1211.2000      8.1358      2.5579      0.0125      5.5843    123.0836     26.3221
  1211.3000      8.1414      2.5639      0.1114      5.2162    118.2296     26.9282
  1211.4000      8.1414      2.5766      0.0874      4.4509    113.4615     26.4552
  1211.5000      8.1495      2.5946      0.0736      3.3595    112.3237     24.9398
  1211.6000      8.1495      2.6114      0.0948      2.3387    114.4390     23.7759
  1211.7000      8.1495      2.6144      0.1017      2.1599    115.9636     23.8660
  1211.8000      8.1520      2.5950      0.0786      3.3362    113.2402     24.2838
  1211.9000      8.1520      2.5702     -0.0097      4.8359    107.3167     24.5399
  1212.0000      8.1414      2.5734      0.0455      4.6454    103.0169     25.2190
  1212.1000      8.1414      2.6014      0.1323      2.9469    103.4633     25.3978
  1212.2000      8.1414      2.6186      0.0976      1.9025    109.1388     23.8187
  1212.3000      8.1258      2.6100      0.0849      2.4235    115.5017     21.6430
  1212.4000      8.1258      2.5882      0.0424      3.7477    116.4527     21.0237
  1212.5000      8.1376      2.5690      0.0451      4.9075    114.0638     22.6098
  1212.6000      8.1376      2.5604      0.0348      5.4277    112.1205     24.9214
  1212.7000      8.1376      2.5531      0.0698      5.8700    108.7804     25.7265
  1212.8000      8.1561      2.5317      0.0065      7.1673    103.1421     24.9269
  1212.9000      8.1561      2.5109     -0.0517      8.4313     98.8161     23.7280
  1213.0000      8.1581      2.5178      0.0072      8.0144     98.7465     22.6896
  1213.1000      8.1581      2.5474      0.0600      6.2197    102.4711     22.3117
  1213.2000      8.1581      2.5662      0.0642      5.0797    108.9670     22.6010
  1213.3000      8.1574      2.5533      0.0209      5.8616    115.8435     22.4314
  1213.4000      8.1574      2.5297     -0.0317      7.2937    117.8309     22.1795
  1213.5000      8.1713      2.5195      0.0076      7.9104    112.5684     23.1071
  1213.6000      8.1713      2.5152     -0.0011      8.1681    105.2743     23.7917
  1213.7000      8.1713      2.5025      0.0419      8.9370    101.9863     23.3328
  1213.8000      8.1847      2.4794      0.0166     10.3403    103.3599     23.5547
  1213.9000      8.1847      2.4643     -0.0383     11.2519    103.5550     24.9419
  1214.0000      8.1657      2.4761      0.0282     10.5380     96.6959     25.9350
  1214.1000      8.1657      2.5023      0.0211      8.9515     85.7839     25.4835
  1214.2000      8.1657      2.5185      0.0430      7.9699     77.8157     24.1111
  1214.3000      8.1612      2.5211     -0.0199      7.8116     74.0846     22.7377
