~Version Information
VERS.                      2.0: CWLS Log ASCII Standard - VERSION 2.0
WRAP.                       NO: One line per depth step
~Well Information Block
STRT.FT               490.0000: 
STOP.FT              2303.5000: 
STEP.FT                 0.1000: 
NULL.                -999.2500: 
COMP.          Pioneer Natural Resources: COMPANY
WELL.             Baa Baa 34-1: WELL
FLD.           Purgatoire River: FIELD
LOC.           617' FSL & 2289' FEL: LOCATION
STAT.                 Colorado: State
CNTY.               Las Animas: COUNTY
CTRY. USA : Country
SECT. 1 : Section
TOWN. 33S : Township
RANG. 67W : Range
SRVC.                Patterson: SERVICE COMPANY
DATE.          Thu Sep 08 09:44:32 2005: LOG DATE
API.           05 071 08502 00: UNIQUE WELL ID
~Curve Information Block
DEPT.FT            0 000 00 00: Depth
DCAL.in                       : CDL Caliper
RHOB.g/cc                     : CDL Bulk Density
RHOC.g/cc                     : CDL Density Correction
DPOR.pu                       : CDL Density Porosity
GR.GAPI                       : Gamma Ray
NPOR.pu                       : Neutron Porosity
~Parameter Information Block
~A  Depth       DCAL        RHOB        RHOC        DPOR         GR         NPOR    
# ...
   845.2000      8.0391      2.4051     -0.0436     14.8448    153.9893     22.8834
   845.3000      8.0436      2.3669     -0.0025     17.1575    157.4447     23.5642
   845.4000      8.0436      2.3384     -0.0295     18.8835    162.9770     23.7149
   845.5000      8.0095      2.3196      0.0242     20.0244    165.7243     23.5992
   845.6000      8.0095      2.3080      0.0126     20.7248    160.3379     23.7574
   845.7000      8.0095      2.3150      0.0160     20.3017    145.5863     24.3273
   845.8000      7.9873      2.3546      0.0505     17.9030    128.7711     25.1438
   845.9000      7.9873      2.4170      0.1754     14.1203    117.7368     25.7068
   846.0000      7.9856      2.4721      0.1718     10.7797    114.0287     25.6171
   846.1000      7.9856      2.5062      0.1882      8.7160    113.3996     25.5860
   846.2000      7.9856      2.5258      0.1892      7.5298    109.6748     26.3369
   846.3000      7.9872      2.5359      0.2111      6.9149    101.8343     27.3916
   846.4000      7.9872      2.5449      0.1099      6.3706     94.1820     28.1434
   846.5000      7.9847      2.5665      0.1224      5.0597     88.6364     28.3915
   846.6000      7.9847      2.5981      0.0977      3.1459     85.4175     28.4001
   846.7000      7.9847      2.6332     -0.0549      1.0155     85.6844     28.5877
   846.8000      7.9814      2.6662      0.0000     -0.9833     87.0914     28.9166
   846.9000      7.9814      2.6793      0.0036     -1.7786     84.6800     28.9708
   847.0000      7.9527      2.6685     -0.0286     -1.1182     81.0081     28.7620
   847.1000      7.9527      2.6516     -0.0208     -0.0981     80.6005     28.6836
   847.2000      7.9527      2.6469     -0.0466      0.1870     80.8879     28.5408
   847.3000      7.9459      2.6511      0.0086     -0.0669     78.0444     28.1686
   847.4000      7.9459      2.6498     -0.0198      0.0111     72.4256     27.8945
   847.5000      7.9361      2.6469     -0.0452      0.1882     68.2879     27.6095
   847.6000      7.9361      2.6494      0.0219      0.0391     68.0611     27.0634
   847.7000      7.9361      2.6470     -0.0311      0.1829     68.3601     26.5673
   847.8000      7.9452      2.6337      0.0086      0.9892     67.7551     26.4609
   847.9000      7.9452      2.6217     -0.0681      1.7152     69.7736     26.5538
   848.0000      7.9384      2.6230     -0.0343      1.6352     73.3858     26.5250
   848.1000      7.9384      2.6312     -0.0424      1.1373     74.7063     26.3759
   848.2000      7.9384      2.6395     -0.0352      0.6347     76.5781     26.2933
   848.3000      7.9575      2.6506     -0.0657     -0.0355     81.5896     26.6380
   848.4000      7.9575      2.6639     -0.0229     -0.8397     84.5909     27.1175
   848.5000      7.9356      2.6667     -0.0453     -1.0146     84.5087     27.0411
   848.6000      7.9356      2.6520     -0.0017     -0.1214     85.5086     26.5988
   848.7000      7.9356      2.6359     -0.0456      0.8519     84.8977     26.3603
   848.8000      7.9249      2.6364     -0.0198      0.8269     78.0325     26.2912
   848.9000      7.9249      2.6420     -0.0346      0.4833     69.5527     25.9943
   849.0000      7.9341      2.6346     -0.0388      0.9317     67.0214     25.5276
   849.1000      7.9341      2.6186     -0.0792      1.9049     70.7272     25.2512
   849.2000      7.9341      2.6101     -0.0641      2.4211     76.4664     25.3215
   849.3000      7.9328      2.6113     -0.0293      2.3483     81.0530     25.4462
   849.4000      7.9328      2.6137     -0.0575      2.1980     84.2094     25.2535
   849.5000      7.9336      2.6201     -0.0587      1.8112     85.9324     24.8450
   849.6000      7.9336      2.6301      0.0154      1.2044     86.1997     24.6037
   849.7000      7.9336      2.6339      0.0027      0.9732     84.9056     24.5896
   849.8000      7.9375      2.6330     -0.0078      1.0315     81.4052     24.6985
   849.9000      7.9375      2.6319     -0.0032      1.0999     79.5501     25.0190
   850.0000      7.9252      2.6328     -0.0290      1.0411     81.8904     25.5012
   850.1000      7.9252      2.6441     -0.0301      0.3605     83.5615     25.8455
   850.2000      7.9252      2.6587      0.0083     -0.5259     81.7302     25.9633
   850.3000      7.9278      2.6522      0.0012     -0.1340     81.1925     25.9815
   850.4000      7.9278      2.6274     -0.0665      1.3674     84.7594     25.8496
   850.5000      7.9278      2.6208     -0.1025      1.7720     86.9281     25.4520
   850.6000      7.9278      2.6485     -0.0137      0.0910     85.0666     25.0738
   850.7000      7.9278      2.6911     -0.0036     -2.4883     84.6423     25.1989
   850.8000      7.9114      2.7252      0.0609     -4.5599     87.1427     25.8483
   850.9000      7.9114      2.7393      0.0344     -5.4133     85.6834     26.5377
   851.0000      7.9227      2.7352      0.0427     -5.1645     78.9616     26.8446
   851.1000      7.9227      2.7204      0.0542     -4.2655     75.5683     26.9394
   851.2000      7.9227      2.7099     -0.0158     -3.6317     78.5665     27.2758
   851.3000      7.9392      2.7161      0.0176     -4.0048     81.9530     27.5447
   851.4000      7.9392      2.7268      0.0319     -4.6527     81.6588     27.1733
   851.5000      7.9409      2.7323     -0.0260     -4.9895     79.3528     26.5706
   851.6000      7.9409      2.7306      0.0446     -4.8831     77.2883     26.3742
   851.7000      7.9409      2.7147     -0.0305     -3.9202     75.9448     26.4828
   851.8000      7.9429      2.6996     -0.0075     -3.0053     75.6260     26.3341
   851.9000      7.9429      2.7035     -0.0262     -3.2403     75.1549     25.7375
   852.0000      7.9478      2.7157      0.0103     -3.9834     75.9137     25.2442
   852.1000      7.9478      2.7166      0.0213     -4.0345     82.2418     25.3339
   852.2000      7.9478      2.7019     -0.0209     -3.1471     87.9642     25.7377
   852.3000      7.9530      2.6790     -0.0619     -1.7550     83.9038     25.7651
   852.4000      7.9530      2.6586     -0.0424     -0.5197     75.2669     25.2522
   852.5000      7.9540      2.6474     -0.0761      0.1553     71.0062     24.8209
   852.6000      7.9540      2.6375     -0.0405      0.7581     73.4105     24.6681
   852.7000      7.9540      2.6240     -0.0961      1.5730     80.2345     24.4569
   852.8000      7.9392      2.6132     -0.0709      2.2332     85.5660     24.4084
   852.9000      7.9392      2.6047     -0.0366      2.7428     83.4967     24.6059
   853.0000      7.9555      2.6009     -0.0625      2.9732     76.1156     24.6393
   853.1000      7.9555      2.6039     -0.0020      2.7932     69.4173     24.4819
   853.2000      7.9555      2.6117     -0.0482      2.3183     66.4873     24.3297
   853.3000      7.9493      2.6347      0.0151      0.9301     65.0597     24.0950
   853.4000      7.9493      2.6709      0.0629     -1.2645     62.8948     23.7981
   853.5000      7.9384      2.6947      0.0784     -2.7077     62.4682     23.6200
   853.6000      7.9384      2.6932      0.0460     -2.6170     64.0994     23.4018
   853.7000      7.9384      2.6817      0.0823     -1.9235     64.6187     23.0235
   853.8000      7.9352      2.6780      0.0570     -1.6940     63.6469     22.5878
   853.9000      7.9352      2.6821      0.0975     -1.9465     63.1681     22.1784
   854.0000      7.9238      2.6843      0.0487     -2.0793     63.4708     21.8980
   854.1000      7.9238      2.6786     -0.0021     -1.7326     64.6599     21.4852
   854.2000      7.9238      2.6581      0.0199     -0.4928     66.5885     20.6029
   854.3000      7.9190      2.6161     -0.0147      2.0522     68.1023     19.3228
   854.4000      7.9190      2.5632     -0.0759      5.2586     68.1045     18.0243
   854.5000      7.9456      2.5170     -0.1043      8.0635     68.2002     16.8952
   854.6000      7.9456      2.4656     -0.0226     11.1764     69.5025     15.7746
   854.7000      7.9456      2.3827     -0.0881     16.2012     70.1512     14.7318
