~Version Information
VERS.                      2.0: CWLS Log ASCII Standard - VERSION 2.0
WRAP.                       NO: One line per depth step
~Well Information Block
STRT.FT               615.0000: 
STOP.FT              1609.0000: 
STEP.FT                 0.2500: 
NULL.                -999.2500: 
COMP.          Pioneer Natural Resources: COMPANY
WELL.          Galloway 32-13 Tr: WELL
FLD.           Purgatoire River: FIELD
LOC.           1910' FNL & 2002' FEL: LOCATION
PROV.                 Colorado: PROVINCE
CNTY.               Las Animas: COUNTRY
SRVC.                Patterson: SERVICE COMPANY
DATE.          Sat Nov 12 20:19:28 2005: LOG DATE
UWI.           05 071 08608 00: UNIQUE WELL ID
~Curve Information Block
DEPT.FT            0 000 00 00: Depth
SN.Ohm-m                      : IEL Short Normal
SP.mV                         : IEL Spontaneous Potential
DIR.Ohm-m                     : IEL Induction Resistivity
GR.GAPI                       : Gamma Ray
~Parameter Information Block
~A  Depth        SN          SP         DIR          GR     
# ...
   883.0000     22.4726     45.1060     17.5688    127.0630
   883.2500     22.5997     45.2270     17.7121    126.5320
   883.5000     22.7172     45.3817     17.8064    123.6405
   883.7500     22.9921     45.5577     17.8099    120.2694
   884.0000     23.4697     45.7365     17.6949    114.1368
   884.2500     23.9001     45.9052     17.4590    110.3775
   884.5000     23.9898     46.0624     17.1344    107.0751
   884.7500     23.7353     46.2151     16.7803    107.3317
   885.0000     23.3338     46.3706     16.4553    112.1653
   885.2500     22.9069     46.5299     16.1870    117.9579
   885.5000     22.4177     46.6849     15.9595    128.2747
   885.7500     21.7623     46.8220     15.7272    134.6339
   886.0000     20.8826     46.9293     15.4444    141.7645
   886.2500     19.8071     47.0012     15.0888    144.8950
   886.5000     18.6302     47.0374     14.6659    147.7611
   886.7500     17.4854     47.0386     14.1977    148.6492
   887.0000     16.4761     47.0067     13.7122    148.6624
   887.2500     15.6294     46.9487     13.2376    148.0866
   887.5000     14.9627     46.8804     12.7970    146.9328
   887.7500     14.5058     46.8222     12.4051    146.1755
   888.0000     14.2187     46.7884     12.0659    145.4021
   888.2500     14.0011     46.7773     11.7766    145.4646
   888.5000     13.8085     46.7738     11.5329    146.7682
   888.7500     13.6852     46.7607     11.3318    148.1675
   889.0000     13.6548     46.7284     11.1708    149.9833
   889.2500     13.6410     46.6793     11.0462    150.4612
   889.5000     13.5525     46.6256     10.9520    149.6784
   889.7500     13.4036     46.5846     10.8810    148.1604
   890.0000     13.2797     46.5709     10.8267    144.7763
   890.2500     13.2172     46.5887     10.7847    142.2875
   890.5000     13.1749     46.6291     10.7512    139.1785
   890.7500     13.0936     46.6749     10.7223    137.7839
   891.0000     12.9944     46.7117     10.6942    136.3655
   891.2500     12.9968     46.7356     10.6641    135.4785
   891.5000     13.1625     46.7543     10.6323    133.9637
   891.7500     13.3698     46.7806     10.6010    133.0904
   892.0000     13.3782     46.8226     10.5713    132.7135
   892.2500     13.0227     46.8780     10.5413    133.2248
   892.5000     12.3657     46.9360     10.5053    134.4986
   892.7500     11.6525     46.9835     10.4569    135.0316
   893.0000     11.1191     47.0103     10.3904    134.5124
   893.2500     10.8248     47.0099     10.3022    133.2139
   893.5000     10.7025     46.9774     10.1920    130.2704
   893.7500     10.7355     46.9085     10.0649    127.9465
   894.0000     10.9427     46.8025      9.9327    124.3130
   894.2500     11.2467     46.6644      9.8128    122.1223
   894.5000     11.5025     46.5058      9.7230    120.1446
   894.7500     11.6641     46.3411      9.6740    120.2270
   895.0000     11.8434     46.1789      9.6637    122.5241
   895.2500     12.1124     46.0181      9.6769    125.0086
   895.5000     12.3271     45.8526      9.6919    129.1549
   895.7500     12.3212     45.6806      9.6920    131.8562
   896.0000     12.1607     45.5069      9.6737    135.5545
   896.2500     12.0219     45.3377      9.6475    137.6151
   896.5000     11.9894     45.1767      9.6307    139.7109
   896.7500     12.0659     45.0281      9.6383    140.2296
   897.0000     12.1909     44.9016      9.6763    139.5514
   897.2500     12.2371     44.8100      9.7405    138.3192
   897.5000     12.0690     44.7619      9.8194    136.1166
   897.7500     11.6025     44.7573      9.9012    134.9582
   898.0000     10.9056     44.7884      9.9777    134.1882
   898.2500     10.2859     44.8417     10.0474    134.2194
   898.5000     10.0557     44.9013     10.1143    134.3279
   898.7500     10.1405     44.9539     10.1842    133.8883
   899.0000     10.1716     44.9922     10.2589    132.0554
   899.2500     10.0230     45.0136     10.3311    130.4198
   899.5000      9.9931     45.0152     10.3866    128.5509
   899.7500     10.4156     44.9917     10.4129    128.0305
   900.0000     11.3195     44.9395     10.4092    127.5855
   900.2500     12.4946     44.8597     10.3883    126.7375
   900.5000     13.6731     44.7547     10.3687    124.1819
   900.7500     14.6023     44.6235     10.3621    122.2424
   901.0000     15.1646     44.4631     10.3685    120.9295
   901.2500     15.4130     44.2727     10.3792    122.0595
   901.5000     15.3933     44.0549     10.3852    126.9957
   901.7500     15.1046     43.8157     10.3832    131.6798
   902.0000     14.6601     43.5660     10.3770    138.5530
   902.2500     14.2283     43.3225     10.3743    141.7550
   902.5000     13.8429     43.1037     10.3813    143.4718
   902.7500     13.4852     42.9229     10.4002    142.9809
   903.0000     13.2046     42.7832     10.4291    141.7794
   903.2500     13.0404     42.6789     10.4651    141.7325
   903.5000     12.9961     42.6032     10.5058    142.9490
   903.7500     13.0624     42.5589     10.5502    143.7275
   904.0000     13.1527     42.5619     10.5984    143.2924
   904.2500     13.0902     42.6368     10.6540    141.8539
   904.5000     12.7066     42.8068     10.7250    138.9597
   904.7500     11.9644     43.0823     10.8204    136.9975
   905.0000     11.0143     43.4527     10.9438    134.1129
   905.2500     10.1543     43.8831     11.0873    132.3550
   905.5000      9.7454     44.3228     11.2332    130.9345
   905.7500     10.0614     44.7225     11.3607    131.4907
   906.0000     11.0652     45.0518     11.4543    134.7442
   906.2500     12.3581     45.3053     11.5078    137.6582
   906.5000     13.4632     45.4956     11.5244    140.7952
   906.7500     14.1821     45.6415     11.5137    141.1904
   907.0000     14.6074     45.7601     11.4893    139.7797
   907.2500     14.8626     45.8652     11.4659    138.6506
   907.5000     14.9763     45.9639     11.4554    138.2351
   907.7500     14.9343     46.0512     11.4644    138.7173
   908.0000     14.8022     46.1113     11.4940    138.8432
   908.2500     14.7395     46.1291     11.5437    137.5455
   908.5000     14.7902     46.1031     11.6142    133.6933
   908.7500     14.8102     46.0452     11.7096    131.0613
   909.0000     14.6983     45.9716     11.8356    129.3136
   909.2500     14.5309     45.8957     11.9959    130.1970
   909.5000     14.4691     45.8265     12.1894    133.8434
   909.7500     14.6211     45.7686     12.4073    136.7226
   910.0000     14.8961     45.7214     12.6328    139.8055
   910.2500     15.0876     45.6800     12.8428    140.3782
   910.5000     15.2147     45.6402     13.0133    138.8840
   910.7500     15.5060     45.6049     13.1277    136.7382
   911.0000     16.0110     45.5845     13.1832    133.1746
   911.2500     16.5332     45.5907     13.1907    131.4497
   911.5000     16.9122     45.6285     13.1691    130.5050
   911.7500     17.1760     45.6954     13.1368    130.7019
   912.0000     17.3922     45.7832     13.1075    131.5958
   912.2500     17.4706     45.8797     13.0921    132.6056
   912.5000     17.2594     45.9696     13.1031    134.9278
   912.7500     16.7272     46.0379     13.1558    136.8053
   913.0000     15.9217     46.0751     13.2616    139.6832
   913.2500     14.9883     46.0811     13.4201    141.7120
   913.5000     14.2698     46.0650     13.6161    144.8795
   913.7500     14.0485     46.0406     13.8255    146.3897
   914.0000     14.2772     46.0206     14.0230    145.8687
   914.2500     14.7540     46.0116     14.1869    142.8424
   914.5000     15.3189     46.0142     14.3018    133.9709
   914.7500     15.8518     46.0290     14.3660    125.6110
   915.0000     16.2836     46.0620     14.3988    111.3372
   915.2500     16.6473     46.1233     14.4393    102.5120
   915.5000     17.0940     46.2202     14.5314     93.7847
   915.7500     17.8243     46.3513     14.7038     92.1776
   916.0000     18.9332     46.5055     14.9591     95.4631
   916.2500     20.3120     46.6680     15.2746     99.8860
