~Version Information
VERS.                      2.0: CWLS Log ASCII Standard - VERSION 2.0
WRAP.                       NO: One line per depth step
~Well Information Block
STRT.FT               460.0000: 
STOP.FT              3058.5000: 
STEP.FT                 0.1000: 
NULL.                -999.2500: 
COMP.          Pioneer Natural Resources: COMPANY
WELL.            Cleaver 24-12: WELL
FLD.           Purgatoire River: FIELD
LOC.           204' FSL & 2351' FWL: LOCATION
PROV.                 Colorado: PROVINCE
CNTY.               Las Animas: COUNTRY
SRVC.                Patterson: SERVICE COMPANY
DATE.          Mon Jan 09 13:49:27 2006: LOG DATE
UWI.           05 071 08634 00: UNIQUE WELL ID
~Curve Information Block
DEPT.FT            0 000 00 00: Depth
DCAL.in                       : CDL Caliper
RHOB.g/cc                     : CDL Bulk Density
RHOC.g/cc                     : CDL Density Correction
DPOR.pu                       : CDL Density Porosity
GR.GAPI                       : Gamma Ray
NPOR.pu                       : Neutron Porosity
~Parameter Information Block
~A  Depth       DCAL        RHOB        RHOC        DPOR         GR         NPOR    
# ...
  1832.8000      7.8943      2.6341      0.0702      0.9610    102.5059     18.9256
  1832.9000      7.8943      2.6164      0.0847      2.0349    102.7724     19.4876
  1833.0000      7.8974      2.5830     -0.0318      4.0622    105.1486     19.9115
  1833.1000      7.8974      2.5625      0.0014      5.3031    109.7222     20.8315
  1833.2000      7.8974      2.5680      0.0374      4.9690    111.9654     22.5544
  1833.3000      7.9070      2.5872      0.0421      3.8083    111.2250     24.3689
  1833.4000      7.9070      2.6034      0.0382      2.8216    112.4930     25.5591
  1833.5000      7.9153      2.5985      0.0336      3.1242    115.6286     26.2961
  1833.6000      7.9153      2.5742      0.0026      4.5950    116.3936     27.0579
  1833.7000      7.9153      2.5554      0.0024      5.7336    113.8954     27.3789
  1833.8000      7.9235      2.5560      0.0306      5.6989    112.0436     26.7825
  1833.9000      7.9235      2.5686      0.0378      4.9345    116.0517     25.8697
  1834.0000      7.9453      2.5776      0.0660      4.3907    124.1498     25.4705
  1834.1000      7.9453      2.5752      0.0312      4.5341    129.1613     26.0123
  1834.2000      7.9453      2.5684      0.0014      4.9463    129.1576     26.9990
  1834.3000      7.9494      2.5670      0.0222      5.0302    127.4985     27.0534
  1834.4000      7.9494      2.5736      0.0116      4.6282    129.4128     25.8609
  1834.5000      7.9565      2.5850      0.0126      3.9372    134.7402     24.4396
  1834.6000      7.9565      2.5934      0.0503      3.4306    138.0739     23.8382
  1834.7000      7.9565      2.5853      0.0764      3.9229    135.7086     24.4263
  1834.8000      7.9623      2.5574      0.0263      5.6109    128.1645     25.3319
  1834.9000      7.9623      2.5290     -0.0168      7.3339    119.7170     25.8675
  1835.0000      7.9502      2.5210     -0.0077      7.8168    113.3876     26.2916
  1835.1000      7.9502      2.5361      0.0289      6.9048    110.3204     26.5904
  1835.2000      7.9502      2.5613     -0.0059      5.3760    109.6243     26.6137
  1835.3000      7.9413      2.5810      0.0204      4.1790    105.5713     27.0123
  1835.4000      7.9413      2.5873      0.0201      3.7983    100.3313     27.6390
  1835.5000      7.9486      2.5865      0.0336      3.8494    102.5972     27.6571
  1835.6000      7.9486      2.5943     -0.0209      3.3732    109.9753     27.3403
  1835.7000      7.9486      2.6097      0.0399      2.4453    114.3904     27.0423
  1835.8000      7.9534      2.6098      0.0659      2.4355    112.8884     26.6133
  1835.9000      7.9534      2.5937     -0.0240      3.4105    108.1789     25.8232
  1836.0000      7.9524      2.5779      0.0443      4.3674    106.2316     25.1850
  1836.1000      7.9524      2.5596      0.0202      5.4778    108.8722     25.1527
  1836.2000      7.9524      2.5390     -0.0480      6.7248    112.0151     24.9741
  1836.3000      7.9529      2.5246      0.0053      7.6020    112.4997     24.4894
  1836.4000      7.9529      2.5168     -0.0301      8.0736    111.3057     24.4142
  1836.5000      7.9481      2.5250     -0.0372      7.5782    109.3891     24.3956
  1836.6000      7.9481      2.5515      0.0408      5.9724    105.5386     23.9786
  1836.7000      7.9481      2.5801      0.0332      4.2335    101.8260     23.7655
  1836.8000      7.9376      2.6094      0.0371      2.4591    102.0574     24.1392
  1836.9000      7.9376      2.6475      0.0600      0.1523    102.3794     24.9780
  1837.0000      7.9220      2.6874      0.1111     -2.2674    100.7649     25.6971
  1837.1000      7.9220      2.7243      0.0769     -4.5007    104.8628     25.7650
  1837.2000      7.9220      2.7610      0.1566     -6.7290    114.6668     25.5310
  1837.3000      7.9220      2.7839      0.1292     -8.1148    120.2540     25.4507
  1837.4000      7.9220      2.7794      0.1099     -7.8452    121.2689     25.2998
  1837.5000      7.9161      2.7550      0.0818     -6.3625    119.8222     24.9317
  1837.6000      7.9161      2.7306      0.0070     -4.8840    115.3563     24.5490
  1837.7000      7.9161      2.7274     -0.0004     -4.6879    111.1179     24.1943
  1837.8000      7.9299      2.7393      0.0338     -5.4150    107.6186     23.7987
  1837.9000      7.9299      2.7366      0.0393     -5.2481    104.4298     23.4461
  1838.0000      7.9497      2.7190      0.0086     -4.1833    103.8232     23.4699
  1838.1000      7.9497      2.7086      0.0010     -3.5538    104.5364     24.1212
  1838.2000      7.9497      2.7050      0.0262     -3.3327    103.5130     24.4656
  1838.3000      7.9497      2.6956      0.0452     -2.7620    101.2827     23.7978
  1838.4000      7.9497      2.6819      0.0376     -1.9351    100.0774     22.9750
  1838.5000      7.9443      2.6762      0.0311     -1.5889    100.9858     22.5931
  1838.6000      7.9443      2.6761      0.0614     -1.5842    104.2699     22.7418
  1838.7000      7.9443      2.6700      0.0508     -1.2093    108.4637     23.1267
  1838.8000      7.9263      2.6641     -0.0229     -0.8563    109.3383     23.0071
  1838.9000      7.9263      2.6685      0.0067     -1.1186    105.4046     22.5709
  1839.0000      7.9260      2.6700      0.0806     -1.2106     99.6580     22.5467
  1839.1000      7.9260      2.6565      0.0246     -0.3960     94.0990     22.6083
  1839.2000      7.9260      2.6416     -0.0068      0.5067     89.8106     21.9872
  1839.3000      7.9243      2.6439      0.0032      0.3723     89.6514     21.1613
  1839.4000      7.9243      2.6583      0.0595     -0.5020     92.8452     21.2259
  1839.5000      7.9309      2.6644      0.0521     -0.8725     94.8840     22.0861
  1839.6000      7.9309      2.6572      0.0416     -0.4335     94.9005     22.7844
  1839.7000      7.9309      2.6537      0.0294     -0.2214     94.0137     22.7878
  1839.8000      7.9273      2.6559      0.1035     -0.3598     96.4931     22.5293
  1839.9000      7.9273      2.6470      0.0309      0.1839    104.2109     22.5859
  1840.0000      7.9197      2.6362      0.0051      0.8351    109.7391     22.6209
  1840.1000      7.9197      2.6425      0.0396      0.4543    109.1221     22.3533
  1840.2000      7.9197      2.6564     -0.0069     -0.3894    107.3947     22.0898
  1840.3000      7.9236      2.6526      0.0455     -0.1586    108.6647     22.0695
  1840.4000      7.9236      2.6183      0.0176      1.9214    110.2766     22.9643
  1840.5000      7.9237      2.5763      0.0153      4.4667    111.5372     24.6601
  1840.6000      7.9237      2.5627      0.0036      5.2929    114.0398     25.5475
  1840.7000      7.9237      2.5778      0.0581      4.3773    114.8265     24.9998
  1840.8000      7.9331      2.5934      0.0194      3.4312    112.2355     23.8468
  1840.9000      7.9331      2.5940      0.0568      3.3958    107.4146     23.0239
  1841.0000      7.9416      2.5843     -0.0115      3.9808    100.9982     23.2588
  1841.1000      7.9416      2.5746      0.0211      4.5684     94.6464     24.5530
  1841.2000      7.9416      2.5641      0.0363      5.2076     94.8158     25.8082
  1841.3000      7.9289      2.5581     -0.0469      5.5724    102.5147     25.9427
  1841.4000      7.9289      2.5740     -0.0123      4.6055    108.7326     25.1605
  1841.5000      7.9242      2.6070      0.0353      2.6059    109.8901     24.4553
  1841.6000      7.9242      2.6338      0.0595      0.9809    111.0666     24.0674
  1841.7000      7.9242      2.6436      0.0557      0.3859    114.7645     23.8222
  1841.8000      7.9226      2.6331      0.0387      1.0229    117.5922     23.9368
  1841.9000      7.9226      2.6075      0.0004      2.5745    117.4821     24.3659
  1842.0000      7.9255      2.5974     -0.0287      3.1892    117.5734     25.0174
  1842.1000      7.9255      2.6212     -0.0069      1.7428    121.5778     25.9891
  1842.2000      7.9255      2.6463      0.0621      0.2273    128.1922     26.4926
  1842.3000      7.9450      2.6336      0.0404      0.9955    132.9344     25.6666
