~Version Information
 VERS.                                  2.0 : CWLS LAS VERSION
 WRAP.                                   NO : WRAPING MODE
 SWARE .                 MController 2.5.0E : SOFTWARE VERSION
~Well Information
 WELL.                      Black Cat 13-23 : WELL
 COMP.     Pioneer Natural Resources USA Inc: COMPANY
 FLD.                      Purgatorie River : FIELD
 LOC.                 NW/SW Sec32 T32S R67W : LOCATION
 DATE.                           7/30-31/05 : DATE(S) LOGGED
 SRVC.       Blanco Geological Services LLC : SERVICE COMPANY
 STAT.                                   CO : STATE
 CNTY.                           Las Animas : COUNTY
 CTRY.                                  USA : COUNTRY
 API.                       05-071-08450-00 : API NUMBER
 STRT.FT                             327.00 : START DEPTH
 STOP.FT                            2850.00 : STOP DEPTH
 STEP.FT                               1.00 : DEPTH INCREMENT
 NULL.                                -9999 : NULL VALUE
~Curve information
 DEPTH.FT                                   :
 ROP.MIN/FT                                 :
 GAS.UNITS                                  :
~ASCII Log data
# ...
      1927.0         0.48         23.0 
      1928.0         0.23         21.7 
      1929.0         0.30         22.8 
      1930.0         0.33         21.7 
      1931.0         0.40         23.4 
      1932.0         0.40         23.1 
      1933.0         0.27         24.9 
      1934.0         0.33         24.2 
      1935.0         0.27         25.1 
      1936.0         0.17         25.1 
      1937.0         0.23         25.9 
      1938.0         0.38         26.9 
      1939.0         0.37         28.5 
      1940.0         0.27         29.3 
      1941.0         0.23         29.3 
      1942.0         0.23         29.6 
      1943.0         0.37         29.4 
      1944.0         0.27         28.7 
      1945.0         0.30         28.6 
      1946.0         0.23         27.9 
      1947.0         0.23         27.6 
      1948.0         0.37         27.1 
      1949.0         0.58         26.2 
      1950.0         0.40         27.4 
      1951.0         6.17         30.7 
      1952.0         0.53         23.5 
      1953.0         0.53         22.7 
      1954.0         0.53         24.2 
      1955.0         0.63         24.3 
      1956.0         0.40         26.0 
      1957.0         0.40         26.9 
      1958.0         0.38         27.7 
      1959.0         0.90         27.7 
      1960.0         0.73         24.1 
      1961.0         0.53         23.4 
      1962.0         0.57         24.1 
      1963.0         0.42         24.0 
      1964.0         0.43         23.5 
      1965.0         0.27         22.4 
      1966.0         0.27         22.2 
      1967.0         0.23         23.5 
      1968.0         0.20         22.6 
      1969.0         0.17         22.6 
      1970.0         0.20         24.3 
      1971.0         0.20         24.5 
      1972.0         0.23         24.2 
      1973.0         0.23         24.1 
      1974.0         0.20         24.1 
      1975.0         0.20         23.9 
      1976.0         0.27         24.6 
      1977.0         0.25         26.6 
      1978.0         0.27         26.1 
      1979.0         0.33         27.0 
      1980.0         0.30         26.4 
      1981.0        10.48         32.6 
      1982.0         0.43         21.7 
      1983.0         0.37         21.8 
      1984.0         0.67         23.1 
      1985.0         0.65         23.0 
      1986.0         0.47         23.8 
      1987.0         0.50         24.6 
      1988.0         0.53         24.6 
      1989.0         0.47         23.9 
      1990.0         0.47         22.8 
      1991.0         0.78         24.9 
      1992.0         0.77         27.3 
      1993.0         0.57         29.0 
      1994.0         0.40         28.8 
      1995.0         0.33         26.5 
      1996.0         0.30         23.5 
      1997.0         0.27         23.7 
      1998.0         0.37         23.2 
      1999.0         0.38         22.5 
      2000.0         0.37         24.1 
      2001.0         0.43         24.4 
      2002.0         0.40         23.1 
      2003.0         0.37         23.4 
      2004.0         0.33         23.6 
      2005.0         0.33         24.7 
      2006.0         0.40         24.3 
      2007.0         0.55         25.7 
      2008.0         0.53         26.0 
      2009.0         0.43         25.5 
      2010.0         0.40         27.3 
      2011.0        11.15         37.2 
      2012.0         0.40         23.5 
      2013.0         0.88         23.8 
      2014.0         0.80         25.2 
      2015.0         0.77         25.7 
      2016.0         0.67         24.5 
      2017.0         0.43         25.5 
      2018.0         0.45         25.7 
      2019.0         0.83         25.2 
      2020.0         0.47         24.2 
      2021.0         0.43         24.4 
      2022.0         0.40         24.4 
      2023.0         0.53         24.6 
      2024.0         0.62         23.8 
      2025.0         0.23         24.3 
      2026.0         0.23         25.2 
      2027.0         0.50         25.2 
      2028.0         0.27         24.8 
      2029.0         0.20         24.8 
      2030.0         0.20         24.2 
      2031.0         0.23         24.6 
      2032.0         0.23         24.2 
      2033.0         0.20         24.6 
      2034.0         0.43         26.6 
      2035.0         0.30         26.6 
      2036.0         0.28         25.8 
      2037.0         0.23         24.4 
      2038.0         0.20         24.9 
      2039.0         0.20         25.9 
      2040.0         0.20         25.9 
      2041.0        11.68         34.0 
      2042.0         0.63         23.5 
      2043.0         0.35         23.3 
      2044.0         0.27         23.4 
      2045.0         0.20         24.2 
      2046.0         0.20         22.8 
      2047.0         0.27         23.9 
      2048.0         0.20         23.4 
      2049.0         0.27         23.7 
      2050.0         0.27         24.9 
      2051.0         0.37         27.0 
      2052.0         0.37         27.9 
      2053.0         0.30         28.7 
      2054.0         0.27         27.8 
      2055.0         0.32         27.2 
      2056.0         0.30         24.1 
      2057.0         0.33         24.1 
      2058.0         0.40         24.8 
      2059.0         0.30         24.5 
      2060.0         0.27         26.2 
      2061.0         0.33         27.2 
      2062.0         0.27         28.8 
      2063.0         0.30         29.7 
      2064.0         0.30         31.1 
      2065.0         0.30         31.3 
      2066.0         0.22         31.6 
      2067.0         0.23         31.6 
      2068.0         0.27         31.6 
      2069.0         0.37         31.1 
      2070.0         0.40         31.8 
      2071.0        10.32         52.9 
      2072.0         0.60         22.8 
      2073.0         0.57         23.5 
      2074.0         0.43         23.4 
      2075.0         0.42         23.8 
      2076.0         0.43         25.5 
      2077.0         0.37         32.8 
      2078.0         0.50         34.3 
      2079.0         0.57         33.9 
      2080.0         0.50         26.5 
      2081.0         0.43         24.6 
      2082.0         0.32         24.1 
      2083.0         0.30         25.3 
      2084.0         0.40         25.3 
      2085.0         0.30         25.4 
      2086.0         0.37         25.5 
      2087.0         0.33         25.0 
      2088.0         0.27         23.9 
      2089.0         0.33         24.5 
      2090.0         0.37         24.2 
      2091.0         0.33         23.4 
      2092.0         0.42         25.2 
      2093.0         0.37         28.0 
      2094.0         0.40         30.0 
      2095.0         0.37         33.3 
      2096.0         0.37         35.3 
      2097.0         0.33         33.7 
      2098.0         0.30         30.5 
      2099.0         0.30         29.3 
      2100.0         0.43         30.0 
      2101.0        10.70         70.0 
      2102.0         0.63          3.4 
      2103.0         0.47          3.6 
      2104.0         0.43          3.4 
      2105.0         0.30          4.0 
      2106.0         0.37          4.0 
      2107.0         0.50          3.2 
      2108.0         0.48          3.1 
      2109.0         0.33          3.6 
      2110.0         0.20          4.1 
      2111.0         0.17          5.1 
      2112.0         0.23          4.5 
      2113.0         0.30          4.5 
      2114.0         0.40          4.7 
      2115.0         0.40          5.8 
      2116.0         0.37          5.9 
      2117.0         0.43          5.1 
      2118.0         0.42          4.3 
      2119.0         0.43          4.3 
      2120.0         0.37          4.5 
      2121.0         0.37          4.0 
      2122.0         0.37          5.3 
      2123.0         0.33          5.8 
      2124.0         0.30          7.3 
      2125.0         0.30          6.4 
      2126.0         0.23          6.8 
