~Version Information
VERS.                      2.0: CWLS Log ASCII Standard - VERSION 2.0
WRAP.                       NO: One line per depth step
~Well Information Block
STRT.FT               370.0000: 
STOP.FT              1282.5000: 
STEP.FT                 0.1000: 
NULL.                -999.2500: 
COMP.          Pioneer Natural Resources: COMPANY
WELL.          Irish Eyes 33-21: WELL
FLD.           Purgatoire River: FIELD
LOC.           1379' FSL & 2544' FEL: LOCATION
PROV.                 Colorado: PROVINCE
CNTY.               Las Animas: COUNTRY
SRVC.                Patterson: SERVICE COMPANY
DATE.          Mon Jan 16 13:31:01 2006: LOG DATE
UWI.           05 071 08658 00: UNIQUE WELL ID
~Curve Information Block
DEPT.FT            0 000 00 00: Depth
DCAL.in                       : CDL Caliper
RHOB.g/cc                     : CDL Bulk Density
RHOC.g/cc                     : CDL Density Correction
DPOR.pu                       : CDL Density Porosity
GR.GAPI                       : Gamma Ray
NPOR.pu                       : Neutron Porosity
~Parameter Information Block
~A  Depth       DCAL        RHOB        RHOC        DPOR         GR         NPOR    
# ...
   792.4000      8.1682      2.5398      0.1300      6.6784    142.7207     31.9834
   792.5000      8.1279      2.5523      0.0728      5.9238    142.6399     31.1851
   792.6000      8.1279      2.5701      0.1314      4.8437    138.9765     30.5179
   792.7000      8.1279      2.5863      0.0684      3.8634    135.8554     29.4817
   792.8000      8.0739      2.5893      0.0550      3.6762    133.0430     27.5416
   792.9000      8.0739      2.5707      0.0455      4.8045    127.1849     25.5744
   793.0000      7.9728      2.5398     -0.0355      6.6782    115.3535     25.1365
   793.1000      7.9728      2.5267     -0.0171      7.4713    104.4009     26.0760
   793.2000      7.9728      2.5452      0.0181      6.3526    100.9935     26.9749
   793.3000      7.9654      2.5816      0.0374      4.1464    100.7268     26.9218
   793.4000      7.9654      2.6233      0.0122      1.6188     98.1127     25.4043
   793.5000      7.9493      2.6564      0.1495     -0.3900     95.6675     23.1713
   793.6000      7.9493      2.6610      0.0627     -0.6637     97.7164     22.5701
   793.7000      7.9493      2.6447      0.0138      0.3189    101.2728     24.1861
   793.8000      7.9616      2.6290      0.0564      1.2735    100.1071     25.8360
   793.9000      7.9616      2.6277     -0.0111      1.3489     93.9289     26.3361
   794.0000      7.9481      2.6515      0.0328     -0.0899     88.6611     26.1205
   794.1000      7.9481      2.6792      0.0612     -1.7706     88.1356     26.0225
   794.2000      7.9481      2.6723      0.0927     -1.3505     91.5262     26.1431
   794.3000      7.9347      2.6244      0.0388      1.5506     95.6376     26.0204
   794.4000      7.9347      2.5675      0.0092      4.9989     97.0364     25.2136
   794.5000      7.9331      2.5404     -0.0334      6.6442     97.3168     24.1687
   794.6000      7.9331      2.5511      0.0336      5.9967    100.6013     24.1012
   794.7000      7.9331      2.5748     -0.0218      4.5606    103.8124     24.9553
   794.8000      7.9411      2.5888      0.0189      3.7106    101.4814     25.7475
   794.9000      7.9411      2.5874      0.0110      3.7961     95.3194     26.3751
   795.0000      7.9769      2.5815      0.0263      4.1494     92.1342     26.8319
   795.1000      7.9769      2.5811      0.0443      4.1765     95.8617     26.5741
   795.2000      7.9769      2.5816      0.0217      4.1454    101.2356     26.0999
   795.3000      7.9933      2.5748      0.0419      4.5565    102.6675     26.4776
   795.4000      7.9933      2.5582      0.0101      5.5655    102.3647     27.1554
   795.5000      7.9664      2.5446     -0.0184      6.3861    103.4412     26.9262
   795.6000      7.9664      2.5492      0.0215      6.1120    104.3111     25.4089
   795.7000      7.9664      2.5655      0.0220      5.1202    102.6362     23.8583
   795.8000      7.9695      2.5835     -0.0047      4.0289     99.9817     24.3115
   795.9000      7.9695      2.6002      0.0176      3.0172     98.3331     25.8002
   796.0000      7.9699      2.6067      0.0323      2.6249     98.7797     26.1712
   796.1000      7.9699      2.5968      0.0118      3.2242    101.9142     24.9014
   796.2000      7.9699      2.5731      0.0278      4.6578    106.2723     23.5173
   796.3000      7.9858      2.5466     -0.0425      6.2646    107.0486     24.5568
   796.4000      7.9858      2.5289      0.0323      7.3386    102.6351     26.5117
   796.5000      7.9970      2.5178     -0.0075      8.0142     96.9958     26.9924
   796.6000      7.9970      2.5191     -0.0368      7.9318     94.1586     26.4942
   796.7000      7.9970      2.5376      0.0061      6.8107     93.8012     26.4133
   796.8000      8.0009      2.5572      0.0164      5.6239     93.1991     26.3863
   796.9000      8.0009      2.5703      0.0326      4.8312     92.5311     25.2808
   797.0000      8.0048      2.5865      0.0330      3.8496     93.7761     23.6554
   797.1000      8.0048      2.6059      0.0547      2.6702     94.8534     23.2949
   797.2000      8.0048      2.6160      0.0373      2.0632     92.7182     23.9603
   797.3000      8.0068      2.6135      0.0989      2.2142     89.3024     24.7795
   797.4000      8.0068      2.6014      0.0826      2.9476     88.9869     25.4972
   797.5000      8.0082      2.5825      0.0176      4.0906     90.9715     25.7414
   797.6000      8.0082      2.5568      0.0591      5.6505     93.5189     25.3270
   797.7000      8.0082      2.5225     -0.0282      7.7290     98.1648     24.3087
   797.8000      7.9880      2.4868     -0.0455      9.8933    100.5981     23.1338
   797.9000      7.9880      2.4523      0.0132     11.9802     96.8072     21.8767
   798.0000      7.9994      2.4187     -0.0555     14.0167     89.0949     20.8127
   798.1000      7.9994      2.3888      0.0205     15.8324     80.5744     22.0012
   798.2000      7.9994      2.3560      0.0043     17.8156     77.2928     24.7878
   798.3000      7.9588      2.3204     -0.0232     19.9780     82.3257     26.9989
   798.4000      7.9588      2.3018     -0.0325     21.1009     87.4878     28.6526
   798.5000      7.9200      2.3138      0.0233     20.3753     87.7063     30.0023
   798.6000      7.9200      2.3449      0.1125     18.4892     88.7683     30.6732
   798.7000      7.9200      2.3878      0.0705     15.8879     94.0772     30.5376
   798.8000      7.9073      2.4449      0.2083     12.4277    100.9237     30.0288
   798.9000      7.9073      2.5021      0.2345      8.9643    106.6220     29.8952
   799.0000      7.9132      2.5486      0.1703      6.1445    112.7842     30.6748
   799.1000      7.9132      2.5838      0.1834      4.0093    123.2306     31.7191
   799.2000      7.9132      2.5955      0.1210      3.3039    135.3621     31.8616
   799.3000      7.9403      2.5801      0.0685      4.2342    141.8750     31.2852
   799.4000      7.9403      2.5646     -0.0441      5.1779    140.8950     30.3736
   799.5000      7.9752      2.5695      0.0660      4.8786    138.7623     28.8230
   799.6000      7.9752      2.5784      0.0574      4.3383    137.2664     27.4288
   799.7000      7.9752      2.5709      0.0560      4.7920    133.9429     27.4686
   799.8000      7.9968      2.5479      0.0214      6.1899    135.6879     28.6074
   799.9000      7.9968      2.5229      0.0398      7.7004    144.8761     29.8917
   800.0000      8.0104      2.5001      0.0343      9.0832    152.8549     30.7777
   800.1000      8.0104      2.4738      0.0295     10.6815    153.7068     30.7858
   800.2000      8.0104      2.4524     -0.0406     11.9756    151.5285     30.2709
   800.3000      8.0115      2.4531     -0.0486     11.9362    153.7151     29.4044
   800.4000      8.0115      2.4627      0.0449     11.3523    159.1135     28.0655
   800.5000      8.0576      2.4614     -0.0155     11.4331    160.4052     27.5769
   800.6000      8.0576      2.4687     -0.0152     10.9896    154.9769     28.9163
   800.7000      8.0576      2.5044      0.0484      8.8248    148.3889     30.7843
   800.8000      8.0295      2.5571      0.1083      5.6331    145.6829     31.5912
   800.9000      8.0295      2.6043      0.1525      2.7718    147.3999     31.0454
   801.0000      8.0207      2.6303      0.1389      1.1945    154.3454     30.0722
   801.1000      8.0207      2.6355      0.1480      0.8767    160.5143     29.6746
   801.2000      8.0207      2.6348      0.0437      0.9214    155.6148     29.8942
   801.3000      8.0265      2.6460      0.1005      0.2438    138.6008     29.9542
   801.4000      8.0265      2.6835      0.0421     -2.0315    119.0671     29.1690
   801.5000      8.0661      2.7460      0.0762     -5.8162    104.0484     27.4183
   801.6000      8.0661      2.7966      0.1217     -8.8838     92.6057     25.3279
   801.7000      8.0661      2.8106      0.0811     -9.7334     86.8509     24.8700
   801.8000      8.1000      2.8149      0.0437     -9.9963     87.8810     26.3250
   801.9000      8.1000      2.8344      0.0548    -11.1756     89.9275     27.4261
