~Version Information
VERS.                      2.0: CWLS Log ASCII Standard - VERSION 2.0
WRAP.                       NO: One line per depth step
~Well Information Block
STRT.FT                -8.2500: 
STOP.FT              1580.5000: 
STEP.FT                 0.2500: 
NULL.                -999.2500: 
COMP.          Pioneer Natural Resources: COMPANY
WELL.          Daytona 31-14 Tr: WELL
FLD.           Purgatorie River: FIELD
LOC.           683' FNL & 1943' FEL--: LOCATION
CNTY.               Las Animas: COUNTY
SRVC.          Patterson Wireline: SERVICE COMPANY
DATE.          Thu Feb 02 08:47:22 2006: LOG DATE
UWI.           05 071 08681 00: UNIQUE WELL ID
STAT.                       CO: STATE
~Curve Information Block
DEPT.FT            0 000 00 00: Depth
CCL.                          : Casing Collar Locator
TT3.usec                      : CBL 3' Travel Time
AMP3.mV                       : CBL 3' Amplitude
GR.GAPI                       : Gamma Ray
~Parameter Information Block
~A  Depth       CCL         TT3         AMP3         GR     
# ...
   192.7500      0.0000    727.1536      8.6974     86.9014
   193.0000      0.0000    726.9891      8.5518     86.2453
   193.2500      0.0000    727.3934      8.4531     85.3644
   193.5000      0.0000    727.2311      8.3961     84.5639
   193.7500      0.0000    726.5213      8.3568     84.6120
   194.0000      0.0000    726.4429      8.3129     86.0076
   194.2500      0.0000    727.8553      8.2608     88.1921
   194.5000      0.0000    730.2663      8.2198     89.8080
   194.7500      0.0000    732.4479      8.2184     90.1106
   195.0000      0.0000    733.6662      8.2733     89.7078
   195.2500      0.0000    734.0513      8.3744     89.4059
   195.5000      0.0000    734.1046      8.4912     88.8422
   195.7500      0.0000    734.1979      8.5928     87.1481
   196.0000      0.0000    734.4587      8.6654     84.7697
   196.2500      0.0000    734.8422      8.7138     83.6237
   196.5000      0.0000    735.1998      8.7504     85.2255
   196.7500      0.0000    735.3782      8.7838     89.3688
   197.0000      0.0000    735.3408      8.8154     94.7736
   197.2500      0.0000    735.2033      8.8387    100.2470
   197.5000      0.0000    735.1251      8.8434    105.0342
   197.7500      0.0000    735.1591      8.8221    108.6596
   198.0000      0.0000    735.1796      8.7752    110.6437
   198.2500      0.0000    734.6777      8.7116    110.3154
   198.5000      0.0000    732.2824      8.6467    107.3620
   198.7500      0.0000    725.2341      8.5962    102.7362
   199.0000      0.0000    710.1636      8.5673     98.2698
   199.2500      0.0000    686.6417      8.5426     94.9268
   199.5000      0.0000    661.2778      8.4709     92.0266
   199.7500      0.0000    645.8841      8.2872     88.5475
   200.0000      0.0000    648.0603      7.9692     84.5663
   200.2500      0.0000    664.1353      7.5770     81.0447
   200.5000      0.0000    683.5508      7.2194     78.8211
   200.7500      0.0000    698.8437      6.9751     78.2411
   201.0000      0.0000    709.4926      6.8497     79.0998
   201.2500      2.0000    718.6404      6.7956     80.6104
   201.5000      0.0000    729.2127      6.7540     82.1229
   201.7500      0.0000    742.0718      6.6874     84.1170
   202.0000      0.0000    755.0100      6.6076     87.7538
   202.2500      0.0000    763.5546      6.5814     93.1861
   202.5000      0.0000    764.7084      6.6768     98.9075
   202.7500      0.0000    759.9623      6.8863    103.0161
   203.0000      0.0000    753.7025      7.1240    104.8826
   203.2500      0.0000    749.2775      7.3065    105.4654
   203.5000      0.0000    747.4612      7.4074    106.1741
   203.7500      0.0000    747.5814      7.4386    107.5840
   204.0000      0.0000    748.3865      7.4193    109.0139
   204.2500      0.0000    747.9354      7.3704    109.0454
   204.5000      0.0000    744.1228      7.3120    106.6442
   204.7500      0.0000    736.3061      7.2582    102.1990
   205.0000      0.0000    726.3880      7.2201     97.4470
   205.2500      0.0000    717.8861      7.2122     94.2457
   205.5000      0.0000    713.5049      7.2463     93.5107
   205.7500      0.0000    713.4429      7.3176     95.3042
   206.0000      0.0000    715.8352      7.3990     99.2677
   206.2500      0.0000    718.5615      7.4542    104.3840
   206.5000      0.0000    720.6277      7.4598    108.8501
   206.7500      0.0000    722.2746      7.4164    111.0843
   207.0000      0.0000    724.2278      7.3414    110.8382
   207.2500      0.0000    726.7723      7.2536    108.8854
   207.5000      0.0000    729.1784      7.1671    106.0403
   207.7500      0.0000    730.0201      7.0965    103.0358
   208.0000      0.0000    728.2989      7.0589    100.8089
   208.2500      0.0000    724.2873      7.0679    100.0818
   208.5000      0.0000    719.3389      7.1249    100.7590
   208.7500      0.0000    715.1423      7.2155    102.1440
   209.0000      0.0000    713.0029      7.3154    103.5674
   209.2500      0.0000    713.1098      7.4036    104.5782
   209.5000      0.0000    714.2320      7.4749    104.7209
   209.7500      0.0000    714.4720      7.5398    103.4423
   210.0000      0.0000    712.6405      7.6089    100.4930
   210.2500      0.0000    709.0359      7.6776     96.4696
   210.5000      0.0000    705.0413      7.7311     92.5790
   210.7500      0.0000    701.9910      7.7616     89.6974
   211.0000      0.0000    700.3505      7.7769     88.1007
   211.2500      0.0000    699.7880      7.7882     88.1085
   211.5000      0.0000    699.7914      7.7962     90.3397
   211.7500      0.0000    700.1609      7.7959     95.0797
   212.0000      0.0000    701.1581      7.7896    101.6832
   212.2500      0.0000    703.3378      7.7871    108.6824
   212.5000      0.0000    706.9940      7.7952    114.4730
   212.7500      0.0000    711.4132      7.8114    117.8989
   213.0000      0.0000    714.8836      7.8275    118.3948
   213.2500      0.0000    716.0842      7.8324    116.0768
   213.5000      0.0000    715.6283      7.8149    112.0551
   213.7500      0.0000    715.6213      7.7670    108.4193
   214.0000      0.0000    717.3791      7.6869    107.1316
   214.2500      0.0000    720.0253      7.5808    108.3144
   214.5000      0.0000    721.6418      7.4654    109.8956
   214.7500      0.0000    721.4240      7.3662    109.6329
   215.0000      0.0000    720.4522      7.3081    107.4393
   215.2500      0.0000    720.6773      7.3006    105.0000
   215.5000      0.0000    723.2665      7.3327    103.2579
   215.7500      0.0000    727.5242      7.3823    101.4717
   216.0000      0.0000    731.3513      7.4318     98.9685
   216.2500      0.0000    733.1005      7.4764     96.4875
   216.5000      0.0000    733.0582      7.5185     95.1678
   216.7500      0.0000    732.9646      7.5571     95.0395
   217.0000      0.0000    734.1317      7.5882     95.1036
   217.2500      0.0000    736.2498      7.6145     94.5164
   217.5000      0.0000    737.9130      7.6462     93.4044
   217.7500      0.0000    737.8993      7.6899     92.6554
   218.0000      0.0000    735.9637      7.7427     93.1347
   218.2500      0.0000    732.7789      7.7963     95.2030
   218.5000      0.0000    729.1429      7.8375     98.5797
   218.7500      0.0000    725.1037      7.8502    101.9631
   219.0000      0.0000    720.1737      7.8272    103.0783
   219.2500      0.0000    714.5645      7.7821    100.3401
   219.5000      0.0000    709.6868      7.7375     94.8820
   219.7500      0.0000    707.0460      7.7018     90.1234
   220.0000      0.0000    706.8660      7.6638     88.7339
   220.2500      0.0000    707.8754      7.6101     90.2183
   220.5000      0.0000    708.3123      7.5367     91.7414
   220.7500      0.0000    707.2921      7.4450     91.1160
   221.0000      0.0000    705.4288      7.3372     88.5040
   221.2500      0.0000    704.2825      7.2203     85.3521
   221.5000      0.0000    705.3345      7.1088     82.5628
   221.7500      0.0000    709.2949      7.0179     80.1903
   222.0000      0.0000    715.7664      6.9510     78.3038
   222.2500      0.0000    723.2656      6.8997     77.3068
   222.5000      0.0000    729.9217      6.8571     77.3669
   222.7500      0.0000    734.5368      6.8278     78.0175
   223.0000      0.0000    737.0624      6.8235     78.5327
   223.2500      0.0000    738.1689      6.8534     78.3907
   223.5000      0.0000    738.5176      6.9169     77.2064
   223.7500      0.0000    738.3183      7.0016     74.5866
   224.0000      0.0000    737.2513      7.0850     70.4481
   224.2500      0.0000    734.6370      7.1430     65.3440
   224.5000      0.0000    729.8742      7.1612     60.1391
   224.7500      0.0000    723.1293      7.1407     55.4108
   225.0000      0.0000    715.7856      7.0965     51.4286
   225.2500      0.0000    710.0412      7.0521     48.6293
   225.5000      0.0000    707.7999      7.0266     47.5477
   225.7500      0.0000    709.6796      7.0229     48.0259
   226.0000      0.0000    714.6409      7.0274     48.9044
