~Version Information
VERS.                      2.0: CWLS Log ASCII Standard - VERSION 2.0
WRAP.                       NO: One line per depth step
~Well Information Block
STRT.FT               505.0000: 
STOP.FT               772.0000: 
STEP.FT                 0.2500: 
NULL.                -999.2500: 
COMP.          Pioneer Natural Resources: COMPANY
WELL.                Zed 11-23: WELL
FLD.           Purgatoire River: FIELD
LOC.           641' FNL & 952' FWL: LOCATION
CNTY.               Las Animas: COUNTY
SRVC.                Patterson: SERVICE COMPANY
DATE.          Sun Feb 26 18:39:19 2006: LOG DATE
UWI.           05 071 08702 00: UNIQUE WELL ID
STAT.                 Colorado: STATE
~Curve Information Block
DEPT.FT            0 000 00 00: Depth
SN.Ohm-m                      : IEL Short Normal
SP.mV                         : IEL Spontaneous Potential
DIR.Ohm-m                     : IEL Induction Resistivity
GR.GAPI                       : Gamma Ray
~Parameter Information Block
~A  Depth        SN          SP         DIR          GR     
# ...
   706.0000     22.0931     63.8261     22.4125     92.3772
   706.2500     21.9372     63.9187     22.3702     92.7461
   706.5000     21.9564     64.0544     22.2902     92.9704
   706.7500     22.0023     64.2112     22.1411     93.4321
   707.0000     21.9467     64.3577     21.9431     94.8810
   707.2500     21.8190     64.4705     21.7435     96.0046
   707.5000     21.7299     64.5442     21.5754     97.1531
   707.7500     21.6829     64.5840     21.4417     97.4724
   708.0000     21.5984     64.5887     21.3280     97.7390
   708.2500     21.5001     64.5443     21.2227     98.0504
   708.5000     21.4907     64.4362     21.1237     98.8839
   708.7500     21.5811     64.2676     21.0326     99.6361
   709.0000     21.6976     64.0707     20.9515    100.7779
   709.2500     21.7797     63.8989     20.8899    101.3125
   709.5000     21.8012     63.8083     20.8721    101.4641
   709.7500     21.7833     63.8384     20.9314    101.0916
   710.0000     21.7954     63.9988     21.0920    100.0145
   710.2500     21.9228     64.2638     21.3522     99.2565
   710.5000     22.2018     64.5771     21.6854     98.7626
   710.7500     22.5760     64.8681     22.0604     98.9917
   711.0000     23.0157     65.0755     22.4685     99.3335
   711.2500     23.6063     65.1681     22.9352     98.7561
   711.5000     24.3855     65.1521     23.5027     96.1416
   711.7500     25.2557     65.0579     24.1936     93.7042
   712.0000     26.1589     64.9150     24.9789     90.1489
   712.2500     27.1824     64.7399     25.7748     88.0025
   712.5000     28.4143     64.5460     26.4774     84.5056
   712.7500     29.7835     64.3588     27.0179     81.7782
   713.0000     31.1577     64.2182     27.3958     77.9283
   713.2500     32.5190     64.1642     27.6608     76.4851
   713.5000     33.8469     64.2195     27.8654     77.1482
   713.7500     34.9371     64.3800     28.0313     79.3926
   714.0000     35.5321     64.6143     28.1500     84.4250
   714.2500     35.5108     64.8748     28.2033     88.2582
   714.5000     34.8907     65.1176     28.1787     93.9673
   714.7500     33.7979     65.3214     28.0734     97.3567
   715.0000     32.4648     65.4937     27.8918    101.0510
   715.2500     31.1413     65.6591     27.6435    102.3340
   715.5000     29.9572     65.8407     27.3434    103.0573
   715.7500     28.9207     66.0473     27.0124    103.5914
   716.0000     28.0188     66.2755     26.6789    105.5846
   716.2500     27.2442     66.5156     26.3768    107.5218
   716.5000     26.5761     66.7494     26.1369    109.8114
   716.7500     25.9997     66.9471     25.9680    110.0876
   717.0000     25.5162     67.0773     25.8411    108.3774
   717.2500     25.1084     67.1240     25.6913    106.3891
   717.5000     24.7693     67.0958     25.4510    103.7755
   717.7500     24.5359     67.0175     25.0993    103.2328
   718.0000     24.4148     66.9104     24.6847    104.8896
   718.2500     24.3522     66.7779     24.2980    107.1644
   718.5000     24.3068     66.6082     24.0174    110.7619
   718.7500     24.2999     66.3937     23.8713    112.6241
   719.0000     24.3800     66.1471     23.8335    114.1683
   719.2500     24.5251     65.8994     23.8455    114.1919
   719.5000     24.6281     65.6803     23.8474    112.5619
   719.7500     24.6295     65.4939     23.8021    110.6734
   720.0000     24.5931     65.3078     23.7003    107.9170
   720.2500     24.5885     65.0719     23.5481    106.8471
   720.5000     24.5455     64.7585     23.3553    106.5191
   720.7500     24.3287     64.3898     23.1326    106.4780
   721.0000     23.9569     64.0250     22.9000    105.3950
   721.2500     23.6502     63.7180     22.6873    103.9738
   721.5000     23.5933     63.4862     22.5221    102.1067
   721.7500     23.6810     63.3137     22.4096    101.7837
   722.0000     23.5847     63.1748     22.3231    102.5211
   722.2500     23.0822     63.0521     22.2158    103.0154
   722.5000     22.2884     62.9426     22.0474    102.5668
   722.7500     21.5714     62.8537     21.8072    101.4712
   723.0000     21.2189     62.7964     21.5154     99.6894
   723.2500     21.1743     62.7781     21.2092     99.1908
   723.5000     21.1693     62.7998     20.9286    100.3292
   723.7500     21.0417     62.8586     20.7113    102.3286
   724.0000     20.8234     62.9477     20.5882    106.3079
   724.2500     20.6164     63.0541     20.5721    108.8402
   724.5000     20.5136     63.1618     20.6482    111.2026
   724.7500     20.5678     63.2635     20.7765    111.3837
   725.0000     20.7581     63.3681     20.9121    109.8022
   725.2500     20.9834     63.4904     21.0296    108.3365
   725.5000     21.1028     63.6330     21.1319    107.3743
   725.7500     21.0515     63.7801     21.2339    108.0745
   726.0000     20.9100     63.9084     21.3376    110.3383
   726.2500     20.7860     64.0044     21.4219    111.7420
   726.5000     20.6890     64.0746     21.4580    112.7506
   726.7500     20.5932     64.1472     21.4339    112.5740
   727.0000     20.5120     64.2618     21.3630    110.8705
   727.2500     20.4743     64.4481     21.2660    108.7237
   727.5000     20.4935     64.7035     21.1499    104.6721
   727.7500     20.5287     64.9925     21.0069    102.2514
   728.0000     20.4982     65.2669     20.8334    100.1976
   728.2500     20.3774     65.4857     20.6453    100.0075
   728.5000     20.2333     65.6196     20.4732    101.1303
   728.7500     20.1385     65.6488     20.3405    102.6068
   729.0000     20.1121     65.5663     20.2483    105.6302
   729.2500     20.1221     65.3820     20.1778    107.9838
   729.5000     20.1138     65.1174     20.1091    111.6333
   729.7500     20.0915     64.7944     20.0361    113.8730
   730.0000     20.1362     64.4284     19.9690    116.2626
   730.2500     20.3000     64.0340     19.9245    116.8286
   730.5000     20.5297     63.6347     19.9156    116.1078
   730.7500     20.6819     63.2643     19.9453    115.0733
   731.0000     20.6111     62.9575     20.0049    114.1140
   731.2500     20.3396     62.7370     20.0798    114.6976
   731.5000     20.0749     62.6061     20.1613    118.0304
   731.7500     19.9649     62.5480     20.2537    121.4252
   732.0000     19.9705     62.5289     20.3691    126.2002
   732.2500     20.0284     62.5038     20.5118    127.7603
   732.5000     20.1803     62.4276     20.6691    126.0214
   732.7500     20.4936     62.2723     20.8149    122.0329
   733.0000     20.9990     62.0441     20.9270    113.3953
   733.2500     21.6914     61.7821     21.0085    107.5704
   733.5000     22.4812     61.5350     21.0941    101.5161
   733.7500     23.2102     61.3349     21.2338     99.9941
   734.0000     23.7644     61.1857     21.4615    100.7955
   734.2500     24.1419     61.0689     21.7722    102.3299
   734.5000     24.4263     60.9514     22.1247    104.3455
   734.7500     24.6620     60.7988     22.4670    104.7122
   735.0000     24.7902     60.5932     22.7617    102.8679
   735.2500     24.7731     60.3482     22.9923    100.0209
   735.5000     24.6688     60.1022     23.1494     94.8613
   735.7500     24.5534     59.8932     23.2210     92.2919
   736.0000     24.4581     59.7337     23.1968     91.4447
   736.2500     24.3723     59.6056     23.0815     92.9396
   736.5000     24.2696     59.4754     22.9008     97.4012
   736.7500     24.1518     59.3163     22.6935    101.1385
   737.0000     24.0698     59.1197     22.4965    106.3068
   737.2500     24.0136     58.8923     22.3326    108.4697
   737.5000     23.8566     58.6426     22.1998    108.8467
   737.7500     23.5688     58.3715     22.0675    107.3020
   738.0000     23.3485     58.0717     21.8854    103.1403
   738.2500     23.4123     57.7342     21.6077     99.7172
   738.5000     23.7411     57.3519     21.2208     94.7283
   738.7500     24.1051     56.9198     20.7508     92.2254
   739.0000     24.2896     56.4377     20.2505     90.6885
   739.2500     24.2346     55.9170     19.7769     91.3330
