~Version Information
VERS.                      2.0: CWLS Log ASCII Standard - VERSION 2.0
WRAP.                       NO: One line per depth step
~Well Information Block
STRT.FT               545.0000: 
STOP.FT              1452.5000: 
STEP.FT                 0.1000: 
NULL.                -999.2500: 
COMP.          Pioneer Natural Resources: COMPANY
WELL.          Parklane 43-34 Tr: WELL
FLD.           Purgatoire River: FIELD
LOC.           1643' FSL & 966' FEL: LOCATION
PROV.                 Colorado: PROVINCE
CNTY.               Las Animas: COUNTRY
SRVC.                Patterson: SERVICE COMPANY
DATE.          Fri Jul 29 07:27:28 2005: LOG DATE
UWI.           05 071 08452 00: UNIQUE WELL ID
~Curve Information Block
DEPT.FT            0 000 00 00: Depth
DCAL.in                       : CDL Caliper
RHOB.g/cc                     : CDL Bulk Density
RHOC.g/cc                     : CDL Density Correction
DPOR.pu                       : CDL Density Porosity
GR.GAPI                       : Gamma Ray
NPOR.pu                       : Neutron Porosity
~Parameter Information Block
~A  Depth       DCAL        RHOB        RHOC        DPOR         GR         NPOR    
# ...
   727.4000      8.2695      2.4169     -0.0403     14.1276    141.7492     22.4215
   727.5000      8.2171      2.4137      0.0259     14.3236    142.0314     22.2738
   727.6000      8.2171      2.3927      0.0464     15.5959    147.0293     21.8879
   727.7000      8.2171      2.3299     -0.0219     19.3992    148.6405     21.3444
   727.8000      8.1710      2.2461     -0.0520     24.4769    144.4020     20.5581
   727.9000      8.1710      2.1809     -0.0210     28.4301    142.2300     19.7444
   728.0000      8.1477      2.1421     -0.0285     30.7815    145.3087     19.5709
   728.1000      8.1477      2.1080     -0.0063     32.8458    147.6616     20.2908
   728.2000      8.1477      2.0759     -0.0271     34.7965    147.4326     21.2355
   728.3000      8.0587      2.0715     -0.0293     35.0593    147.3124     21.5290
   728.4000      8.0587      2.1096      0.0931     32.7486    145.0402     21.3296
   728.5000      8.0320      2.1815      0.1485     28.3946    138.5530     21.2352
   728.6000      8.0320      2.2675      0.2467     23.1828    132.2567     20.9160
   728.7000      8.0320      2.3355      0.3070     19.0578    130.6538     20.1961
   728.8000      8.0513      2.3577      0.2333     17.7147    130.9576     19.7295
   728.9000      8.0513      2.3211      0.1998     19.9316    129.3854     19.9307
   729.0000      8.1643      2.2239      0.1008     25.8255    129.8270     20.5127
   729.1000      8.1643      2.0939      0.0183     33.7014    135.1998     21.0269
   729.2000      8.1643      1.9895     -0.0463     40.0311    140.8971     21.3905
   729.3000      8.1710      1.9514     -0.0563     42.3371    146.1224     21.8914
   729.4000      8.1710      1.9741     -0.0439     40.9649    153.4081     22.7871
   729.5000      8.1814      2.0319     -0.0191     37.4588    157.6619     23.9474
   729.6000      8.1814      2.1092      0.0702     32.7729    151.3239     24.7718
   729.7000      8.1814      2.1976      0.1624     27.4212    139.0346     24.9983
   729.8000      8.2014      2.2901      0.2645     21.8141    133.2393     25.1678
   729.9000      8.2014      2.3823      0.3315     16.2237    135.7916     25.5758
   730.0000      8.1637      2.4597      0.3148     11.5330    139.2049     26.0168
   730.1000      8.1637      2.4973      0.2086      9.2551    138.4709     26.4449
   730.2000      8.1637      2.5040      0.0699      8.8514    134.8635     26.9645
   730.3000      8.1567      2.5190      0.0328      7.9377    131.4787     27.5475
   730.4000      8.1567      2.5448      0.0270      6.3775    129.9314     27.8281
   730.5000      8.1331      2.5539      0.0239      5.8264    128.7037     27.3815
   730.6000      8.1331      2.5476      0.0094      6.2040    127.3164     26.5669
   730.7000      8.1331      2.5480      0.0058      6.1830    128.2835     25.8904
   730.8000      8.1339      2.5520      0.0507      5.9368    130.9096     25.2994
   730.9000      8.1339      2.5390      0.0456      6.7265    127.5307     24.7187
   731.0000      8.1337      2.5151     -0.0100      8.1768    114.9701     24.2041
   731.1000      8.1337      2.5041     -0.0117      8.8425    104.0162     23.7548
   731.2000      8.1337      2.5070      0.0042      8.6684    101.3210     23.4077
   731.3000      8.1354      2.5043      0.0175      8.8288    102.8183     23.2929
   731.4000      8.1354      2.4903     -0.0582      9.6818    110.1182     23.4749
   731.5000      8.1358      2.4847     -0.0659     10.0157    123.0900     23.7289
   731.6000      8.1358      2.4979     -0.0396      9.2200    131.3380     23.7327
   731.7000      8.1358      2.5108     -0.0253      8.4339    132.1000     23.5411
   731.8000      8.1139      2.5106     -0.0465      8.4515    133.1722     23.5694
   731.9000      8.1139      2.5071      0.0163      8.6600    135.2640     23.9324
   732.0000      8.1162      2.5160     -0.0374      8.1186    131.7673     24.3229
   732.1000      8.1162      2.5457     -0.0047      6.3200    124.7869     24.4793
   732.2000      8.1162      2.5746      0.0471      4.5682    122.2430     24.2211
   732.3000      8.1254      2.5718      0.0080      4.7385    124.0706     23.7054
   732.4000      8.1254      2.5478     -0.0173      6.1952    124.4462     23.4678
   732.5000      8.1482      2.5313      0.0071      7.1944    121.6884     23.6172
   732.6000      8.1482      2.5245     -0.0002      7.6035    118.0773     23.8775
   732.7000      8.1482      2.5187     -0.0185      7.9555    116.1472     24.1029
   732.8000      8.1528      2.5103     -0.0271      8.4680    119.0365     24.4093
   732.9000      8.1528      2.4987     -0.0259      9.1702    125.8882     24.8409
   733.0000      8.1375      2.4912     -0.0528      9.6231    129.8013     24.9642
   733.1000      8.1375      2.4941     -0.0312      9.4503    128.0211     24.3935
   733.2000      8.1375      2.4996     -0.0178      9.1147    124.8138     23.4943
   733.3000      8.1303      2.4939     -0.0073      9.4627    123.2814     22.8991
   733.4000      8.1303      2.4743     -0.0412     10.6508    122.3642     22.6599
   733.5000      8.1119      2.4639     -0.0730     11.2798    121.8410     22.4846
   733.6000      8.1119      2.4864     -0.0209      9.9140    121.4514     22.4999
   733.7000      8.1119      2.5276      0.0102      7.4175    119.8906     22.9600
   733.8000      8.0970      2.5530      0.0663      5.8758    118.9502     23.3756
   733.9000      8.0970      2.5550      0.0075      5.7565    120.5516     23.4034
   734.0000      8.0858      2.5491     -0.0001      6.1158    123.4887     23.3704
   734.1000      8.0858      2.5382      0.0019      6.7761    126.2323     23.3947
   734.2000      8.0858      2.5215     -0.0487      7.7868    128.5125     23.3408
   734.3000      8.0661      2.5092     -0.0063      8.5314    130.1686     23.2226
   734.4000      8.0661      2.5014      0.0169      9.0065    130.3873     23.1715
   734.5000      8.0388      2.4886      0.0260      9.7815    130.1438     23.2241
   734.6000      8.0388      2.4750     -0.0702     10.6055    130.0585     23.2350
   734.7000      8.0388      2.4739     -0.0481     10.6737    128.2115     23.0256
   734.8000      8.0505      2.4848     -0.0054     10.0149    125.4679     22.5724
   734.9000      8.0505      2.4977      0.0156      9.2274    122.6008     22.2964
   735.0000      8.0557      2.5110      0.0418      8.4251    116.1884     22.8429
   735.1000      8.0557      2.5272      0.0460      7.4426    109.3413     23.9886
   735.2000      8.0557      2.5380      0.0836      6.7854    109.4278     24.6461
   735.3000      8.0099      2.5380      0.0429      6.7887    116.2731     24.2708
   735.4000      8.0099      2.5360      0.0491      6.9105    123.9262     23.5855
   735.5000      8.0179      2.5347      0.0496      6.9898    128.5356     23.2757
   735.6000      8.0179      2.5348      0.0014      6.9791    128.9458     23.1327
   735.7000      8.0179      2.5413      0.0576      6.5907    125.4537     22.9946
   735.8000      8.0590      2.5475      0.0500      6.2119    121.9990     23.0538
   735.9000      8.0590      2.5517      0.0236      5.9594    121.1834     23.0981
   736.0000      8.0530      2.5568      0.0699      5.6496    122.6881     22.7750
   736.1000      8.0530      2.5537      0.0557      5.8340    125.3276     22.4033
   736.2000      8.0530      2.5397      0.0475      6.6834    126.6626     22.7009
   736.3000      8.0678      2.5289      0.0079      7.3382    124.8994     23.4492
   736.4000      8.0678      2.5301      0.0695      7.2638    121.4068     23.8784
   736.5000      8.0570      2.5308      0.0810      7.2252    117.1281     24.0053
   736.6000      8.0570      2.5172      0.0212      8.0506    111.9072     24.0923
   736.7000      8.0570      2.5004      0.0148      9.0652    109.0904     23.8805
   736.8000      8.0467      2.5045      0.0004      8.8188    112.5128     23.1706
   736.9000      8.0467      2.5342      0.0532      7.0195    120.6077     22.4853
