~Version Information
VERS.                      2.0: CWLS Log ASCII Standard - VERSION 2.0
WRAP.                       NO: One line per depth step
~Well Information Block
STRT.FT                 0.0000: 
STOP.FT              1426.7500: 
STEP.FT                 0.2500: 
NULL.                -999.2500: 
COMP.          Pioneer Natural Resources: COMPANY
WELL.            Bordeaux 42-2: WELL
FLD.           Purgatorie River: FIELD
LOC.           1963' FNL & 1148' FEL: LOCATION
PROV.                 Colorado: PROVINCE
CNTY.               Las Animas: COUNTRY
SRVC.                Patterson: SERVICE COMPANY
DATE.          Fri Dec 02 09:28:20 2005: LOG DATE
UWI.                          : UNIQUE WELL ID
~Curve Information Block
DEPT.FT            0 000 00 00: Depth
CCL.                          : Casing Collar Locator
TT3.usec                      : CBL 3' Travel Time
AMP3.mV                       : CBL 3' Amplitude
GR.GAPI                       : Gamma Ray
~Parameter Information Block
~A  Depth       CCL         TT3         AMP3         GR     
# ...
  1139.0000      0.0000    758.5154     11.4099     73.5857
  1139.2500      0.0000    763.3464     11.5173     73.0603
  1139.5000      0.0000    766.9551     11.5708     71.9556
  1139.7500      0.0000    768.5234     11.5330     71.3857
  1140.0000      0.0000    768.9771     11.4534     72.6387
  1140.2500      0.0000    769.1510     11.4005     75.6669
  1140.5000      0.0000    769.3500     11.4072     78.3368
  1140.7500      0.0000    769.5791     11.4769     77.7908
  1141.0000      0.0000    769.7628     11.5920     73.0603
  1141.2500      0.0000    769.7866     11.7197     66.1128
  1141.5000      0.0000    769.6149     11.8358     60.0683
  1141.7500      0.0000    769.2379     11.9404     56.7271
  1142.0000      0.0000    768.4000     12.0304     56.0044
  1142.2500      0.0000    766.2593     12.0802     57.1114
  1142.5000      0.0000    761.1115     12.0730     59.5279
  1142.7500      0.0000    751.7670     12.0333     62.8809
  1143.0000      0.0000    740.3143     12.0096     66.4621
  1143.2500      0.0000    731.1555     12.0161     69.2595
  1143.5000      0.0000    726.4276     12.0189     70.5564
  1143.7500      0.0000    725.1490     11.9971     70.4226
  1144.0000      0.0000    726.4017     11.9717     69.4280
  1144.2500      0.0000    730.8593     11.9648     67.8380
  1144.5000      0.0000    738.3676     11.9597     65.3022
  1144.7500      0.0000    744.1917     11.8979     61.4630
  1145.0000      0.0000    740.8085     11.6746     56.6972
  1145.2500      0.0000    726.5474     11.2115     52.0616
  1145.5000      0.0000    711.7721     10.6228     48.6203
  1145.7500      0.0000    711.9354     10.0302     46.9474
  1146.0000      0.0000    728.7118      9.2867     47.0371
  1146.2500      0.0000    747.5433      8.3996     48.4415
  1146.5000      0.0000    760.0405      7.7829     50.4868
  1146.7500      0.0000    770.0694      7.6505     52.3688
  1147.0000     -2.0000    780.0112      7.7854     53.2379
  1147.2500      2.0000    788.9822      7.9457     52.6451
  1147.5000      0.0000    794.5882      8.0568     51.0116
  1147.7500      0.0000    790.5168      8.1458     49.3655
  1148.0000      0.0000    773.4370      8.3975     48.5324
  1148.2500      0.0000    741.7967      9.2847     48.6666
  1148.5000      0.0000    697.8159     11.0508     49.3859
  1148.7500      0.0000    670.6334     12.8874     50.0831
  1149.0000      0.0000    689.8752     13.7168     50.0684
  1149.2500      0.0000    735.1345     13.6059     48.7800
  1149.5000      0.0000    766.5303     13.2719     46.2772
  1149.7500      0.0000    774.8434     13.0536     43.4909
  1150.0000      0.0000    772.8068     12.9369     41.7203
  1150.2500      0.0000    770.1763     12.8554     41.7591
  1150.5000      0.0000    769.0080     12.7907     43.3817
  1150.7500      0.0000    768.6125     12.7527     45.4916
  1151.0000      0.0000    768.4435     12.7315     46.8979
  1151.2500      0.0000    768.3611     12.7092     47.2422
  1151.5000      0.0000    768.4564     12.6991     47.2196
  1151.7500      0.0000    768.8533     12.7383     47.7421
  1152.0000      0.0000    769.4457     12.8353     48.9687
  1152.2500      0.0000    769.9365     12.9490     50.3131
  1152.5000      0.0000    770.1536     13.0337     51.1763
  1152.7500      0.0000    770.1511     13.0888     51.3709
  1153.0000      0.0000    770.0764     13.1221     51.0153
  1153.2500      0.0000    770.0307     13.0871     50.3890
  1153.5000      0.0000    769.9653     12.9395     49.8755
  1153.7500      0.0000    769.6993     12.7176     49.8462
  1154.0000      0.0000    769.1267     12.5075     50.4803
  1154.2500      0.0000    768.4214     12.3661     51.5743
  1154.5000      0.0000    767.9226     12.2945     52.5268
  1154.7500      0.0000    767.7389     12.2527     52.7578
  1155.0000      0.0000    767.6164     12.1946     52.2628
  1155.2500      0.0000    767.3030     12.1096     51.5894
  1155.5000      0.0000    766.8924     12.0308     51.1958
  1155.7500      0.0000    766.6687     11.9813     51.0286
  1156.0000      0.0000    766.6744     11.9330     50.8681
  1156.2500      0.0000    766.5784     11.8532     50.8691
  1156.5000      0.0000    766.0412     11.7556     51.4333
  1156.7500      0.0000    765.1550     11.6682     52.4678
  1157.0000      0.0000    764.3728     11.5906     52.9929
  1157.2500      0.0000    763.9857     11.5111     51.7560
  1157.5000      0.0000    763.9462     11.4377     48.3071
  1157.7500      0.0000    764.1807     11.3914     43.4257
  1158.0000      0.0000    764.6931     11.3588     38.6557
  1158.2500      0.0000    765.4986     11.2849     35.5810
  1158.5000      0.0000    766.9456     11.1550     35.2629
  1158.7500      0.0000    770.0430     11.0420     37.8113
  1159.0000      0.0000    775.8892     11.0307     42.2899
  1159.2500      0.0000    784.9367     11.1264     47.2861
  1159.5000      0.0000    796.1849     11.2553     51.9227
  1159.7500      0.0000    804.5072     11.3441     56.4522
  1160.0000      0.0000    802.6465     11.3771     61.7381
  1160.2500      0.0000    790.9288     11.3854     68.0681
  1160.5000      0.0000    778.0436     11.4146     74.6944
  1160.7500      0.0000    770.2412     11.4835     80.6171
  1161.0000      0.0000    767.2302     11.5689     85.4827
  1161.2500      0.0000    766.6146     11.6280     89.6714
  1161.5000      0.0000    766.8459     11.6271     93.9391
  1161.7500      0.0000    767.2132     11.5756     99.0586
  1162.0000      0.0000    767.3789     11.5206    105.2931
  1162.2500      0.0000    767.3134     11.5010    111.9803
  1162.5000      0.0000    767.2099     11.5243    117.8614
  1162.7500      0.0000    766.8815     11.5769    122.0470
  1163.0000      0.0000    765.1239     11.6389    124.7801
  1163.2500      0.0000    759.9261     11.6766    127.1489
  1163.5000      0.0000    750.9609     11.6520    129.7149
  1163.7500      0.0000    742.9240     11.5890    131.4484
  1164.0000      0.0000    742.4169     11.5690    130.5139
  1164.2500      0.0000    749.4987     11.6407    126.1589
  1164.5000      0.0000    757.6808     11.7909    119.3777
  1164.7500      0.0000    762.5298     11.9633    111.6920
  1165.0000      0.0000    765.0508     12.1087    103.9648
  1165.2500      0.0000    767.9944     12.2428     96.7399
  1165.5000      0.0000    771.8423     12.4009     90.9935
  1165.7500      0.0000    774.0012     12.5664     87.7032
  1166.0000      0.0000    772.3682     12.6778     86.8934
  1166.2500      0.0000    768.1309     12.6741     87.7025
  1166.5000      0.0000    762.7822     12.5412     89.1505
  1166.7500      0.0000    755.3115     12.3158     90.4223
  1167.0000      0.0000    745.0308     12.0449     90.7321
  1167.2500      0.0000    735.8371     11.7530     89.5407
  1167.5000      0.0000    735.0562     11.4341     87.0234
  1167.7500      0.0000    745.7330     11.1147     83.9708
  1168.0000      0.0000    760.3228     10.9042     81.0168
  1168.2500      0.0000    766.6179     10.8974     78.2406
  1168.5000      0.0000    762.0519     11.0690     75.7702
  1168.7500      0.0000    756.0186     11.3009     74.4004
  1169.0000      0.0000    756.1909     11.4562     75.1808
  1169.2500      0.0000    760.2961     11.4248     78.4398
  1169.5000      0.0000    762.3990     11.1400     83.3936
  1169.7500      0.0000    759.2967     10.6119     88.5446
  1170.0000      0.0000    751.9332      9.9561     92.3803
  1170.2500      0.0000    746.9590      9.3299     94.0023
  1170.5000      0.0000    752.2122      8.8421     93.3951
  1170.7500      0.0000    765.8837      8.5358     91.0589
  1171.0000      0.0000    777.0546      8.4178     87.3058
  1171.2500      0.0000    778.5434      8.4734     82.0439
  1171.5000      0.0000    771.7389      8.6673     75.3397
  1171.7500      0.0000    760.3447      8.9611     68.0950
  1172.0000      0.0000    746.3531      9.3670     62.0283
  1172.2500      0.0000    730.2001      9.9847     58.8753
