~Version Information
VERS.                      2.0: CWLS Log ASCII Standard - VERSION 2.0
WRAP.                       NO: One line per depth step
~Well Information Block
STRT.FT               310.0000: 
STOP.FT               815.0000: 
STEP.FT                 0.2500: 
NULL.                -999.2500: 
COMP.          Pioneer Natural Resources: COMPANY
WELL.           Weissach 32-32: WELL
FLD.           Purgatorie River: FIELD
LOC.           2193' FNL & 2256' FEL: LOCATION
STAT.                 Colorado: State
CNTY.               Las Animas: COUNTY
CTRY. USA : Country
SECT. 32 : Section
TOWN. 33S : Township
RANG. 65W : Range
SRVC.                Patterson: SERVICE COMPANY
DATE.          Mon Sep 26 09:20:51 2005: LOG DATE
API. 05-071-08523                         : UNIQUE WELL ID
~Curve Information Block
DEPT.FT            0 000 00 00: Depth
SN.Ohm-m                      : IEL Short Normal
SP.mV                         : IEL Spontaneous Potential
DIR.Ohm-m                     : IEL Induction Resistivity
GR.GAPI                       : Gamma Ray
~Parameter Information Block
~A  Depth        SN          SP         DIR          GR     
# ...
   511.0000     20.4173    190.0745     19.0081     92.3973
   511.2500     20.3766    189.5775     20.0306     92.0739
   511.5000     20.1012    189.2030     16.9627     93.5483
   511.7500     19.6196    188.9850     17.1922     90.7920
   512.0000     19.7745    188.8246     20.0224     80.3895
   512.2500     20.4668    188.5285     17.7614     88.4630
   512.5000     21.0082    188.1379     18.6396     99.6701
   512.7500     21.6840    187.6383     19.0564     78.7749
   513.0000     22.5587    186.8660     20.1757     91.4032
   513.2500     23.0760    185.8181     21.3065     94.8876
   513.5000     23.7993    184.1906     22.2586    116.7083
   513.7500     25.9219    182.2183     23.1025    105.9674
   514.0000     29.8633    180.2409     23.7762     77.0862
   514.2500     34.9062    178.3051     23.5895     76.1273
   514.5000     40.1905    176.4302     23.2343     81.2621
   514.7500     43.5728    174.5161     23.4397     89.1093
   515.0000     46.2940    172.7948     25.2433     56.1210
   515.2500     47.9478    170.9236     22.3550     39.9795
   515.5000     48.0190    168.1779     21.4891     36.1857
   515.7500     45.6982    165.5346     20.1109     38.2853
   516.0000     38.2189    163.2137     19.5497     36.7211
   516.2500     32.2639    161.3930     24.3318     33.7729
   516.5000     27.4544    159.4955     19.2526     46.4264
   516.7500     23.9643    157.6855     17.6879     48.3084
   517.0000     22.8043    156.2023     20.7415     54.2154
   517.2500     19.8753    155.4607     16.4427     56.2657
   517.5000     19.4409    155.3920     15.0834     50.9267
   517.7500     17.5201    155.4383     14.8707     58.5491
   518.0000     17.1156    154.7042     14.8251     90.1569
   518.2500     17.7908    154.2248     15.7987    104.0729
   518.5000     17.2686    153.6203     25.1185    106.1563
   518.7500     16.8665    152.9347     21.1652     98.4600
   519.0000     16.7517    152.1363     13.9325     94.7878
   519.2500     17.3799    151.6015     13.9614    103.9771
   519.5000     18.0876    151.2165     14.1910    125.6990
   519.7500     18.6249    150.8956     15.0250    116.9440
   520.0000     18.9388    150.5368     15.7248    108.5678
   520.2500     19.6505    150.2853     16.5655    115.0225
   520.5000     20.1908    150.2994     17.4183    129.0469
   520.7500     20.8857    150.5798     18.3493    124.1250
   521.0000     21.2339    150.3605     19.8542    125.5817
   521.2500     22.1218    150.4231     23.6110    120.5903
   521.5000     23.4189    150.9004     21.5071    115.6018
   521.7500     23.8724    151.7502     21.5500    114.9477
   522.0000     24.7640    152.5879     22.1557    100.7627
   522.2500     25.5054    153.3712     27.2555     82.1087
   522.5000     26.8985    153.8774     31.2052     67.5283
   522.7500     26.2938    154.6846     24.9060     78.3416
   523.0000     26.4190    154.4077     24.6740     93.1563
   523.2500     26.9251    154.2365     28.5946     83.4317
   523.5000     26.8422    154.0176     24.0556     76.3082
   523.7500     26.8311    153.8396     26.5311     70.2357
   524.0000     26.9437    153.9781     35.4889     79.0945
   524.2500     27.2891    154.0498     22.5330     68.8615
   524.5000     27.4043    153.3396     22.2399     80.0098
   524.7500     27.6062    152.2883     25.0497     81.9675
   525.0000     25.0329    151.6849     17.3090     85.1442
   525.2500     22.4316    151.1633     16.1274     81.6381
   525.5000     20.9896    150.7622     16.1788     66.0217
   525.7500     19.3810    150.4308     16.9071     48.9442
   526.0000     17.7611    150.2186     19.9474     61.3484
   526.2500     16.7822    150.0437     15.7320     65.5594
   526.5000     16.1296    150.1162     15.2282     80.7284
   526.7500     15.0205    150.3996     16.3937     88.9410
   527.0000     14.2899    150.9205     14.5397    108.6917
   527.2500     14.0220    150.6942     14.4578    119.6509
   527.5000     14.0831    150.8949     17.5766    135.3447
   527.7500     14.1487    151.2920     13.6600    132.7387
   528.0000     14.3619    151.6507     13.1428    133.3963
   528.2500     15.0324    151.1369     13.2642    150.9351
   528.5000     16.9159    151.0679     14.5130    165.9375
   528.7500     18.0580    150.6926     21.2903    133.3047
   529.0000     17.8478    150.9076     16.5737    110.6419
   529.2500     17.8303    150.3426     14.8391    116.9348
   529.5000     18.2339    150.1369     14.3398    106.1987
   529.7500     17.9823    149.6055     15.6462     92.5604
   530.0000     18.2526    149.3207     15.9521     98.8656
   530.2500     19.2651    149.4960     16.2903    112.8771
   530.5000     18.6889    149.1927     16.3741     72.7125
   530.7500     18.8832    147.7696     16.3231     71.7492
   531.0000     19.2250    147.0193     15.9327     59.5136
   531.2500     18.1687    146.3625     15.8453     68.6792
   531.5000     17.5364    145.7357     16.4126     86.1478
   531.7500     17.0997    145.2580     17.5176     86.5324
   532.0000     17.1686    144.2019     15.7045     79.9527
   532.2500     17.3943    143.5228     15.0894     66.3634
   532.5000     16.0711    142.9179     14.5344     67.3660
   532.7500     15.8732    141.6017     15.2023     78.9043
   533.0000     15.7410    140.9158     16.2665     70.5531
   533.2500     15.3953    140.3709     15.3271     75.0321
   533.5000     15.5864    139.0365     16.3239     69.8890
   533.7500     16.3298    138.1304     21.1228     70.3782
   534.0000     16.1318    137.4940     15.7536     80.4717
   534.2500     16.5268    137.2846     15.6464     87.4883
   534.5000     17.1559    137.2301     16.3873     88.7970
   534.7500     17.7566    137.6856     18.3492     77.6115
   535.0000     19.5571    138.0613     28.3675     91.6222
   535.2500     20.6184    138.5757     21.2613     92.2742
   535.5000     21.9654    139.7049     18.3569    101.1225
   535.7500     24.2041    141.3341     19.8146     92.9823
   536.0000     24.2000    143.1101     24.7460     98.1170
   536.2500     25.3535    144.8544     21.6265     81.0596
   536.5000     27.0249    146.5441     21.8006     81.5778
   536.7500     28.5160    148.1944     23.1769     73.0697
   537.0000     29.9528    149.6626     23.3809     86.3239
   537.2500     30.7678    151.0548     25.3577     70.6393
   537.5000     30.8812    152.3385     30.1612     61.7079
   537.7500     31.2701    152.6468     26.3736     62.7161
   538.0000     31.8981    153.1462     26.9186     72.8754
   538.2500     31.4738    153.5833     27.0487     70.9504
   538.5000     31.3592    154.0827     26.0758     75.3029
   538.7500     31.5577    154.7107     26.9201     80.6726
   539.0000     31.8798    154.7220     30.4947     67.7529
   539.2500     30.9948    155.2217     25.0711     49.4129
   539.5000     30.3793    155.5287     24.2703     55.3091
   539.7500     30.3244    155.2834     24.6201     52.6118
   540.0000     29.9211    155.1625     23.4019     62.8878
   540.2500     28.7562    155.3733     22.8672     61.4352
   540.5000     27.8649    155.9561     24.0976     59.1528
   540.7500     26.8523    156.3396     30.4164     51.4061
   541.0000     25.8905    156.8060     23.5641     64.4344
   541.2500     24.7869    156.7249     28.3140     66.9125
   541.5000     22.1680    157.2671     18.6865     56.3489
   541.7500     19.9954    157.8016     17.5200     58.2847
   542.0000     18.0555    157.4142     17.4926     58.1586
   542.2500     16.6805    157.2918     17.2176     71.3120
   542.5000     15.3745    157.2682     15.4110     76.1174
   542.7500     14.9025    157.4060     15.0243     73.1092
   543.0000     14.8247    157.8535     14.3557     89.3111
   543.2500     14.5476    158.5183     14.8321     85.4656
   543.5000     14.3331    157.8154     13.7090     91.6849
   543.7500     14.3098    157.8395     13.2621     88.0257
   544.0000     14.0789    158.0830     13.4978    120.4299
   544.2500     14.0084    158.2879     16.1894    110.8264
