~Version Information
VERS.                      2.0: CWLS Log ASCII Standard - VERSION 2.0
WRAP.                       NO: One line per depth step
~Well Information Block
STRT.FT               875.0000: 
STOP.FT              2947.2000: 
STEP.FT                 0.1000: 
NULL.                -999.2500: 
COMP.          Pioneer Natural Resources: COMPANY
WELL.          Hanginstone 21-27: WELL
FLD.           Purgatoire River: FIELD
LOC.           1186' FNL & 1606' FWL--: LOCATION
PROV.                 Colorado: PROVINCE
CNTY.               Las Animas: COUNTRY
SRVC.                Patterson: SERVICE COMPANY
DATE.          Mon Jan 09 07:31:45 2006: LOG DATE
UWI.           05 071 08632 00: UNIQUE WELL ID
~Curve Information Block
DEPT.FT            0 000 00 00: Depth
DCAL.in                       : CDL Caliper
RHOB.g/cc                     : CDL Bulk Density
RHOC.g/cc                     : CDL Density Correction
DPOR.pu                       : CDL Density Porosity
NPOR.pu                       : Neutron Porosity
GR.GAPI                       : Gamma Ray
~Parameter Information Block
~A  Depth       DCAL        RHOB        RHOC        DPOR        NPOR         GR     
# ...
  2103.8000      7.8235      2.6805      0.0578     -1.8469     20.8404    105.1695
  2103.9000      7.8235      2.6923      0.1273     -2.5635     20.3678     94.9986
  2104.0000      7.8220      2.6736      0.0645     -1.4311     19.8927     86.2864
  2104.1000      7.8220      2.6497      0.0593      0.0163     19.1706     80.4551
  2104.2000      7.8220      2.6420      0.0736      0.4861     17.9940     77.7506
  2104.3000      7.8213      2.6495      0.0593      0.0323     16.9111     75.1995
  2104.4000      7.8213      2.6725      0.0173     -1.3606     16.4082     69.9851
  2104.5000      7.8227      2.7068      0.0697     -3.4404     16.0278     62.1315
  2104.6000      7.8227      2.7300      0.1093     -4.8468     15.4710     53.9139
  2104.7000      7.8227      2.7222      0.1096     -4.3772     15.0137     48.9473
  2104.8000      7.8241      2.6920      0.0661     -2.5472     14.6544     47.9407
  2104.9000      7.8241      2.6669     -0.0114     -1.0267     14.4739     47.6507
  2105.0000      7.8242      2.6599      0.0397     -0.5991     14.7496     46.0633
  2105.1000      7.8242      2.6579      0.0821     -0.4761     15.2814     44.8574
  2105.2000      7.8242      2.6563     -0.0113     -0.3799     15.8503     48.1756
  2105.3000      7.8253      2.6650      0.0614     -0.9092     16.2340     56.4008
  2105.4000      7.8253      2.6794      0.0514     -1.7795     16.2094     62.8314
  2105.5000      7.8306      2.6881      0.0539     -2.3119     16.2929     62.5109
  2105.6000      7.8306      2.6815      0.0549     -1.9065     17.3068     59.6105
  2105.7000      7.8306      2.6582      0.0105     -0.4979     18.9968     62.8014
  2105.8000      7.8380      2.6286      0.0596      1.2947     20.0812     76.0902
  2105.9000      7.8380      2.6001     -0.0043      3.0262     20.3242     93.2559
  2106.0000      7.8440      2.5764     -0.0287      4.4626     20.7264    105.1760
  2106.1000      7.8440      2.5600     -0.0081      5.4536     21.5574    109.7418
  2106.2000      7.8440      2.5605     -0.0329      5.4235     22.2286    110.4576
  2106.3000      7.8467      2.5845      0.0415      3.9705     22.6094    112.1101
  2106.4000      7.8467      2.6129      0.0856      2.2461     22.9621    118.5198
  2106.5000      7.8492      2.6222      0.0531      1.6845     23.3222    128.6151
  2106.6000      7.8492      2.6126      0.0681      2.2655     23.6919    140.0746
  2106.7000      7.8492      2.5937      0.0636      3.4140     24.2468    151.6384
  2106.8000      7.8520      2.5670      0.0744      5.0274     24.6578    158.0331
  2106.9000      7.8520      2.5399      0.0108      6.6700     24.5341    156.3890
  2107.0000      7.8529      2.5302      0.0237      7.2623     24.6435    151.9327
  2107.1000      7.8529      2.5427      0.0229      6.5036     25.5054    148.1144
  2107.2000      7.8529      2.5612      0.0595      5.3807     26.2830    148.3796
  2107.3000      7.8525      2.5685      0.0557      4.9414     26.3450    152.6647
  2107.4000      7.8525      2.5671      0.0317      5.0260     26.1383    151.8484
  2107.5000      7.8511      2.5666      0.0774      5.0549     25.7804    143.6925
  2107.6000      7.8511      2.5688      0.0272      4.9235     24.9360    137.8878
  2107.7000      7.8511      2.5747      0.0230      4.5619     24.0939    141.9564
  2107.8000      7.8506      2.5756      0.0663      4.5071     23.7355    150.9155
  2107.9000      7.8506      2.5619      0.0387      5.3396     23.4901    157.1008
  2108.0000      7.8520      2.5498      0.0153      6.0711     23.3075    156.2862
  2108.1000      7.8520      2.5553      0.0405      5.7364     23.3724    146.1205
  2108.2000      7.8520      2.5686      0.0378      4.9328     23.5370    134.8005
  2108.3000      7.8526      2.5778      0.0296      4.3735     23.7832    130.0274
  2108.4000      7.8526      2.5814      0.0522      4.1573     24.2077    129.1454
  2108.5000      7.8514      2.5826      0.0611      4.0859     24.5667    128.3678
  2108.6000      7.8514      2.5913     -0.0023      3.5551     24.4161    128.8755
  2108.7000      7.8514      2.6035      0.0707      2.8193     23.9500    130.7689
  2108.8000      7.8505      2.6016      0.0439      2.9345     23.6818    129.7228
  2108.9000      7.8505      2.5917      0.0371      3.5304     23.7482    128.1660
  2109.0000      7.8512      2.5864      0.0242      3.8530     23.9444    131.8913
  2109.1000      7.8512      2.5853      0.0164      3.9233     24.0207    135.9586
  2109.2000      7.8512      2.5872      0.0610      3.8090     24.0350    133.0609
  2109.3000      7.8525      2.5944      0.0239      3.3667     24.1466    126.8239
  2109.4000      7.8525      2.6099      0.0160      2.4316     24.1345    124.8948
  2109.5000      7.8526      2.6192      0.0915      1.8675     23.9180    127.7494
  2109.6000      7.8526      2.6051      0.0399      2.7183     23.8890    131.9684
  2109.7000      7.8526      2.5830      0.0313      4.0601     24.3278    137.9301
  2109.8000      7.8525      2.5751     -0.0112      4.5390     24.9583    142.5615
  2109.9000      7.8525      2.5783      0.0241      4.3479     25.4131    139.9103
  2110.0000      7.8510      2.5805      0.0015      4.2118     25.6569    135.5972
  2110.1000      7.8510      2.5822      0.0235      4.1078     25.7270    136.6306
  2110.2000      7.8510      2.5797      0.0054      4.2636     25.6226    136.9669
  2110.3000      7.8487      2.5647      0.0456      5.1699     25.2861    133.6332
  2110.4000      7.8487      2.5496     -0.0034      6.0830     25.0157    131.5405
  2110.5000      7.8500      2.5545      0.0031      5.7900     25.0449    130.5380
  2110.6000      7.8500      2.5682      0.1043      4.9580     24.9458    126.8949
  2110.7000      7.8500      2.5678      0.0358      4.9841     24.6541    121.2744
  2110.8000      7.8530      2.5555      0.0571      5.7249     24.5297    118.8817
  2110.9000      7.8530      2.5400      0.0673      6.6652     24.6175    121.7296
  2111.0000      7.8525      2.5330      0.0044      7.0913     24.9146    128.6584
  2111.1000      7.8525      2.5449      0.0307      6.3705     25.3751    140.4306
  2111.2000      7.8525      2.5595      0.0988      5.4820     25.5804    150.9442
  2111.3000      7.8504      2.5644      0.0368      5.1873     25.4728    149.6736
  2111.4000      7.8504      2.5756      0.0089      4.5080     25.4924    140.8591
  2111.5000      7.8505      2.5949      0.0866      3.3413     25.5409    136.9230
  2111.6000      7.8505      2.5979      0.1090      3.1587     25.3573    137.9886
  2111.7000      7.8505      2.5781      0.0665      4.3604     25.1381    136.1776
  2111.8000      7.8500      2.5595      0.0527      5.4854     24.9791    131.3831
  2111.9000      7.8500      2.5687      0.0553      4.9274     25.0109    130.7302
  2112.0000      7.8495      2.6060      0.0882      2.6656     25.2014    134.7413
  2112.1000      7.8495      2.6423      0.1292      0.4637     25.1521    137.6285
  2112.2000      7.8495      2.6508      0.1000     -0.0475     24.8339    135.3451
  2112.3000      7.8504      2.6321      0.1266      1.0834     24.3764    131.1092
  2112.4000      7.8504      2.6070      0.0606      2.6049     23.9746    133.3094
  2112.5000      7.8512      2.5934      0.0363      3.4323     24.2040    142.3906
  2112.6000      7.8512      2.5861      0.0215      3.8753     25.1253    150.7778
  2112.7000      7.8512      2.5686      0.0500      4.9304     25.7464    151.9584
  2112.8000      7.8524      2.5486      0.0308      6.1450     25.3331    146.2722
  2112.9000      7.8524      2.5532      0.0152      5.8652     24.7370    140.8933
  2113.0000      7.8538      2.5803      0.0798      4.2242     24.8080    138.4796
  2113.1000      7.8538      2.5982      0.0709      3.1382     25.0453    136.5147
  2113.2000      7.8538      2.5987      0.0474      3.1113     24.9622    135.4440
  2113.3000      7.8525      2.5999      0.0751      3.0374     24.3641    136.0517
