~Version Information
VERS.                      2.0: CWLS Log ASCII Standard - VERSION 2.0
WRAP.                       NO: One line per depth step
~Well Information Block
STRT.FT               550.0000: 
STOP.FT              1498.5000: 
STEP.FT                 0.1000: 
NULL.                -999.2500: 
COMP.          Pioneer Natural Resources: COMPANY
WELL.          Surtees 23-34 Tr: WELL
FLD.           Purgatoire River: FIELD
LOC.           1559' FSL & 1997' FWL: LOCATION
PROV.                 Colorado: PROVINCE
CNTY.               Las Animas: COUNTRY
SRVC.                Patterson: SERVICE COMPANY
DATE.          Wed Jul 27 09:35:51 2005: LOG DATE
UWI.           05 071 08449 00: UNIQUE WELL ID
~Curve Information Block
DEPT.FT            0 000 00 00: Depth
DCAL.in                       : CDL Caliper
RHOB.g/cc                     : CDL Bulk Density
RHOC.g/cc                     : CDL Density Correction
DPOR.pu                       : CDL Density Porosity
GR.GAPI                       : Gamma Ray
NPOR.pu                       : Neutron Porosity
~Parameter Information Block
~A  Depth       DCAL        RHOB        RHOC        DPOR         GR         NPOR    
   550.0000      8.2673      2.4014     -0.2787     15.0670     78.5066     16.5948
   550.1000      8.2673      2.3920     -0.3975     15.6341     79.3848     15.8903
   550.2000      8.2673      2.3822     -0.4038     16.2284     80.1932     15.7191
   550.3000      8.2718      2.3883     -0.3245     15.8591     76.0764     15.8167
   550.4000      8.2718      2.4003     -0.4138     15.1343     66.9780     16.1695
   550.5000      8.2625      2.4088     -0.3500     14.6154     60.2281     16.9045
   550.6000      8.2625      2.3944     -0.3263     15.4898     61.1221     17.8018
   550.7000      8.2625      2.3565     -0.4392     17.7858     65.8132     18.2906
   550.8000      8.2609      2.3404     -0.4689     18.7647     69.6609     18.2266
   550.9000      8.2609      2.3692     -0.3957     17.0165     72.7191     18.0712
   551.0000      8.2642      2.4223     -0.3528     13.8011     74.4228     17.5569
   551.1000      8.2642      2.4814     -0.3251     10.2195     74.5550     16.2539
   551.2000      8.2642      2.5323     -0.3500      7.1360     74.2894     14.9697
   551.3000      8.2513      2.5599     -0.3351      5.4614     71.3471     14.5457
   551.4000      8.2513      2.5633     -0.4007      5.2519     66.4834     14.9398
   551.5000      8.2437      2.5470     -0.3816      6.2403     66.1336     15.4455
   551.6000      8.2437      2.5117     -0.3936      8.3803     70.2416     15.2153
   551.7000      8.2437      2.4721     -0.4033     10.7791     73.7145     14.5905
   551.8000      8.2448      2.4488     -0.4417     12.1918     76.4567     14.5445
   551.9000      8.2448      2.4350     -0.3236     13.0333     82.0598     15.3113
   552.0000      8.2457      2.4022     -0.4149     15.0152     89.8864     16.4434
   552.1000      8.2457      2.3546     -0.4865     17.9027     97.1988     17.4965
   552.2000      8.2457      2.3300     -0.4499     19.3926    104.2417     18.2853
   552.3000      8.2513      2.3471     -0.3612     18.3600    110.0899     18.5049
   552.4000      8.2513      2.3837     -0.4312     16.1368    112.6522     18.2635
   552.5000      8.2534      2.3980     -0.3936     15.2699    111.6199     18.4364
   552.6000      8.2534      2.3670     -0.4640     17.1533    108.9688     19.2127
   552.7000      8.2534      2.3079     -0.4443     20.7354    108.4051     20.1318
   552.8000      8.2490      2.2413     -0.4722     24.7709    110.0671     20.8912
   552.9000      8.2490      2.1679     -0.4463     29.2190    108.8484     21.2692
   553.0000      8.2603      2.0781     -0.4800     34.6597    104.0253     21.2663
   553.1000      8.2603      1.9665     -0.5775     41.4256     99.5096     21.0004
   553.2000      8.2603      1.8375     -0.5553     49.2424     93.6055     20.8686
   553.3000      8.2507      1.7028     -0.6570     57.4061     84.8589     21.4767
   553.4000      8.2507      1.5849     -0.6685     64.5544     76.2864     23.0009
   553.5000      8.2487      1.5135     -0.8049     68.8802     71.2712     24.0836
   553.6000      8.2487      1.5109     -0.7540     69.0362     72.8165     23.6700
   553.7000      8.2487      1.5753     -0.7164     65.1351     78.6537     23.2755
   553.8000      8.2481      1.6825     -0.7247     58.6379     81.0677     23.5782
   553.9000      8.2481      1.7985     -0.5968     51.6053     78.5273     23.2836
   554.0000      8.2445      1.9166     -0.7074     44.4513     76.9499     22.4210
   554.1000      8.2445      2.0578     -0.6386     35.8930     77.8374     22.2054
   554.2000      8.2445      2.1947     -0.4670     27.5916     80.2680     22.7235
   554.3000      8.2456      2.2813     -0.4619     22.3466     85.5139     22.8515
   554.4000      8.2456      2.3396     -0.5332     18.8109     90.5993     22.1839
   554.5000      8.2475      2.4018     -0.4411     15.0423     89.5270     21.4460
   554.6000      8.2475      2.4409     -0.3979     12.6723     84.6652     20.7407
   554.7000      8.2475      2.4307     -0.4328     13.2900     82.6428     19.4972
   554.8000      8.2495      2.3931     -0.4576     15.5724     82.8215     17.8108
   554.9000      8.2495      2.3471     -0.3924     18.3602     82.4126     16.7263
   555.0000      8.2493      2.3011     -0.5072     21.1484     82.7386     16.8810
   555.1000      8.2493      2.2843     -0.5041     22.1666     81.9009     17.3376
   555.2000      8.2493      2.2973     -0.4187     21.3753     77.0988     17.1187
   555.3000      8.2492      2.2963     -0.4085     21.4391     72.6985     17.0298
   555.4000      8.2492      2.2712     -0.4520     22.9595     71.1558     17.4952
   555.5000      8.2497      2.2590     -0.3880     23.6972     71.0275     17.1763
   555.6000      8.2497      2.2709     -0.3989     22.9738     71.7115     15.5517
   555.7000      8.2497      2.2764     -0.3322     22.6396     72.8543     13.9340
   555.8000      8.2561      2.2618     -0.4802     23.5248     72.6139     13.5378
   555.9000      8.2561      2.2588     -0.4849     23.7064     68.5331     14.2314
   556.0000      8.2526      2.2890     -0.4017     21.8805     63.7699     15.0881
   556.1000      8.2526      2.3261     -0.3453     19.6286     63.7669     15.4539
   556.2000      8.2526      2.3507     -0.4095     18.1380     63.7781     15.1658
   556.3000      8.2547      2.3771     -0.3721     16.5383     68.1623     14.7910
   556.4000      8.2547      2.4069     -0.2937     14.7362     67.9423     14.8821
   556.5000      8.2578      2.4256     -0.3584     13.6014     61.4432     14.8621
   556.6000      8.2578      2.4151     -0.3005     14.2370     54.4315     14.4359
   556.7000      8.2578      2.3669     -0.4276     17.1582     53.7696     14.0244
   556.8000      8.2573      2.3129     -0.4256     20.4307     57.6411     13.6993
   556.9000      8.2573      2.2907     -0.4466     21.7755     60.4976     13.7257
   557.0000      8.2551      2.2931     -0.3592     21.6310     61.5668     14.2650
   557.1000      8.2551      2.2967     -0.4660     21.4148     61.9109     14.8294
   557.2000      8.2551      2.3048     -0.4500     20.9211     56.5071     15.2961
   557.3000      8.2585      2.3209     -0.4527     19.9455     55.4895     16.0701
   557.4000      8.2585      2.3257     -0.4097     19.6526     55.5921     16.8135
   557.5000      8.2528      2.3102     -0.4383     20.5934     55.9150     16.9147
   557.6000      8.2528      2.3069     -0.4811     20.7935     56.3241     16.6489
   557.7000      8.2528      2.3385     -0.3819     18.8786     58.0254     16.3821
   557.8000      8.2496      2.3602     -0.3283     17.5646     59.6833     16.0959
   557.9000      8.2496      2.3330     -0.4378     19.2102     59.4851     16.1792
   558.0000      8.2233      2.2909     -0.4748     21.7607     58.3890     16.8085
   558.1000      8.2233      2.2805     -0.5122     22.3970     57.8377     17.2231
   558.2000      8.2233      2.3020     -0.4176     21.0901     53.8916     17.0587
   558.3000      8.2496      2.3223     -0.4536     19.8609     55.4976     16.8831
   558.4000      8.2496      2.3282     -0.4559     19.5034     57.9631     17.2678
   558.5000      8.2522      2.3373     -0.4302     18.9512     59.5878     18.1109
   558.6000      8.2522      2.3479     -0.4205     18.3074     58.3543     18.8209
   558.7000      8.2522      2.3406     -0.3596     18.7528     54.3486     18.7137
   558.8000      8.2543      2.3282     -0.4979     19.5044     49.4550     17.8513
   558.9000      8.2543      2.3328     -0.4240     19.2230     46.1691     16.9322
   559.0000      8.2547      2.3443     -0.3871     18.5295     45.0447     16.2709
   559.1000      8.2547      2.3529     -0.4335     18.0090     45.6483     15.8209
   559.2000      8.2547      2.3550     -0.4248     17.8791     45.5250     16.0168
   559.3000      8.2547      2.3375     -0.3707     18.9365     50.2874     16.8957
   559.4000      8.2547      2.3054     -0.4433     20.8830     50.9896     17.4199
   559.5000      8.2547      2.2820     -0.4718     22.3008     48.3507     17.1091
