~Version Information
VERS.                      2.0: CWLS Log ASCII Standard - VERSION 2.0
WRAP.                       NO: One line per depth step
~Well Information Block
STRT.FT               520.0000: 
STOP.FT              2555.2500: 
STEP.FT                 0.2500: 
NULL.                -999.2500: 
COMP.          Pioneer Natural Resources: COMPANY
WELL.          Horsefeathers 24-34: WELL
FLD.           Purgatoire River: FIELD
LOC.           183' FSL & 1570' FWL--: LOCATION
CNTY.               Las Animas: COUNTY
SRVC.                Patterson: SERVICE COMPANY
DATE.          Sun Feb 05 17:35:59 2006: LOG DATE
UWI.           05 071 08675 00: UNIQUE WELL ID
STAT.                 Colorado: STATE
~Curve Information Block
DEPT.FT            0 000 00 00: Depth
SN.Ohm-m                      : IEL Short Normal
SP.mV                         : IEL Spontaneous Potential
DIR.Ohm-m                     : IEL Induction Resistivity
GR.GAPI                       : Gamma Ray
~Parameter Information Block
NPORSHIFT.              0.0000: NPORSHIFT
~A  Depth        SN          SP         DIR          GR     
# ...
  1190.0000   2000.0000   1975.0000     13.1304    120.4845
  1190.2500   2000.0000   1975.0000     12.8337    121.2823
  1190.5000   2000.0000   1975.0000     12.5576    121.0237
  1190.7500   2000.0000   1975.0000     12.3111    120.1297
  1191.0000   2000.0000   1975.0000     12.1000    118.0405
  1191.2500   2000.0000   1975.0000     11.9310    116.2918
  1191.5000   2000.0000   1975.0000     11.8153    113.6817
  1191.7500   2000.0000   1975.0000     11.7674    112.4514
  1192.0000   2000.0000   1975.0000     11.7979    111.9525
  1192.2500   2000.0000   1975.0000     11.9055    112.3650
  1192.5000   2000.0000   1975.0000     12.0745    113.1074
  1192.7500   2000.0000   1975.0000     12.2779    113.1779
  1193.0000   2000.0000   1975.0000     12.4837    112.6824
  1193.2500   2000.0000   1975.0000     12.6629    112.3032
  1193.5000   2000.0000   1975.0000     12.7956    111.8156
  1193.7500   2000.0000   1975.0000     12.8746    111.2799
  1194.0000   2000.0000   1975.0000     12.9043    110.0694
  1194.2500   2000.0000   1975.0000     12.8962    109.5402
  1194.5000   2000.0000   1975.0000     12.8630    110.4506
  1194.7500   2000.0000   1975.0000     12.8151    112.3793
  1195.0000   2000.0000   1975.0000     12.7596    116.1008
  1195.2500   2000.0000   1975.0000     12.7016    118.1460
  1195.5000   2000.0000   1975.0000     12.6449    119.6442
  1195.7500   2000.0000   1975.0000     12.5934    119.6519
  1196.0000   2000.0000   1975.0000     12.5519    118.6811
  1196.2500   2000.0000   1975.0000     12.5265    117.6880
  1196.5000   2000.0000   1975.0000     12.5260    116.2050
  1196.7500   2000.0000   1975.0000     12.5608    115.4545
  1197.0000   2000.0000   1975.0000     12.6416    114.7678
  1197.2500   2000.0000   1975.0000     12.7744    114.4662
  1197.5000   2000.0000   1975.0000     12.9561    113.8171
  1197.7500   2000.0000   1975.0000     13.1707    112.9826
  1198.0000   2000.0000   1975.0000     13.3900    110.8933
  1198.2500   2000.0000   1975.0000     13.5805    109.0524
  1198.5000   2000.0000   1975.0000     13.7150    106.2379
  1198.7500   2000.0000   1975.0000     13.7849    104.8814
  1199.0000   2000.0000   1975.0000     13.8045    104.7157
  1199.2500   2000.0000   1975.0000     13.8045    106.2837
  1199.5000   2000.0000   1975.0000     13.8177    110.8355
  1199.7500   2000.0000   1975.0000     13.8640    114.4705
  1200.0000   2000.0000   1975.0000     13.9412    118.9985
  1200.2500   2000.0000   1975.0000     14.0251    120.7133
  1200.5000   2000.0000   1975.0000     14.0782    121.1278
  1200.7500   2000.0000   1975.0000     14.0655    120.2018
  1201.0000   2000.0000   1975.0000     13.9697    117.5366
  1201.2500   2000.0000   1975.0000     13.7981    115.2283
  1201.5000   2000.0000   1975.0000     13.5781    111.7302
  1201.7500   2000.0000   1975.0000     13.3454    110.0358
  1202.0000   2000.0000   1975.0000     13.1307    109.7146
  1202.2500   2000.0000   1975.0000     12.9516    111.4007
  1202.5000   2000.0000   1975.0000     12.8101    116.2604
  1202.7500   2000.0000   1975.0000     12.6954    120.0390
  1203.0000   2000.0000   1975.0000     12.5902    124.4444
  1203.2500   2000.0000   1975.0000     12.4776    125.7677
  1203.5000   2000.0000   1975.0000     12.3482    125.3813
  1203.7500   2000.0000   1975.0000     12.2040    124.2488
  1204.0000   2000.0000   1975.0000     12.0574    122.7626
  1204.2500   2000.0000   1975.0000     11.9235    122.4436
  1204.5000   2000.0000   1975.0000     11.8129    122.6641
  1204.7500   2000.0000   1975.0000     11.7281    122.6484
  1205.0000   2000.0000   1975.0000     11.6650    121.8577
  1205.2500   2000.0000   1975.0000     11.6181    121.1981
  1205.5000   2000.0000   1975.0000     11.5849    121.0694
  1205.7500   2000.0000   1975.0000     11.5666    121.8558
  1206.0000   2000.0000   1975.0000     11.5669    124.2331
  1206.2500   2000.0000   1975.0000     11.5895    126.3781
  1206.5000   2000.0000   1975.0000     11.6358    129.6074
  1206.7500   2000.0000   1975.0000     11.7061    131.0022
  1207.0000   2000.0000   1975.0000     11.8007    130.9643
  1207.2500   2000.0000   1975.0000     11.9225    129.6675
  1207.5000   2000.0000   1975.0000     12.0784    127.1269
  1207.7500   2000.0000   1975.0000     12.2786    125.7383
  1208.0000   2000.0000   1975.0000     12.5345    124.5085
  1208.2500   2000.0000   1975.0000     12.8548    124.2134
  1208.5000   2000.0000   1975.0000     13.2437    124.3956
  1208.7500   2000.0000   1975.0000     13.7003    124.7141
  1209.0000   2000.0000   1975.0000     14.2222    124.8517
  1209.2500   2000.0000   1975.0000     14.8087    124.4026
  1209.5000   2000.0000   1975.0000     15.4616    122.7901
  1209.7500   2000.0000   1975.0000     16.1831    121.1261
  1210.0000   2000.0000   1975.0000     16.9731    117.4734
  1210.2500   2000.0000   1975.0000     17.8329    113.9095
  1210.5000   2000.0000   1975.0000     18.7714    106.7251
  1210.7500   2000.0000   1975.0000     19.8097    101.2534
  1211.0000   2000.0000   1975.0000     20.9745     93.5863
  1211.2500   2000.0000   1975.0000     22.2822     89.5642
  1211.5000   2000.0000   1975.0000     23.7237     85.6026
  1211.7500   2000.0000   1975.0000     25.2573     84.2001
  1212.0000   2000.0000   1975.0000     26.8137     83.2023
  1212.2500   2000.0000   1975.0000     28.3111     82.6135
  1212.5000   2000.0000   1975.0000     29.6759     80.7083
  1212.7500   2000.0000   1975.0000     30.8586     78.4197
  1213.0000   2000.0000   1975.0000     31.8412     73.8466
  1213.2500   2000.0000   1975.0000     32.6373     70.7133
  1213.5000   2000.0000   1975.0000     33.2898     67.0559
  1213.7500   2000.0000   1975.0000     33.8640     65.6108
  1214.0000   2000.0000   1975.0000     34.4294     64.6767
  1214.2500   2000.0000   1975.0000     35.0319     64.4923
  1214.5000   2000.0000   1975.0000     35.6714     64.2195
  1214.7500   2000.0000   1975.0000     36.3003     63.7441
  1215.0000   2000.0000   1975.0000     36.8483     62.2649
  1215.2500   2000.0000   1975.0000     37.2554     60.7750
  1215.5000   2000.0000   1975.0000     37.4966     58.3537
  1215.7500   2000.0000   1975.0000     37.5901     57.1674
  1216.0000   2000.0000   1975.0000     37.5883     56.6926
  1216.2500   2000.0000   1975.0000     37.5540     57.1915
  1216.5000   2000.0000   1975.0000     37.5313     58.5582
  1216.7500   2000.0000   1975.0000     37.5333     59.5676
  1217.0000   2000.0000   1975.0000     37.5571     60.9713
  1217.2500   2000.0000   1975.0000     37.6057     61.7410
  1217.5000   2000.0000   1975.0000     37.6903     62.5686
  1217.7500   2000.0000   1975.0000     37.8056     63.0174
  1218.0000   2000.0000   1975.0000     37.9096     63.9631
  1218.2500   2000.0000   1975.0000     37.9356     64.9114
  1218.5000   2000.0000   1975.0000     37.8340     66.4839
  1218.7500   2000.0000   1975.0000     37.6068     67.2438
  1219.0000   2000.0000   1975.0000     37.3063     67.5927
  1219.2500   2000.0000   1975.0000     37.0058     67.4117
  1219.5000   2000.0000   1975.0000     36.7704     66.8246
  1219.7500   2000.0000   1975.0000     36.6469     66.2314
  1220.0000   2000.0000   1975.0000     36.6637     64.9915
  1220.2500   2000.0000   1975.0000     36.8349     64.1286
  1220.5000   2000.0000   1975.0000     37.1596     63.4512
  1220.7500   2000.0000   1975.0000     37.6237     63.6815
  1221.0000   2000.0000   1975.0000     38.2078     64.8856
  1221.2500   2000.0000   1975.0000     38.8943     65.8707
  1221.5000   2000.0000   1975.0000     39.6686     66.8391
  1221.7500   2000.0000   1975.0000     40.5028     66.7731
  1222.0000   2000.0000   1975.0000     41.3351     65.2673
  1222.2500   2000.0000   1975.0000     42.0705     63.4130
  1222.5000   2000.0000   1975.0000     42.6198     60.1556
  1222.7500   2000.0000   1975.0000     42.9499     58.4268
  1223.0000   2000.0000   1975.0000     43.0932     57.6598
  1223.2500   2000.0000   1975.0000     43.0987     58.5877
