~Version Information
 VERS.                                  2.0 : CWLS LAS VERSION
 WRAP.                                   NO : WRAPING MODE
 SWARE .                 MController 2.5.0J : SOFTWARE VERSION
~Well Information
 WELL.                    Parklane 43-34 Tr : WELL
 COMP.   Pioneer Natural Resources USA Inc. : COMPANY
 FLD.                      Purgatoire River : FIELD
 LOC.                NE/SE SEC 34 T32S R66W : LOCATION
 DATE.                             07/28/05 : DATE(S) LOGGED
 SRVC.       Blanco Geological Services LLC : SERVICE COMPANY
 STAT.                             Colorado : STATE
 CNTY.                           Las Animas : COUNTY
 CTRY.                                  USA : COUNTRY
 API.                       05-071-08452-00 : API NUMBER
 STRT.FT                             594.00 : START DEPTH
 STOP.FT                            1451.00 : STOP DEPTH
 STEP.FT                               1.00 : DEPTH INCREMENT
 NULL.                                -9999 : NULL VALUE
~Curve information
 DEPTH.FT                                   :
 ROP.MIN/FT                                 :
 GAS.UNITS                                  :
~ASCII Log data
       594.0     -9999.00          2.0 
       595.0         2.78          2.0 
       596.0         9.92          3.7 
       597.0         0.13          1.8 
       598.0         0.13          2.0 
       599.0         0.17          2.0 
       600.0         0.07          2.3 
       601.0         0.33          2.8 
       602.0         0.30          3.0 
       603.0         0.27          3.1 
       604.0         0.27          3.1 
       605.0         0.23          3.2 
       606.0         0.23          3.2 
       607.0         0.27          2.8 
       608.0         0.23          3.2 
       609.0         0.25          3.1 
       610.0         0.20          3.0 
       611.0         0.20          3.2 
       612.0         0.13          3.3 
       613.0         0.17          3.2 
       614.0         0.17          2.9 
       615.0         0.17          3.2 
       616.0         0.17          3.6 
       617.0         0.20          3.6 
       618.0         0.20          3.7 
       619.0         0.23          3.7 
       620.0         0.20          3.8 
       621.0         0.23          4.2 
       622.0         0.17          3.9 
       623.0         0.10          3.8 
       624.0         0.23          3.8 
       625.0         0.20          3.9 
       626.0         4.83          4.9 
       627.0         0.47          4.3 
       628.0         0.37          4.8 
       629.0         0.27          4.4 
       630.0         0.23          4.5 
       631.0         0.20          4.7 
       632.0         0.23          4.6 
       633.0         0.23          4.7 
       634.0         0.22          4.6 
       635.0         0.20          4.6 
       636.0         0.20          4.8 
       637.0         0.20          4.8 
       638.0         0.23          5.3 
       639.0         0.23          5.1 
       640.0         0.17          5.4 
       641.0         0.20          5.0 
       642.0         0.23          4.9 
       643.0         0.17          4.9 
       644.0         0.23          4.7 
       645.0         0.20          4.7 
       646.0         0.23          5.2 
       647.0         0.17          5.6 
       648.0         0.20          6.3 
       649.0         0.20          6.9 
       650.0         0.22          7.2 
       651.0         0.20          7.3 
       652.0         0.13          7.8 
       653.0         0.20          8.4 
       654.0         0.17          9.5 
       655.0         0.17         11.9 
       656.0         0.87         19.6 
       657.0         0.17         12.5 
       658.0         0.30         11.1 
       659.0         0.20          9.5 
       660.0         0.33          9.3 
       661.0         0.30          9.1 
       662.0         0.25          9.4 
       663.0         0.23          9.0 
       664.0         0.23          8.6 
       665.0         0.23          8.2 
       666.0         0.20          8.5 
       667.0         0.20         10.1 
       668.0         0.17         10.2 
       669.0         0.20         11.5 
       670.0         0.20         12.3 
       671.0         0.20         12.3 
       672.0         0.20         12.0 
       673.0         0.17         12.1 
       674.0         0.17         11.7 
       675.0         0.13         12.3 
       676.0         0.20         12.0 
       677.0         0.23         12.9 
       678.0         0.20         12.2 
       679.0         0.22         12.3 
       680.0         0.20         12.0 
       681.0         0.17         10.5 
       682.0         0.20          9.0 
       683.0         0.17          7.4 
       684.0         0.17          7.0 
       685.0         0.20          8.0 
       686.0         1.63         22.8 
       687.0         0.23         15.9 
       688.0         0.38         13.0 
       689.0         0.27         10.0 
       690.0         0.20          8.9 
       691.0         0.17          7.8 
       692.0         0.17          6.6 
       693.0         0.20          6.7 
       694.0         0.20          6.0 
       695.0         0.17          5.5 
       696.0         0.17          5.3 
       697.0         0.20          5.6 
       698.0         0.17          6.1 
       699.0         0.17          6.1 
       700.0         0.17          6.3 
       701.0         0.17          5.9 
       702.0         0.17          6.1 
       703.0         0.17          6.2 
       704.0         0.17          6.5 
       705.0         0.20          6.3 
       706.0         0.17          7.1 
       707.0         0.22          7.5 
       708.0         0.17          8.2 
       709.0         0.23          9.7 
       710.0         0.20          8.7 
       711.0         0.20          8.8 
       712.0         0.17          8.1 
       713.0         0.20         11.1 
       714.0         0.20         12.6 
       715.0         0.17         18.4 
       716.0         1.13         28.3 
       717.0         0.17         15.8 
       718.0         0.38         13.6 
       719.0         0.23         12.8 
       720.0         0.20         11.8 
       721.0         0.17         13.0 
       722.0         0.20         13.2 
       723.0         0.17         12.2 
       724.0         0.17         12.1 
       725.0         0.20         10.9 
       726.0         0.20         10.3 
       727.0         0.17          8.5 
       728.0         0.17          6.9 
       729.0         0.10          6.5 
       730.0         0.10          6.1 
       731.0         0.20          5.7 
       732.0         0.20          5.2 
       733.0         0.20          5.0 
       734.0         0.23          4.6 
       735.0         0.20          5.0 
       736.0         0.22          5.4 
       737.0         0.20          5.1 
       738.0         0.17          4.9 
       739.0         0.20          5.4 
       740.0         0.20          5.1 
       741.0         0.20          5.1 
       742.0         0.20          5.2 
       743.0         0.20          5.3 
       744.0         0.20          5.1 
       745.0         0.27          5.6 
       746.0         1.07          5.7 
       747.0         0.38          5.8 
       748.0         0.37          5.8 
       749.0         0.33          5.7 
       750.0         0.27          5.8 
       751.0         0.23          5.8 
       752.0         0.23          6.2 
       753.0         0.20          6.0 
       754.0         0.20          6.1 
       755.0         0.23          6.1 
       756.0         0.20          6.1 
       757.0         0.20          6.2 
       758.0         0.10          5.8 
       759.0         0.10          6.0 
       760.0         0.20          6.5 
       761.0         0.20          6.5 
       762.0         0.17          6.0 
       763.0         0.12          6.1 
       764.0         0.13          6.3 
       765.0         0.17          5.9 
       766.0         0.13          6.5 
       767.0         0.17          6.1 
       768.0         0.17          6.0 
       769.0         0.23          6.0 
       770.0         0.20          6.0 
       771.0         0.17          6.7 
       772.0         0.17          6.5 
       773.0         0.20          6.5 
       774.0         0.20          6.2 
       775.0         0.17          6.6 
       776.0         2.22          6.8 
       777.0         0.17          6.7 
       778.0         0.27          6.6 
       779.0         0.23          6.3 
       780.0         0.17          6.5 
       781.0         0.17          6.5 
       782.0         0.10          6.5 
       783.0         0.17          6.1 
       784.0         0.07          6.2 
       785.0         0.13          6.4 
       786.0         0.23          6.6 
       787.0         0.17          6.9 
       788.0         0.20          6.2 
       789.0         0.17          6.7 
       790.0         0.22          6.9 
       791.0         0.33          7.3 
       792.0         0.30          6.5 
       793.0         0.23          7.0 
