~Version Information
VERS.                      2.0: CWLS Log ASCII Standard - VERSION 2.0
WRAP.                       NO: One line per depth step
~Well Information Block
STRT.FT               262.8000: 
STOP.FT              1134.7000: 
STEP.FT                 0.1000: 
NULL.                -999.2500: 
COMP.          Pioneer Natural Resources: COMPANY
WELL.          Black Cat 13-32 Tr: WELL
FLD.           Purgatoire River: FIELD
LOC.           1679' FSL & 1150' FWL--: LOCATION
CNTY.               Las Animas: COUNTY
SRVC.                Patterson: SERVICE COMPANY
DATE.          Tue Mar 07 12:42:54 2006: LOG DATE
UWI.           05 071 08721 00: UNIQUE WELL ID
STAT.                 Colorado: STATE
~Curve Information Block
DEPT.FT            0 000 00 00: Depth
DCAL.in                       : CDL Caliper
RHOB.g/cc                     : CDL Bulk Density
RHOC.g/cc                     : CDL Density Correction
DPOR.pu                       : CDL Density Porosity
GR.GAPI                       : Gamma Ray
~Parameter Information Block
~A  Depth       DCAL        RHOB        RHOC        DPOR         GR     
# ...
   822.8000      7.8585      2.5981      0.1089      3.1485    148.4632
   822.9000      7.8585      2.6227      0.1142      1.6527    144.4782
   823.0000      7.8590      2.6505      0.0807     -0.0317    139.8604
   823.1000      7.8590      2.6682      0.1378     -1.1018    139.4177
   823.2000      7.8590      2.6571      0.1039     -0.4332    137.9331
   823.3000      7.8580      2.6255      0.0391      1.4867    130.8715
   823.4000      7.8580      2.5954      0.0098      3.3085    121.0006
   823.5000      7.8533      2.5653      0.0558      5.1333    114.7995
   823.6000      7.8533      2.5191      0.0211      7.9341    116.9405
   823.7000      7.8533      2.4703     -0.0819     10.8938    125.0510
   823.8000      7.8450      2.4492     -0.0387     12.1671    130.1658
   823.9000      7.8450      2.4562     -0.0282     11.7479    126.8377
   824.0000      7.8359      2.4739     -0.0408     10.6749    118.3620
   824.1000      7.8359      2.4904      0.0097      9.6708    109.1530
   824.2000      7.8359      2.4966      0.0331      9.2981    103.0061
   824.3000      7.8312      2.4940      0.0162      9.4522    102.6395
   824.4000      7.8312      2.4867      0.0477      9.8952    104.6830
   824.5000      7.8323      2.4801      0.0424     10.2966    106.7004
   824.6000      7.8323      2.4968      0.0087      9.2822    111.5404
   824.7000      7.8323      2.5422      0.1052      6.5335    119.7112
   824.8000      7.8353      2.5805      0.1325      4.2106    125.6787
   824.9000      7.8353      2.5853      0.0942      3.9210    125.4758
   825.0000      7.8387      2.5666      0.0905      5.0569    122.5516
   825.1000      7.8387      2.5434      0.0269      6.4596    122.5725
   825.2000      7.8387      2.5247      0.0490      7.5957    125.7500
   825.3000      7.8457      2.5083      0.0204      8.5887    125.6057
   825.4000      7.8457      2.4949      0.0386      9.3973    120.9567
   825.5000      7.8561      2.4934      0.0046      9.4914    119.2553
   825.6000      7.8561      2.5064      0.0008      8.7012    122.4445
   825.7000      7.8561      2.5208      0.0676      7.8304    122.6365
   825.8000      7.8618      2.5233      0.0397      7.6806    116.3551
   825.9000      7.8618      2.5197      0.0445      7.8997    108.9670
   826.0000      7.8601      2.5213      0.0229      7.7997    105.8170
   826.1000      7.8601      2.5313      0.0667      7.1961    106.9259
   826.2000      7.8601      2.5465      0.0476      6.2704    108.9403
   826.3000      7.8574      2.5649      0.0393      5.1605    109.0298
   826.4000      7.8574      2.5811      0.0680      4.1736    107.3136
   826.5000      7.8571      2.5893      0.0672      3.6818    107.1314
   826.6000      7.8571      2.5850      0.0670      3.9422    109.8028
   826.7000      7.8571      2.5630      0.0623      5.2757    112.3913
   826.8000      7.8546      2.5270     -0.0061      7.4573    114.4575
   826.9000      7.8546      2.4915      0.0065      9.6080    118.7744
   827.0000      7.8478      2.4732     -0.0286     10.7148    123.4475
   827.1000      7.8478      2.4818      0.0045     10.1967    122.1388
   827.2000      7.8478      2.5048      0.0807      8.8030    116.2130
   827.3000      7.8431      2.5259      0.0483      7.5242    114.3771
   827.4000      7.8431      2.5424      0.0553      6.5202    119.9391
   827.5000      7.8404      2.5475      0.0914      6.2094    128.4649
   827.6000      7.8404      2.5425      0.0423      6.5167    131.9841
   827.7000      7.8404      2.5481      0.0059      6.1770    127.9194
   827.8000      7.8380      2.5674      0.0553      5.0031    122.6588
   827.9000      7.8380      2.5805      0.0384      4.2099    122.4917
   828.0000      7.8409      2.5911      0.0377      3.5717    125.5497
   828.1000      7.8409      2.6190      0.0493      1.8767    124.4170
   828.2000      7.8409      2.6458      0.1299      0.2548    119.8084
   828.3000      7.8495      2.6411      0.0377      0.5397    117.9262
   828.4000      7.8495      2.6217      0.0583      1.7158    116.0865
   828.5000      7.8551      2.6218      0.0327      1.7065    111.4190
   828.6000      7.8551      2.6524      0.0526     -0.1478    110.1966
   828.7000      7.8551      2.6948      0.0884     -2.7178    114.5665
   828.8000      7.8541      2.7157      0.1355     -3.9808    119.4956
   828.9000      7.8541      2.6967      0.0689     -2.8292    123.9855
   829.0000      7.8439      2.6515      0.0178     -0.0907    127.3423
   829.1000      7.8439      2.6101     -0.0066      2.4183    126.4845
   829.2000      7.8439      2.5884      0.0224      3.7344    123.3689
   829.3000      7.8253      2.5883      0.0193      3.7400    122.3150
   829.4000      7.8253      2.6066      0.0664      2.6317    121.5035
   829.5000      7.8122      2.6203      0.0871      1.8005    119.2711
   829.6000      7.8122      2.6129      0.0337      2.2514    118.9568
   829.7000      7.8122      2.6068      0.0278      2.6197    119.6660
   829.8000      7.8171      2.6251      0.0238      1.5104    118.7561
   829.9000      7.8171      2.6476      0.1254      0.1460    117.2462
   830.0000      7.8286      2.6383      0.0727      0.7089    116.0731
   830.1000      7.8286      2.6076      0.0028      2.5669    115.6331
   830.2000      7.8286      2.5966      0.0043      3.2373    117.2140
   830.3000      7.8322      2.6059      0.0503      2.6714    119.4145
   830.4000      7.8322      2.6081      0.0312      2.5409    121.4827
   830.5000      7.8312      2.6081     -0.0444      2.5409    125.9145
   830.6000      7.8312      2.6246      0.0398      1.5419    129.6106
   830.7000      7.8312      2.6431      0.0493      0.4187    127.7366
   830.8000      7.8326      2.6461      0.0332      0.2336    121.7485
   830.9000      7.8326      2.6433      0.0069      0.4063    112.0110
   831.0000      7.8356      2.6497      0.0850      0.0202    100.4459
   831.1000      7.8356      2.6691     -0.0197     -1.1595     96.1879
   831.2000      7.8356      2.6908      0.0643     -2.4698    102.7857
   831.3000      7.8429      2.6908      0.0204     -2.4709    111.3158
   831.4000      7.8429      2.6647     -0.0028     -0.8902    113.4240
   831.5000      7.8547      2.6331     -0.0623      1.0249    110.5498
   831.6000      7.8547      2.6189     -0.0302      1.8847    106.9836
   831.7000      7.8547      2.6189      0.0692      1.8853    104.5780
   831.8000      7.8636      2.6124      0.0168      2.2771    104.1783
   831.9000      7.8636      2.6001      0.0341      3.0247    106.0946
   832.0000      7.8699      2.5886      0.0516      3.7233    110.0418
   832.1000      7.8699      2.5800      0.0173      4.2410    113.2641
   832.2000      7.8699      2.5804      0.0209      4.2157    115.3624
   832.3000      7.8735      2.5848      0.0151      3.9526    116.8830
   832.4000      7.8735      2.5792      0.0365      4.2930    112.6420
   832.5000      7.8739      2.5664      0.0023      5.0678    104.8936
   832.6000      7.8739      2.5558      0.0115      5.7091    101.2923
   832.7000      7.8739      2.5441     -0.0052      6.4169    101.4715
   832.8000      7.8727      2.5327     -0.0018      7.1093    105.1000
   832.9000      7.8727      2.5274      0.0201      7.4304    113.1573
   833.0000      7.8702      2.5210      0.0144      7.8158    119.7802
   833.1000      7.8702      2.5084     -0.0113      8.5842    119.8171
   833.2000      7.8702      2.5037     -0.0204      8.8641    114.6930
   833.3000      7.8655      2.5213     -0.0104      7.7990    108.3727
   833.4000      7.8655      2.5490      0.0419      6.1209    106.5247
   833.5000      7.8616      2.5686      0.0186      4.9324    110.6239
   833.6000      7.8616      2.5773      0.0397      4.4053    117.2177
   833.7000      7.8616      2.5756     -0.0100      4.5119    122.6262
   833.8000      7.8610      2.5648      0.0084      5.1642    121.1943
   833.9000      7.8610      2.5501     -0.0150      6.0537    111.9951
