~Version Information
VERS.                      2.0: CWLS Log ASCII Standard - VERSION 2.0
WRAP.                       NO: One line per depth step
~Well Information Block
STRT.FT                10.0000: 
STOP.FT              1360.0000: 
STEP.FT                 0.1000: 
NULL.                -999.2500: 
COMP.          Pioneer Natural Resources: COMPANY
WELL.              Geyser 41-2: WELL
FLD.           Purgatorie River: FIELD
LOC.           506' FNL & 1127' FEL: LOCATION
PROV.                 Colorado: PROVINCE
CNTY.               Las Animas: COUNTRY
SRVC.                Patterson: SERVICE COMPANY
DATE.          Thu Dec 01 07:38:14 2005: LOG DATE
UWI.                          : UNIQUE WELL ID
~Curve Information Block
DEPT.FT            0 000 00 00: Depth
DCAL.in                       : CDL Caliper
RHOB.g/cc                     : CDL Bulk Density
RHOC.g/cc                     : CDL Density Correction
DPOR.pu                       : CDL Density Porosity
GR.GAPI                       : Gamma Ray
NPOR.pu                       : Neutron Porosity
~Parameter Information Block
~A  Depth       DCAL        RHOB        RHOC        DPOR         GR         NPOR    
# ...
   451.6000      8.1095      2.4398      0.0088     12.7398     73.0676     16.9052
   451.7000      8.1095      2.4725      0.0542     10.7559     73.4046     16.9986
   451.8000      8.1086      2.4819      0.0673     10.1885     69.9102     16.6325
   451.9000      8.1086      2.4726      0.0313     10.7491     68.1678     16.1623
   452.0000      8.1138      2.4614      0.0320     11.4312     69.5597     16.1453
   452.1000      8.1138      2.4586     -0.0300     11.6027     71.1544     16.5838
   452.2000      8.1138      2.4635      0.0381     11.3042     72.3502     16.9244
   452.3000      8.1163      2.4593      0.0405     11.5556     74.0051     16.9407
   452.4000      8.1163      2.4389      0.0265     12.7912     73.8498     16.8566
   452.5000      8.1084      2.4167     -0.0125     14.1409     71.2837     16.7909
   452.6000      8.1084      2.4016      0.0070     15.0543     70.0121     16.5187
   452.7000      8.1084      2.3903     -0.0097     15.7374     70.9521     16.0209
   452.8000      8.1147      2.3858     -0.0051     16.0114     72.3436     15.7615
   452.9000      8.1147      2.3918      0.0045     15.6512     74.2104     15.6987
   453.0000      8.1191      2.4015      0.0150     15.0578     76.3243     15.4373
   453.1000      8.1191      2.3993      0.0332     15.1962     77.3369     15.2019
   453.2000      8.1191      2.3728      0.0074     16.8007     77.0884     15.2932
   453.3000      8.1295      2.3396     -0.0308     18.8137     76.0934     15.5698
   453.4000      8.1295      2.3335     -0.0594     19.1816     75.1003     15.8127
   453.5000      8.1291      2.3594      0.0162     17.6150     74.3479     15.8799
   453.6000      8.1291      2.3888      0.0380     15.8286     73.3906     15.8314
   453.7000      8.1291      2.4024      0.0420     15.0047     73.2688     15.9747
   453.8000      8.1303      2.4054      0.0702     14.8218     74.9080     16.2905
   453.9000      8.1303      2.4092      0.0376     14.5929     75.6311     16.3722
   454.0000      8.1269      2.4167      0.0652     14.1416     73.0776     16.0832
   454.1000      8.1269      2.4214      0.0702     13.8575     69.2432     15.6728
   454.2000      8.1269      2.4177      0.0373     14.0812     66.4409     15.4568
   454.3000      8.1297      2.4088      0.0343     14.6195     64.4288     15.4982
   454.4000      8.1297      2.3982      0.0363     15.2606     62.7399     15.6450
   454.5000      8.1320      2.3877      0.0181     15.8994     62.5631     15.7855
   454.6000      8.1320      2.3885     -0.0633     15.8474     64.6551     15.8231
   454.7000      8.1320      2.4043      0.0365     14.8887     67.0781     15.8180
   454.8000      8.1310      2.4173      0.0273     14.1061     67.7065     15.9172
   454.9000      8.1310      2.4201      0.0367     13.9320     67.8055     16.0143
   455.0000      8.1295      2.4249      0.0047     13.6433     68.5511     15.9064
   455.1000      8.1295      2.4384      0.0171     12.8229     67.7172     15.7550
   455.2000      8.1295      2.4500      0.0411     12.1185     64.2712     15.8564
   455.3000      8.1344      2.4444      0.0430     12.4630     60.8638     16.0610
   455.4000      8.1344      2.4215      0.0645     13.8514     60.7398     16.0951
   455.5000      8.1352      2.4021      0.0343     15.0223     64.2738     16.0247
   455.6000      8.1352      2.4030      0.0180     14.9695     68.3450     16.0579
   455.7000      8.1352      2.4101      0.0391     14.5403     69.7052     16.3419
   455.8000      8.1370      2.4033      0.0277     14.9492     68.3115     16.7823
   455.9000      8.1370      2.3907      0.0021     15.7173     66.6943     17.0969
   456.0000      8.1421      2.3922      0.0044     15.6222     65.5565     17.2178
   456.1000      8.1421      2.4112      0.0203     14.4756     65.1163     17.3136
   456.2000      8.1421      2.4331      0.0181     13.1443     68.2267     17.4692
   456.3000      8.1418      2.4437      0.0420     12.5005     74.7520     17.5742
   456.4000      8.1418      2.4450      0.0113     12.4260     79.1074     17.6733
   456.5000      8.1424      2.4474      0.0309     12.2771     79.7340     17.9660
   456.6000      8.1424      2.4447      0.0603     12.4423     81.3195     18.4718
   456.7000      8.1424      2.4294     -0.0022     13.3683     84.5000     19.0896
   456.8000      8.1473      2.4125      0.0323     14.3949     88.2159     19.5312
   456.9000      8.1473      2.4023      0.0024     15.0109     96.2028     19.6030
   457.0000      8.1467      2.4039     -0.0412     14.9137    110.6132     19.5188
   457.1000      8.1467      2.4213     -0.0293     13.8610    124.9716     19.5351
   457.2000      8.1467      2.4482      0.0016     12.2310    132.7080     19.8469
   457.3000      8.1520      2.4734      0.0573     10.7043    136.5790     20.4569
   457.4000      8.1520      2.4854      0.0708      9.9730    142.7374     21.1245
   457.5000      8.1482      2.4808      0.0349     10.2518    151.3607     21.6972
   457.6000      8.1482      2.4653      0.0725     11.1946    156.4947     22.1993
   457.7000      8.1482      2.4444      0.0743     12.4610    157.1148     22.7292
   457.8000      8.1525      2.4285      0.0137     13.4259    156.8924     23.1793
   457.9000      8.1525      2.4216      0.0617     13.8448    156.0545     23.3961
   458.0000      8.1602      2.4134      0.0167     14.3377    154.4272     23.4414
   458.1000      8.1602      2.4006      0.0115     15.1157    155.1550     23.4833
   458.2000      8.1602      2.3923     -0.0147     15.6201    158.8388     23.6169
   458.3000      8.1760      2.3992     -0.0126     15.2017    159.8419     23.9881
   458.4000      8.1760      2.4190     -0.0019     13.9994    156.9057     24.6101
   458.5000      8.2347      2.4347      0.0379     13.0501    154.6002     25.1607
   458.6000      8.2347      2.4368      0.0018     12.9238    152.6707     25.3665
   458.7000      8.2347      2.4401     -0.0104     12.7217    148.9405     25.1834
   458.8000      8.2505      2.4539      0.0578     11.8865    147.4409     24.8639
   458.9000      8.2505      2.4638      0.0339     11.2870    151.7934     24.8437
   459.0000      8.2609      2.4607      0.0365     11.4718    157.3667     25.1736
   459.1000      8.2609      2.4593     -0.0653     11.5549    158.0552     25.3772
   459.2000      8.2609      2.4716      0.0113     10.8114    154.6182     25.2582
   459.3000      8.2326      2.4843     -0.0143     10.0420    151.9474     25.1610
   459.4000      8.2326      2.4893     -0.0357      9.7410    152.2459     25.1892
   459.5000      8.2187      2.4942      0.0039      9.4399    153.6405     25.1460
   459.6000      8.2187      2.5009      0.0203      9.0380    153.5799     24.8644
   459.7000      8.2187      2.5025      0.0014      8.9367    151.8048     24.3365
   459.8000      8.2043      2.4962      0.0161      9.3210    148.8820     23.9113
   459.9000      8.2043      2.4841     -0.0012     10.0547    145.4326     23.9602
   460.0000      8.1966      2.4685      0.0361     10.9982    142.9800     24.1741
   460.1000      8.1966      2.4529     -0.0213     11.9475    141.8818     24.0136
   460.2000      8.1966      2.4431     -0.0138     12.5418    141.9904     23.7096
   460.3000      8.1968      2.4411     -0.0350     12.6636    143.7921     23.6990
   460.4000      8.1968      2.4431     -0.0065     12.5416    145.6592     23.7639
   460.5000      8.1972      2.4464      0.0103     12.3391    144.3279     23.6954
   460.6000      8.1972      2.4535     -0.0007     11.9073    139.0260     23.7798
   460.7000      8.1972      2.4646      0.0115     11.2347    134.6117     23.9773
   460.8000      8.2000      2.4766      0.0433     10.5117    134.8145     23.9946
   460.9000      8.2000      2.4863      0.0358      9.9198    138.4760     23.9851
   461.0000      8.2060      2.4943      0.0378      9.4347    142.9285     24.2277
   461.1000      8.2060      2.5043      0.0264      8.8294    146.8281     24.5244
