~Version Information
VERS.                      2.0: CWLS Log ASCII Standard - VERSION 2.0
WRAP.                       NO: One line per depth step
~Well Information Block
STRT.FT               892.0000: 
STOP.FT              2094.0000: 
STEP.FT                 0.1000: 
NULL.                -999.2500: 
COMP.          Pioneer Natural Resources: COMPANY
WELL.          Greenwood 43-29 Tr: WELL
FLD.           Purgatoire River: FIELD
LOC.           1478' FSL & 744' FEL: LOCATION
STAT.                 Colorado: State
CNTY.               Las Animas: COUNTY
CTRY. USA : Country
SECT. 29 : Section
TOWN. 32S : Township
RANG. 67W : Range
SRVC.                Patterson: SERVICE COMPANY
DATE.          Wed Aug 31 10:39:20 2005: LOG DATE
API.           05 071 08478 00: UNIQUE WELL ID
~Curve Information Block
DEPT.FT            0 000 00 00: Depth
DCAL.in                       : CDL Caliper
RHOB.g/cc                     : CDL Bulk Density
RHOC.g/cc                     : CDL Density Correction
DPOR.pu                       : CDL Density Porosity
GR.GAPI                       : Gamma Ray
NPOR.pu                       : Neutron Porosity
~Parameter Information Block
~A  Depth       DCAL        RHOB        RHOC        DPOR         GR         NPOR    
# ...
  1132.0000      8.1514      2.5980      0.1402      3.1522    108.6332     25.5722
  1132.1000      8.1514      2.5793      0.1463      4.2823    109.0095     24.9728
  1132.2000      8.1514      2.5444      0.0905      6.3980    111.3298     24.4092
  1132.3000      8.1414      2.5124      0.0437      8.3406    111.1362     23.9659
  1132.4000      8.1414      2.4954      0.1013      9.3704    108.6017     23.3435
  1132.5000      8.1307      2.4773      0.0478     10.4695    105.9221     22.4527
  1132.6000      8.1307      2.4475      0.0502     12.2723    102.2445     21.6205
  1132.7000      8.1307      2.4099      0.0669     14.5536     96.3120     20.9845
  1132.8000      8.1533      2.3681      0.0336     17.0838     91.7048     20.2744
  1132.9000      8.1533      2.3333      0.0092     19.1961     90.2498     19.4510
  1133.0000      8.1226      2.3144      0.0022     20.3378     89.9119     18.8344
  1133.1000      8.1226      2.3041     -0.0015     20.9608     92.4736     18.6917
  1133.2000      8.1226      2.2915      0.0535     21.7259     98.4924     18.9448
  1133.3000      8.0680      2.2852      0.0400     22.1098    103.7539     19.1495
  1133.4000      8.0680      2.3028      0.1141     21.0400    109.8702     19.1899
  1133.5000      8.0790      2.3410      0.1549     18.7274    117.3096     19.5095
  1133.6000      8.0790      2.3819      0.2681     16.2502    120.6633     20.3858
  1133.7000      8.0790      2.4154      0.2086     14.2193    121.3601     21.5061
  1133.8000      8.0782      2.4400      0.2261     12.7303    125.5714     22.4152
  1133.9000      8.0782      2.4527      0.1983     11.9546    132.3103     23.0908
  1134.0000      8.1020      2.4652      0.1098     11.2028    136.4617     23.7854
  1134.1000      8.1020      2.4945      0.1482      9.4255    138.8296     24.4541
  1134.2000      8.1020      2.5284      0.1840      7.3668    144.3741     25.0921
  1134.3000      8.2334      2.5438      0.1496      6.4344    148.3015     25.9031
  1134.4000      8.2334      2.5428      0.1045      6.4957    143.5393     26.6171
  1134.5000      8.2399      2.5399      0.1020      6.6700    136.7079     26.8407
  1134.6000      8.2399      2.5425      0.0604      6.5142    139.0222     26.5717
  1134.7000      8.2399      2.5468      0.0241      6.2526    148.1045     26.1154
  1134.8000      8.1945      2.5486      0.0152      6.1478    150.8782     25.9721
  1134.9000      8.1945      2.5552      0.0390      5.7428    144.8694     26.2619
  1135.0000      8.1400      2.5652      0.0867      5.1383    139.7230     26.4314
  1135.1000      8.1400      2.5655      0.0473      5.1213    140.8176     26.1814
  1135.2000      8.1400      2.5579     -0.0140      5.5796    143.7034     26.0520
  1135.3000      8.1358      2.5490      0.0215      6.1226    142.3677     26.2999
  1135.4000      8.1358      2.5360     -0.0016      6.9104    138.3777     26.5627
  1135.5000      8.1542      2.5222     -0.0050      7.7429    137.9264     26.7698
  1135.6000      8.1542      2.5178     -0.0499      8.0109    140.1777     27.0043
  1135.7000      8.1542      2.5240      0.0030      7.6374    139.6610     27.2126
  1135.8000      8.1304      2.5327     -0.0048      7.1107    136.8165     27.3136
  1135.9000      8.1304      2.5346      0.0518      6.9935    135.1939     27.2326
  1136.0000      8.0940      2.5225      0.0341      7.7289    135.9463     27.2368
  1136.1000      8.0940      2.5010      0.0300      9.0296    139.4881     27.3431
  1136.2000      8.0940      2.4810      0.0626     10.2414    146.1180     27.1603
  1136.3000      8.0755      2.4720      0.0313     10.7906    150.6143     26.7167
  1136.4000      8.0755      2.4766     -0.0007     10.5072    144.5998     26.2395
  1136.5000      8.0692      2.4865      0.0128      9.9105    129.7569     25.7743
  1136.6000      8.0692      2.5015      0.0245      8.9986    118.7369     25.4942
  1136.7000      8.0692      2.5247      0.1022      7.5909    118.4895     25.6251
  1136.8000      8.0743      2.5498      0.1534      6.0708    123.5738     26.0688
  1136.9000      8.0743      2.5744      0.2357      4.5795    126.8663     26.4911
  1137.0000      8.0695      2.5954      0.2348      3.3104    128.6130     26.6506
  1137.1000      8.0695      2.6100      0.1947      2.4240    128.4014     26.4524
  1137.2000      8.0695      2.6205      0.2243      1.7850    126.4718     26.1699
  1137.3000      8.0144      2.6195      0.2405      1.8477    129.1418     26.0646
  1137.4000      8.0144      2.6003      0.1651      3.0111    136.9815     26.1155
  1137.5000      7.9579      2.5788      0.0949      4.3154    141.9296     26.2010
  1137.6000      7.9579      2.5768      0.0967      4.4386    140.1309     26.1293
  1137.7000      7.9579      2.5900      0.0986      3.6348    134.1371     26.1744
  1137.8000      8.0113      2.5966      0.0671      3.2378    129.0080     26.7096
  1137.9000      8.0113      2.5822      0.0814      4.1113    131.0415     27.2801
  1138.0000      8.0367      2.5494      0.0523      6.0999    139.2314     27.5601
  1138.1000      8.0367      2.5205      0.0530      7.8502    144.3600     27.7340
  1138.2000      8.0367      2.5169      0.0727      8.0675    144.2313     27.7571
  1138.3000      8.0699      2.5454      0.0197      6.3364    140.9905     27.6244
  1138.4000      8.0699      2.6049      0.0814      2.7336    133.2104     27.4531
  1138.5000      8.0497      2.6805      0.1235     -1.8501    124.7304     27.2567
  1138.6000      8.0497      2.7473      0.1469     -5.8958    120.5497     27.1874
  1138.7000      8.0497      2.7827      0.2575     -8.0414    117.2292     27.3992
  1138.8000      8.0364      2.7800      0.2142     -7.8802    113.5983     27.5954
  1138.9000      8.0364      2.7511      0.1827     -6.1292    110.8447     27.3144
  1139.0000      7.9834      2.7236      0.0562     -4.4597    106.3891     26.6802
  1139.1000      7.9834      2.7257      0.0448     -4.5908    102.3238     26.1664
  1139.2000      7.9834      2.7508      0.0841     -6.1064    102.4769     25.9217
  1139.3000      7.9640      2.7707      0.0864     -7.3174    103.5851     25.9052
  1139.4000      7.9640      2.7752      0.1102     -7.5889    100.9966     25.8125
  1139.5000      8.0293      2.7602      0.1702     -6.6792     98.2354     25.3565
  1139.6000      8.0293      2.7143      0.1225     -3.8969    102.1308     24.7489
  1139.7000      8.0293      2.6471      0.0803      0.1746    109.7836     24.2745
  1139.8000      8.0769      2.5972     -0.0647      3.1986    113.2052     24.0260
  1139.9000      8.0769      2.5870     -0.0578      3.8168    112.3841     23.9431
  1140.0000      8.0565      2.5987     -0.0328      3.1118    112.0864     23.9067
  1140.1000      8.0565      2.6146     -0.0551      2.1429    113.3987     23.8235
  1140.2000      8.0565      2.6335      0.0712      1.0016    115.3652     23.6618
  1140.3000      8.0594      2.6378      0.0765      0.7388    117.6978     23.4978
  1140.4000      8.0594      2.6231      0.0231      1.6291    119.7806     23.2722
  1140.5000      8.1065      2.6208     -0.0060      1.7678    120.2559     23.0017
  1140.6000      8.1065      2.6403      0.0620      0.5849    118.4126     22.8693
  1140.7000      8.1065      2.6510      0.0463     -0.0632    113.5837     22.7714
  1140.8000      8.1278      2.6363      0.0248      0.8279    106.0092     22.4267
  1140.9000      8.1278      2.6057      0.0349      2.6868    100.6864     22.0575
  1141.0000      8.1083      2.5770     -0.0239      4.4241    100.5168     22.1285
  1141.1000      8.1083      2.5634     -0.0028      5.2464    100.4911     22.4613
  1141.2000      8.1083      2.5549      0.0492      5.7661     97.9079     22.7582
  1141.3000      8.0741      2.5390     -0.0241      6.7279     96.5614     23.0960
  1141.4000      8.0741      2.5203     -0.0036      7.8634     98.8454     23.3316
  1141.5000      8.0436      2.5103     -0.0332      8.4688    102.2950     23.2025
