~Version Information
VERS.                      2.0: CWLS Log ASCII Standard - VERSION 2.0
WRAP.                       NO: One line per depth step
~Well Information Block
STRT.FT                -6.5000: 
STOP.FT              1773.5000: 
STEP.FT                 0.2500: 
NULL.                -999.2500: 
COMP.          Pioneer Natural Resources: COMPANY
WELL.           Lynch 43-30 Tr: WELL
FLD.           Purgatorie River: FIELD
LOC.           1431' FSL & 296' FEL--: LOCATION
PROV.                       CO: PROVINCE
CNTY.               Las Animas: COUNTRY
SRVC.          Patterson Wireline: SERVICE COMPANY
DATE.          Tue Aug 02 09:28:21 2005: LOG DATE
UWI.           05 071 08447 00: UNIQUE WELL ID
~Curve Information Block
DEPT.FT            0 000 00 00: Depth
CCL.                          : Casing Collar Locator
TT3.usec                      : CBL 3' Travel Time
AMP3.mV                       : CBL 3' Amplitude
GR.GAPI                       : Gamma Ray
~Parameter Information Block
MINAMPL.mV              1.0000: Minimum Amplitude
~A  Depth       CCL         TT3         AMP3         GR     
# ...
   931.5000      0.0000    821.0777     15.2236    116.6655
   931.7500      0.0000    826.9750     15.2069    115.6913
   932.0000      0.0000    832.0908     15.2510    118.0525
   932.2500      0.0000    833.4636     15.3396    122.9182
   932.5000      0.0000    829.1011     15.4461    128.8348
   932.7500      0.0000    819.6687     15.5457    134.1010
   933.0000      0.0000    807.8834     15.6225    137.3472
   933.2500      0.0000    796.6970     15.6708    138.1507
   933.5000      0.0000    788.0358     15.6951    137.3465
   933.7500      0.0000    782.4576     15.7088    136.4210
   934.0000      0.0000    779.4224     15.7275    136.2675
   934.2500      0.0000    777.9193     15.7603    136.6080
   934.5000      0.0000    776.7901     15.8088    136.5439
   934.7500      0.0000    774.2024     15.8731    135.5424
   935.0000      0.0000    766.4584     15.9538    134.1856
   935.2500      0.0000    747.6470     16.0475    134.0149
   935.5000      0.0000    712.5078     16.1445    136.0599
   935.7500      0.0000    662.3685     16.2324    139.3196
   936.0000      0.0000    608.7139     16.3022    141.2797
   936.2500      0.0000    567.8941     16.3528    140.1823
   936.5000      0.0000    549.3733     16.3886    136.4580
   936.7500      0.0000    549.0957     16.4134    132.0989
   937.0000      0.0000    556.1914     16.4240    129.2165
   937.2500      0.0000    566.6149     16.4127    129.0315
   937.5000      0.0000    587.7057     16.3751    131.4362
   937.7500      0.0000    627.4501     16.3119    135.1490
   938.0000      0.0000    681.8094     16.2251    138.3412
   938.2500      0.0000    735.8771     16.1155    139.3374
   938.5000      0.0000    776.1885     15.9868    137.1438
   938.7500      0.0000    799.2688     15.8489    131.8473
   939.0000      0.0000    809.7614     15.7147    124.5059
   939.2500      0.0000    814.2285     15.5943    116.1832
   939.5000      0.0000    817.5956     15.4919    107.1462
   939.7500      0.0000    822.7315     15.4079     97.4551
   940.0000      0.0000    830.3184     15.3406     87.9030
   940.2500      0.0000    837.9012     15.2862     79.6055
   940.5000      0.0000    840.4382     15.2391     72.9671
   940.7500      0.0000    834.1308     15.1948     67.6638
   941.0000      0.0000    820.6168     15.1528     63.4012
   941.2500      0.0000    806.4440     15.1162     60.1808
   941.5000      0.0000    797.9494     15.0876     58.0110
   941.7500      0.0000    796.9669     15.0643     56.8832
   942.0000      0.0000    800.9449     15.0355     56.8950
   942.2500      0.0000    806.0087     14.9872     57.9314
   942.5000      0.0000    809.6909     14.9136     59.2757
   942.7500      0.0000    811.5997     14.8271     59.9758
   943.0000      0.0000    812.4934     14.7569     59.7465
   943.2500      0.0000    813.2301     14.7352     59.3104
   943.5000      0.0000    814.4669     14.7814     59.7235
   943.7500      0.0000    816.7876     14.8938     61.4185
   944.0000      0.0000    820.4847     15.0540     63.8479
   944.2500      0.0000    824.9694     15.2370     65.8836
   944.5000      0.0000    828.8259     15.4180     66.5273
   944.7500      0.0000    831.1403     15.5755     65.4314
   945.0000      0.0000    832.7429     15.6936     63.1292
   945.2500      0.0000    835.4481     15.7674     61.0894
   945.5000      0.0000    839.9919     15.8075     61.5287
   945.7500      0.0000    845.2957     15.8347     66.7041
   946.0000      0.0000    849.7424     15.8646     77.7629
   946.2500      0.0000    852.5743     15.8985     93.7771
   946.5000      0.0000    854.0181     15.9331    111.6639
   946.7500      0.0000    854.6349     15.9738    127.3126
   947.0000      0.0000    854.8403     16.0290    137.4698
   947.2500      0.0000    854.8336     16.0950    141.3652
   947.5000      0.0000    854.7081     16.1545    141.1551
   947.7500      0.0000    854.5417     16.1917    140.4882
   948.0000      0.0000    854.4168     16.2058    141.7131
   948.2500      0.0000    854.3980     16.2108    144.2971
   948.5000      0.0000    854.5092     16.2219    146.2973
   948.7500      0.0000    854.7225     16.2413    146.8443
   949.0000      0.0000    854.9675     16.2549    146.5147
   949.2500      0.0000    855.1300     16.2429    145.9832
   949.5000      0.0000    855.0334     16.1898    145.5399
   949.7500      0.0000    854.4163     16.0840    145.7536
   950.0000      0.0000    852.9662     15.9167    147.4614
   950.2500      0.0000    850.5107     15.6936    150.5513
   950.5000      0.0000    847.2117     15.4467    153.2825
   950.7500      0.0000    843.5077     15.2213    153.4111
   951.0000      0.0000    840.0056     15.0477    150.0796
   951.2500      0.0000    837.6868     14.9275    144.5374
   951.5000      0.0000    837.8094     14.8450    139.1897
   951.7500      0.0000    840.7960     14.7862    135.9049
   952.0000      0.0000    845.3182     14.7473    134.8586
   952.2500      0.0000    849.1135     14.7323    134.6611
   952.5000      0.0000    850.6867     14.7439    133.6782
   952.7500      0.0000    850.1155     14.7777    131.6269
   953.0000      0.0000    848.6512     14.8246    130.0073
   953.2500      0.0000    847.7281     14.8807    130.5847
   953.5000      0.0000    847.5999     14.9515    133.2116
   953.7500      0.0000    846.2744     15.0453    135.3322
   954.0000      0.0000    839.5042     15.1668    134.0050
   954.2500      0.0000    822.9413     15.3126    128.5246
   954.5000      0.0000    797.0699     15.4579    120.9563
   954.7500      0.0000    771.5027     15.5273    114.1130
   955.0000      0.0000    761.0929     15.3946    109.2933
   955.2500      0.0000    773.7390     14.9688    105.8657
   955.5000      0.0000    803.1326     14.3046    102.4296
   955.7500      0.0000    835.6265     13.5847     98.0214
   956.0000      0.0000    861.8265     12.9767     92.7623
   956.2500      0.0000    880.0432     12.5507     87.8675
   956.5000      0.0000    892.4055     12.3189     84.7298
   956.7500      0.0000    901.0507     12.2626     83.6310
   957.0000      0.0000    906.9880     12.3129     83.5428
   957.2500     -2.0000    909.9607     12.3771     83.3964
   957.5000     -2.0000    908.0546     12.4168     83.4501
   957.7500      0.0000    896.9344     12.5127     85.2233
   958.0000      0.0000    870.9866     12.8456     89.9149
   958.2500      0.0000    829.5966     13.5501     96.8156
   958.5000      0.0000    784.4240     14.5229    103.3753
   958.7500      0.0000    756.0187     15.4260    106.9677
   959.0000      0.0000    757.6064     15.9551    106.7313
   959.2500      0.0000    783.2073     16.0686    103.8469
   959.5000      0.0000    814.6556     15.9247    100.2832
   959.7500      0.0000    837.8133     15.6829     97.4697
   960.0000      0.0000    849.6772     15.4219     95.9296
   960.2500      0.0000    853.9942     15.1758     95.5136
   960.5000      0.0000    854.9990     14.9741     95.7303
   960.7500      0.0000    855.0099     14.8402     96.1896
   961.0000      0.0000    854.8398     14.7782     97.1323
   961.2500      0.0000    854.6351     14.7751     99.3146
   961.5000      0.0000    854.3829     14.8134    102.9825
   961.7500      0.0000    854.0400     14.8814    107.1621
   962.0000      0.0000    853.5661     14.9744    110.4081
   962.2500      0.0000    852.8771     15.0963    111.9914
   962.5000      0.0000    851.7972     15.2579    111.6615
   962.7500      0.0000    850.3181     15.4639    108.4576
   963.0000      0.0000    849.3164     15.6985    100.9163
   963.2500      0.0000    850.8782     15.9244     89.0062
   963.5000      0.0000    856.8715     16.0990     75.1933
   963.7500      0.0000    866.3707     16.1930     62.9335
   964.0000      0.0000    875.0434     16.1947     54.2512
   964.2500      0.0000    877.9353     16.0991     49.0123
   964.5000      0.0000    873.0630     15.9015     46.0627
   964.7500      0.0000    862.6816     15.6077     44.3159
