~Version Information
VERS.                      2.0: CWLS Log ASCII Standard - VERSION 2.0
WRAP.                       NO: One line per depth step
~Well Information Block
STRT.FT               650.0000: 
STOP.FT              2127.7000: 
STEP.FT                 0.1000: 
NULL.                -999.2500: 
COMP.          Pioneer Natural Resources: COMPANY
WELL.          Kennington 41-26: WELL
FLD.           Purgatoire River: FIELD
LOC.           940' FNL & 1008' FEL--: LOCATION
CNTY.               Las Animas: COUNTY
SRVC.                Patterson: SERVICE COMPANY
DATE.          Wed Mar 29 11:30:50 2006: LOG DATE
UWI.           05 071 08679 00: UNIQUE WELL ID
STAT.                 Colorado: STATE
~Curve Information Block
DEPT.FT            0 000 00 00: Depth
DCAL.in                       : CDL Caliper
RHOB.g/cc                     : CDL Bulk Density
RHOC.g/cc                     : CDL Density Correction
DPOR.pu                       : CDL Density Porosity
NPOR.pu                       : Neutron Porosity
GR.GAPI                       : Gamma Ray
~Parameter Information Block
~A  Depth       DCAL        RHOB        RHOC        DPOR        NPOR         GR     
# ...
   746.0000      8.0870      2.5992      0.0321      3.0800     28.1017    115.2698
   746.1000      8.0870      2.6095      0.1112      2.4555     27.8080    126.0200
   746.2000      8.0870      2.5985      0.1030      3.1218     27.2154    128.9355
   746.3000      8.0912      2.5710      0.0569      4.7868     26.4702    122.3361
   746.4000      8.0912      2.5525      0.0525      5.9086     25.7501    115.7141
   746.5000      8.0962      2.5474      0.0538      6.2185     25.2246    116.7044
   746.6000      8.0962      2.5430      0.0231      6.4849     25.0093    123.4071
   746.7000      8.0962      2.5348      0.0209      6.9820     25.1189    129.6966
   746.8000      8.1008      2.5248      0.0107      7.5869     25.2918    133.5325
   746.9000      8.1008      2.5116      0.0068      8.3851     25.3148    135.5242
   747.0000      8.1029      2.4908      0.0592      9.6462     25.1542    135.3898
   747.1000      8.1029      2.4685     -0.0551     10.9987     24.9238    136.0718
   747.2000      8.1029      2.4546      0.0115     11.8419     24.8423    136.8356
   747.3000      8.1015      2.4441      0.0065     12.4812     24.7478    134.8141
   747.4000      8.1015      2.4355     -0.0133     12.9991     24.4103    132.8296
   747.5000      8.0940      2.4394      0.0278     12.7641     24.0462    132.7400
   747.6000      8.0940      2.4605      0.0223     11.4848     23.8394    133.1181
   747.7000      8.0940      2.4960      0.0409      9.3304     23.6192    132.6324
   747.8000      8.0798      2.5371      0.0717      6.8453     23.4235    130.8468
   747.9000      8.0798      2.5722      0.1059      4.7143     23.5735    126.8364
   748.0000      8.0664      2.5977      0.1492      3.1714     23.7979    121.7388
   748.1000      8.0664      2.6177      0.1131      1.9602     23.7869    118.4571
   748.2000      8.0664      2.6366      0.1306      0.8139     23.9434    115.6731
   748.3000      8.0633      2.6505      0.1262     -0.0274     24.4745    113.1552
   748.4000      8.0633      2.6536      0.0894     -0.2202     25.1218    113.2661
   748.5000      8.0700      2.6428      0.1201      0.4383     25.6000    112.8411
   748.6000      8.0700      2.6155      0.0602      2.0883     25.7510    107.1382
   748.7000      8.0700      2.5820     -0.0246      4.1210     25.7005    100.0970
   748.8000      8.0758      2.5555      0.0234      5.7302     25.7201     97.4530
   748.9000      8.0758      2.5399     -0.0154      6.6746     25.8978     97.8009
   749.0000      8.0785      2.5314      0.0480      7.1866     26.3274     97.6904
   749.1000      8.0785      2.5193     -0.0030      7.9192     26.9985     99.8852
   749.2000      8.0785      2.5067     -0.0259      8.6860     27.3924    105.7666
   749.3000      8.0793      2.4999      0.0495      9.0955     27.1409    112.2836
   749.4000      8.0793      2.4863      0.0485      9.9242     26.5196    118.3663
   749.5000      8.0792      2.4583      0.0462     11.6174     25.8352    123.1482
   749.6000      8.0792      2.4241      0.0357     13.6906     25.2734    124.6520
   749.7000      8.0792      2.3895      0.0467     15.7878     24.9744    126.2124
   749.8000      8.0837      2.3611     -0.0032     17.5070     24.7034    129.8912
   749.9000      8.0837      2.3491     -0.0059     18.2378     24.2583    130.3362
   750.0000      8.0964      2.3537      0.0174     17.9577     23.6606    126.6284
   750.1000      8.0964      2.3691      0.0170     17.0246     22.8338    124.8808
   750.2000      8.0964      2.3904      0.0512     15.7332     21.8591    127.0887
   750.3000      8.1132      2.4139      0.0578     14.3063     21.0075    128.3663
   750.4000      8.1132      2.4392      0.1180     12.7782     20.3457    125.6674
   750.5000      8.1264      2.4674      0.1330     11.0658     19.8805    123.3384
   750.6000      8.1264      2.5084      0.1213      8.5793     19.7519    123.7257
   750.7000      8.1264      2.5657      0.1567      5.1071     20.0497    123.5258
   750.8000      8.1253      2.6157      0.2016      2.0798     20.8054    119.1787
   750.9000      8.1253      2.6363      0.1185      0.8333     21.9289    110.0154
   751.0000      8.1113      2.6392      0.0582      0.6536     23.1550    101.0420
   751.1000      8.1113      2.6447      0.0530      0.3213     24.1850     96.5933
   751.2000      8.1113      2.6540      0.0403     -0.2401     24.8947     97.5330
   751.3000      8.1032      2.6540      0.0453     -0.2445     25.2658    104.4797
   751.4000      8.1032      2.6295      0.0364      1.2418     25.1165    112.0760
   751.5000      8.1018      2.5879     -0.0533      3.7612     24.5388    114.3654
   751.6000      8.1018      2.5528     -0.0186      5.8884     23.9845    115.2734
   751.7000      8.1018      2.5294     -0.0080      7.3069     23.5533    118.5772
   751.8000      8.0975      2.5111     -0.0129      8.4188     23.2418    118.0230
   751.9000      8.0975      2.5018     -0.0313      8.9796     23.3258    109.0897
   752.0000      8.0894      2.5205     -0.0123      7.8464     23.7391     97.8056
   752.1000      8.0894      2.5731      0.0419      4.6591     24.0187     92.7175
   752.2000      8.0894      2.6342      0.1429      0.9581     24.0850     94.7932
   752.3000      8.0848      2.6892      0.0644     -2.3756     24.2918     97.8516
   752.4000      8.0848      2.7475      0.1004     -5.9108     25.0641     98.3480
   752.5000      8.0867      2.7989      0.1444     -9.0239     26.3306     97.9036
   752.6000      8.0867      2.8292      0.1324    -10.8603     27.6130     96.5847
   752.7000      8.0867      2.8459      0.1401    -11.8751     28.6456     93.7614
   752.8000      8.0907      2.8542      0.1028    -12.3762     29.6573     92.1775
   752.9000      8.0907      2.8486      0.0850    -12.0392     30.8174     93.9912
   753.0000      8.0937      2.8188      0.0669    -10.2329     31.7818     97.9940
   753.1000      8.0937      2.7620     -0.0076     -6.7888     32.0550    102.2994
   753.2000      8.0937      2.6914     -0.1175     -2.5068     31.4734    105.7260
   753.3000      8.0981      2.6175     -0.0932      1.9701     30.3621    106.6160
   753.4000      8.0981      2.5435     -0.1497      6.4539     29.0746    105.7928
   753.5000      8.1041      2.4867     -0.1019      9.8960     27.8076    105.9335
   753.6000      8.1041      2.4623     -0.0607     11.3741     26.6970    106.4301
   753.7000      8.1041      2.4629     -0.0134     11.3385     25.9133    107.7693
   753.8000      8.1115      2.4695     -0.0052     10.9366     25.6520    113.4571
   753.9000      8.1115      2.4728     -0.0044     10.7397     25.6722    123.6766
   754.0000      8.1194      2.4751      0.0219     10.6010     25.5851    134.4824
   754.1000      8.1194      2.4793      0.0319     10.3447     25.3923    140.3773
   754.2000      8.1194      2.4852      0.0223      9.9897     25.2115    138.1038
   754.3000      8.1321      2.4856      0.0301      9.9637     24.9025    132.5069
   754.4000      8.1321      2.4759      0.0200     10.5516     24.3922    131.4697
   754.5000      8.1574      2.4652      0.0413     11.2014     23.8724    136.6205
   754.6000      8.1574      2.4614      0.0204     11.4293     23.4201    141.1881
   754.7000      8.1574      2.4655      0.0363     11.1792     23.0624    137.9608
   754.8000      8.1868      2.4749      0.0648     10.6123     22.7181    131.0303
   754.9000      8.1868      2.4723      0.0995     10.7720     22.1786    127.1359
   755.0000      8.2033      2.4390      0.0668     12.7899     21.5269    127.3798
   755.1000      8.2033      2.3889     -0.0140     15.8242     21.1352    130.4150
   755.2000      8.2033      2.3602     -0.0422     17.5607     21.2022    132.8291
   755.3000      8.2082      2.3712      0.0333     16.8954     21.5458    131.1967
   755.4000      8.2082      2.4112      0.0589     14.4752     21.7797    128.0075
   755.5000      8.2119      2.4616      0.1029     11.4176     21.6959    129.3698
