~Version Information
VERS.                      2.0: CWLS Log ASCII Standard - VERSION 2.0
WRAP.                       NO: One line per depth step
~Well Information Block
STRT.FT               670.0000: 
STOP.FT              2110.0000: 
STEP.FT                 0.2500: 
NULL.                -999.2500: 
COMP.          Petrogulf Corporation: COMPANY
WELL.           Montoya 12-44R: WELL
FLD.           Purgatorie River: FIELD
LOC.           713' FSL & 798' FEL: LOCATION
PROV.                 Colorado: PROVINCE
CNTY.               Las Animas: COUNTRY
SRVC.                Patterson: SERVICE COMPANY
DATE.          Sun Oct 02 01:06:45 2005: LOG DATE
UWI.           05-071-08538               : UNIQUE WELL ID
~Curve Information Block
DEPT.FT            0 000 00 00: Depth
SP.mV                         : DIL Spontaneous Potential
RILD.Ohm-m                    : DIL Deep Resistivity
RILM.Ohm-m                    : DIL Medium Resistivity
RLL3.Ohm-m                    : DIL Shallow Resistivity
GR.GAPI                       : Gamma Ray
~Parameter Information Block
~A  Depth        SP         RILD        RILM        RLL3         GR     
# ...
  1426.0000    178.2868      7.5668      7.6503     10.7220    141.8843
  1426.2500    179.1540      7.8489      7.9935     11.7358    140.2942
  1426.5000    180.1033      8.1633      8.3943     12.1955    134.5417
  1426.7500    181.0451      8.5070      8.8568     12.1913    129.1514
  1427.0000    181.9390      8.8749      9.3854     12.2021    120.8590
  1427.2500    182.8029      9.2581      9.9817     12.8319    116.3220
  1427.5000    183.6855      9.6413     10.6392     14.5791    111.8362
  1427.7500    184.6291     10.0033     11.3369     17.7393    110.0391
  1428.0000    185.6518     10.3219     12.0348     22.2832    107.6458
  1428.2500    186.7487     10.5823     12.6750     27.5837    105.5733
  1428.5000    187.8973     10.7828     13.1933     32.2277    101.6922
  1428.7500    189.0586     10.9319     13.5383     34.4012     99.0558
  1429.0000    190.1770     11.0398     13.6892     32.9435     96.2899
  1429.2500    191.1871     11.1088     13.6605     28.2926     96.1778
  1429.5000    192.0258     11.1313     13.4904     22.3317    100.0015
  1429.7500    192.6481     11.0942     13.2227     17.1589    105.3565
  1430.0000    193.0416     10.9871     12.8923     13.8921    116.3579
  1430.2500    193.2283     10.8069     12.5203     12.4196    124.3993
  1430.5000    193.2525     10.5579     12.1168     11.9647    135.1830
  1430.7500    193.1601     10.2511     11.6870     11.7719    140.3042
  1431.0000    192.9847      9.9029     11.2365     11.4612    143.6242
  1431.2500    192.7467      9.5332     10.7733     11.0123    143.1308
  1431.5000    192.4596      9.1627     10.3073     10.5621    140.3745
  1431.7500    192.1379      8.8088      9.8485     10.2153    138.5818
  1432.0000    191.8022      8.4824      9.4053      9.9739    136.9098
  1432.2500    191.4816      8.1884      8.9843      9.7703    136.1854
  1432.5000    191.2104      7.9272      8.5903      9.5321    135.5137
  1432.7500    191.0170      7.6979      8.2271      9.2261    135.9567
  1433.0000    190.9101      7.4988      7.8982      8.8666    138.9799
  1433.2500    190.8750      7.3278      7.6063      8.4933    142.3047
  1433.5000    190.8839      7.1819      7.3534      8.1443    147.7224
  1433.7500    190.9110      7.0570      7.1406      7.8461    150.8600
  1434.0000    190.9409      6.9487      6.9674      7.6173    154.0779
  1434.2500    190.9668      6.8533      6.8324      7.4679    154.7521
  1434.5000    190.9845      6.7689      6.7329      7.3912    152.7764
  1434.7500    190.9917      6.6955      6.6656      7.3669    149.5877
  1435.0000    190.9925      6.6341      6.6261      7.3760    143.7728
  1435.2500    191.0009      6.5861      6.6101      7.4129    140.7234
  1435.5000    191.0339      6.5525      6.6126      7.4817    139.2375
  1435.7500    191.0988      6.5338      6.6291      7.5838    140.3613
  1436.0000    191.1860      6.5295      6.6551      7.7068    143.6064
  1436.2500    191.2764      6.5379      6.6869      7.8226    145.4566
  1436.5000    191.3557      6.5555      6.7214      7.9020    146.2061
  1436.7500    191.4221      6.5784      6.7558      7.9354    145.2943
  1437.0000    191.4824      6.6030      6.7881      7.9409    142.6051
  1437.2500    191.5399      6.6262      6.8163      7.9497    140.4273
  1437.5000    191.5828      6.6459      6.8384      7.9803    137.2336
  1437.7500    191.5817      6.6607      6.8526      8.0280    135.5327
  1438.0000    191.4993      6.6704      6.8572      8.0766    134.2809
  1438.2500    191.3063      6.6764      6.8516      8.1130    134.5214
  1438.5000    190.9919      6.6817      6.8363      8.1260    136.2994
  1438.7500    190.5636      6.6906      6.8137      8.0994    138.0820
  1439.0000    190.0378      6.7076      6.7880      8.0166    141.0370
  1439.2500    189.4303      6.7365      6.7651      7.8728    142.9133
  1439.5000    188.7546      6.7791      6.7520      7.6807    145.1790
  1439.7500    188.0264      6.8351      6.7556      7.4714    146.1876
  1440.0000    187.2660      6.9021      6.7819      7.2943    147.0713
  1440.2500    186.4975      6.9759      6.8353      7.2121    147.4399
  1440.5000    185.7464      7.0512      6.9176      7.2786    147.7243
  1440.7500    185.0374      7.1228      7.0275      7.5121    147.5021
  1441.0000    184.3928      7.1866      7.1608      7.8922    146.0933
  1441.2500    183.8321      7.2414      7.3101      8.3869    144.3796
  1441.5000    183.3698      7.2894      7.4663      8.9680    140.8287
  1441.7500    183.0095      7.3354      7.6194      9.5779    137.8196
  1442.0000    182.7351      7.3853      7.7606     10.0933    132.1232
  1442.2500    182.5091      7.4429      7.8836     10.3603    127.6222
  1442.5000    182.2822      7.5087      7.9858     10.2972    121.0066
  1442.7500    182.0105      7.5796      8.0679      9.9638    117.7239
  1443.0000    181.6696      7.6504      8.1329      9.5263    115.2070
  1443.2500    181.2578      7.7153      8.1840      9.1571    114.3957
  1443.5000    180.7889      7.7694      8.2239      8.9553    112.4898
  1443.7500    180.2836      7.8087      8.2535      8.9278    110.3535
  1444.0000    179.7626      7.8304      8.2726      9.0149    106.8415
  1444.2500    179.2435      7.8331      8.2801      9.1292    105.0033
  1444.5000    178.7399      7.8188      8.2758      9.1949    103.3975
  1444.7500    178.2617      7.7924      8.2604      9.1811    103.2094
  1445.0000    177.8173      7.7609      8.2359      9.1134    105.0105
  1445.2500    177.4173      7.7308      8.2053      9.0522    107.9287
  1445.5000    177.0775      7.7064      8.1716      9.0475    113.8095
  1445.7500    176.8188      7.6900      8.1384      9.1036    117.2277
  1446.0000    176.6639      7.6832      8.1091      9.1789    119.5982
  1446.2500    176.6311      7.6875      8.0876      9.2164    119.5640
  1446.5000    176.7278      7.7059      8.0786      9.1825    119.4387
  1446.7500    176.9454      7.7426      8.0873      9.0903    120.4953
  1447.0000    177.2620      7.8027      8.1196      8.9999    123.5760
  1447.2500    177.6525      7.8916      8.1819      8.9950    125.4835
  1447.5000    178.0950      8.0135      8.2806      9.1366    126.8154
  1447.7500    178.5664      8.1708      8.4223      9.4134    127.0578
  1448.0000    179.0315      8.3638      8.6145      9.7426    128.0041
  1448.2500    179.4472      8.5911      8.8651     10.0465    129.4446
  1448.5000    179.7814      8.8500      9.1828     10.3527    132.3336
  1448.7500    180.0341      9.1371      9.5762     10.8393    134.3414
  1449.0000    180.2396      9.4499     10.0521     11.7974    137.1329
  1449.2500    180.4501      9.7867     10.6131     13.5037    138.4361
  1449.5000    180.7143     10.1459     11.2550     16.0061    137.8375
  1449.7500    181.0619     10.5247     11.9628     18.9336    134.7079
  1450.0000    181.4985     10.9167     12.7096     21.5650    126.0502
  1450.2500    182.0087     11.3107     13.4562     23.2184    119.0922
  1450.5000    182.5650     11.6903     14.1544     23.6574    110.0105
  1450.7500    183.1369     12.0343     14.7528     23.1481    105.8005
  1451.0000    183.6958     12.3180     15.2041     22.1802    101.5267
  1451.2500    184.2155     12.5173     15.4716     21.1749     99.0049
  1451.5000    184.6691     12.6144     15.5346     20.3743     94.9335
  1451.7500    185.0310     12.6048     15.3930     19.8379     92.4636
  1452.0000    185.2824     12.4999     15.0686     19.4347     90.2548
  1452.2500    185.4188     12.3261     14.6044     18.8736     90.1406
  1452.5000    185.4521     12.1165     14.0571     17.8565     92.3605
  1452.7500    185.4059     11.9012     13.4875     16.2869     95.6709
  1453.0000    185.3073     11.6991     12.9500     14.3596    103.4467
  1453.2500    185.1817     11.5151     12.4854     12.4565    110.0677
  1453.5000    185.0489     11.3411     12.1176     10.9599    120.6994
  1453.7500    184.9250     11.1600     11.8532     10.1290    127.2276
