~Version Information
VERS.                      2.0: CWLS Log ASCII Standard - VERSION 2.0
WRAP.                       NO: One line per depth step
~Well Information Block
STRT.FT               547.0000: 
STOP.FT              1685.5000: 
STEP.FT                 0.2500: 
NULL.                -999.2500: 
COMP.          Pioneer Natural Resources: COMPANY
WELL.           Pedri 42-33 Tr: WELL
FLD.           Purgatorie River: FIELD
LOC.           1933' FNL & 662' FEL: LOCATION
PROV.                 Colorado: PROVINCE
CNTY.               Las Animas: COUNTRY
SRVC.                Patterson: SERVICE COMPANY
DATE.          Mon Dec 19 10:09:44 2005: LOG DATE
UWI.                          : UNIQUE WELL ID
~Curve Information Block
DEPT.FT            0 000 00 00: Depth
DIR.Ohm-m                     : IEL Induction Resistivity
GR.GAPI                       : Gamma Ray
~Parameter Information Block
~A  Depth       DIR          GR     
# ...
   770.0000     15.2681    155.0268
   770.2500     15.5037    154.0979
   770.5000     15.7511    149.6883
   770.7500     16.0163    144.7438
   771.0000     16.3056    136.0251
   771.2500     16.6243    130.6673
   771.5000     16.9757    124.4779
   771.7500     17.3617    121.4343
   772.0000     17.7792    117.8295
   772.2500     18.2172    116.0598
   772.5000     18.6575    115.1216
   772.7500     19.0811    116.0262
   773.0000     19.4735    119.2806
   773.2500     19.8241    122.0377
   773.5000     20.1235    126.1945
   773.7500     20.3671    128.7677
   774.0000     20.5631    131.6078
   774.2500     20.7363    132.0839
   774.5000     20.9194    129.9666
   774.7500     21.1404    127.1252
   775.0000     21.4155    122.7144
   775.2500     21.7555    120.8357
   775.5000     22.1762    120.2959
   775.7500     22.7034    120.9466
   776.0000     23.3627    121.8502
   776.2500     24.1607    121.6027
   776.5000     25.0730    119.1685
   776.7500     26.0552    116.0757
   777.0000     27.0723    109.8795
   777.2500     28.1210    105.4961
   777.5000     29.2150     99.8979
   777.7500     30.3401     97.2683
   778.0000     31.4164     95.1708
   778.2500     32.3066     94.9366
   778.5000     32.8657     96.0347
   778.7500     32.9913     97.4154
   779.0000     32.6399     99.3756
   779.2500     31.8184     99.6400
   779.5000     30.5816     97.1655
   779.7500     29.0356     93.7964
   780.0000     27.3236     88.3557
   780.2500     25.5913     86.0770
   780.5000     23.9491     86.2356
   780.7500     22.4562     88.4629
   781.0000     21.1267     93.0558
   781.2500     19.9504     95.7798
   781.5000     18.9112     98.7728
   781.7500     17.9961    100.8115
   782.0000     17.1948    106.1834
   782.2500     16.4969    112.0244
   782.5000     15.8918    122.8414
   782.7500     15.3721    129.5566
   783.0000     14.9358    136.2455
   783.2500     14.5869    138.1425
   783.5000     14.3304    138.4419
   783.7500     14.1671    138.0604
   784.0000     14.0914    138.0120
   784.2500     14.0941    138.5007
   784.5000     14.1676    139.3091
   784.7500     14.3100    139.3950
   785.0000     14.5250    138.7475
   785.2500     14.8201    138.1958
   785.5000     15.2028    137.9120
   785.7500     15.6772    138.2561
   786.0000     16.2404    139.3342
   786.2500     16.8800    140.0096
   786.5000     17.5749    140.0852
   786.7500     18.2996    139.3438
   787.0000     19.0316    137.8039
   787.2500     19.7573    137.1016
   787.5000     20.4767    136.5014
   787.7500     21.2043    135.6881
   788.0000     21.9683    132.9451
   788.2500     22.8094    130.4712
   788.5000     23.7754    127.3451
   788.7500     24.9117    126.1192
   789.0000     26.2479    124.9566
   789.2500     27.7904    124.0832
   789.5000     29.5241    122.6785
   789.7500     31.4183    122.2220
   790.0000     33.4276    122.8049
   790.2500     35.4801    123.5971
   790.5000     37.4637    123.7104
   790.7500     39.2242    122.3340
   791.0000     40.5911    118.2938
   791.2500     41.4300    115.0261
   791.5000     41.6892    110.3917
   791.7500     41.4018    107.5933
   792.0000     40.6432    103.2643
   792.2500     39.4999    100.1347
   792.5000     38.0834     95.9794
   792.7500     36.5556     94.4573
   793.0000     35.1099     94.7772
   793.2500     33.9125     96.4422
   793.5000     33.0518    100.3047
   793.7500     32.5252    103.6031
   794.0000     32.2578    109.6973
   794.2500     32.1348    114.4380
   794.5000     32.0326    122.0062
   794.7500     31.8445    126.9491
   795.0000     31.5056    133.4677
   795.2500     31.0181    136.7226
   795.5000     30.4609    139.1312
   795.7500     29.9683    138.7456
   796.0000     29.6826    135.1554
   796.2500     29.7078    131.2397
   796.5000     30.0872    124.7905
   796.7500     30.8061    121.2047
   797.0000     31.8135    117.8200
   797.2500     33.0480    116.5794
   797.5000     34.4539    114.8462
   797.7500     35.9746    113.1783
   798.0000     37.5298    110.1458
   798.2500     39.0020    108.3545
   798.5000     40.2524    106.3009
   798.7500     41.1667    104.6488
   799.0000     41.7036    100.0217
   799.2500     41.9173     95.2550
   799.5000     41.9413     87.3446
   799.7500     41.9453     83.1987
   800.0000     42.0837     80.2439
   800.2500     42.4549     80.0395
   800.5000     43.0800     80.4650
   800.7500     43.9096     80.5347
   801.0000     44.8549     80.8819
   801.2500     45.8295     82.2033
   801.5000     46.7759     86.7667
   801.7500     47.6620     91.2278
   802.0000     48.4661     98.6813
   802.2500     49.1758    103.5445
   802.5000     49.8040    110.3291
   802.7500     50.3983    114.3221
   803.0000     51.0290    118.4222
   803.2500     51.7657    118.8690
   803.5000     52.6725    114.7900
   803.7500     53.8266    109.1592
   804.0000     55.3492     99.0253
   804.2500     57.4175     93.3565
   804.5000     60.2435     89.0917
   804.7500     64.0152     89.0548
   805.0000     68.8207     90.8960
   805.2500     74.5934     91.6753
   805.5000     81.1098     90.3263
   805.7500     88.0188     87.6292
   806.0000     94.8308     81.7788
   806.2500    100.8721     77.2634
   806.5000    105.3736     70.0759
   806.7500    107.8230     65.1325
   807.0000    108.3284     57.9622
   807.2500    107.6009     53.8044
   807.5000    106.5947     49.2309
   807.7500    106.1159     47.4949
   808.0000    106.5715     46.7444
   808.2500    107.9030     47.1850
   808.5000    109.7601     48.6216
   808.7500    111.8867     49.8108
   809.0000    114.4048     51.6884
   809.2500    117.6158     52.9108
   809.5000    121.4520     54.4109
   809.7500    125.0919     54.9203
   810.0000    127.2239     54.5868
   810.2500    126.8862     53.6545
   810.5000    124.0984     51.6881
   810.7500    119.6510     50.3987
   811.0000    114.4605     48.9467
   811.2500    109.1453     48.2768
   811.5000    103.9580     47.3061
   811.7500     98.8513     46.4608
   812.0000     93.5320     44.9042
   812.2500     87.5712     43.8856
   812.5000     80.6464     42.8243
   812.7500     72.8256     42.6160
   813.0000     64.6454     43.1121
   813.2500     56.8360     43.8634
   813.5000     49.9457     45.4210
   813.7500     44.1812     46.7880
   814.0000     39.4799     49.5795
   814.2500     35.6595     52.1200
   814.5000     32.5327     57.5209
   814.7500     29.9573     62.6884
   815.0000     27.8362     73.3522
   815.2500     26.0967     82.1228
   815.5000     24.6752     96.1311
   815.7500     23.5184    104.8621
   816.0000     22.5921    115.7450
   816.2500     21.8857    121.3175
   816.5000     21.4053    127.0443
   816.7500     21.1599    128.9419
   817.0000     21.1482    129.1205
   817.2500     21.3524    128.3197
   817.5000     21.7377    128.0867
   817.7500     22.2554    129.6548
   818.0000     22.8464    134.7051
   818.2500     23.4475    138.8720
   818.5000     24.0035    143.4664
   818.7500     24.4825    143.5934
   819.0000     24.8829    137.3554
   819.2500     25.2247    129.2831
   819.5000     25.5314    114.8607
   819.7500     25.8154    106.4256
   820.0000     26.0773     98.9956
   820.2500     26.3098     98.3200
   820.5000     26.4987    102.9870
   820.7500     26.6161    108.4445
   821.0000     26.6182    117.1537
   821.2500     26.4602    122.0752
   821.5000     26.1237    127.3601
   821.7500     25.6368    129.5594
   822.0000     25.0661    131.4330
   822.2500     24.4852    132.0616
   822.5000     23.9481    132.1655
   822.7500     23.4835    131.6133
   823.0000     23.1053    130.4429
   823.2500     22.8226    130.1733
   823.5000     22.6406    131.2701
   823.7500     22.5589    132.7162
   824.0000     22.5711    134.8805
   824.2500     22.6692    135.8900
   824.5000     22.8456    136.6918
   824.7500     23.0907    136.9898
   825.0000     23.3879    137.7051
   825.2500     23.7095    138.6414
   825.5000     24.0128    140.5126
