~Version Information
VERS.                      2.0: CWLS Log ASCII Standard - VERSION 2.0
WRAP.                       NO: One line per depth step
~Well Information Block
STRT.FT               550.0000: 
STOP.FT              1498.5000: 
STEP.FT                 0.1000: 
NULL.                -999.2500: 
COMP.          Pioneer Natural Resources: COMPANY
WELL.          Surtees 23-34 Tr: WELL
FLD.           Purgatoire River: FIELD
LOC.           1559' FSL & 1997' FWL: LOCATION
PROV.                 Colorado: PROVINCE
CNTY.               Las Animas: COUNTRY
SRVC.                Patterson: SERVICE COMPANY
DATE.          Wed Jul 27 09:35:51 2005: LOG DATE
UWI.           05 071 08449 00: UNIQUE WELL ID
~Curve Information Block
DEPT.FT            0 000 00 00: Depth
DCAL.in                       : CDL Caliper
RHOB.g/cc                     : CDL Bulk Density
RHOC.g/cc                     : CDL Density Correction
DPOR.pu                       : CDL Density Porosity
GR.GAPI                       : Gamma Ray
NPOR.pu                       : Neutron Porosity
~Parameter Information Block
~A  Depth       DCAL        RHOB        RHOC        DPOR         GR         NPOR    
# ...
   982.0000      8.1467      2.5143      0.0228      8.2232    149.9560     30.0600
   982.1000      8.1467      2.5359      0.0786      6.9161    147.0575     30.0589
   982.2000      8.1467      2.5468      0.0287      6.2527    145.1147     30.4371
   982.3000      8.1318      2.5625      0.0478      5.3055    140.8872     30.7799
   982.4000      8.1318      2.5881      0.0933      3.7496    136.7623     30.3961
   982.5000      8.1387      2.6043      0.1064      2.7671    134.7584     29.5330
   982.6000      8.1387      2.5984      0.0845      3.1294    130.9833     28.9564
   982.7000      8.1387      2.5907     -0.0079      3.5962    122.3228     28.6308
   982.8000      8.1592      2.6041      0.0694      2.7793    110.5648     28.0387
   982.9000      8.1592      2.6190      0.0952      1.8810    104.5820     27.4201
   983.0000      8.1639      2.6134      0.0226      2.2169    108.5231     27.0398
   983.1000      8.1639      2.5986      0.0618      3.1161    115.4889     26.5573
   983.2000      8.1639      2.5824      0.0447      4.0954    120.8547     26.0406
   983.3000      8.1574      2.5614      0.0248      5.3678    128.3994     26.3200
   983.4000      8.1574      2.5394      0.0433      6.7013    137.9945     27.3083
   983.5000      8.1729      2.5258      0.0304      7.5295    143.7879     28.1148
   983.6000      8.1729      2.5205      0.0603      7.8494    145.9588     28.6548
   983.7000      8.1729      2.5107      0.0506      8.4417    145.9865     29.0818
   983.8000      8.1893      2.4943      0.0622      9.4342    144.1578     29.3128
   983.9000      8.1893      2.4849      0.0815     10.0068    143.9972     29.0081
   984.0000      8.1854      2.4884      0.0805      9.7923    145.2891     28.3553
   984.1000      8.1854      2.4959      0.1245      9.3400    142.8887     28.1949
   984.2000      8.1854      2.4908      0.1497      9.6457    136.1387     28.7437
   984.3000      8.1920      2.4662      0.1200     11.1411    132.5358     28.9576
   984.4000      8.1920      2.4344      0.1215     13.0683    135.0644     28.3956
   984.5000      8.1648      2.4164      0.0556     14.1587    138.8592     27.9948
   984.6000      8.1648      2.4152      0.0956     14.2273    141.4709     27.9077
   984.7000      8.1648      2.4043      0.1024     14.8919    141.9704     28.0753
   984.8000      8.1519      2.3613      0.0805     17.4952    142.3675     28.5594
   984.9000      8.1519      2.2995      0.0795     21.2417    146.3031     28.6475
   985.0000      8.1677      2.2585      0.0099     23.7260    147.9418     28.4770
   985.1000      8.1677      2.2654      0.0486     23.3068    142.3601     29.0291
   985.2000      8.1677      2.3015      0.1056     21.1223    137.1233     30.3718
   985.3000      8.1854      2.3341      0.1411     19.1473    137.3459     31.3007
   985.4000      8.1854      2.3581      0.1705     17.6904    137.3450     31.2801
   985.5000      8.2050      2.3862      0.1755     15.9862    133.3051     30.8963
   985.6000      8.2050      2.4208      0.1906     13.8902    129.9249     30.6531
   985.7000      8.2050      2.4405      0.1970     12.6979    129.4007     30.8209
   985.8000      8.2019      2.4230      0.1617     13.7550    129.3103     31.3087
   985.9000      8.2019      2.3763      0.0491     16.5853    129.1476     31.5665
   986.0000      8.2138      2.3271     -0.0192     19.5716    131.0447     31.7646
   986.1000      8.2138      2.2870      0.0330     22.0006    133.7180     32.3123
   986.2000      8.2138      2.2527     -0.0161     24.0769    134.6579     32.5869
   986.3000      8.2338      2.2230      0.0049     25.8806    137.0786     31.7244
   986.4000      8.2338      2.1972     -0.0096     27.4419    142.6535     29.9539
   986.5000      8.2392      2.1786     -0.0202     28.5682    148.9177     28.7766
   986.6000      8.2392      2.1819     -0.0227     28.3707    152.6740     29.1588
   986.7000      8.2392      2.2190      0.0314     26.1198    150.3918     30.3470
   986.8000      8.2435      2.2752      0.0888     22.7170    142.4390     31.0794
   986.9000      8.2435      2.3272      0.1219     19.5661    135.8483     30.9167
   987.0000      8.2432      2.3752      0.1560     16.6537    133.8346     30.5962
   987.1000      8.2432      2.4296      0.1552     13.3554    135.1835     30.6941
   987.2000      8.2432      2.4862      0.1614      9.9290    140.1942     30.6941
   987.3000      8.2505      2.5239      0.1391      7.6447    147.3085     30.2795
   987.4000      8.2505      2.5273      0.1120      7.4339    152.3613     30.1050
   987.5000      8.2528      2.5027      0.1245      8.9253    153.9261     30.3856
   987.6000      8.2528      2.4713      0.1117     10.8289    152.9888     30.5485
   987.7000      8.2528      2.4518      0.1290     12.0120    150.1591     30.2458
   987.8000      8.2589      2.4425      0.1384     12.5771    150.2933     29.7544
   987.9000      8.2589      2.4394      0.0601     12.7609    155.4046     29.6211
   988.0000      8.2601      2.4514      0.0879     12.0373    157.2523     30.0878
   988.1000      8.2601      2.4811      0.1297     10.2338    151.6300     30.5872
   988.2000      8.2601      2.5184      0.1645      7.9735    143.8729     30.3364
   988.3000      8.2684      2.5472      0.2107      6.2330    140.1168     29.5651
   988.4000      8.2684      2.5601      0.1813      5.4503    143.1285     29.2573
   988.5000      8.2740      2.5625      0.1646      5.3011    149.7440     29.8050
   988.6000      8.2740      2.5614      0.1313      5.3701    153.9483     30.8771
   988.7000      8.2740      2.5691      0.1382      4.9035    152.5938     31.8182
   988.8000      8.1921      2.6021      0.1381      2.9035    146.6555     31.9440
   988.9000      8.1921      2.6596      0.1880     -0.5834    140.6860     31.4169
   989.0000      8.1908      2.7141      0.1938     -3.8843    137.9984     30.8731
   989.1000      8.1908      2.7427      0.1739     -5.6177    136.2879     30.4606
   989.2000      8.1908      2.7484      0.2130     -5.9619    130.5194     30.1714
   989.3000      8.1789      2.7373      0.1845     -5.2883    121.7008     29.9102
   989.4000      8.1789      2.7094      0.1272     -3.6004    117.0149     29.3877
   989.5000      8.1970      2.6731      0.0753     -1.4010    118.6854     28.5052
   989.6000      8.1970      2.6429      0.0921      0.4315    122.1654     27.4633
   989.7000      8.1970      2.6287      0.0468      1.2906    123.1047     26.7532
   989.8000      8.1369      2.6320      0.0503      1.0921    120.0196     26.6929
   989.9000      8.1369      2.6408      0.0561      0.5557    116.1925     26.6261
   990.0000      8.1047      2.6408      0.0528      0.5549    113.8480     26.2040
   990.1000      8.1047      2.6332      0.0586      1.0179    112.9331     26.2135
   990.2000      8.1047      2.6322      0.0354      1.0810    119.2023     26.8534
   990.3000      8.1081      2.6499      0.0473      0.0035    131.3467     27.5511
   990.4000      8.1081      2.6871      0.0847     -2.2483    135.0455     27.8413
   990.5000      8.0865      2.7252      0.1284     -4.5567    125.1545     27.6134
   990.6000      8.0865      2.7377      0.1602     -5.3149    113.7560     27.0186
   990.7000      8.0865      2.7202      0.1378     -4.2567    113.0318     26.0945
   990.8000      8.0794      2.6910      0.1480     -2.4872    121.5063     25.1657
   990.9000      8.0794      2.6659      0.0622     -0.9646    129.1642     25.3200
   991.0000      8.0740      2.6516      0.0756     -0.0954    130.8249     26.8642
   991.1000      8.0740      2.6356      0.0484      0.8712    127.1745     28.1789
   991.2000      8.0740      2.5999      0.0371      3.0374    121.3492     27.5882
   991.3000      8.0810      2.5546     -0.0109      5.7809    118.0096     25.8697
   991.4000      8.0810      2.5251     -0.0058      7.5717    116.6915     24.9329
   991.5000      8.1278      2.5158      0.0268      8.1325    113.1423     25.4947
