~Version Information
VERS.                      2.0: CWLS Log ASCII Standard - VERSION 2.0
WRAP.                       NO: One line per depth step
~Well Information Block
STRT.FT                -7.0000: 
STOP.FT              2328.5000: 
STEP.FT                 0.2500: 
NULL.                -999.2500: 
COMP.          Pioneer Natural Resources: COMPANY
WELL.              Rolls 14-14: WELL
FLD.           Purgatorie River: FIELD
LOC.           572' FSL & 856' FWL--: LOCATION
PROV.                       CO: PROVINCE
CNTY.               Las Animas: COUNTRY
SRVC.          Patterson Wireline: SERVICE COMPANY
DATE.          Mon Aug 08 10:10:54 2005: LOG DATE
UWI.           05 071 08455 00: UNIQUE WELL ID
~Curve Information Block
DEPT.FT            0 000 00 00: Depth
CCL.                          : Casing Collar Locator
TT3.usec                      : CBL 3' Travel Time
AMP3.mV                       : CBL 3' Amplitude
GR.GAPI                       : Gamma Ray
~Parameter Information Block
~A  Depth       CCL         TT3         AMP3         GR     
# ...
  2003.0000      0.0000    560.2165      3.6044     66.7365
  2003.2500      0.0000    549.7194      3.5535     61.3379
  2003.5000      0.0000    520.1777      3.5238     58.6741
  2003.7500      0.0000    492.8361      3.5490     58.7347
  2004.0000     -2.0000    487.2611      3.6429     60.5812
  2004.2500      0.0000    507.1320      3.7756     62.9283
  2004.5000      2.0000    538.8795      3.8805     64.4023
  2004.7500      0.0000    564.9352      3.9007     64.1253
  2005.0000      0.0000    577.7220      3.8377     62.3376
  2005.2500      0.0000    580.8040      3.7536     60.1347
  2005.5000      0.0000    580.4730      3.7210     58.4737
  2005.7500      0.0000    580.2607      3.7687     57.5731
  2006.0000      0.0000    581.4465      3.8786     57.3326
  2006.2500      0.0000    583.6172      4.0168     58.0920
  2006.5000      0.0000    583.1331      4.1489     60.5060
  2006.7500      0.0000    574.0275      4.2271     64.4572
  2007.0000      0.0000    552.5055      4.1959     68.5486
  2007.2500      0.0000    520.1080      4.0340     71.1565
  2007.5000      0.0000    483.1603      3.7857     71.8659
  2007.7500      0.0000    449.9488      3.5352     71.6650
  2008.0000      0.0000    426.6772      3.3564     71.8650
  2008.2500      0.0000    414.5958      3.2859     72.9024
  2008.5000      0.0000    410.9507      3.3182     74.0773
  2008.7500      0.0000    412.8594      3.4036     74.5500
  2009.0000      0.0000    420.5683      3.4654     74.6695
  2009.2500      0.0000    437.8646      3.4427     76.1332
  2009.5000      0.0000    468.9055      3.3289     80.5240
  2009.7500      0.0000    512.8110      3.1728     87.4162
  2010.0000      0.0000    560.7840      3.0482     93.9263
  2010.2500      0.0000    600.3743      3.0191     96.6296
  2010.5000      0.0000    623.8540      3.1166     94.4211
  2010.7500      0.0000    632.4310      3.3260     89.4055
  2011.0000      0.0000    633.0745      3.5879     84.8835
  2011.2500      0.0000    632.7455      3.8188     82.7699
  2011.5000      0.0000    635.2165      3.9488     82.8801
  2011.7500      0.0000    640.9542      3.9525     83.8868
  2012.0000      0.0000    648.2914      3.8557     84.5898
  2012.2500      0.0000    654.9404      3.7247     84.7127
  2012.5000      0.0000    659.3625      3.6383     84.7242
  2012.7500      0.0000    661.0615      3.6480     84.8157
  2013.0000      0.0000    659.6652      3.7470     84.4657
  2013.2500      0.0000    653.8791      3.8762     83.3647
  2013.5000      0.0000    642.1748      3.9665     81.9847
  2013.7500      0.0000    625.7715      3.9825     80.5456
  2014.0000      0.0000    610.9598      3.9366     78.2780
  2014.2500      0.0000    606.1459      3.8719     74.7325
  2014.5000      0.0000    614.6397      3.8330     71.1855
  2014.7500      0.0000    631.5104      3.8401     69.7923
  2015.0000      0.0000    648.6597      3.8770     71.6502
  2015.2500      0.0000    661.5634      3.9011     76.1596
  2015.5000      0.0000    669.9800      3.8738     81.8428
  2015.7500      0.0000    674.0004      3.7901     87.3822
  2016.0000      0.0000    672.2128      3.6852     92.2690
  2016.2500      0.0000    664.8121      3.6091     96.8526
  2016.5000      0.0000    656.7537      3.5902    101.5888
  2016.7500      0.0000    654.7948      3.6154    106.0928
  2017.0000      0.0000    661.2424      3.6440    109.3020
  2017.2500      0.0000    672.3965      3.6446    110.6640
  2017.5000      0.0000    682.5798      3.6131    110.5601
  2017.7500      0.0000    688.0929      3.5503    109.3779
  2018.0000      0.0000    688.6446      3.4357    106.9186
  2018.2500      0.0000    687.4536      3.2509    103.0240
  2018.5000      0.0000    689.6551      3.0293     98.2187
  2018.7500      0.0000    698.4790      2.8579     93.4960
  2019.0000      0.0000    711.9774      2.8123     89.8526
  2019.2500      0.0000    724.5365      2.8977     88.0878
  2019.5000      2.0000    732.5146      3.0529     88.5514
  2019.7500      2.0000    737.5020      3.2014     90.8071
  2020.0000      0.0000    742.5035      3.2955     93.9853
  2020.2500      0.0000    745.8320      3.3302     97.8140
  2020.5000      0.0000    740.9974      3.3295    102.8371
  2020.7500      0.0000    722.3140      3.3171    109.2670
  2021.0000      0.0000    688.7356      3.2919    116.1487
  2021.2500      0.0000    642.9170      3.2366    122.0069
  2021.5000      0.0000    589.8055      3.1568    125.8370
  2021.7500      0.0000    536.8644      3.0987    127.1968
  2022.0000      0.0000    492.4783      3.1142    126.0686
  2022.2500      0.0000    461.6929      3.2079    123.1955
  2022.5000      0.0000    443.8397      3.3297    120.0004
  2022.7500      0.0000    434.6332      3.4219    117.4799
  2023.0000      0.0000    429.7476      3.4700    115.4559
  2023.2500      0.0000    426.5764      3.5079    113.2147
  2023.5000      0.0000    424.0505      3.5775    110.5869
  2023.7500      0.0000    421.8958      3.6814    108.2385
  2024.0000      0.0000    420.0965      3.7783    106.9452
  2024.2500      0.0000    418.6537      3.8220    106.4519
  2024.5000      0.0000    417.5335      3.7971    105.2730
  2024.7500      0.0000    416.6568      3.7233    102.0871
  2025.0000      0.0000    415.9121      3.6448     97.1986
  2025.2500      0.0000    415.1976      3.6130     92.2489
  2025.5000      0.0000    414.5373      3.6534     88.7962
  2025.7500      0.0000    414.2278      3.7393     87.5269
  2026.0000      0.0000    415.0661      3.8131     88.2903
  2026.2500      0.0000    418.6836      3.8355     89.9820
  2026.5000      0.0000    427.9483      3.8053     90.6134
  2026.7500      0.0000    446.8441      3.7429     88.6765
  2027.0000      0.0000    478.6501      3.6790     84.9117
  2027.2500      0.0000    522.3771      3.6549     82.0507
  2027.5000      0.0000    570.6677      3.7027     82.3812
  2027.7500      0.0000    612.9715      3.8134     85.8015
  2028.0000      0.0000    642.1676      3.9354     90.3197
  2028.2500      0.0000    658.0436      4.0173     93.9429
  2028.5000      0.0000    664.9243      4.0483     95.6968
  2028.7500      0.0000    667.3033      4.0495     95.2208
  2029.0000      0.0000    667.5971      4.0264     92.3941
  2029.2500      0.0000    666.3895      3.9521     87.8559
  2029.5000      0.0000    663.7413      3.8110     83.4062
  2029.7500      0.0000    660.3901      3.6460     81.1681
  2030.0000      0.0000    657.9727      3.5395     82.1161
  2030.2500      0.0000    657.9125      3.5371     85.3441
  2030.5000      0.0000    660.1251      3.6049     88.7441
  2030.7500      0.0000    663.0978      3.6729     90.5401
  2031.0000      0.0000    665.2739      3.7078     90.4062
  2031.2500      0.0000    666.1321      3.7218     89.1278
  2031.5000      0.0000    666.0799      3.7236     87.3290
  2031.7500      0.0000    665.7487      3.7002     84.8696
  2032.0000      0.0000    665.5098      3.6511     81.5327
  2032.2500      0.0000    665.4038      3.6140     78.0905
  2032.5000      0.0000    665.2704      3.6393     76.5265
  2032.7500      0.0000    664.7297      3.7400     78.9631
  2033.0000      0.0000    662.7322      3.8665     86.0597
  2033.2500      0.0000    656.6918      3.9325     96.2192
  2033.5000      0.0000    642.1030      3.8821    106.2226
  2033.7500      0.0000    614.3110      3.7383    112.8244
  2034.0000      0.0000    572.6659      3.5868    114.2647
  2034.2500      0.0000    523.5173      3.5011    110.7239
  2034.5000      0.0000    477.6831      3.4828    103.6521
  2034.7500      0.0000    443.7538      3.4826     94.9309
  2035.0000      0.0000    423.8170      3.4720     86.6970
  2035.2500      0.0000    415.0239      3.4710     81.3899
  2035.5000      0.0000    413.9104      3.4991     81.0801
  2035.7500      0.0000    419.0930      3.5275     86.0135
  2036.0000      0.0000    431.5466      3.5012     93.6652
  2036.2500      0.0000    453.8934      3.4029     99.8958
