~Version Information
VERS.                      2.0: CWLS Log ASCII Standard - VERSION 2.0
WRAP.                       NO: One line per depth step
~Well Information Block
STRT.FT               880.0000: 
STOP.FT              1996.5000: 
STEP.FT                 0.1000: 
NULL.                -999.2500: 
COMP.          Petrogulf Corporation: COMPANY
WELL.          Collister 17-31R: WELL
FLD.           Purgatorie River: FIELD
LOC.           962' FNL & 1520' FEL: LOCATION
PROV.                 Colorado: PROVINCE
CNTY.               Las Animas: COUNTRY
SRVC.                Patterson: SERVICE COMPANY
DATE.          Mon Sep 26 09:28:52 2005: LOG DATE
UWI.                          : UNIQUE WELL ID
~Curve Information Block
DEPT.FT            0 000 00 00: Depth
DCAL.in                       : CDL Caliper
RHOB.g/cc                     : CDL Bulk Density
RHOC.g/cc                     : CDL Density Correction
DPOR.pu                       : CDL Density Porosity
GR.GAPI                       : Gamma Ray
NPOR.pu                       : Neutron Porosity
~Parameter Information Block
~A  Depth       DCAL        RHOB        RHOC        DPOR         GR         NPOR    
# ...
  1686.4000      7.7882      2.6281      0.0969      1.3291    122.7343     26.6529
  1686.5000      7.7823      2.6377      0.0740      0.7481    124.9301     26.8240
  1686.6000      7.7823      2.6353      0.0967      0.8891    126.0682     27.0815
  1686.7000      7.7823      2.6163      0.0400      2.0445    126.5912     27.3925
  1686.8000      7.7897      2.5997      0.0561      3.0489    127.8183     27.4511
  1686.9000      7.7897      2.5989      0.0384      3.0985    131.0030     27.2724
  1687.0000      7.8427      2.6062      0.0760      2.6551    135.7878     27.2365
  1687.1000      7.8427      2.6078      0.0496      2.5568    139.9592     27.4237
  1687.2000      7.8427      2.6006      0.0722      2.9955    141.6239     27.8679
  1687.3000      7.8516      2.5934      0.0435      3.4308    139.7253     28.5225
  1687.4000      7.8516      2.5931      0.0430      3.4498    135.7793     28.8222
  1687.5000      7.8565      2.5910      0.0702      3.5761    135.6268     28.3591
  1687.6000      7.8565      2.5764      0.0323      4.4587    140.7543     27.4851
  1687.7000      7.8565      2.5542      0.0333      5.8084    142.0084     26.9579
  1687.8000      7.8545      2.5317     -0.0412      7.1681    138.5435     27.0661
  1687.9000      7.8545      2.5190     -0.0194      7.9389    139.7541     27.4965
  1688.0000      7.8587      2.5302     -0.0193      7.2632    145.8550     27.9896
  1688.1000      7.8587      2.5575      0.0690      5.6047    150.8801     28.5306
  1688.2000      7.8587      2.5732      0.0381      4.6532    151.6024     28.9006
  1688.3000      7.8704      2.5725      0.0456      4.6966    151.5262     28.9877
  1688.4000      7.8704      2.5665      0.0571      5.0594    156.5559     29.0333
  1688.5000      7.8715      2.5534      0.0472      5.8540    163.2233     29.0290
  1688.6000      7.8715      2.5351      0.0317      6.9636    164.4703     28.9328
  1688.7000      7.8715      2.5268      0.0181      7.4644    164.0251     29.0549
  1688.8000      7.8756      2.5324      0.0155      7.1297    169.5237     29.5582
  1688.9000      7.8756      2.5410      0.0348      6.6071    176.4844     30.0048
  1689.0000      7.8799      2.5468      0.0617      6.2549    177.6199     30.1635
  1689.1000      7.8799      2.5509      0.0365      6.0039    175.4605     30.2427
  1689.2000      7.8799      2.5535      0.0634      5.8500    175.8575     30.0766
  1689.3000      7.9002      2.5507      0.0432      6.0211    178.8323     29.6593
  1689.4000      7.9002      2.5410      0.0472      6.6053    180.8024     29.5853
  1689.5000      7.9008      2.5316      0.0509      7.1735    178.6872     30.0605
  1689.6000      7.9008      2.5288      0.0798      7.3454    173.9670     30.5555
  1689.7000      7.9008      2.5256      0.0533      7.5364    172.0371     30.6328
  1689.8000      7.8552      2.5192      0.0405      7.9245    174.2773     30.3773
  1689.9000      7.8552      2.5250      0.0219      7.5752    174.9567     30.0641
  1690.0000      7.8411      2.5490      0.0375      6.1208    169.8244     29.8331
  1690.1000      7.8411      2.5644      0.0860      5.1873    162.1808     29.6369
  1690.2000      7.8411      2.5484      0.0807      6.1566    156.0206     29.4707
  1690.3000      7.8285      2.5183      0.0308      7.9837    152.6845     29.4234
  1690.4000      7.8285      2.5005      0.0215      9.0626    151.7844     29.4266
  1690.5000      7.8879      2.5013      0.0046      9.0105    151.5048     29.3631
  1690.6000      7.8879      2.5170      0.0231      8.0592    151.7223     29.3005
  1690.7000      7.8879      2.5445      0.0330      6.3910    151.8008     29.2043
  1690.8000      7.8779      2.5721      0.0718      4.7187    150.6052     28.9444
  1690.9000      7.8779      2.5740      0.0680      4.6044    147.5136     28.5166
  1691.0000      7.8945      2.5272      0.0738      7.4415    138.5303     27.9505
  1691.1000      7.8945      2.4290      0.0335     13.3940    124.4894     27.3323
  1691.2000      7.8945      2.3068     -0.0299     20.8028    115.1699     26.8899
  1691.3000      7.8732      2.2012     -0.0406     27.2023    115.2888     26.7576
  1691.4000      7.8732      2.1267     -0.0617     31.7148    119.5876     26.9377
  1691.5000      7.8149      2.0618     -0.0442     35.6505    122.3451     27.4006
  1691.6000      7.8149      1.9907     -0.0919     39.9601    123.5950     28.0812
  1691.7000      7.8149      1.9426     -0.1273     42.8697    126.2883     28.6334
  1691.8000      7.8207      1.9533     -0.0352     42.2234    129.8014     28.7575
  1691.9000      7.8207      2.0105      0.1428     38.7555    133.0011     28.7736
  1692.0000      7.8754      2.0838      0.1692     34.3128    136.1790     29.2342
  1692.1000      7.8754      2.1712      0.1920     29.0182    138.5038     30.2420
  1692.2000      7.8754      2.2734      0.1576     22.8244    140.9324     31.3152
  1692.3000      7.8739      2.3642      0.1227     17.3204    145.3742     31.8599
  1692.4000      7.8739      2.4208      0.0482     13.8918    151.1402     31.7407
  1692.5000      7.8034      2.4559      0.0352     11.7642    157.4586     31.2011
  1692.6000      7.8034      2.4922      0.0380      9.5655    164.8927     30.5377
  1692.7000      7.8034      2.5333      0.0590      7.0757    170.6561     29.8822
  1692.8000      7.8077      2.5681      0.0869      4.9641    171.6843     29.2332
  1692.9000      7.8077      2.5853      0.1061      3.9240    168.4898     28.7539
  1693.0000      7.8210      2.5855      0.0814      3.9097    163.1148     28.6273
  1693.1000      7.8210      2.5861      0.0477      3.8710    159.1456     28.7130
  1693.2000      7.8210      2.6007      0.0828      2.9863    155.0646     28.6175
  1693.3000      7.8177      2.6148      0.1091      2.1340    146.9568     28.0275
  1693.4000      7.8177      2.6141      0.0478      2.1741    137.0049     27.2402
  1693.5000      7.8184      2.6115      0.0445      2.3305    130.5860     26.8295
  1693.6000      7.8184      2.6173      0.0349      1.9845    129.7141     26.7447
  1693.7000      7.8184      2.6249      0.0416      1.5222    132.0071     26.4696
  1693.8000      7.8185      2.6180      0.0895      1.9392    135.8969     25.8045
  1693.9000      7.8185      2.5873      0.0529      3.8012    141.2182     25.0989
  1694.0000      7.7962      2.5524      0.0045      5.9163    145.7394     24.6434
  1694.1000      7.7962      2.5409     -0.0347      6.6097    145.8297     24.3239
  1694.2000      7.7962      2.5551      0.0200      5.7494    142.2473     24.1730
  1694.3000      7.8013      2.5751      0.0242      4.5385    138.9499     24.2748
  1694.4000      7.8013      2.5901      0.0101      3.6278    139.7438     24.4599
  1694.5000      7.8041      2.6040      0.0906      2.7880    144.0098     24.6780
  1694.6000      7.8041      2.6146      0.1024      2.1472    146.1560     24.8806
  1694.7000      7.8041      2.6208      0.0676      1.7711    145.6873     24.9321
  1694.8000      7.8169      2.6306      0.0882      1.1740    143.8199     24.9692
  1694.9000      7.8169      2.6349      0.1367      0.9152    137.0101     25.2215
  1695.0000      7.8217      2.6201      0.0679      1.8128    124.5101     25.5923
  1695.1000      7.8217      2.6028      0.0426      2.8623    113.2590     25.8213
  1695.2000      7.8217      2.5993      0.0884      3.0753    108.3145     25.8665
  1695.3000      7.8217      2.6004      0.0562      3.0080    105.0676     25.9651
  1695.4000      7.8217      2.5906      0.0938      3.5987    100.3548     26.0163
  1695.5000      7.8162      2.5688      0.0290      4.9186     97.2024     25.7068
  1695.6000      7.8162      2.5572     -0.0038      5.6271     98.0136     25.2069
  1695.7000      7.8162      2.5593      0.0523      5.4989    102.9239     24.7857
  1695.8000      7.7978      2.5532      0.0423      5.8688    107.6640     24.5516
  1695.9000      7.7978      2.5463      0.0495      6.2862    107.0704     24.6205
