~Version Information
VERS.                      2.0: CWLS Log ASCII Standard - VERSION 2.0
WRAP.                       NO: One line per depth step
~Well Information Block
STRT.FT               240.0000: 
STOP.FT               902.0000: 
STEP.FT                 0.1000: 
NULL.                -999.2500: 
COMP.          Pioneer Natural Resources: COMPANY
WELL.          Bienville 31-28: WELL
FLD.           Purgatoire River: FIELD
LOC.           1212' FNL & 2271' FEL: LOCATION
PROV.                 Colorado: PROVINCE
CNTY.               Las Animas: COUNTRY
SRVC.                Patterson: SERVICE COMPANY
DATE.          Mon Jan 16 13:39:21 2006: LOG DATE
UWI.           05 071 08666 00: UNIQUE WELL ID
~Curve Information Block
DEPT.FT            0 000 00 00: Depth
DCAL.in                       : CDL Caliper
RHOB.g/cc                     : CDL Bulk Density
RHOC.g/cc                     : CDL Density Correction
DPOR.pu                       : CDL Density Porosity
GR.GAPI                       : Gamma Ray
NPOR.pu                       : Neutron Porosity
~Parameter Information Block
~A  Depth       DCAL        RHOB        RHOC        DPOR         GR         NPOR    
# ...
   796.8000      7.9136      2.4237     -0.0278     13.7121     78.3212     21.2138
   796.9000      7.9136      2.4235     -0.0151     13.7268     79.2943     21.1483
   797.0000      7.9179      2.4286     -0.0340     13.4154     83.8023     21.1380
   797.1000      7.9179      2.4283      0.0002     13.4357     91.7995     20.7162
   797.2000      7.9179      2.4239     -0.0396     13.7028     98.7686     20.3634
   797.3000      7.9128      2.4311     -0.0164     13.2648     99.9367     20.4430
   797.4000      7.9128      2.4486      0.0261     12.2041     97.0214     20.5897
   797.5000      7.9165      2.4592      0.0445     11.5628     92.8118     20.4783
   797.6000      7.9165      2.4563      0.0519     11.7419     85.9083     20.2205
   797.7000      7.9165      2.4444      0.0101     12.4587     78.4194     19.9685
   797.8000      7.9103      2.4289      0.0151     13.4010     77.1022     19.9237
   797.9000      7.9103      2.4138      0.0139     14.3155     80.7523     20.3453
   798.0000      7.9023      2.4106     -0.0090     14.5084     84.4091     21.0705
   798.1000      7.9023      2.4294     -0.0063     13.3717     87.5681     21.6703
   798.2000      7.9023      2.4496      0.0302     12.1471     89.8925     21.8094
   798.3000      7.9064      2.4378      0.0388     12.8635     89.8186     21.2674
   798.4000      7.9064      2.3995      0.0115     15.1844     87.9739     20.5400
   798.5000      7.9061      2.3716     -0.0640     16.8704     85.9993     20.5690
   798.6000      7.9061      2.3704      0.0046     16.9434     84.8715     21.3275
   798.7000      7.9061      2.3852      0.0121     16.0490     85.6936     21.8237
   798.8000      7.9046      2.4067      0.0188     14.7429     88.1854     21.5025
   798.9000      7.9046      2.4240      0.0457     13.6959     88.9586     20.9129
   799.0000      7.8989      2.4235      0.0756     13.7257     85.0551     20.5433
   799.1000      7.8989      2.4117      0.0110     14.4407     78.8349     20.4262
   799.2000      7.8989      2.4125      0.0180     14.3938     77.3759     20.5990
   799.3000      7.8875      2.4327      0.0227     13.1723     79.9202     20.8554
   799.4000      7.8875      2.4518      0.0707     12.0129     81.2801     20.9699
   799.5000      7.8888      2.4478      0.0768     12.2573     82.9435     21.1677
   799.6000      7.8888      2.4275     -0.0150     13.4860     85.2576     21.4116
   799.7000      7.8888      2.4156      0.0359     14.2086     84.5611     21.3304
   799.8000      7.8741      2.4205      0.0229     13.9088     80.4593     21.1846
   799.9000      7.8741      2.4462     -0.0267     12.3531     75.4948     21.1366
   800.0000      7.8747      2.4899      0.0682      9.7017     74.0070     20.8090
   800.1000      7.8747      2.5179      0.1250      8.0072     78.0339     20.2996
   800.2000      7.8747      2.5077      0.0532      8.6245     83.2870     20.0026
   800.3000      7.8838      2.4837     -0.0007     10.0759     85.1697     19.9518
   800.4000      7.8838      2.4690      0.0595     10.9705     84.4012     20.1078
   800.5000      7.8802      2.4600      0.0358     11.5147     84.4317     20.3695
   800.6000      7.8802      2.4540      0.0202     11.8766     84.2684     20.3596
   800.7000      7.8802      2.4530      0.0415     11.9370     79.8169     19.9365
   800.8000      7.8820      2.4578      0.0251     11.6505     71.5414     19.2731
   800.9000      7.8820      2.4658      0.0334     11.1657     64.2957     18.7662
   801.0000      7.8821      2.4712      0.0112     10.8386     61.1366     18.9229
   801.1000      7.8821      2.4716      0.0136     10.8133     60.3258     19.5532
   801.2000      7.8821      2.4646      0.0859     11.2345     61.3495     19.8062
   801.3000      7.8865      2.4521      0.0014     11.9948     65.8449     19.4587
   801.4000      7.8865      2.4433      0.0169     12.5263     71.7191     19.0800
   801.5000      7.8883      2.4381     -0.0111     12.8426     74.7384     18.9933
   801.6000      7.8883      2.4363     -0.0643     12.9494     74.1886     19.1209
   801.7000      7.8883      2.4371     -0.0036     12.9014     71.4416     19.4156
   801.8000      7.8974      2.4266      0.0074     13.5376     67.1543     19.7622
   801.9000      7.8974      2.4103     -0.0584     14.5259     61.6662     19.8808
   802.0000      7.9211      2.4102      0.0007     14.5347     57.9742     19.5553
   802.1000      7.9211      2.4257      0.0330     13.5916     59.5242     19.0356
   802.2000      7.9211      2.4453      0.0039     12.4056     63.2977     18.7813
   802.3000      7.9148      2.4595      0.0551     11.5456     64.3819     18.9786
   802.4000      7.9148      2.4630      0.0339     11.3318     64.7048     19.4884
   802.5000      7.8965      2.4666      0.0068     11.1178     66.0535     20.0801
   802.6000      7.8965      2.4745      0.0692     10.6347     65.1218     20.7599
   802.7000      7.8965      2.4752      0.0728     10.5938     61.1345     21.5072
   802.8000      7.8983      2.4675      0.0322     11.0634     57.0759     21.8636
   802.9000      7.8983      2.4551      0.0531     11.8137     53.8685     21.6016
   803.0000      7.8853      2.4403     -0.0360     12.7098     51.2310     21.2166
   803.1000      7.8853      2.4369     -0.0052     12.9134     50.1190     21.2883
   803.2000      7.8853      2.4545      0.0050     11.8486     52.0275     21.6543
   803.3000      7.8833      2.4864      0.0369      9.9129     57.0414     21.9148
   803.4000      7.8833      2.5200      0.0611      7.8773     62.0708     21.8899
   803.5000      7.8669      2.5367      0.0815      6.8648     65.0881     21.4172
   803.6000      7.8669      2.5266      0.0545      7.4808     64.1643     20.7349
   803.7000      7.8669      2.5138     -0.0180      8.2541     58.4097     20.0221
   803.8000      7.8877      2.5242      0.0324      7.6241     53.3363     19.0951
   803.9000      7.8877      2.5464      0.0414      6.2817     52.6013     18.2027
   804.0000      7.8675      2.5635      0.0564      5.2430     54.3771     17.6395
   804.1000      7.8675      2.5703      0.0906      4.8303     55.3188     17.1724
   804.2000      7.8675      2.5634      0.0842      5.2495     52.9822     16.8655
   804.3000      7.8544      2.5541      0.0242      5.8144     49.6423     16.9638
   804.4000      7.8544      2.5529      0.0870      5.8831     49.4226     17.1435
   804.5000      7.8460      2.5461      0.1111      6.2970     53.4059     17.1063
   804.6000      7.8460      2.5268      0.0596      7.4677     59.7170     17.0695
   804.7000      7.8460      2.5088      0.0154      8.5600     66.7129     17.0769
   804.8000      7.8550      2.4959      0.0670      9.3396     72.4610     17.0522
   804.9000      7.8550      2.4823      0.0322     10.1609     73.2627     17.2296
   805.0000      7.8650      2.4659      0.0968     11.1577     68.1543     17.6714
   805.1000      7.8650      2.4420      0.0493     12.6085     62.0528     18.0994
   805.2000      7.8650      2.4157      0.0137     14.1997     58.5456     18.4879
   805.3000      7.8633      2.4023      0.0067     15.0143     57.2896     18.9005
   805.4000      7.8633      2.4045      0.0425     14.8808     59.8668     19.1118
   805.5000      7.8722      2.4140      0.0083     14.3015     65.1492     19.0635
   805.6000      7.8722      2.4231      0.0669     13.7531     67.8688     18.9558
   805.7000      7.8722      2.4224      0.0561     13.7936     67.4985     18.9361
   805.8000      7.8858      2.4150      0.0260     14.2448     66.8810     18.9524
   805.9000      7.8858      2.4116      0.0880     14.4493     65.6969     18.9511
   806.0000      7.8724      2.4070      0.0784     14.7278     63.7111     18.9282
   806.1000      7.8724      2.3947      0.0810     15.4707     62.8557     18.8795
   806.2000      7.8724      2.3843      0.0341     16.1017     63.6324     18.9121
   806.3000      7.8683      2.3879      0.0089     15.8870     64.3571     19.0365
