~Version Information
VERS.                      2.0: CWLS Log ASCII Standard - VERSION 2.0
WRAP.                       NO: One line per depth step
~Well Information Block
STRT.FT               645.0000: 
STOP.FT              1320.0000: 
STEP.FT                 0.1000: 
NULL.                -999.2500: 
COMP.          Pioneer Natural Resources: COMPANY
WELL.          Rockfish 11-30 Tr: WELL
FLD.           Purgatoire River: FIELD
LOC.           1063' FNL & 1068' FWL: LOCATION
STAT.                 Colorado: State
CNTY.               Las Animas: COUNTY
CTRY. USA : Country
SECT. 30 : Section
TOWN. 32S : Township
RANG. 65W : Range
SRVC.                Patterson: SERVICE COMPANY
DATE.          Wed Nov 16 07:46:07 2005: LOG DATE
API.           05 071 08585 00: UNIQUE WELL ID
~Curve Information Block
DEPT.FT            0 000 00 00: Depth
DCAL.in                       : CDL Caliper
RHOB.g/cc                     : CDL Bulk Density
RHOC.g/cc                     : CDL Density Correction
DPOR.pu                       : CDL Density Porosity
GR.GAPI                       : Gamma Ray
NPOR.pu                       : Neutron Porosity
~Parameter Information Block
~A  Depth       DCAL        RHOB        RHOC        DPOR         GR         NPOR    
# ...
  1134.6000      7.9344      2.5067      0.0422      8.6869     80.2265     17.4661
  1134.7000      7.9344      2.5123      0.0807      8.3464     82.7071     17.4765
  1134.8000      7.9337      2.5023      0.0641      8.9498     82.3958     18.0201
  1134.9000      7.9337      2.4837      0.0027     10.0770     81.5866     18.6559
  1135.0000      7.9311      2.4744     -0.0108     10.6440     83.9741     18.9712
  1135.1000      7.9311      2.4729      0.0253     10.7357     86.9520     18.9887
  1135.2000      7.9311      2.4646      0.0520     11.2393     86.5550     18.7892
  1135.3000      7.9365      2.4619     -0.0485     11.3999     81.8670     18.4463
  1135.4000      7.9365      2.4864      0.0527      9.9143     77.9661     18.3796
  1135.5000      7.9464      2.5259      0.0329      7.5213     80.5457     18.9441
  1135.6000      7.9464      2.5580      0.0808      5.5786     87.3665     19.7645
  1135.7000      7.9464      2.5708      0.0866      4.8016     92.3883     20.3782
  1135.8000      7.9558      2.5682      0.0330      4.9569     94.1415     20.8131
  1135.9000      7.9558      2.5597      0.0603      5.4713     96.7050     21.0142
  1136.0000      7.9555      2.5471      0.0201      6.2358    100.6466     20.9584
  1136.1000      7.9555      2.5388      0.0154      6.7374    102.5488     20.9481
  1136.2000      7.9555      2.5427      0.0335      6.5010    105.0195     21.2373
  1136.3000      7.9585      2.5437      0.0774      6.4404    110.6982     21.6097
  1136.4000      7.9585      2.5242      0.0534      7.6254    114.1509     21.5447
  1136.5000      7.9282      2.4985      0.0137      9.1834    112.6089     20.9429
  1136.6000      7.9282      2.4920     -0.0034      9.5748    111.1812     20.3221
  1136.7000      7.9282      2.5081      0.0109      8.5984    112.6826     20.1060
  1136.8000      7.9018      2.5277      0.0509      7.4141    113.9884     19.9968
  1136.9000      7.9018      2.5355      0.0727      6.9403    115.0785     19.4923
  1137.0000      7.9104      2.5435      0.0248      6.4572    119.4859     18.7699
  1137.1000      7.9104      2.5553      0.0826      5.7421    123.1768     18.3357
  1137.2000      7.9104      2.5489      0.0659      6.1252    119.2147     18.4203
  1137.3000      7.9298      2.5244     -0.0202      7.6096    110.6879     18.7001
  1137.4000      7.9298      2.5016     -0.0105      8.9925    104.5851     18.6022
  1137.5000      7.9131      2.4866     -0.0227      9.9010    103.9503     18.1919
  1137.6000      7.9131      2.4814      0.0023     10.2206    107.4676     17.8124
  1137.7000      7.9131      2.4887     -0.0086      9.7751    108.3248     17.5403
  1137.8000      7.9189      2.5076      0.0283      8.6320    101.1839     17.5346
  1137.9000      7.9189      2.5291      0.0458      7.3267     89.8654     17.7682
  1138.0000      7.9037      2.5386      0.1012      6.7517     82.7540     18.0274
  1138.1000      7.9037      2.5283      0.0214      7.3768     80.5832     18.2672
  1138.2000      7.9037      2.5036      0.0952      8.8701     79.3780     18.3536
  1138.3000      7.9090      2.4747      0.0216     10.6224     80.4554     18.2140
  1138.4000      7.9090      2.4548     -0.0219     11.8311     83.1524     18.1019
  1138.5000      7.9128      2.4526      0.0093     11.9620     82.9581     18.1243
  1138.6000      7.9128      2.4687     -0.0157     10.9880     79.0459     18.0896
  1138.7000      7.9128      2.4940      0.0344      9.4523     73.7226     17.8985
  1138.8000      7.9084      2.5125      0.0277      8.3304     71.4847     17.5392
  1138.9000      7.9084      2.5110      0.0718      8.4238     75.1715     17.0880
  1139.0000      7.9216      2.4912      0.0366      9.6221     81.6966     16.7439
  1139.1000      7.9216      2.4794      0.0108     10.3368     86.3426     16.7298
  1139.2000      7.9216      2.4926      0.0307      9.5420     86.9575     17.0496
  1139.3000      7.9320      2.5142      0.0147      8.2332     83.3595     17.4050
  1139.4000      7.9320      2.5249      0.0480      7.5792     76.0394     17.5934
  1139.5000      7.9304      2.5201      0.0574      7.8748     70.7575     17.5045
  1139.6000      7.9304      2.4997      0.0529      9.1074     73.5148     17.0648
  1139.7000      7.9304      2.4723     -0.0183     10.7693     78.9781     16.5510
  1139.8000      7.9360      2.4531     -0.0049     11.9311     79.3652     16.5079
  1139.9000      7.9360      2.4472     -0.0556     12.2887     76.2887     16.9307
  1140.0000      7.9498      2.4482      0.0147     12.2326     74.2087     17.3576
  1140.1000      7.9498      2.4533      0.0076     11.9201     73.6813     17.6729
  1140.2000      7.9498      2.4668      0.0407     11.1057     75.3494     17.9678
  1140.3000      7.9537      2.4772      0.0573     10.4703     79.7850     18.1352
  1140.4000      7.9537      2.4709      0.0504     10.8556     83.2884     18.1540
  1140.5000      7.9472      2.4588     -0.0035     11.5887     83.1960     18.1366
  1140.6000      7.9472      2.4579      0.0256     11.6405     80.6899     18.3408
  1140.7000      7.9472      2.4701      0.0324     10.9022     79.1328     18.8921
  1140.8000      7.9391      2.4858      0.0523      9.9503     80.1105     19.3649
  1140.9000      7.9391      2.4909      0.0712      9.6444     80.8405     19.2939
  1141.0000      7.9461      2.4838      0.0445     10.0749     80.3911     18.8128
  1141.1000      7.9461      2.4756      0.0146     10.5691     78.5323     18.3492
  1141.2000      7.9461      2.4738      0.0307     10.6811     75.6618     18.2203
  1141.3000      7.9413      2.4814      0.0025     10.2193     75.5847     18.3672
  1141.4000      7.9413      2.4931      0.0418      9.5118     78.6819     18.4713
  1141.5000      7.9438      2.4887      0.0540      9.7788     79.6487     18.4233
  1141.6000      7.9438      2.4653      0.0105     11.1914     76.8148     18.3456
  1141.7000      7.9438      2.4514     -0.0239     12.0393     74.0349     18.1967
  1141.8000      7.9612      2.4581      0.0677     11.6308     73.0274     17.9704
  1141.9000      7.9612      2.4666      0.0432     11.1143     70.9528     17.7354
  1142.0000      7.9545      2.4641      0.0797     11.2684     69.6639     17.3263
  1142.1000      7.9545      2.4556      0.0642     11.7817     70.8956     16.6852
  1142.2000      7.9545      2.4516      0.0825     12.0265     71.9064     16.1009
  1142.3000      7.9313      2.4488      0.1069     12.1951     73.6832     16.0343
  1142.4000      7.9313      2.4396      0.0741     12.7542     78.1110     16.4555
  1142.5000      7.9251      2.4352      0.0388     13.0166     81.8879     16.5972
  1142.6000      7.9251      2.4471      0.0635     12.2960     83.0454     16.3739
  1142.7000      7.9251      2.4653      0.0885     11.1911     84.9673     16.4667
  1142.8000      7.9290      2.4786      0.0811     10.3893     86.8899     16.6527
  1142.9000      7.9290      2.4848      0.1109     10.0129     83.9561     16.4596
  1143.0000      7.9329      2.4793      0.1126     10.3433     76.3992     16.2172
  1143.1000      7.9329      2.4636      0.0701     11.2968     71.0065     16.2079
  1143.2000      7.9329      2.4547      0.0652     11.8375     70.5530     16.4651
  1143.3000      7.9463      2.4627      0.0567     11.3499     70.9452     16.9725
  1143.4000      7.9463      2.4817      0.0652     10.2000     70.7403     17.5592
  1143.5000      7.9445      2.5054      0.0643      8.7655     71.8786     17.9832
  1143.6000      7.9445      2.5221      0.0985      7.7526     72.8382     18.2065
  1143.7000      7.9445      2.5231      0.0660      7.6880     70.9733     18.3084
  1143.8000      7.9520      2.5276      0.0223      7.4191     69.3509     18.1233
  1143.9000      7.9520      2.5460      0.1049      6.3008     73.4166     17.6114
  1144.0000      7.9498      2.5519      0.1216      5.9461     80.6703     17.2181
  1144.1000      7.9498      2.5326      0.0612      7.1126     82.6904     17.4111
