~Version Information
VERS.                      2.0: CWLS Log ASCII Standard - VERSION 2.0
WRAP.                       NO: One line per depth step
~Well Information Block
STRT.FT               230.2000: 
STOP.FT              1518.7000: 
STEP.FT                 0.1000: 
NULL.                -999.2500: 
COMP.          Pioneer Natural Resources: COMPANY
WELL.          Mow 8-14-33-67 Tr: WELL
FLD.           Purgatoire River: FIELD
LOC.           2258' FNL & 929' FEL: LOCATION
PROV.                 Colorado: PROVINCE
CNTY.               Las Animas: COUNTRY
SRVC.                Patterson: SERVICE COMPANY
DATE.          Mon Jan 30 11:22:55 2006: LOG DATE
UWI.           05 071 08684 00: UNIQUE WELL ID
~Curve Information Block
DEPT.FT            0 000 00 00: Depth
DCAL.in                       : CDL Caliper
DPOR.pu                       : CDL Density Porosity
RHOB.g/cc                     : CDL Bulk Density
RHOC.g/cc                     : CDL Density Correction
GR.GAPI                       : Gamma Ray
~Parameter Information Block
~A  Depth       DCAL        DPOR        RHOB        RHOC         GR     
# ...
   924.6000      7.9348      7.4461      2.5271      0.0406    121.4387
   924.7000      7.9348      8.0301      2.5175      0.0543    126.9221
   924.8000      7.9320      8.6530      2.5072      0.0454    122.3323
   924.9000      7.9320      9.3584      2.4956      0.0417    120.1078
   925.0000      7.9318     10.3491      2.4792      0.0754    135.1580
   925.1000      7.9318     11.3388      2.4629     -0.0300    163.6067
   925.2000      7.9318     11.5973      2.4586      0.0497    187.3875
   925.3000      7.9305     11.7706      2.4558      0.0225    188.0805
   925.4000      7.9305     12.6148      2.4419      0.0404    168.4050
   925.5000      7.9241     13.4558      2.4280      0.0336    151.6548
   925.6000      7.9241     13.1645      2.4328      0.0088    143.8431
   925.7000      7.9241     12.0427      2.4513      0.0821    138.1782
   925.8000      7.9075     11.4803      2.4606      0.0533    133.8993
   925.9000      7.9075     11.3955      2.4620      0.0419    128.3991
   926.0000      7.8862     10.9790      2.4688      0.0820    121.6608
   926.1000      7.8862     10.4601      2.4774      0.0768    120.3832
   926.2000      7.8862     10.2116      2.4815      0.0822    127.8473
   926.3000      7.8749      9.9398      2.4860      0.0786    140.3760
   926.4000      7.8749      9.5431      2.4925      0.1009    151.6302
   926.5000      7.8725      9.5531      2.4924      0.1077    153.4426
   926.6000      7.8725     10.3527      2.4792      0.0807    153.0470
   926.7000      7.8725     11.3939      2.4620      0.0598    159.1350
   926.8000      7.8736     11.6624      2.4576      0.0399    156.0764
   926.9000      7.8736     11.0073      2.4684      0.0521    141.1368
   927.0000      7.8796     10.1913      2.4818      0.0598    134.0730
   927.1000      7.8796      9.8566      2.4874      0.0628    138.4900
   927.2000      7.8796      9.9737      2.4854      0.0217    142.2624
   927.3000      7.8951      9.6192      2.4913      0.0068    132.1643
   927.4000      7.8951      8.1726      2.5152      0.0516    111.2846
   927.5000      7.9071      6.6325      2.5406      0.0879    101.6877
   927.6000      7.9071      6.1447      2.5486      0.0558    115.7475
   927.7000      7.9071      6.2541      2.5468      0.1029    142.9989
   927.8000      7.9087      5.8650      2.5532      0.0327    159.7890
   927.9000      7.9087      4.9303      2.5687      0.1084    155.6957
   928.0000      7.9131      4.6937      2.5726      0.1123    136.6390
   928.1000      7.9131      6.0022      2.5510      0.0561    119.1205
   928.2000      7.9131      8.4443      2.5107      0.0410    117.1670
   928.3000      7.9194     10.8662      2.4707      0.0013    121.1742
   928.4000      7.9194     11.9708      2.4525      0.0257    120.5119
   928.5000      7.9171     11.6030      2.4585      0.0251    124.9788
   928.6000      7.9171     10.6485      2.4743      0.0410    138.9232
   928.7000      7.9171      9.7884      2.4885      0.0925    153.5822
   928.8000      7.9129      9.2560      2.4973      0.0501    158.7642
   928.9000      7.9129      8.9811      2.5018      0.1111    155.3046
   929.0000      7.9113      8.8278      2.5043      0.0737    150.1295
   929.1000      7.9113      8.6326      2.5076      0.0832    145.3674
   929.2000      7.9113      8.3712      2.5119      0.0768    145.6565
   929.3000      7.9125      7.9045      2.5196      0.0678    148.1678
   929.4000      7.9125      7.2271      2.5308      0.1121    147.6035
   929.5000      7.9193      6.7286      2.5390      0.1005    143.6061
   929.6000      7.9193      6.5146      2.5425      0.0760    140.2868
   929.7000      7.9193      6.6086      2.5410      0.0949    142.3381
   929.8000      7.9227      7.0294      2.5340      0.0989    148.3976
   929.9000      7.9227      7.3403      2.5289      0.0558    157.2019
   930.0000      7.9173      7.1707      2.5317      0.0615    166.6067
   930.1000      7.9173      6.8647      2.5367      0.0856    171.5484
   930.2000      7.9173      6.6361      2.5405      0.0500    165.8998
   930.3000      7.9093      6.1791      2.5480      0.0775    152.7863
   930.4000      7.9093      5.5915      2.5577      0.0610    141.6321
   930.5000      7.9086      5.0255      2.5671      0.0519    141.2479
   930.6000      7.9086      4.4968      2.5758      0.0694    150.9645
   930.7000      7.9086      4.2530      2.5798      0.0713    155.8401
   930.8000      7.9086      4.3949      2.5775      0.0913    149.1806
   930.9000      7.9086      4.8284      2.5703      0.0686    142.3711
   931.0000      7.9057      5.3999      2.5609      0.0650    144.4469
   931.1000      7.9057      6.1812      2.5480      0.0683    154.6314
   931.2000      7.9057      7.3943      2.5280      0.0396    167.9446
   931.3000      7.9161      8.5646      2.5087      0.0220    174.2584
   931.4000      7.9161      8.7096      2.5063     -0.0035    171.8396
   931.5000      7.9332      7.4612      2.5269      0.0403    170.3491
   931.6000      7.9332      5.8293      2.5538      0.0467    174.9856
   931.7000      7.9332      5.4327      2.5604      0.1036    184.9720
   931.8000      7.9404      6.6087      2.5410      0.0345    190.1411
   931.9000      7.9404      8.1068      2.5162      0.0575    185.7011
   932.0000      7.9326      8.9518      2.5023      0.0531    177.7534
   932.1000      7.9326      9.6112      2.4914      0.0821    159.1404
   932.2000      7.9326     10.4896      2.4769      0.0308    131.0482
   932.3000      7.9193     10.7466      2.4727     -0.0057    114.2846
   932.4000      7.9193      9.8741      2.4871      0.0287    122.5335
   932.5000      7.9093      8.6353      2.5075      0.0853    141.7998
   932.6000      7.9093      7.9450      2.5189      0.0621    152.3631
   932.7000      7.9093      7.6377      2.5240      0.0518    152.7220
   932.8000      7.8968      7.0412      2.5338      0.0586    150.4132
   932.9000      7.8968      6.2702      2.5465      0.1033    156.3824
   933.0000      7.8834      5.9482      2.5519      0.0881    172.9582
   933.1000      7.8834      6.2239      2.5473      0.0918    190.0346
   933.2000      7.8834      6.8018      2.5378      0.0754    196.0354
   933.3000      7.8796      7.5366      2.5256      0.0919    182.3813
   933.4000      7.8796      8.6140      2.5079      0.0337    155.4330
   933.5000      7.8824      9.6199      2.4913      0.0456    136.0501
   933.6000      7.8824      9.8732      2.4871      0.0228    137.6845
   933.7000      7.8824      9.2124      2.4980      0.0246    149.4878
   933.8000      7.8887      7.6227      2.5242      0.0570    151.1995
   933.9000      7.8887      4.9991      2.5675      0.0660    143.9942
   934.0000      7.8999      2.1082      2.6152      0.1152    143.1962
   934.1000      7.8999     -0.2224      2.6537      0.0746    154.7336
   934.2000      7.8999     -2.6746      2.6941      0.1131    164.5387
   934.3000      7.9111     -5.3468      2.7382      0.1486    154.3485
   934.4000      7.9111     -6.8435      2.7629      0.1288    129.6309
   934.5000      7.9185     -6.7089      2.7607      0.1096    108.8375
   934.6000      7.9185     -6.0151      2.7492      0.0849     99.2558
   934.7000      7.9185     -5.7547      2.7450      0.0625     98.3999
   934.8000      7.9217     -5.9406      2.7480      0.0339     99.2128
   934.9000      7.9217     -5.9904      2.7488      0.0709    100.9306
   935.0000      7.9174     -5.2378      2.7364      0.0870    108.0994
   935.1000      7.9174     -3.6984      2.7110      0.0482    112.8097
   935.2000      7.9174     -2.2139      2.6865      0.0404    104.6276
   935.3000      7.9057     -1.2903      2.6713      0.0600     90.7397
   935.4000      7.9057     -1.1357      2.6687      0.0033     82.1597
   935.5000      7.8911     -1.8868      2.6811      0.0418     80.2585
   935.6000      7.8911     -2.3056      2.6880      0.0509     85.6733
   935.7000      7.8911     -0.8484      2.6640      0.0229     98.4078
