~Version Information
VERS.                      2.0: CWLS Log ASCII Standard - VERSION 2.0
WRAP.                       NO: One line per depth step
~Well Information Block
STRT.FT               400.0000: 
STOP.FT              1577.5000: 
STEP.FT                 0.1000: 
NULL.                -999.2500: 
COMP.          Pioneer Natural Resources: COMPANY
WELL.          Lorencito 10-36-33-67: WELL
FLD.           Purgatoire River: FIELD
LOC.           2130' FSL & 2362' FEL: LOCATION
STAT.                 Colorado: State
CNTY.               Las Animas: COUNTY
CTRY. USA : Country
SECT. 36 : Section
TOWN. 33S : Township
RANG. 67W : Range
SRVC.                Patterson: SERVICE COMPANY
DATE.          Mon Aug 29 07:03:31 2005: LOG DATE
API.           05 071 08501 00: UNIQUE WELL ID
~Curve Information Block
DEPT.FT            0 000 00 00: Depth
DCAL.in                       : CDL Caliper
RHOB.g/cc                     : CDL Bulk Density
RHOC.g/cc                     : CDL Density Correction
DPOR.pu                       : CDL Density Porosity
GR.GAPI                       : Gamma Ray
NPOR.pu                       : Neutron Porosity
~Parameter Information Block
~A  Depth       DCAL        RHOB        RHOC        DPOR         GR         NPOR    
# ...
   630.4000      8.3394      2.4190     -0.0135     13.9993    193.5622     23.8129
   630.5000      8.2444      2.3859     -0.0273     16.0040    187.8981     23.8448
   630.6000      8.2444      2.3845     -0.0445     16.0901    178.6423     23.8755
   630.7000      8.2444      2.4095      0.0195     14.5762    172.4380     24.1582
   630.8000      8.2223      2.4298      0.0648     13.3465    172.3819     24.6026
   630.9000      8.2223      2.4254      0.0068     13.6142    178.2430     24.8225
   631.0000      8.2272      2.4158     -0.0070     14.1915    189.4982     24.7272
   631.1000      8.2272      2.4200      0.0106     13.9395    198.7576     24.8309
   631.2000      8.2272      2.4335      0.0466     13.1211    197.5826     25.2844
   631.3000      8.1860      2.4522      0.0822     11.9853    191.5058     25.4465
   631.4000      8.1860      2.4747      0.1427     10.6222    194.1410     25.1427
   631.5000      8.1893      2.4981      0.0724      9.2047    200.9396     24.8682
   631.6000      8.1893      2.5208      0.0994      7.8282    198.5965     25.0759
   631.7000      8.1893      2.5295      0.1022      7.3044    192.2071     25.8902
   631.8000      8.2048      2.5179      0.0804      8.0042    189.3964     26.6440
   631.9000      8.2048      2.5009      0.0617      9.0348    185.6066     26.7192
   632.0000      8.1479      2.4894      0.0706      9.7356    177.7218     26.5633
   632.1000      8.1479      2.4849      0.0273     10.0036    168.4580     26.6800
   632.2000      8.1479      2.4903      0.0434      9.6817    157.3782     26.9106
   632.3000      8.1499      2.5030      0.0597      8.9065    145.0596     27.1434
   632.4000      8.1499      2.5136      0.0555      8.2689    140.1491     27.5515
   632.5000      8.1465      2.5146      0.0286      8.2084    143.7429     28.0712
   632.6000      8.1465      2.5225     -0.0471      7.7261    146.2741     28.2942
   632.7000      8.1465      2.5602      0.0501      5.4436    143.6856     28.0334
   632.8000      8.1371      2.6092      0.1113      2.4736    139.0744     27.6678
   632.9000      8.1371      2.6406      0.0914      0.5694    136.0448     27.5818
   633.0000      8.1246      2.6527      0.0642     -0.1608    135.1337     27.6998
   633.1000      8.1246      2.6479      0.1367      0.1262    135.2024     27.5125
   633.2000      8.1246      2.6210      0.0899      1.7599    135.7354     26.8257
   633.3000      8.0867      2.5731      0.0945      4.6584    136.9486     25.9970
   633.4000      8.0867      2.5197     -0.0297      7.8989    138.4177     25.3266
   633.5000      8.0416      2.4858     -0.0156      9.9500    137.2250     25.0808
   633.6000      8.0416      2.4825      0.0290     10.1538    130.9929     25.2086
   633.7000      8.0416      2.5021      0.0314      8.9621    123.7182     25.3338
   633.8000      8.0165      2.5362      0.0299      6.8982    119.4952     25.4290
   633.9000      8.0165      2.5796      0.0944      4.2675    115.1711     25.7330
   634.0000      8.0379      2.6250      0.1139      1.5122    109.6447     26.0688
   634.1000      8.0379      2.6570      0.1924     -0.4262    107.8744     26.1376
   634.2000      8.0379      2.6579      0.2040     -0.4782    108.8926     25.9477
   634.3000      8.0067      2.6381      0.1353      0.7187    108.4012     25.5390
   634.4000      8.0067      2.6309      0.0807      1.1557    106.5065     25.0602
   634.5000      8.0136      2.6374      0.1156      0.7649    105.0569     24.6697
   634.6000      8.0136      2.6265      0.1242      1.4250    102.7622     24.3089
   634.7000      8.0136      2.5885      0.0255      3.7256     99.1539     24.0280
   634.8000      8.0309      2.5447     -0.0113      6.3827     98.6273     24.0524
   634.9000      8.0309      2.5204     -0.0079      7.8567    103.1678     24.3785
   635.0000      8.0679      2.5282     -0.0230      7.3819    110.2094     24.5683
   635.1000      8.0679      2.5551     -0.0009      5.7510    118.2639     24.4724
   635.2000      8.0679      2.5732      0.0548      4.6561    128.0340     24.4577
   635.3000      8.0546      2.5744      0.0529      4.5842    138.6417     24.4603
   635.4000      8.0546      2.5709      0.0147      4.7953    147.8202     24.1718
   635.5000      8.0558      2.5696     -0.0113      4.8709    151.9844     23.7833
   635.6000      8.0558      2.5685      0.0060      4.9368    147.2007     23.6857
   635.7000      8.0558      2.5773     -0.0368      4.4040    139.7382     23.9361
   635.8000      8.1160      2.6100      0.0136      2.4244    139.3260     24.2933
   635.9000      8.1160      2.6461      0.0525      0.2365    142.9254     24.5659
   636.0000      8.1251      2.6451      0.0719      0.2941    144.4518     24.7184
   636.1000      8.1251      2.6057     -0.0466      2.6852    145.2366     24.9921
   636.2000      8.1251      2.5634     -0.0188      5.2465    146.2145     25.4246
   636.3000      8.1421      2.5326     -0.0220      7.1131    145.1715     25.4625
   636.4000      8.1421      2.5095     -0.0698      8.5126    141.7027     24.9452
   636.5000      8.1471      2.4957     -0.0452      9.3492    139.0952     24.4365
   636.6000      8.1471      2.4847     -0.0121     10.0161    138.7100     24.3798
   636.7000      8.1471      2.4709     -0.0846     10.8522    136.6524     24.6771
   636.8000      8.1615      2.4666     -0.0417     11.1178    129.7009     25.1315
   636.9000      8.1615      2.4745     -0.0169     10.6373    119.8210     25.4736
   637.0000      8.2207      2.4825     -0.0244     10.1487    110.1362     25.3441
   637.1000      8.2207      2.4904     -0.0167      9.6748    106.2147     24.9597
   637.2000      8.2207      2.5103     -0.0819      8.4695    110.1434     24.6911
   637.3000      8.2520      2.5438      0.0131      6.4349    116.1041     24.3612
   637.4000      8.2520      2.5776      0.0509      4.3890    116.9435     23.9668
   637.5000      8.2538      2.6005      0.1400      3.0014    110.0572     23.7586
   637.6000      8.2538      2.6077      0.0746      2.5655    102.7448     23.5463
   637.7000      8.2538      2.6019      0.0932      2.9163    102.9934     23.3467
   637.8000      8.1404      2.5921      0.0652      3.5088    106.8787     23.5006
   637.9000      8.1404      2.5888      0.0186      3.7076    107.6257     23.9074
   638.0000      8.0626      2.5942     -0.0068      3.3794    104.1966     24.1693
   638.1000      8.0626      2.6005     -0.0320      3.0005     98.7428     24.0164
   638.2000      8.0626      2.5985     -0.0282      3.1187     94.1070     23.5089
   638.3000      8.0781      2.5864     -0.0282      3.8555     92.2013     23.1105
   638.4000      8.0781      2.5747     -0.0021      4.5635     93.3778     23.1780
   638.5000      8.0743      2.5819     -0.0522      4.1257     95.9917     23.5724
   638.6000      8.0743      2.6126      0.0103      2.2684     98.3659     23.8150
   638.7000      8.0743      2.6359     -0.0045      0.8539    101.3214     23.5508
   638.8000      8.1035      2.6207     -0.0266      1.7759    105.7621     22.8554
   638.9000      8.1035      2.5758     -0.0503      4.4955    110.1222     22.2482
   639.0000      8.0950      2.5285      0.0080      7.3664    111.2154     22.1960
   639.1000      8.0950      2.4943     -0.0551      9.4364    110.2774     22.5863
   639.2000      8.0950      2.4740     -0.0517     10.6676    112.4342     23.0194
   639.3000      8.0559      2.4509     -0.0754     12.0659    117.5680     23.0321
   639.4000      8.0559      2.4181     -0.0677     14.0541    122.9342     22.5130
   639.5000      8.0601      2.3955     -0.0747     15.4236    130.3732     22.1438
   639.6000      8.0601      2.4059     -0.0594     14.7932    141.3184     22.4618
   639.7000      8.0601      2.4555     -0.0128     11.7875    153.3098     23.2301
   639.8000      8.0608      2.5290      0.0890      7.3345    164.5592     23.8274
   639.9000      8.0608      2.5966      0.1911      3.2361    175.0913     24.0641
