~Version Information
VERS.                      2.0: CWLS Log ASCII Standard - VERSION 2.0
WRAP.                       NO: One line per depth step
~Well Information Block
STRT.FT               196.3000: 
STOP.FT              1631.0000: 
STEP.FT                 0.1000: 
NULL.                -999.2500: 
COMP.          Petrogulf Corporation: COMPANY
WELL.             State 16-44R: WELL
FLD.           Purgatoire River: FIELD
LOC.           632' FSL & 223' FEL--: LOCATION
PROV.                 Colorado: PROVINCE
CNTY.               Las Animas: COUNTRY
SRVC.                Patterson: SERVICE COMPANY
DATE.          Fri Oct 21 14:20:18 2005: LOG DATE
UWI.           05 071 08457 00: UNIQUE WELL ID
~Curve Information Block
DEPT.FT            0 000 00 00: Depth
DCAL.in                       : CDL Caliper
RHOB.g/cc                     : CDL Bulk Density
RHOC.g/cc                     : CDL Density Correction
DPOR.pu                       : CDL Density Porosity
NPOR.pu                       : Neutron Porosity
GR.GAPI                       : Gamma Ray
~Parameter Information Block
~A  Depth       DCAL        RHOB        RHOC        DPOR        NPOR         GR     
# ...
   301.9000      8.1562      2.4589      0.0258     11.5816     16.4751     80.1489
   302.0000      8.1552      2.4584      0.0303     11.6118     16.2567     71.6042
   302.1000      8.1552      2.4558      0.0196     11.7677     15.5398     60.8564
   302.2000      8.1552      2.4562     -0.0018     11.7444     14.9296     54.7510
   302.3000      8.1543      2.4570      0.0404     11.6995     14.7901     53.8692
   302.4000      8.1543      2.4533      0.0309     11.9236     14.9451     56.6179
   302.5000      8.1539      2.4553      0.0476     11.8030     15.0926     62.9985
   302.6000      8.1539      2.4673      0.0743     11.0715     15.0066     70.1738
   302.7000      8.1539      2.4763      0.0849     10.5265     14.7854     72.1242
   302.8000      8.1523      2.4716      0.0616     10.8151     14.3685     67.1274
   302.9000      8.1523      2.4600      0.0399     11.5132     13.7559     61.4104
   303.0000      8.1511      2.4547      0.0759     11.8340     13.2592     62.0146
   303.1000      8.1511      2.4576      0.0544     11.6591     12.8461     66.0532
   303.2000      8.1511      2.4638      0.0442     11.2844     12.3732     67.5673
   303.3000      8.1509      2.4680      0.0394     11.0289     12.0641     67.0971
   303.4000      8.1509      2.4661      0.0436     11.1474     12.0624     65.4092
   303.5000      8.1507      2.4583      0.0507     11.6161     12.2537     63.0508
   303.6000      8.1507      2.4517      0.0294     12.0159     12.4376     62.1219
   303.7000      8.1507      2.4576      0.0058     11.6585     12.4548     62.2808
   303.8000      8.1515      2.4752      0.0352     10.5922     12.3294     61.7360
   303.9000      8.1515      2.4843      0.0650     10.0411     12.1296     59.7890
   304.0000      8.1548      2.4720      0.0430     10.7876     12.0781     57.6043
   304.1000      8.1548      2.4454      0.0675     12.4004     12.3513     56.4910
   304.2000      8.1548      2.4165     -0.0087     14.1486     12.7104     55.8967
   304.3000      8.1579      2.3937      0.0250     15.5335     12.8472     53.7357
   304.4000      8.1579      2.3841     -0.0375     16.1123     12.9227     50.4646
   304.5000      8.1581      2.3941      0.0098     15.5101     13.0916     49.5755
   304.6000      8.1581      2.4150      0.0227     14.2399     12.9741     52.1958
   304.7000      8.1581      2.4352      0.0394     13.0154     12.4720     55.5415
   304.8000      8.1573      2.4498      0.0791     12.1340     12.0233     56.8401
   304.9000      8.1573      2.4546      0.0593     11.8449     11.9560     57.1956
   305.0000      8.1571      2.4536      0.0467     11.9015     12.2465     58.6337
   305.1000      8.1571      2.4624      0.0255     11.3707     12.6023     58.2342
   305.2000      8.1571      2.4843      0.0701     10.0435     12.9629     53.8956
   305.3000      8.1552      2.5008      0.1000      9.0400     13.4594     51.3708
   305.4000      8.1552      2.5016      0.0929      8.9949     14.0175     53.3215
   305.5000      8.1532      2.4950      0.0681      9.3957     14.5367     54.3124
   305.6000      8.1532      2.4904      0.0430      9.6720     14.7611     53.1420
   305.7000      8.1532      2.4899      0.0491      9.7014     14.4586     53.2358
   305.8000      8.1540      2.4902      0.0435      9.6870     14.0758     53.1675
   305.9000      8.1540      2.4872      0.0466      9.8688     14.3304     52.1581
   306.0000      8.1560      2.4790      0.0284     10.3623     15.2422     54.7094
   306.1000      8.1560      2.4719     -0.0034     10.7935     16.0928     60.5119
   306.2000      8.1560      2.4703      0.0430     10.8929     16.2717     63.8750
   306.3000      8.1553      2.4619      0.0080     11.3979     15.7931     63.9205
   306.4000      8.1553      2.4392     -0.0129     12.7754     15.0676     61.8787
   306.5000      8.1535      2.4197     -0.0406     13.9576     14.4340     57.1597
   306.6000      8.1535      2.4204      0.0176     13.9166     13.7868     52.3192
   306.7000      8.1535      2.4272      0.0493     13.5028     13.1732     50.5340
   306.8000      8.1550      2.4231      0.0586     13.7519     12.8164     50.5171
   306.9000      8.1550      2.4130      0.0477     14.3613     12.3906     51.3360
   307.0000      8.1573      2.4091      0.0369     14.6022     11.7537     53.1707
   307.1000      8.1573      2.4183      0.0548     14.0447     11.2329     53.7909
   307.2000      8.1573      2.4367      0.0688     12.9302     10.9069     53.6417
   307.3000      8.1566      2.4511      0.0847     12.0551     10.6599     57.3819
   307.4000      8.1566      2.4558      0.0831     11.7712     10.6346     63.0140
   307.5000      8.1520      2.4601      0.0259     11.5068     10.8847     63.2204
   307.6000      8.1520      2.4661      0.0921     11.1479     10.9978     58.3068
   307.7000      8.1520      2.4598      0.0613     11.5259     10.8525     53.9123
   307.8000      8.1434      2.4421      0.0452     12.5991     10.8010     53.8815
   307.9000      8.1434      2.4288      0.0183     13.4065     11.0063     56.4578
   308.0000      8.1354      2.4251      0.0237     13.6320     11.3605     56.4641
   308.1000      8.1354      2.4248      0.0227     13.6485     11.5235     52.7472
   308.2000      8.1354      2.4276      0.0460     13.4765     11.3873     49.9706
   308.3000      8.1319      2.4327      0.0517     13.1700     11.1856     51.3736
   308.4000      8.1319      2.4234      0.0718     13.7333     11.1162     54.6571
   308.5000      8.1307      2.3981     -0.0024     15.2687     11.3452     56.7442
   308.6000      8.1307      2.3903     -0.0063     15.7379     11.8113     57.1490
   308.7000      8.1307      2.4196      0.0292     13.9662     12.2213     56.2092
   308.8000      8.1303      2.4622      0.0795     11.3794     12.4432     55.6617
   308.9000      8.1303      2.4917      0.0696      9.5927     12.5944     57.6842
   309.0000      8.1299      2.5038      0.0823      8.8614     12.9500     60.6962
   309.1000      8.1299      2.5006      0.0744      9.0563     13.5798     61.0039
   309.2000      8.1299      2.4876      0.0222      9.8402     14.0958     59.9115
   309.3000      8.1299      2.4746      0.0393     10.6318     14.3532     61.7140
   309.4000      8.1299      2.4634      0.0431     11.3067     14.4923     65.4817
   309.5000      8.1294      2.4537      0.0044     11.8941     14.4702     66.3509
   309.6000      8.1294      2.4461      0.0117     12.3560     14.3780     62.4051
   309.7000      8.1294      2.4350      0.0249     13.0332     14.4449     57.2075
   309.8000      8.1272      2.4219     -0.0720     13.8220     14.5782     53.9069
   309.9000      8.1272      2.4172      0.0120     14.1111     14.5090     51.5295
   310.0000      8.1259      2.4173      0.0114     14.1020     14.1529     49.7472
   310.1000      8.1259      2.4196     -0.0255     13.9658     13.4741     49.7424
   310.2000      8.1259      2.4237      0.0368     13.7154     12.6200     51.5150
   310.3000      8.1268      2.4179      0.0565     14.0679     11.9016     54.0383
   310.4000      8.1268      2.4025      0.0150     14.9979     11.3443     55.3130
   310.5000      8.1278      2.3934      0.0192     15.5487     11.0307     55.2706
   310.6000      8.1278      2.3931      0.0262     15.5696     11.0373     55.0718
   310.7000      8.1278      2.3926      0.0320     15.5972     11.1454     54.3228
   310.8000      8.1300      2.3874      0.0587     15.9127     11.3912     53.6321
   310.9000      8.1300      2.3839      0.0128     16.1289     11.6594     53.9601
   311.0000      8.1332      2.3916      0.0307     15.6621     11.5538     55.0459
   311.1000      8.1332      2.4031      0.0375     14.9656     11.3399     56.0189
   311.2000      8.1332      2.4061      0.0666     14.7810     11.3034     56.1338
   311.3000      8.1347      2.4103     -0.0149     14.5276     11.1494     55.5721
   311.4000      8.1347      2.4271      0.0698     13.5111     11.0533     54.5858
