~Version Information
VERS.                      2.0: CWLS Log ASCII Standard - VERSION 2.0
WRAP.                       NO: One line per depth step
~Well Information Block
STRT.FT               305.0000: 
STOP.FT              1376.5000: 
STEP.FT                 0.1000: 
NULL.                -999.2500: 
COMP.          Pioneer Natural Resources: COMPANY
WELL.               LPGC 32-32: WELL
FLD.           Purgatoire River: FIELD
LOC.           1937' FNL & 1661' FEL: LOCATION
PROV.                 Colorado: PROVINCE
CNTY.               Las Animas: COUNTRY
SRVC.                Patterson: SERVICE COMPANY
DATE.          Mon Jan 30 07:33:36 2006: LOG DATE
UWI.           05 071 08641 00: UNIQUE WELL ID
~Curve Information Block
DEPT.FT            0 000 00 00: Depth
DCAL.in                       : CDL Caliper
RHOB.g/cc                     : CDL Bulk Density
RHOC.g/cc                     : CDL Density Correction
DPOR.pu                       : CDL Density Porosity
GR.GAPI                       : Gamma Ray
NPOR.pu                       : Neutron Porosity
~Parameter Information Block
~A  Depth       DCAL        RHOB        RHOC        DPOR         GR         NPOR    
# ...
   871.4000      7.9694      2.5579      0.0901      5.5815    153.0880     26.3387
   871.5000      7.9567      2.6204      0.1723      1.7923    149.4869     25.8420
   871.6000      7.9567      2.6835      0.2046     -2.0316    144.1137     25.3374
   871.7000      7.9567      2.7190      0.2896     -4.1845    143.1756     25.3684
   871.8000      7.9352      2.7101      0.2549     -3.6429    147.6079     25.9609
   871.9000      7.9352      2.6788      0.1304     -1.7431    149.0571     26.6432
   872.0000      7.9322      2.6596      0.1313     -0.5835    141.1214     26.8771
   872.1000      7.9322      2.6567      0.1169     -0.4048    128.8087     26.5302
   872.2000      7.9322      2.6533      0.0575     -0.1996    118.9894     25.8624
   872.3000      7.9323      2.6395      0.0956      0.6348    117.4089     25.2767
   872.4000      7.9323      2.6216     -0.0035      1.7184    125.1032     25.0317
   872.5000      7.9293      2.6146      0.0238      2.1458    132.9595     25.0656
   872.6000      7.9293      2.6145      0.0438      2.1488    132.8285     25.1360
   872.7000      7.9293      2.6108     -0.0054      2.3779    127.6418     25.0218
   872.8000      7.9451      2.6103      0.0206      2.4085    127.1318     24.8393
   872.9000      7.9451      2.6121      0.0526      2.2980    133.6059     24.6544
   873.0000      7.9545      2.6031      0.0051      2.8454    140.5164     24.3837
   873.1000      7.9545      2.5818      0.0294      4.1357    144.5447     24.1201
   873.2000      7.9545      2.5537      0.0287      5.8342    145.5048     24.1352
   873.3000      7.9771      2.5272     -0.0110      7.4413    143.6734     24.5241
   873.4000      7.9771      2.5200     -0.0545      7.8803    143.1566     24.9725
   873.5000      7.9880      2.5413      0.0165      6.5889    146.3257     24.9517
   873.6000      7.9880      2.5742      0.0302      4.5959    147.7743     24.3234
   873.7000      7.9880      2.5956      0.0485      3.2973    143.2579     23.7508
   873.8000      7.9869      2.5982      0.0540      3.1408    140.3947     23.7760
   873.9000      7.9869      2.5915      0.0261      3.5447    144.9582     24.1904
   874.0000      8.0123      2.5924      0.0330      3.4931    153.2529     24.6574
   874.1000      8.0123      2.6034      0.0419      2.8213    158.0146     25.0552
   874.2000      8.0123      2.6131      0.0324      2.2345    157.5324     25.2240
   874.3000      8.0226      2.6159      0.0343      2.0637    160.5310     25.2925
   874.4000      8.0226      2.6130      0.0766      2.2420    166.9764     25.5142
   874.5000      8.0204      2.6036      0.0077      2.8133    168.7414     25.6225
   874.6000      8.0204      2.5833      0.0546      4.0448    164.4780     25.3681
   874.7000      8.0204      2.5526      0.0155      5.9013    155.5851     25.0491
   874.8000      8.0273      2.5376     -0.0331      6.8151    144.6994     24.8584
   874.9000      8.0273      2.5557      0.0384      5.7131    136.2419     24.5121
   875.0000      7.9904      2.5878      0.0299      3.7705    132.3445     24.1126
   875.1000      7.9904      2.6084      0.0695      2.5216    129.1785     24.0587
   875.2000      7.9904      2.6053      0.0723      2.7092    122.9349     24.2339
   875.3000      7.9407      2.5863      0.0214      3.8620    115.2087     24.2519
   875.4000      7.9407      2.5719     -0.0157      4.7357    109.7413     23.9076
   875.5000      7.9360      2.5705      0.0320      4.8187    107.0810     23.3294
   875.6000      7.9360      2.5796     -0.0099      4.2676    102.1532     22.7562
   875.7000      7.9360      2.5902      0.0884      3.6267     90.9322     22.2705
   875.8000      7.9334      2.5844      0.0503      3.9761     77.0042     21.9439
   875.9000      7.9334      2.5701     -0.0192      4.8452     67.8717     21.6423
   876.0000      7.9286      2.5686      0.0176      4.9348     65.5820     21.1183
   876.1000      7.9286      2.5720      0.0164      4.7265     65.4431     20.4113
   876.2000      7.9286      2.5730      0.0235      4.6665     65.2944     19.7192
   876.3000      7.9259      2.5796      0.0154      4.2640     64.4899     19.3474
   876.4000      7.9259      2.5927      0.0627      3.4757     60.5855     19.3682
   876.5000      7.9178      2.6138      0.0474      2.1929     55.8808     19.3259
   876.6000      7.9178      2.6443      0.0502      0.3430     54.9701     18.8752
   876.7000      7.9178      2.6710      0.1186     -1.2731     56.2281     18.4502
   876.8000      7.9192      2.6817      0.0488     -1.9211     56.5769     18.4495
   876.9000      7.9192      2.6754      0.0975     -1.5399     58.3654     18.5568
   877.0000      7.9148      2.6509      0.0887     -0.0568     64.5038     18.5929
   877.1000      7.9148      2.6159      0.0468      2.0685     70.3233     18.8042
   877.2000      7.9148      2.5876      0.0428      3.7798     72.9629     19.1620
   877.3000      7.9104      2.5675      0.0320      5.0015     78.1737     19.3999
   877.4000      7.9104      2.5415      0.0572      6.5728     84.9072     19.4676
   877.5000      7.9053      2.5069      0.0088      8.6719     86.7602     19.7125
   877.6000      7.9053      2.4813     -0.0231     10.2265     84.5823     20.2439
   877.7000      7.9053      2.4801     -0.0141     10.2941     82.8877     20.5193
   877.8000      7.9073      2.5026     -0.0279      8.9322     82.2722     20.4746
   877.9000      7.9073      2.5424      0.0046      6.5193     80.5961     20.4961
   878.0000      7.9208      2.5801      0.0450      4.2363     78.3912     20.5734
   878.1000      7.9208      2.5926      0.0363      3.4797     78.0936     20.4888
   878.2000      7.9208      2.5858      0.0131      3.8882     82.2064     20.1484
   878.3000      7.9480      2.5808      0.0260      4.1911     89.8218     19.7193
   878.4000      7.9480      2.5787      0.0451      4.3220     93.1561     19.4294
   878.5000      7.9465      2.5708      0.0251      4.8000     87.0508     19.3543
   878.6000      7.9465      2.5631     -0.0170      5.2675     77.0235     19.4114
   878.7000      7.9465      2.5577      0.0542      5.5916     71.1007     19.3336
   878.8000      7.9466      2.5408      0.0440      6.6186     70.1227     19.0379
   878.9000      7.9466      2.5161     -0.0261      8.1124     71.5407     18.8740
   879.0000      7.9665      2.4987      0.0397      9.1711     73.5688     19.1315
   879.1000      7.9665      2.4844      0.0465     10.0336     74.7853     19.4402
   879.2000      7.9665      2.4764     -0.0309     10.5241     74.5480     19.2420
   879.3000      7.9547      2.4820      0.0543     10.1809     74.5987     18.5920
   879.4000      7.9547      2.4857      0.0502      9.9603     74.5844     18.0313
   879.5000      7.9756      2.4788     -0.0016     10.3773     70.7374     17.9420
   879.6000      7.9756      2.4673      0.0154     11.0702     63.8437     18.1356
   879.7000      7.9756      2.4516      0.0192     12.0270     60.2734     18.1784
   879.8000      7.9654      2.4463     -0.0509     12.3425     60.8845     18.0053
   879.9000      7.9654      2.4689      0.0153     10.9772     61.3578     17.6626
   880.0000      7.9445      2.5007      0.0585      9.0470     60.4234     17.0786
   880.1000      7.9445      2.5182      0.0550      7.9895     58.9276     16.4676
   880.2000      7.9445      2.5271      0.0416      7.4473     56.6020     16.1913
   880.3000      7.9299      2.5391      0.0512      6.7182     54.0141     16.4017
   880.4000      7.9299      2.5454      0.0986      6.3372     52.8063     16.7549
   880.5000      7.9371      2.5391      0.0509      6.7229     51.6018     16.6292
   880.6000      7.9371      2.5308      0.1105      7.2253     49.1500     16.0409
   880.7000      7.9371      2.5210      0.0918      7.8193     48.0058     15.6362
   880.8000      7.9438      2.5089      0.0719      8.5518     48.9104     15.7777
   880.9000      7.9438      2.5107      0.0592      8.4408     50.4178     16.1697
