~Version Information
VERS.                      2.0: CWLS Log ASCII Standard - VERSION 2.0
WRAP.                       NO: One line per depth step
~Well Information Block
STRT.FT                10.0000: 
STOP.FT               715.0000: 
STEP.FT                 0.1000: 
NULL.                -999.2500: 
COMP.          Pioneer Natural Resources: COMPANY
WELL.           Belvedere 14-7: WELL
FLD.           Purgatorie River: FIELD
LOC.           786' FSL & 1283' FWL: LOCATION
PROV.                 Colorado: PROVINCE
CNTY.               Las Animas: COUNTRY
SRVC.                Patterson: SERVICE COMPANY
DATE.          Mon Nov 28 07:30:54 2005: LOG DATE
UWI.           05-071-08557               : UNIQUE WELL ID
~Curve Information Block
DEPT.FT            0 000 00 00: Depth
DCAL.in                       : CDL Caliper
RHOB.g/cc                     : CDL Bulk Density
RHOC.g/cc                     : CDL Density Correction
DPOR.pu                       : CDL Density Porosity
GR.GAPI                       : Gamma Ray
NPOR.pu                       : Neutron Porosity
~Parameter Information Block
~A  Depth       DCAL        RHOB        RHOC        DPOR         GR         NPOR    
# ...
   374.8000      7.9596      2.4752      0.0418     10.5929    117.5573     26.1584
   374.9000      7.9596      2.4871      0.0295      9.8753    124.7045     26.1325
   375.0000      7.9609      2.5105      0.0365      8.4535    127.6162     25.6860
   375.1000      7.9609      2.5246      0.1041      7.5999    120.8054     25.3556
   375.2000      7.9609      2.5226      0.0683      7.7221    110.9144     25.2909
   375.3000      7.9591      2.5259      0.0974      7.5193    106.7050     25.1815
   375.4000      7.9591      2.5470      0.0692      6.2410    109.0859     24.8693
   375.5000      7.9657      2.5705      0.1390      4.8194    112.8948     24.6577
   375.6000      7.9657      2.5722      0.1397      4.7171    114.2130     24.8278
   375.7000      7.9657      2.5575      0.0873      5.6048    114.4744     25.0204
   375.8000      7.9590      2.5495      0.0870      6.0911    115.3633     24.7811
   375.9000      7.9590      2.5466      0.0969      6.2693    116.4206     24.4416
   376.0000      7.9671      2.5369      0.0597      6.8527    117.7434     24.6001
   376.1000      7.9671      2.5224      0.0460      7.7316    118.6990     25.0967
   376.2000      7.9671      2.5146      0.0249      8.2053    118.7283     25.3021
   376.3000      7.9548      2.5243      0.0336      7.6159    119.4274     25.1377
   376.4000      7.9548      2.5460      0.0640      6.3017    121.1114     25.0552
   376.5000      7.9642      2.5596      0.0922      5.4794    120.8860     25.3041
   376.6000      7.9642      2.5499      0.1115      6.0688    117.9393     25.6525
   376.7000      7.9642      2.5199      0.0297      7.8871    116.0441     25.7680
   376.8000      7.9590      2.4911      0.0483      9.6331    116.5188     25.6148
   376.9000      7.9590      2.4838      0.0216     10.0710    116.3696     25.2256
   377.0000      7.9531      2.5013      0.0336      9.0107    113.1196     24.5777
   377.1000      7.9531      2.5326      0.0682      7.1181    108.5549     23.9584
   377.2000      7.9531      2.5603      0.1023      5.4336    106.9958     23.7000
   377.3000      7.9532      2.5720      0.0899      4.7272    108.4456     23.7025
   377.4000      7.9532      2.5762      0.0751      4.4722    108.5017     23.7327
   377.5000      7.9515      2.5861      0.1470      3.8718    106.1535     23.6682
   377.6000      7.9515      2.5995      0.1330      3.0621    103.3855     23.4412
   377.7000      7.9515      2.6098      0.1257      2.4350     99.9100     23.0958
   377.8000      7.9532      2.6082      0.1507      2.5343     95.1283     22.8551
   377.9000      7.9532      2.5913      0.1058      3.5564     90.5387     22.8805
   378.0000      7.9522      2.5769      0.0406      4.4316     87.5232     23.2006
   378.1000      7.9522      2.5878      0.0479      3.7701     86.6223     23.8310
   378.2000      7.9522      2.6212      0.0954      1.7440     86.9887     24.5412
   378.3000      7.9499      2.6567      0.0884     -0.4069     85.7339     25.0385
   378.4000      7.9499      2.6844      0.0864     -2.0825     82.1041     25.3815
   378.5000      7.9499      2.7013      0.0912     -3.1106     78.5464     25.7595
   378.6000      7.9499      2.7101      0.0604     -3.6412     77.1355     26.3538
   378.7000      7.9499      2.7222      0.0290     -4.3767     77.4382     27.0818
   378.8000      7.9516      2.7386      0.0657     -5.3687     76.6189     27.4749
   378.9000      7.9516      2.7473      0.0258     -5.8981     74.0139     27.3381
   379.0000      7.9482      2.7370      0.0752     -5.2706     71.5878     26.9447
   379.1000      7.9482      2.7011      0.0069     -3.0939     70.4984     26.5227
   379.2000      7.9482      2.6513     -0.0059     -0.0785     70.7209     26.0859
   379.3000      7.9442      2.6166     -0.0559      2.0225     70.9484     25.4340
   379.4000      7.9442      2.6122      0.0072      2.2939     69.6726     24.4956
   379.5000      7.9481      2.6210     -0.0503      1.7585     67.6197     23.6051
   379.6000      7.9481      2.6259     -0.0152      1.4593     67.2137     22.8059
   379.7000      7.9481      2.6198      0.0305      1.8275     69.3562     21.8018
   379.8000      7.9531      2.5963      0.0159      3.2556     72.7648     20.7144
   379.9000      7.9531      2.5679      0.0025      4.9746     75.9651     19.8220
   380.0000      7.9691      2.5550      0.0047      5.7567     78.6985     19.1355
   380.1000      7.9691      2.5619     -0.0067      5.3407     80.6984     18.7428
   380.2000      7.9691      2.5795      0.0483      4.2716     82.7808     18.6080
   380.3000      7.9582      2.5911      0.0638      3.5688     84.6875     18.4469
   380.4000      7.9582      2.5888      0.0381      3.7077     83.9032     18.4179
   380.5000      7.9574      2.5807      0.0366      4.2010     81.1049     18.8803
   380.6000      7.9574      2.5735      0.0694      4.6373     77.7058     19.6104
   380.7000      7.9574      2.5731      0.0498      4.6623     75.1955     19.9798
   380.8000      7.9556      2.5855      0.0793      3.9098     75.9153     19.7859
   380.9000      7.9556      2.6029      0.0829      2.8541     77.8266     19.5084
   381.0000      7.9457      2.6096      0.0535      2.4510     76.7197     19.8752
   381.1000      7.9457      2.6063      0.0167      2.6496     73.9988     20.9727
   381.2000      7.9457      2.6166     -0.0162      2.0245     73.6304     22.1249
   381.3000      7.9796      2.6544      0.0326     -0.2637     75.2953     22.9537
   381.4000      7.9796      2.6980      0.0620     -2.9097     77.2310     23.6275
   381.5000      7.9966      2.7196      0.0441     -4.2190     78.3779     24.2428
   381.6000      7.9966      2.7176      0.0267     -4.0970     77.6222     24.6341
   381.7000      7.9966      2.7058      0.0051     -3.3832     74.5309     24.6731
   381.8000      7.9957      2.6926     -0.0280     -2.5822     71.3450     24.6298
   381.9000      7.9957      2.6724     -0.0684     -1.3592     71.8881     24.5917
   382.0000      7.9752      2.6371     -0.0522      0.7810     76.1230     24.1585
   382.1000      7.9752      2.5935     -0.0461      3.4266     80.6834     23.3431
   382.2000      7.9752      2.5583     -0.0941      5.5566     83.2636     22.6285
   382.3000      7.9655      2.5408     -0.0604      6.6184     83.6003     22.1372
   382.4000      7.9655      2.5388     -0.0145      6.7393     83.4789     21.6285
   382.5000      7.9608      2.5426      0.0447      6.5078     84.0648     21.0594
   382.6000      7.9608      2.5474      0.0185      6.2176     84.8306     20.7141
   382.7000      7.9608      2.5625      0.0062      5.3022     84.4198     20.8374
   382.8000      7.9770      2.5862      0.0397      3.8688     82.1705     21.2115
   382.9000      7.9770      2.5987      0.0581      3.1099     80.9140     21.4051
   383.0000      7.9738      2.5967      0.0213      3.2326     81.5503     21.4238
   383.1000      7.9738      2.5934      0.0628      3.4277     80.7290     21.3903
   383.2000      7.9738      2.5913      0.0497      3.5575     78.4749     21.2640
   383.3000      7.9630      2.5877      0.0083      3.7766     76.0844     21.1429
   383.4000      7.9630      2.5825      0.0613      4.0927     72.5319     21.1325
   383.5000      7.9617      2.5750      0.0872      4.5463     69.0200     21.1435
   383.6000      7.9617      2.5669      0.0807      5.0352     68.8928     21.0523
   383.7000      7.9617      2.5604      0.0735      5.4299     71.3231     20.7209
   383.8000      7.9559      2.5593      0.0779      5.4954     72.5784     20.2127
   383.9000      7.9559      2.5695      0.0223      4.8791     72.2161     19.8894
   384.0000      7.9642      2.5867      0.0543      3.8372     71.6786     19.8947
   384.1000      7.9642      2.5975      0.0807      3.1821     70.9173     19.9745
   384.2000      7.9642      2.6002      0.0796      3.0174     70.8149     19.9553
   384.3000      7.9645      2.6038      0.0753      2.8018     72.9042     19.8714
