~Version Information
VERS.                      2.0: CWLS Log ASCII Standard - VERSION 2.0
WRAP.                       NO: One line per depth step
~Well Information Block
STRT.FT               459.3000: 
STOP.FT              1604.7000: 
STEP.FT                 0.1000: 
NULL.                -999.2500: 
COMP.          Pioneer Natural Resources: COMPANY
WELL.          Grand Prix 13-12 Tr: WELL
FLD.           Purgatoire River: FIELD
LOC.           2595' FSL & 1277' FWL--: LOCATION
CNTY.               Las Animas: COUNTY
SRVC.                Patterson: SERVICE COMPANY
DATE.          Tue Apr 04 07:18:28 2006: LOG DATE
UWI.           05 071 08711 00: UNIQUE WELL ID
STAT.                 Colorado: STATE
~Curve Information Block
DEPT.FT            0 000 00 00: Depth
DCAL.in                       : CDL Caliper
RHOB.g/cc                     : CDL Bulk Density
RHOC.g/cc                     : CDL Density Correction
DPOR.pu                       : CDL Density Porosity
GR.GAPI                       : Gamma Ray
~Parameter Information Block
~A  Depth       DCAL        RHOB        RHOC        DPOR         GR     
# ...
   761.7000      7.8738      2.5805     -0.0507      4.2129    104.2553
   761.8000      7.8686      2.6256     -0.0273      1.4766    103.9460
   761.9000      7.8686      2.6734     -0.0306     -1.4165    101.1532
   762.0000      7.8631      2.7134      0.0523     -3.8412     98.6156
   762.1000      7.8631      2.7329      0.1120     -5.0222     98.0094
   762.2000      7.8631      2.7186      0.1347     -4.1575     99.5248
   762.3000      7.8508      2.6830      0.0580     -1.9974    105.0762
   762.4000      7.8508      2.6511      0.0584     -0.0669    110.9070
   762.5000      7.8312      2.6209      0.0888      1.7646    109.9870
   762.6000      7.8312      2.5796      0.0217      4.2669    104.5921
   762.7000      7.8312      2.5371     -0.0098      6.8425    102.9502
   762.8000      7.8281      2.5109     -0.0707      8.4323    109.1693
   762.9000      7.8281      2.5021     -0.0304      8.9628    120.4451
   763.0000      7.8490      2.4994      0.0022      9.1282    129.7366
   763.1000      7.8490      2.4993      0.0297      9.1319    134.2542
   763.2000      7.8490      2.5000      0.1063      9.0910    135.6562
   763.3000      7.8695      2.4974      0.0735      9.2468    134.7481
   763.4000      7.8695      2.4921      0.0975      9.5680    134.1003
   763.5000      7.8782      2.4795      0.0446     10.3304    136.5195
   763.6000      7.8782      2.4554      0.0468     11.7965    140.6799
   763.7000      7.8782      2.4205      0.0515     13.9090    143.0026
   763.8000      7.8807      2.3806      0.0139     16.3267    142.2643
   763.9000      7.8807      2.3450     -0.0224     18.4868    139.7317
   764.0000      7.8791      2.3219      0.0135     19.8877    136.3803
   764.1000      7.8791      2.3216     -0.0025     19.9033    133.2473
   764.2000      7.8791      2.3486      0.0541     18.2695    130.6958
   764.3000      7.8721      2.3855      0.0898     16.0281    126.6525
   764.4000      7.8721      2.4131      0.0930     14.3582    118.9018
   764.5000      7.8633      2.4345      0.0685     13.0620    114.1587
   764.6000      7.8633      2.4589      0.1012     11.5824    120.9243
   764.7000      7.8633      2.4797      0.1392     10.3209    134.5530
   764.8000      7.8603      2.4883      0.1570      9.7986    144.3766
   764.9000      7.8603      2.4899      0.1006      9.7007    146.8001
   765.0000      7.8613      2.4983      0.0981      9.1944    143.1290
   765.1000      7.8613      2.5131      0.1031      8.2976    136.4994
   765.2000      7.8613      2.5173      0.0709      8.0421    130.3318
   765.3000      7.8677      2.5069      0.0305      8.6735    129.8008
   765.4000      7.8677      2.4938      0.0262      9.4665    136.5892
   765.5000      7.8825      2.4819      0.0340     10.1899    141.4769
   765.6000      7.8825      2.4640      0.0456     11.2738    139.5090
   765.7000      7.8825      2.4406      0.0182     12.6902    136.9098
   765.8000      7.8911      2.4220     -0.0103     13.8173    133.1852
   765.9000      7.8911      2.4046     -0.0008     14.8701    125.9406
   766.0000      7.8862      2.3627      0.0332     17.4109    123.1180
   766.1000      7.8862      2.2705      0.0246     22.9996    128.7634
   766.2000      7.8862      2.1350     -0.0738     31.2099    134.5877
   766.3000      7.8781      1.9941     -0.1203     39.7530    133.7346
   766.4000      7.8781      1.8730     -0.1295     47.0900    127.2122
   766.5000      7.8715      1.7694     -0.1241     53.3681    118.7208
   766.6000      7.8715      1.6727     -0.1401     59.2288    110.5431
   766.7000      7.8715      1.5798     -0.1184     64.8625    102.7778
   766.8000      7.8725      1.4930     -0.0890     70.1229     97.0324
   766.9000      7.8725      1.4192     -0.1018     74.5910     93.5171
   767.0000      7.8975      1.3779     -0.0911     77.0955     88.7827
   767.1000      7.8975      1.3819      0.0304     76.8516     81.8211
   767.2000      7.8975      1.4134      0.0893     74.9442     75.5791
   767.3000      7.9433      1.4426      0.1221     73.1776     72.0681
   767.4000      7.9433      1.4584      0.1104     72.2158     71.0216
   767.5000      7.9862      1.4740      0.0742     71.2748     71.2470
   767.6000      7.9862      1.5066      0.0843     69.2970     70.9189
   767.7000      7.9862      1.5621      0.0969     65.9338     71.7307
   767.8000      8.0159      1.6393      0.1005     61.2569     77.2544
   767.9000      8.0159      1.7339      0.1468     55.5204     84.7270
   768.0000      8.0356      1.8348      0.1534     49.4074     88.3348
   768.1000      8.0356      1.9302      0.1648     43.6227     88.6448
   768.2000      8.0356      2.0208      0.1810     38.1340     89.7927
   768.3000      8.0464      2.1165      0.1898     32.3326     93.4031
   768.4000      8.0464      2.2189      0.2342     26.1245     99.9920
   768.5000      8.0417      2.3123      0.2331     20.4675    109.4985
   768.6000      8.0417      2.3772      0.2201     16.5314    115.2718
   768.7000      8.0417      2.4106      0.1322     14.5074    113.1092
   768.8000      8.0268      2.4157      0.1581     14.2024    111.8686
   768.9000      8.0268      2.3943      0.0421     15.4952    118.4781
   769.0000      8.0160      2.3671      0.0114     17.1437    129.5730
   769.1000      8.0160      2.3611     -0.0310     17.5084    139.0311
   769.2000      8.0160      2.3862      0.0146     15.9895    143.0425
   769.3000      8.0113      2.4282      0.0541     13.4401    142.1412
   769.4000      8.0113      2.4612      0.0810     11.4419    138.1900
   769.5000      8.0089      2.4675      0.0869     11.0594    133.3881
   769.6000      8.0089      2.4467      0.0718     12.3202    131.8615
   769.7000      8.0089      2.4106      0.0531     14.5076    133.6995
   769.8000      8.0103      2.3757      0.0441     16.6243    136.4084
   769.9000      8.0103      2.3598      0.0313     17.5904    139.4636
   770.0000      8.0116      2.3696      0.0798     16.9951    143.6847
   770.1000      8.0116      2.3902      0.0973     15.7449    148.9034
   770.2000      8.0116      2.4026      0.0932     14.9961    150.5173
   770.3000      8.0025      2.4027      0.0841     14.9856    145.2849
   770.4000      8.0025      2.4009      0.0843     15.0962    137.5352
   770.5000      7.9851      2.4022      0.0884     15.0155    133.5713
   770.6000      7.9851      2.3988      0.1184     15.2264    133.0159
   770.7000      7.9851      2.3944      0.0582     15.4884    129.9095
   770.8000      7.9685      2.4098      0.0774     14.5563    126.6665
   770.9000      7.9685      2.4415      0.1086     12.6379    127.3249
   771.0000      7.9612      2.4523      0.1732     11.9814    129.4329
   771.1000      7.9612      2.4122      0.1201     14.4116    134.9596
   771.2000      7.9612      2.3296      0.0622     19.4205    145.0459
   771.3000      7.9644      2.2281      0.0913     25.5667    152.2332
   771.4000      7.9644      2.1263     -0.0131     31.7375    151.1649
   771.5000      7.9707      2.0389     -0.0211     37.0371    145.8831
   771.6000      7.9707      1.9645     -0.0651     41.5442    143.6389
   771.7000      7.9707      1.8951     -0.0588     45.7516    143.3180
   771.8000      7.9653      1.8370     -0.0823     49.2756    138.7516
   771.9000      7.9653      1.8105     -0.1059     50.8794    133.0831
   772.0000      7.9416      1.8264     -0.0036     49.9126    132.6937
   772.1000      7.9416      1.8767      0.0245     46.8638    133.9993
   772.2000      7.9416      1.9522      0.1024     42.2913    131.1906
   772.3000      7.9164      2.0441      0.1734     36.7233    124.6738
   772.4000      7.9164      2.1427      0.2284     30.7439    116.6005
   772.5000      7.9079      2.2384      0.2494     24.9445    109.9604
   772.6000      7.9079      2.3208      0.2372     19.9496    108.3063
   772.7000      7.9079      2.3832      0.2359     16.1702    113.6130
   772.8000      7.9072      2.4226      0.1622     13.7845    122.4555
