~Version Information
VERS.                      2.0: CWLS Log ASCII Standard - VERSION 2.0
WRAP.                       NO: One line per depth step
~Well Information Block
STRT.FT                65.0000: 
STOP.FT               998.0000: 
STEP.FT                 0.2500: 
NULL.                -999.2500: 
COMP.          Pioneer Natural Resources: COMPANY
WELL.              Gough 14-29: WELL
FLD.           Purgatorie River: FIELD
LOC.           1199' FSL & 676' FWL: LOCATION
PROV.                 Colorado: PROVINCE
CNTY.               Las Animas: COUNTRY
SRVC.                Patterson: SERVICE COMPANY
DATE.          Wed Dec 28 08:38:26 2005: LOG DATE
UWI.                          : UNIQUE WELL ID
~Curve Information Block
DEPT.FT            0 000 00 00: Depth
CCL.                          : Casing Collar Locator
TT3.usec                      : CBL 3' Travel Time
AMP3.mV                       : CBL 3' Amplitude
GR.GAPI                       : Gamma Ray
~Parameter Information Block
~A  Depth       CCL         TT3         AMP3         GR     
# ...
   601.0000      0.0000    755.3271     11.8445    108.3358
   601.2500      0.0000    760.8920     12.0318    108.4693
   601.5000      0.0000    764.0919     12.1597    106.4414
   601.7500      0.0000    765.3290     12.2517    102.1755
   602.0000      0.0000    765.7697     12.3566     96.1553
   602.2500      0.0000    765.7745     12.4987     89.1013
   602.5000      0.0000    764.3994     12.6723     82.3019
   602.7500      0.0000    759.6282     12.8552     77.8023
   603.0000      0.0000    750.5047     13.0199     77.4907
   603.2500      0.0000    740.1981     13.1402     81.6835
   603.5000      0.0000    734.2759     13.1877     88.7005
   603.7500      0.0000    734.0333     13.1530     95.9954
   604.0000      0.0000    734.6281     13.0693    101.7558
   604.2500      0.0000    731.8514     12.9810    105.4462
   604.5000      0.0000    727.1188     12.8883    107.2727
   604.7500      0.0000    723.6360     12.7463    107.7239
   605.0000      0.0000    722.1418     12.5373    107.5788
   605.2500      0.0000    721.9791     12.3225    107.7688
   605.5000      0.0000    723.2070     12.1827    108.8413
   605.7500      0.0000    726.8340     12.1321    110.4508
   606.0000      0.0000    733.1548     12.1130    111.5360
   606.2500      0.0000    740.3588     12.0730    111.2792
   606.5000      0.0000    745.7866     12.0162    110.0406
   606.7500      0.0000    745.3271     11.9540    109.1452
   607.0000      0.0000    732.4965     11.8688    109.5713
   607.2500      0.0000    709.9281     11.7472    111.0823
   607.5000      0.0000    698.0440     11.5990    112.7434
   607.7500      0.0000    711.4800     11.4444    113.8661
   608.0000      0.0000    736.9941     11.3212    114.3671
   608.2500      0.0000    754.5751     11.2937    114.7386
   608.5000      0.0000    759.9588     11.4096    115.7092
   608.7500      0.0000    757.0800     11.6446    117.3637
   609.0000      0.0000    748.4787     11.9169    118.5839
   609.2500      0.0000    737.3685     12.1497    117.9482
   609.5000      0.0000    728.5343     12.3050    115.1949
   609.7500      0.0000    724.2050     12.3818    111.3620
   610.0000      0.0000    723.0560     12.3930    107.5803
   610.2500      0.0000    723.1516     12.3401    104.2445
   610.5000      0.0000    723.4812     12.2253    101.3980
   610.7500      0.0000    723.6306     12.0900     99.2570
   611.0000      0.0000    723.4757     12.0128     97.8858
   611.2500      0.0000    723.1332     12.0359     96.8255
   611.5000      0.0000    722.8088     12.1115     95.6852
   611.7500      0.0000    722.6496     12.1523     94.9248
   612.0000      0.0000    722.7272     12.1155     95.5412
   612.2500      0.0000    723.0026     12.0232     98.0269
   612.5000      0.0000    723.2424     11.9164    101.9015
   612.7500      0.0000    723.1011     11.8021    106.0465
   613.0000      0.0000    722.4850     11.6711    109.1346
   613.2500      0.0000    721.7639     11.5492    110.0876
   613.5000      0.0000    721.5632     11.4738    108.8422
   613.7500      0.0000    722.6837     11.4381    106.6908
   614.0000      0.0000    725.9495     11.4146    105.3255
   614.2500      0.0000    730.5718     11.3950    105.4568
   614.5000      0.0000    733.0584     11.3682    106.6650
   614.7500      0.0000    730.9935     11.3078    108.2198
   615.0000      0.0000    726.5757     11.2092    109.5511
   615.2500      0.0000    723.1826     11.1061    110.3662
   615.5000      0.0000    721.6683     11.0451    110.8331
   615.7500      0.0000    721.3888     11.0603    111.2031
   616.0000      0.0000    721.7702     11.1596    110.9869
   616.2500      0.0000    722.4849     11.3266    109.1181
   616.5000      0.0000    723.1987     11.5555    105.0931
   616.7500      0.0000    723.4670     11.8528     99.5518
   617.0000      0.0000    723.0813     12.1700     94.0029
   617.2500      0.0000    722.3539     12.4011     90.3474
   617.5000      0.0000    721.8103     12.4925     90.0232
   617.7500      0.0000    721.7142     12.4993     92.9410
   618.0000      0.0000    721.9585     12.4893     97.4108
   618.2500      0.0000    722.3080     12.4516    101.4108
   618.5000      0.0000    722.6129     12.3596    103.8536
   618.7500      0.0000    722.7997     12.2536    104.6279
   619.0000      0.0000    722.8610     12.1867    103.9045
   619.2500      0.0000    722.8935     12.1555    101.9475
   619.5000      0.0000    723.1243     12.0977     99.5914
   619.7500      0.0000    723.9671     11.8718     98.1275
   620.0000      0.0000    725.2189     11.2966     98.1422
   620.2500      0.0000    723.5822     10.4336     98.8483
   620.5000      0.0000    713.9570      9.7818     99.0773
   620.7500      0.0000    700.2558      9.6586     98.4498
   621.0000      0.0000    698.4575      9.4942     97.0589
   621.2500      0.0000    716.8697      8.6644     94.7149
   621.5000      0.0000    743.8270      7.5998     91.3573
   621.7500      0.0000    763.6414      7.0915     87.9501
   622.0000      0.0000    774.1266      7.2353     86.2572
   622.2500     -2.0000    781.6261      7.5941     87.4343
   622.5000      2.0000    785.2338      7.8173     90.8876
   622.7500      0.0000    781.2617      7.8333     94.5933
   623.0000      0.0000    774.4575      7.7843     96.4888
   623.2500      0.0000    766.0709      8.0642     95.7121
   623.5000      0.0000    747.7059      8.9515     93.0072
   623.7500      0.0000    721.5269      9.9394     90.0037
   624.0000      0.0000    705.9187     10.3160     87.7461
   624.2500      0.0000    710.0151     10.2668     85.9865
   624.5000      0.0000    721.3677     10.4192     84.0457
   624.7500      0.0000    726.1004     10.9359     81.7407
   625.0000      0.0000    724.1377     11.5283     79.1647
   625.2500      0.0000    721.1789     11.8806     76.3909
   625.5000      0.0000    719.5962     11.9390     73.9319
   625.7500      0.0000    719.3333     11.8507     72.8873
   626.0000      0.0000    720.7748     11.7547     73.9831
   626.2500      0.0000    724.7784     11.7098     76.4670
   626.5000      0.0000    730.2937     11.6907     78.3205
   626.7500      0.0000    733.2614     11.6200     77.9375
   627.0000      0.0000    731.1201     11.4785     75.6926
   627.2500      0.0000    726.7481     11.3321     73.6101
   627.5000      0.0000    724.7208     11.2327     73.5388
   627.7500      0.0000    727.1097     11.1902     75.7614
   628.0000      0.0000    733.0838     11.2164     78.9475
   628.2500      0.0000    738.4547     11.2987     80.9940
   628.5000      0.0000    738.1230     11.3787     80.3771
   628.7500      0.0000    732.0703     11.4119     77.3409
   629.0000      0.0000    725.4626     11.4099     73.6976
   629.2500      0.0000    722.6175     11.4014     71.2010
   629.5000      0.0000    724.3994     11.3958     70.2559
   629.7500      0.0000    728.8453     11.4057     70.1957
   630.0000      0.0000    731.7405     11.4512     70.2572
   630.2500      0.0000    730.3627     11.5382     70.0579
   630.5000      0.0000    726.6854     11.6613     69.5546
   630.7500      0.0000    723.8550     11.8106     68.8234
   631.0000      0.0000    722.4703     11.9779     67.8569
   631.2500      0.0000    721.7481     12.1604     66.6291
   631.5000      0.0000    721.3296     12.3519     65.3073
   631.7500      0.0000    721.3182     12.5464     64.0891
   632.0000      0.0000    721.7675     12.7315     62.7476
   632.2500      0.0000    722.4872     12.8647     60.6861
   632.5000      0.0000    723.0543     12.8932     57.7586
   632.7500      0.0000    723.0180     12.8135     54.8962
   633.0000      0.0000    722.3526     12.6714     53.6220
   633.2500      0.0000    721.4813     12.4911     54.8376
   633.5000      0.0000    720.7733     12.2595     58.1321
   633.7500      0.0000    720.3129     11.9895     62.2007
   634.0000      0.0000    720.0629     11.7333     65.6938
   634.2500      0.0000    719.9887     11.5282     67.6313
