~Version Information
VERS.                      2.0: CWLS Log ASCII Standard - VERSION 2.0
WRAP.                       NO: One line per depth step
~Well Information Block
STRT.FT                -8.0000: 
STOP.FT              1472.2500: 
STEP.FT                 0.2500: 
NULL.                -999.2500: 
COMP.          Pioneer Natural Resources: COMPANY
WELL.           Amore 32-09 Tr: WELL
FLD.           Purgatoire River: FIELD
LOC.           1941' FNL & 2297' FEL--: LOCATION
PROV.                       CO: PROVINCE
CNTY.               Las Animas: COUNTRY
SRVC.          Patterson Wireline: SERVICE COMPANY
DATE.          Tue Nov 22 11:37:00 2005: LOG DATE
UWI.           05 071 08584 00: UNIQUE WELL ID
~Curve Information Block
DEPT.FT            0 000 00 00: Depth
CCL.                          : Casing Collar Locator
TT3.usec                      : CBL 3' Travel Time
AMP3.mV                       : CBL 3' Amplitude
GR.GAPI                       : Gamma Ray
~Parameter Information Block
~A  Depth       CCL         TT3         AMP3         GR     
# ...
   360.5000      0.0000    747.2350      9.3133     64.4521
   360.7500      0.0000    747.5635      9.3037     62.9321
   361.0000      0.0000    748.0446      9.3057     62.6418
   361.2500      0.0000    748.8930      9.3115     62.5528
   361.5000      0.0000    750.4373      9.3175     61.1897
   361.7500      0.0000    752.6932      9.3235     57.8987
   362.0000      0.0000    754.8815      9.3261     53.6601
   362.2500      0.0000    755.7239      9.3151     50.4405
   362.5000      0.0000    754.5583      9.2742     49.6375
   362.7500      0.0000    752.0067      9.1889     51.1217
   363.0000      0.0000    749.3384      9.0583     53.5577
   363.2500      0.0000    747.3952      8.9006     55.3688
   363.5000      0.0000    746.2703      8.7441     55.4928
   363.7500      0.0000    745.6879      8.6138     53.6377
   364.0000      0.0000    745.3824      8.5273     50.2317
   364.2500      0.0000    745.2057      8.4974     46.2752
   364.5000      0.0000    745.1026      8.5330     43.1060
   364.7500      0.0000    745.0734      8.6343     41.9357
   365.0000      0.0000    745.1336      8.7885     43.1026
   365.2500      0.0000    745.2887      8.9668     45.5376
   365.5000      0.0000    745.5262      9.1320     47.3225
   365.7500      0.0000    745.8245      9.2549     47.2764
   366.0000      0.0000    746.1538      9.3272     45.9032
   366.2500      0.0000    746.4751      9.3592     44.5044
   366.5000      0.0000    746.7825      9.3671     43.6781
   366.7500      0.0000    747.1976      9.3661     43.0149
   367.0000      0.0000    748.0469      9.3690     41.9365
   367.2500      0.0000    749.7336      9.3845     40.3882
   367.5000      0.0000    752.3040      9.4144     38.8001
   367.7500      0.0000    755.0707      9.4548     37.6139
   368.0000      0.0000    757.0156      9.4973     36.9113
   368.2500      0.0000    757.8362      9.5295     36.5051
   368.5000      0.0000    758.2530      9.5417     36.3876
   368.7500      0.0000    759.0092      9.5317     36.9740
   369.0000      0.0000    760.0057      9.4998     38.7991
   369.2500      0.0000    760.6541      9.4446     41.9479
   369.5000      0.0000    760.4828      9.3683     45.6504
   369.7500      0.0000    759.1985      9.2842     48.3711
   370.0000      0.0000    756.8926      9.2100     48.5639
   370.2500      0.0000    754.5486      9.1562     45.7823
   370.5000      0.0000    753.8189      9.1230     41.2530
   370.7500      0.0000    755.7832      9.1049     37.2883
   371.0000      0.0000    759.7787      9.0938     35.9226
   371.2500      0.0000    763.5983      9.0815     37.7595
   371.5000      0.0000    765.2035      9.0634     41.7118
   371.7500      0.0000    764.2659      9.0373     45.7086
   372.0000      0.0000    761.7837      8.9955     48.0200
   372.2500      0.0000    758.5999      8.9226     48.3306
   372.5000      0.0000    754.9860      8.8077     47.6222
   372.7500      0.0000    751.3095      8.6561     47.0097
   373.0000      0.0000    748.1392      8.4833     46.7823
   373.2500      0.0000    745.5123      8.3019     46.4671
   373.5000      0.0000    742.4169      8.1206     45.4771
   373.7500      0.0000    737.1334      7.9459     43.6769
   374.0000      0.0000    728.7178      7.7738     41.6629
   374.2500      0.0000    719.2545      7.5851     40.6104
   374.5000      0.0000    714.7794      7.3736     41.5377
   374.7500      0.0000    722.4592      7.1887     44.4854
   375.0000      0.0000    746.3167      7.1236     48.4625
   375.2500      0.0000    786.6211      7.2318     52.2903
   375.5000      0.0000    842.0659      7.4676     55.5555
   375.7500      0.0000    907.9127      7.7267     58.8078
   376.0000     -2.0000    971.5314      7.9249     62.9531
   376.2500      0.0000   1016.2304      8.0204     68.6193
   376.5000      0.0000   1033.1323      8.0026     76.0205
   376.7500      0.0000   1025.0358      7.9142     84.8684
   377.0000      0.0000    997.0970      7.8812     93.8790
   377.2500      0.0000    950.9889      8.0686    100.7088
   377.5000      0.0000    891.9636      8.5620    103.2683
   377.7500      0.0000    834.0616      9.2856    101.4806
   378.0000      0.0000    791.5748     10.0320     97.5050
   378.2500      0.0000    768.1872     10.5750     94.0228
   378.5000      0.0000    757.8459     10.7866     92.1904
   378.7500      0.0000    753.2193     10.6879     91.0749
   379.0000      0.0000    750.6321     10.4014     88.9461
   379.2500      0.0000    749.1785     10.0542     85.0589
   379.5000      0.0000    748.5919      9.7207     80.2582
   379.7500      0.0000    748.4678      9.4309     76.1469
   380.0000      0.0000    748.4330      9.2006     73.9697
   380.2500      0.0000    748.3179      9.0414     74.1812
   380.5000      0.0000    748.1143      8.9547     76.5674
   380.7500      0.0000    747.8784      8.9216     80.3888
   381.0000      0.0000    747.6846      8.8989     84.4451
   381.2500      0.0000    747.6009      8.8390     87.4440
   381.5000      0.0000    747.6368      8.7308     88.7439
   381.7500      0.0000    747.7115      8.6156     88.6354
   382.0000      0.0000    747.7065      8.5461     87.6015
   382.2500      0.0000    747.5677      8.5339     85.6147
   382.5000      0.0000    747.3448      8.5495     82.6884
   382.7500      0.0000    747.1370      8.5631     79.7239
   383.0000      0.0000    747.0453      8.5723     78.0878
   383.2500      0.0000    747.2147      8.5932     78.5749
   383.5000      0.0000    747.9293      8.6350     81.2458
   383.7500      0.0000    749.5703      8.6853     85.7370
   384.0000      0.0000    752.2943      8.7201     91.0344
   384.2500      0.0000    755.7316      8.7263     95.3262
   384.5000      0.0000    759.2918      8.7151     96.9421
   384.7500      0.0000    762.8304      8.7086     95.6778
   385.0000      0.0000    766.6038      8.7174     92.9675
   385.2500      0.0000    770.5151      8.7331     90.6398
   385.5000      0.0000    773.9748      8.7408     89.4715
   385.7500      0.0000    776.4313      8.7346     88.8353
   386.0000      0.0000    777.3210      8.7218     87.6992
   386.2500      0.0000    775.7369      8.7124     85.8451
   386.5000      0.0000    771.1365      8.7049     83.9969
   386.7500      0.0000    764.4384      8.6830     82.8598
   387.0000      0.0000    757.7241      8.6316     82.2443
   387.2500      0.0000    752.7035      8.5524     81.1373
   387.5000      0.0000    749.7518      8.4623     78.6281
   387.7500      0.0000    748.2697      8.3781     74.8950
   388.0000      0.0000    747.5242      8.3073     71.2121
   388.2500      0.0000    747.0823      8.2534     68.8059
   388.5000      0.0000    746.7743      8.2242     67.7413
   388.7500      0.0000    746.5327      8.2334     66.9750
   389.0000      0.0000    746.3145      8.2861     65.3507
   389.2500      0.0000    746.0861      8.3586     62.5210
   389.5000      0.0000    745.8267      8.4052     59.0829
   389.7500      0.0000    745.5355      8.3963     55.9333
   390.0000      0.0000    745.2449      8.3454     53.5321
   390.2500      0.0000    745.0212      8.2885     51.6961
   390.5000      0.0000    744.9709      8.2463     50.0002
   390.7500      0.0000    745.2750      8.2183     48.3381
   391.0000      0.0000    746.2349      8.2036     47.0831
   391.2500      0.0000    748.1943      8.2153     46.7013
   391.5000      0.0000    751.2325      8.2716     47.2258
   391.7500      0.0000    754.9009      8.3754     48.0999
   392.0000      0.0000    758.5162      8.5015     48.4900
   392.2500      0.0000    761.7517      8.6090     47.8960
   392.5000      0.0000    764.5101      8.6705     46.5860
   392.7500      0.0000    766.2523      8.6923     45.3377
   393.0000      0.0000    766.2302      8.7025     44.7057
   393.2500      0.0000    764.4886      8.7198     44.6743
   393.5000      0.0000    761.8403      8.7357     44.9485
   393.7500      0.0000    758.8681      8.7303     45.3588
