~Version Information
VERS.                      2.0: CWLS Log ASCII Standard - VERSION 2.0
WRAP.                       NO: One line per depth step
~Well Information Block
STRT.FT                 0.0000: 
STOP.FT              1538.0000: 
STEP.FT                 0.2500: 
NULL.                -999.2500: 
COMP.          Pioneer Natural Resources: COMPANY
WELL.           Butch 33-10 TR: WELL
FLD.           Purgatorie River: FIELD
LOC.           2309' FSL & 1337' FEL: LOCATION
PROV.                 Colorado: PROVINCE
CNTY.               Las Animas: COUNTRY
SRVC.                Patterson: SERVICE COMPANY
DATE.          Thu Jan 19 12:40:27 2006: LOG DATE
UWI.                          : UNIQUE WELL ID
~Curve Information Block
DEPT.FT            0 000 00 00: Depth
CCL.                          : Casing Collar Locator
TT3.usec                      : CBL 3' Travel Time
AMP3.mV                       : CBL 3' Amplitude
GR.GAPI                       : Gamma Ray
~Parameter Information Block
~A  Depth       CCL         TT3         AMP3         GR     
# ...
   703.5000      0.0000    263.5752     40.5271    116.5254
   703.7500      0.0000    264.0097     39.9641    118.3573
   704.0000      0.0000    265.4019     39.5966    120.1087
   704.2500      0.0000    269.2060     39.3978    121.7465
   704.5000      0.0000    275.7917     39.2727    123.4303
   704.7500      0.0000    281.8622     39.1788    124.3852
   705.0000      0.0000    283.1949     39.1297    123.2474
   705.2500      0.0000    281.4373     39.0666    119.9413
   705.5000      0.0000    282.7359     38.8205    116.5075
   705.7500      0.0000    288.7726     38.2309    115.3169
   706.0000      0.0000    295.3580     37.2840    116.7043
   706.2500      0.0000    299.1847     36.1716    118.9677
   706.5000      0.0000    300.5703     35.2095    120.5710
   706.7500      0.0000    300.9322     34.6229    121.6426
   707.0000      0.0000    301.0280     34.3755    123.2563
   707.2500      0.0000    301.0698     34.2367    125.9584
   707.5000      0.0000    301.1057     34.0248    129.3083
   707.7500      0.0000    301.1505     33.7213    132.4960
   708.0000      0.0000    301.2051     33.3820    135.1523
   708.2500      0.0000    301.2598     33.0562    137.5232
   708.5000      0.0000    301.3022     32.7803    139.7117
   708.7500      0.0000    301.3253     32.5969    140.9587
   709.0000      0.0000    301.3203     32.5913    140.2182
   709.2500      0.0000    301.2722     32.8782    137.4778
   709.5000      0.0000    301.1732     33.5122    133.9129
   709.7500      0.0000    301.0368     34.3909    130.4793
   710.0000      0.0000    300.9013     35.2502    127.0135
   710.2500      0.0000    300.8060     35.8436    123.2564
   710.5000      0.0000    300.7609     36.1428    120.1854
   710.7500      0.0000    300.7477     36.2709    119.4273
   711.0000      0.0000    300.7430     36.3009    121.3996
   711.2500      0.0000    300.7361     36.2525    124.5730
   711.5000      0.0000    300.7363     36.1802    126.7935
   711.7500      0.0000    300.7621     36.1189    127.1683
   712.0000      0.0000    300.8099     36.0359    126.5732
   712.2500      0.0000    300.8534     35.8829    126.4660
   712.5000      0.0000    300.8911     35.5935    127.5310
   712.7500      0.0000    300.9635     35.0977    129.5560
   713.0000      0.0000    301.1000     34.4499    132.2181
   713.2500      0.0000    301.2695     33.8461    135.5521
   713.5000      0.0000    301.4098     33.4627    139.6154
   713.7500      0.0000    301.4953     33.3217    143.8404
   714.0000      0.0000    301.5511     33.3286    146.9500
   714.2500      0.0000    301.6218     33.4247    147.8471
   714.5000      0.0000    301.7663     33.6047    146.6589
   714.7500      0.0000    302.1000     33.7342    144.6361
   715.0000      0.0000    302.8612     33.4369    142.8764
   715.2500      0.0000    304.2945     32.1808    141.1931
   715.5000      0.0000    306.2650     29.6075    138.3326
   715.7500      0.0000    308.1442     26.2577    133.3670
   716.0000      0.0000    309.2751     23.6004    126.8564
   716.2500      0.0000    309.5091     22.5559    120.6938
   716.5000      0.0000    309.2550     22.6555    116.8134
   716.7500      2.0000    309.0169     22.9599    115.7339
   717.0000     -2.0000    309.0266     22.9692    116.0572
   717.2500      0.0000    309.5098     22.6175    115.5130
   717.5000      0.0000    312.2197     22.0548    112.7300
   717.7500      0.0000    323.3466     21.7453    108.1607
   718.0000      0.0000    351.6550     22.2532    103.6003
   718.2500      0.0000    391.1811     23.4288    101.0931
   718.5000      0.0000    410.3649     24.8032    102.0094
   718.7500      0.0000    387.9031     26.6470    106.3658
   719.0000      0.0000    345.9269     29.0280    112.3959
   719.2500      0.0000    316.4222     31.0368    117.0692
   719.5000      0.0000    305.0660     32.0189    118.0197
   719.7500      0.0000    302.5172     32.2097    115.3572
   720.0000      0.0000    302.2169     32.0870    111.1907
   720.2500      0.0000    302.2128     31.9215    107.4389
   720.5000      0.0000    302.2061     31.8023    104.5867
   720.7500      0.0000    302.1805     31.7616    102.3645
   721.0000      0.0000    302.1284     31.8316    100.8013
   721.2500      0.0000    302.0336     32.0018    100.2557
   721.5000      0.0000    301.9255     32.1659    100.7880
   721.7500      0.0000    301.8628     32.1862    101.9621
   722.0000      0.0000    301.8620     32.0194    103.1402
   722.2500      0.0000    301.8890     31.7392    103.7004
   722.5000      0.0000    301.9127     31.4512    103.1801
   722.7500      0.0000    301.9233     31.2233    101.5129
   723.0000      0.0000    301.9178     31.0768     99.1233
   723.2500      0.0000    301.9011     30.9945     96.7845
   723.5000      0.0000    301.8874     30.9252     95.3993
   723.7500      0.0000    301.8781     30.8278     95.5453
   724.0000      0.0000    301.8592     30.7245     97.0295
   724.2500      0.0000    301.8326     30.6542     99.1004
   724.5000      0.0000    301.8275     30.6046    101.1657
   724.7500      0.0000    301.8630     30.5642    103.1201
   725.0000      0.0000    301.9125     30.5831    104.9329
   725.2500      0.0000    301.9363     30.6936    106.1781
   725.5000      0.0000    301.9365     30.8171    106.3020
   725.7500      0.0000    301.9538     30.8228    105.3484
   726.0000      0.0000    302.0157     30.6674    104.0411
   726.2500      0.0000    302.1049     30.4125    102.9895
   726.5000      0.0000    302.1877     30.1070    102.0268
   726.7500      0.0000    302.2533     29.7537    100.4175
   727.0000      0.0000    302.3120     29.3842     97.4739
   727.2500      0.0000    302.3686     29.0590     92.9613
   727.5000      0.0000    302.4091     28.8114     87.2442
   727.7500      0.0000    302.4150     28.6242     81.1141
   728.0000      0.0000    302.3887     28.4252     75.2480
   728.2500      0.0000    302.3593     28.1461     69.7920
   728.5000      0.0000    302.3576     27.8089     64.5779
   728.7500      0.0000    302.3866     27.5038     59.5971
   729.0000      0.0000    302.4227     27.2853     55.0902
   729.2500      0.0000    302.4488     27.1249     51.3544
   729.5000      0.0000    302.4723     26.9588     48.5369
   729.7500      0.0000    302.5049     26.7820     46.4420
   730.0000      0.0000    302.5376     26.6642     44.5848
   730.2500      0.0000    302.5602     26.6523     42.6511
   730.5000      0.0000    302.5852     26.7080     40.8813
   730.7500      0.0000    302.6208     26.7863     39.8940
   731.0000      0.0000    302.6445     26.9114     40.0860
   731.2500      0.0000    302.6324     27.1133     41.0959
   731.5000      0.0000    302.5878     27.3710     41.8604
   731.7500      0.0000    302.5298     27.6613     41.4701
   732.0000      0.0000    302.4721     27.9717     40.0693
   732.2500      0.0000    302.4143     28.2746     38.7859
   732.5000      0.0000    302.3456     28.5767     38.7339
   732.7500      0.0000    302.2593     28.9340     40.1552
   733.0000      0.0000    302.1662     29.3460     42.3845
   733.2500      0.0000    302.0829     29.7478     44.3549
   733.5000      0.0000    302.0125     30.1214     45.2184
   733.7500      0.0000    301.9502     30.4830     44.9768
   734.0000      0.0000    301.8963     30.7932     44.7864
   734.2500      0.0000    301.8535     30.9948     46.3610
   734.5000      0.0000    301.8172     31.1051     50.6400
   734.7500      0.0000    301.7737     31.1924     56.9228
   735.0000      0.0000    301.7146     31.2860     63.3908
   735.2500      0.0000    301.6536     31.3661     68.4946
   735.5000      0.0000    301.6178     31.4116     71.9762
   735.7500      0.0000    301.6263     31.4004     74.8262
   736.0000      0.0000    301.6815     31.2916     78.2772
   736.2500      0.0000    301.7680     31.0720     82.6160
   736.5000      0.0000    301.8605     30.7954     86.9162
   736.7500      0.0000    301.9434     30.5040     89.9514
