~Version Information
VERS.                      2.0: CWLS Log ASCII Standard - VERSION 2.0
WRAP.                       NO: One line per depth step
~Well Information Block
STRT.FT                10.0000: 
STOP.FT               715.0000: 
STEP.FT                 0.1000: 
NULL.                -999.2500: 
COMP.          Pioneer Natural Resources: COMPANY
WELL.           Belvedere 14-7: WELL
FLD.           Purgatorie River: FIELD
LOC.           786' FSL & 1283' FWL: LOCATION
PROV.                 Colorado: PROVINCE
CNTY.               Las Animas: COUNTRY
SRVC.                Patterson: SERVICE COMPANY
DATE.          Mon Nov 28 07:30:54 2005: LOG DATE
UWI.           05-071-08557               : UNIQUE WELL ID
~Curve Information Block
DEPT.FT            0 000 00 00: Depth
DCAL.in                       : CDL Caliper
RHOB.g/cc                     : CDL Bulk Density
RHOC.g/cc                     : CDL Density Correction
DPOR.pu                       : CDL Density Porosity
GR.GAPI                       : Gamma Ray
NPOR.pu                       : Neutron Porosity
~Parameter Information Block
~A  Depth       DCAL        RHOB        RHOC        DPOR         GR         NPOR    
# ...
   288.4000      8.0000      2.5596     -0.0136      5.4767     94.4992     21.6591
   288.5000      7.9966      2.5731     -0.0015      4.6604     94.7336     21.6453
   288.6000      7.9966      2.5902      0.0241      3.6250     92.6022     21.6973
   288.7000      7.9966      2.6100      0.0471      2.4213     89.3333     21.7975
   288.8000      7.9721      2.6315      0.0404      1.1216     88.3359     21.7485
   288.9000      7.9721      2.6435      0.0571      0.3941     90.4702     21.4784
   289.0000      7.9738      2.6397      0.0437      0.6245     93.8052     21.1960
   289.1000      7.9738      2.6349      0.0406      0.9159     96.6836     20.9832
   289.2000      7.9738      2.6374      0.0601      0.7618     98.0898     20.6847
   289.3000      7.9766      2.6306      0.0747      1.1732     99.2231     20.3935
   289.4000      7.9766      2.6085     -0.0312      2.5130    101.3915     20.2506
   289.5000      7.9983      2.5885     -0.0193      3.7270    102.5535     20.2347
   289.6000      7.9983      2.5779     -0.0001      4.3709    101.7657     20.4515
   289.7000      7.9983      2.5701      0.0286      4.8406    101.4967     20.8542
   289.8000      7.9931      2.5579      0.0373      5.5817    102.4927     20.9999
   289.9000      7.9931      2.5416     -0.0287      6.5682    102.3082     20.7275
   290.0000      7.9775      2.5274      0.0066      7.4311     99.4704     20.2580
   290.1000      7.9775      2.5111     -0.0012      8.4176     95.9077     19.7608
   290.2000      7.9775      2.4914     -0.0369      9.6113     94.6636     19.2982
   290.3000      7.9817      2.4782     -0.0319     10.4114     95.2943     18.7415
   290.4000      7.9817      2.4755     -0.0098     10.5781     94.7813     18.1519
   290.5000      7.9898      2.4776     -0.0114     10.4484     93.0424     17.8266
   290.6000      7.9898      2.4767      0.0110     10.5041     92.4245     17.8094
   290.7000      7.9898      2.4699      0.0001     10.9181     93.4255     17.9291
   290.8000      7.9840      2.4603      0.0367     11.4992     94.4631     18.1362
   290.9000      7.9840      2.4472      0.0552     12.2939     94.9268     18.3968
   291.0000      7.9791      2.4315     -0.0095     13.2404     94.6733     18.4711
   291.1000      7.9791      2.4260      0.0146     13.5770     92.2015     18.3343
   291.2000      7.9791      2.4425      0.0126     12.5774     89.2532     18.2588
   291.3000      7.9868      2.4740      0.0765     10.6669     90.3262     18.4009
   291.4000      7.9868      2.5011      0.0869      9.0242     94.1798     18.6978
   291.5000      7.9887      2.5111      0.1214      8.4178     95.8478     19.0184
   291.6000      7.9887      2.5066      0.0297      8.6933     94.5652     19.2324
   291.7000      7.9887      2.5027      0.0506      8.9296     92.3233     19.2361
   291.8000      7.9880      2.5060      0.0545      8.7263     92.7710     19.1356
   291.9000      7.9880      2.5086      0.0593      8.5694     96.6807     19.1023
   292.0000      7.9961      2.4991      0.0657      9.1473     99.7841     19.0379
   292.1000      7.9961      2.4774     -0.0097     10.4610    100.5042     18.8363
   292.2000      7.9961      2.4592     -0.0198     11.5663    100.8995     18.6195
   292.3000      7.9904      2.4506     -0.0008     12.0863    101.5259     18.4216
   292.4000      7.9904      2.4419      0.0110     12.6098    100.3603     18.2618
   292.5000      7.9929      2.4311     -0.0067     13.2640     96.4815     18.2864
   292.6000      7.9929      2.4288      0.0111     13.4053     92.0847     18.3501
   292.7000      7.9929      2.4386      0.0115     12.8096     90.0554     18.2827
   292.8000      8.0029      2.4497      0.0359     12.1385     89.6425     18.3261
   292.9000      8.0029      2.4549     -0.0096     11.8228     88.3515     18.5004
   293.0000      8.0006      2.4524      0.0197     11.9755     87.3809     18.5122
   293.1000      8.0006      2.4351      0.0057     13.0251     89.4325     18.4119
   293.2000      8.0006      2.4111     -0.0079     14.4805     93.3691     18.3483
   293.3000      8.0033      2.3981     -0.0246     15.2689     96.1388     18.1719
   293.4000      8.0033      2.3982     -0.0151     15.2621     96.0096     17.9987
   293.5000      8.0048      2.4078     -0.0177     14.6802     92.8428     18.0610
   293.6000      8.0048      2.4274     -0.0116     13.4900     89.5973     18.1718
   293.7000      8.0048      2.4485      0.0368     12.2130     89.9644     18.1099
   293.8000      8.0048      2.4527      0.0534     11.9561     93.4731     17.9440
   293.9000      8.0048      2.4323      0.0423     13.1948     97.4666     17.8305
   294.0000      8.0055      2.4033     -0.0228     14.9528    100.4401     17.8404
   294.1000      8.0055      2.3902     -0.0225     15.7428    102.1400     17.9993
   294.2000      8.0055      2.4016     -0.0152     15.0558    101.9252     18.2206
   294.3000      8.0168      2.4275      0.0143     13.4844     98.7226     18.2874
   294.4000      8.0168      2.4483      0.0698     12.2228     93.7494     18.1171
   294.5000      8.0032      2.4478      0.0578     12.2533     90.3729     17.7245
   294.6000      8.0032      2.4300      0.0220     13.3360     89.9964     17.2375
   294.7000      8.0032      2.4084      0.0218     14.6448     90.1728     16.9695
   294.8000      8.0027      2.3901     -0.0223     15.7524     89.2863     17.0829
   294.9000      8.0027      2.3783      0.0097     16.4652     88.0368     17.3819
   295.0000      8.0068      2.3782     -0.0182     16.4718     86.4920     17.5985
   295.1000      8.0068      2.3941     -0.0005     15.5101     85.8268     17.4641
   295.2000      8.0068      2.4137      0.0523     14.3234     86.6804     16.8203
   295.3000      8.0073      2.4178      0.0459     14.0747     86.5937     16.1108
   295.4000      8.0073      2.4085      0.0408     14.6339     84.9933     15.9414
   295.5000      8.0157      2.4046     -0.0088     14.8745     84.1312     16.3191
   295.6000      8.0157      2.4102      0.0414     14.5314     85.7729     16.8238
   295.7000      8.0157      2.4106      0.0100     14.5067     90.6032     16.9877
   295.8000      8.0242      2.4011      0.0025     15.0825     95.2870     16.7952
   295.9000      8.0242      2.3852      0.0442     16.0514     95.4692     16.6477
   296.0000      8.0132      2.3595     -0.0022     17.6056     92.6482     16.5607
   296.1000      8.0132      2.3349     -0.0391     19.0961     90.2964     16.3422
   296.2000      8.0132      2.3336     -0.0445     19.1777     89.1351     16.1947
   296.3000      8.0198      2.3503      0.0090     18.1621     89.4662     16.3910
   296.4000      8.0198      2.3620      0.0082     17.4569     91.6659     16.7476
   296.5000      8.0131      2.3638      0.0143     17.3460     93.4721     16.9284
   296.6000      8.0131      2.3640      0.0099     17.3322     93.0870     16.9572
   296.7000      8.0131      2.3697      0.0047     16.9878     91.9497     16.9207
   296.8000      8.0073      2.3798      0.0296     16.3780     91.0407     16.8416
   296.9000      8.0073      2.3840      0.0448     16.1222     89.9528     16.8733
   297.0000      8.0097      2.3810      0.0346     16.3060     88.7682     17.0308
   297.1000      8.0097      2.3792      0.0567     16.4095     88.5345     17.2609
   297.2000      8.0097      2.3820      0.0117     16.2400     88.7977     17.4081
   297.3000      8.0104      2.3912      0.0019     15.6847     87.2410     17.2212
   297.4000      8.0104      2.4080      0.0552     14.6640     85.0241     16.8082
   297.5000      8.0121      2.4289      0.0447     13.4025     84.9120     16.6340
   297.6000      8.0121      2.4487      0.0735     12.2013     85.3606     16.9830
   297.7000      8.0121      2.4617      0.0525     11.4128     84.7486     17.5070
   297.8000      8.0086      2.4631      0.0795     11.3278     86.1557     17.6769
   297.9000      8.0086      2.4554      0.0474     11.7917     89.9178     17.6311
