~Version Information
VERS.                      2.0: CWLS Log ASCII Standard - VERSION 2.0
WRAP.                       NO: One line per depth step
~Well Information Block
STRT.FT                 0.0000: 
STOP.FT              1528.0000: 
STEP.FT                 0.1000: 
NULL.                -999.2500: 
COMP.          Pioneer Natural Resources: COMPANY
WELL.             Andrew 23-15: WELL
FLD.           Purgatorie River: FIELD
LOC.           2137' FSL & 2292' FWL: LOCATION
PROV.                 Colorado: PROVINCE
CNTY.               Las Animas: COUNTRY
SRVC.                Patterson: SERVICE COMPANY
DATE.          Sat Aug 13 12:06:57 2005: LOG DATE
UWI.                          : UNIQUE WELL ID
~Curve Information Block
DEPT.FT            0 000 00 00: Depth
DCAL.in                       : CDL Caliper
RHOB.g/cc                     : CDL Bulk Density
RHOC.g/cc                     : CDL Density Correction
DPOR.pu                       : CDL Density Porosity
GR.GAPI                       : Gamma Ray
NPOR.pu                       : Neutron Porosity
~Parameter Information Block
~A  Depth       DCAL        RHOB        RHOC        DPOR         GR         NPOR    
     0.0000   -999.2500   -999.2500   -999.2500   -999.2500    124.9943     58.0128
     0.1000   -999.2500   -999.2500   -999.2500   -999.2500    116.8522     57.8505
     0.2000   -999.2500   -999.2500   -999.2500   -999.2500    114.0629     57.8734
     0.3000   -999.2500   -999.2500   -999.2500   -999.2500    111.6789     57.9182
     0.4000   -999.2500   -999.2500   -999.2500   -999.2500    108.1114     57.9189
     0.5000   -999.2500   -999.2500   -999.2500   -999.2500    106.0071     57.9271
     0.6000   -999.2500   -999.2500   -999.2500   -999.2500    110.3795     57.9138
     0.7000   -999.2500   -999.2500   -999.2500   -999.2500    121.1224     57.8464
     0.8000   -999.2500   -999.2500   -999.2500   -999.2500    128.3401     57.8164
     0.9000   -999.2500   -999.2500   -999.2500   -999.2500    125.4834     57.8722
     1.0000   -999.2500   -999.2500   -999.2500   -999.2500    119.2085     57.9372
     1.1000   -999.2500   -999.2500   -999.2500   -999.2500    116.7870     57.9217
     1.2000   -999.2500   -999.2500   -999.2500   -999.2500    118.3724     57.8175
     1.3000   -999.2500   -999.2500   -999.2500   -999.2500    121.0956     57.7107
     1.4000   -999.2500   -999.2500   -999.2500   -999.2500    125.5606     57.6676
     1.5000   -999.2500   -999.2500   -999.2500   -999.2500    130.7063     57.7009
     1.6000   -999.2500   -999.2500   -999.2500   -999.2500    131.5183     57.7181
     1.7000   -999.2500   -999.2500   -999.2500   -999.2500    128.4913     57.5749
     1.8000   -999.2500   -999.2500   -999.2500   -999.2500    123.4384     57.3321
     1.9000   -999.2500   -999.2500   -999.2500   -999.2500    119.4568     57.1915
     2.0000   -999.2500   -999.2500   -999.2500   -999.2500    124.8409     57.1777
     2.1000   -999.2500   -999.2500   -999.2500   -999.2500    136.6497     57.1563
     2.2000   -999.2500   -999.2500   -999.2500   -999.2500    146.2327     57.0515
     2.3000   -999.2500   -999.2500   -999.2500   -999.2500    154.7449     56.8375
     2.4000   -999.2500   -999.2500   -999.2500   -999.2500    163.6182     56.4662
     2.5000   -999.2500   -999.2500   -999.2500   -999.2500    169.8329     55.9731
     2.6000   -999.2500   -999.2500   -999.2500   -999.2500    172.6012     55.4548
     2.7000   -999.2500   -999.2500   -999.2500   -999.2500    176.9668     54.9316
     2.8000   -999.2500   -999.2500   -999.2500   -999.2500    186.2924     54.3759
     2.9000   -999.2500   -999.2500   -999.2500   -999.2500    195.7070     53.6373
     3.0000   -999.2500   -999.2500   -999.2500   -999.2500    200.8705     52.5452
     3.1000   -999.2500   -999.2500   -999.2500   -999.2500    201.5460     51.2499
     3.2000   -999.2500   -999.2500   -999.2500   -999.2500    195.5381     49.9767
     3.3000   -999.2500   -999.2500   -999.2500   -999.2500    183.5980     48.7001
     3.4000   -999.2500   -999.2500   -999.2500   -999.2500    171.7389     47.3750
     3.5000     16.5157   -999.2500      2.4398   -999.2500    166.4590     45.8568
     3.6000     16.5157   -999.2500      2.3953   -999.2500    170.0501     43.8044
     3.7000     16.5157   -999.2500      2.4260   -999.2500    173.6076     41.3575
     3.8000     16.5264   -999.2500      2.3721   -999.2500    167.1862     39.2062
     3.9000     16.5264   -999.2500      2.3778   -999.2500    156.9895     37.5037
     4.0000     16.5192      1.6558      2.3547     -0.0199    153.5752     36.1429
     4.1000     16.5192      1.6902      2.3770     -0.0192    153.1784     35.3319
     4.2000     16.5192      1.7387      2.4759     -0.0182    148.2482     35.0476
     4.3000     16.5112      1.7799      2.4773     -0.0174    141.2505     34.9052
     4.4000     16.5112      1.8098      2.4729     -0.0168    138.7592     34.6144
     4.5000     16.5170      1.8383      2.4968     -0.0162    139.3223     34.3621
     4.6000     16.5170      1.8651      2.5398     -0.0157    137.7814     34.1913
     4.7000     16.5170      1.8839      2.5134     -0.0153    133.0731     33.7076
     4.8000     16.5204      1.8953      2.5390     -0.0151    128.4116     33.1541
     4.9000     16.5204      1.8998      2.5525     -0.0150    128.8631     33.2597
     5.0000     16.5190      1.8978      2.5443     -0.0151    133.4324     33.6163
     5.1000     16.5190      1.8918      2.5708     -0.0152    137.1489     33.5221
     5.2000     16.5190      1.8844      2.5190     -0.0153    138.5422     33.2871
     5.3000     16.5161      1.8800      2.5193     -0.0154    135.6241     32.9775
     5.4000     16.5161      1.8788      2.5431     -0.0154    128.3210     32.2790
     5.5000     16.5153      1.8790      2.5372     -0.0154    120.7738     31.5507
     5.6000     16.5153      1.8824      2.5443     -0.0154    114.4786     30.9066
     5.7000     16.5153      1.8863      2.5568     -0.0153    109.1954     30.2129
     5.8000     16.5213      1.8857      2.5469     -0.0153    107.6956     29.8871
     5.9000     16.5213      1.8824      2.5490     -0.0154    111.1966     30.0769
     6.0000     16.5196      1.8791      2.5549     -0.0154    115.3837     30.2341
     6.1000     16.5196      1.8723      2.5519     -0.0156    116.9989     29.7886
     6.2000     16.5196      1.8586      2.5382     -0.0158    117.7167     29.0764
     6.3000     16.5198      1.8426      2.5358     -0.0162    120.5573     28.9139
     6.4000     16.5198      1.8311      2.5378     -0.0164    125.0210     29.4206
     6.5000     16.5228      1.8221      2.5516     -0.0166    127.5605     29.7926
     6.6000     16.5228      1.8078      2.5287     -0.0169    125.4056     29.5676
     6.7000     16.5228      1.7882      2.5098     -0.0172    119.8137     29.2585
     6.8000     16.5175      1.7664      2.5203     -0.0177    115.1058     28.9582
     6.9000     16.5175      1.7405      2.5125     -0.0182    113.2894     28.2096
     7.0000     16.5218      1.7159      2.4430     -0.0187    115.0406     27.3613
     7.1000     16.5218      1.7065      2.4657     -0.0189    120.8630     27.3169
     7.2000     16.5218      1.7120      2.4736     -0.0188    127.8616     28.1504
     7.3000     16.5218      1.7204      2.4868     -0.0186    130.0782     29.1373
     7.4000     16.5218      1.7247      2.4838     -0.0185    123.4786     29.5748
     7.5000     16.5175      1.7261      2.4637     -0.0185    115.4064     29.2163
     7.6000     16.5175      1.7308      2.4511     -0.0184    114.4335     28.5285
     7.7000     16.5175      1.7432      2.4847     -0.0181    116.9580     28.1566
     7.8000     16.5228      1.7638      2.4781     -0.0177    117.9471     27.9749
     7.9000     16.5228      1.7920      2.5075     -0.0172    117.4854     27.8893
     8.0000     16.5212      1.8183      2.5551     -0.0166    115.4825     28.1810
     8.1000     16.5212      1.8342      2.4923     -0.0163    112.7125     28.6495
     8.2000     16.5212      1.8437      2.5213     -0.0161    114.0328     28.9149
     8.3000     16.5297      1.8557      2.4828     -0.0159    118.9022     29.0478
     8.4000     16.5297      1.8825      2.4854     -0.0154    122.2582     29.2035
     8.5000     16.5205      1.9223      2.5573     -0.0146    121.6081     29.1135
     8.6000     16.5205      1.9548      2.5627     -0.0139    117.2343     28.7433
     8.7000     16.5205      1.9731      2.5634     -0.0135    113.9631     28.5595
     8.8000     16.5183      1.9838      2.5737     -0.0133    114.6234     28.8882
     8.9000     16.5183      1.9870      2.5774     -0.0133    117.5773     29.3748
     9.0000     16.5217      1.9822      2.5787     -0.0134    121.8424     29.3578
     9.1000     16.5217      1.9723      2.5848     -0.0136    125.1304     28.9743
     9.2000     16.5217      1.9582      2.5932     -0.0138    125.1578     29.1850
     9.3000     16.5198      1.9415      2.5679     -0.0142    124.3963     30.3919
     9.4000     16.5198      1.9261      2.5717     -0.0145    124.7332     31.6045
     9.5000     16.5202      1.9086      2.5876     -0.0148    125.5885     31.9848
