~Version Information
VERS.                      2.0: CWLS Log ASCII Standard - VERSION 2.0
WRAP.                       NO: One line per depth step
~Well Information Block
STRT.FT               360.0000: 
STOP.FT              2475.0000: 
STEP.FT                 0.1000: 
NULL.                -999.2500: 
COMP.          Pioneer Natural Resources: COMPANY
WELL.          Hellzonfire 32-31: WELL
FLD.           Purgatoire River: FIELD
LOC.           1993' FNL & 2265' FEL: LOCATION
STAT.                 Colorado: State
CNTY.               Las Animas: COUNTY
CTRY. USA : Country
SECT. 31 : Section
TOWN. 32S : Township
RANG. 66W : Range
SRVC.                Patterson: SERVICE COMPANY
DATE.          Fri Sep 02 07:26:13 2005: LOG DATE
API.           05 071 08483 00: UNIQUE WELL ID
~Curve Information Block
DEPT.FT            0 000 00 00: Depth
DCAL.in                       : CDL Caliper
RHOB.g/cc                     : CDL Bulk Density
RHOC.g/cc                     : CDL Density Correction
DPOR.pu                       : CDL Density Porosity
GR.GAPI                       : Gamma Ray
NPOR.pu                       : Neutron Porosity
~Parameter Information Block
~A  Depth       DCAL        RHOB        RHOC        DPOR         GR         NPOR    
# ...
  2462.4000      7.9050      2.4774      0.0652     10.4590   -999.2500   -999.2500
  2462.5000      7.8960      2.4903      0.0413      9.6767   -999.2500   -999.2500
  2462.6000      7.8960      2.5283      0.0903      7.3750   -999.2500   -999.2500
  2462.7000      7.8960      2.5908      0.1457      3.5894   -999.2500   -999.2500
  2462.8000      7.8801      2.6555      0.1917     -0.3343   -999.2500   -999.2500
  2462.9000      7.8801      2.6981      0.2468     -2.9162   -999.2500   -999.2500
  2463.0000      7.8182      2.7064      0.2665     -3.4207   -999.2500   -999.2500
  2463.1000      7.8182      2.6867      0.2425     -2.2272   -999.2500   -999.2500
  2463.2000      7.8182      2.6598      0.1608     -0.5947   -999.2500   -999.2500
  2463.3000      7.7853      2.6403      0.1637      0.5857   -999.2500   -999.2500
  2463.4000      7.7853      2.6157      0.1403      2.0766   -999.2500   -999.2500
  2463.5000      7.7896      2.5788      0.0521      4.3128   -999.2500   -999.2500
  2463.6000      7.7896      2.5521      0.0606      5.9306   -999.2500   -999.2500
  2463.7000      7.7896      2.5506      0.0369      6.0234   -999.2500   -999.2500
  2463.8000      7.8813      2.5673      0.0759      5.0100   -999.2500   -999.2500
  2463.9000      7.8813      2.5876      0.0699      3.7789   -999.2500   -999.2500
  2464.0000      7.9053      2.5954      0.0474      3.3084   -999.2500   -999.2500
  2464.1000      7.9053      2.5860      0.0792      3.8792   -999.2500   -999.2500
  2464.2000      7.9053      2.5752      0.0526      4.5308   -999.2500   -999.2500
  2464.3000      7.9239      2.5767      0.1143      4.4403   -999.2500   -999.2500
  2464.4000      7.9239      2.5885      0.0778      3.7262   -999.2500   -999.2500
  2464.5000      7.9252      2.6013      0.1388      2.9499   -999.2500   -999.2500
  2464.6000      7.9252      2.6036      0.0657      2.8131   -999.2500   -999.2500
  2464.7000      7.9252      2.5977      0.0610      3.1679   -999.2500   -999.2500
  2464.8000      7.8959      2.5930      0.1001      3.4531   -999.2500   -999.2500
  2464.9000      7.8959      2.5916      0.0555      3.5400   -999.2500   -999.2500
  2465.0000      7.8795      2.5919      0.0798      3.5188   -999.2500   -999.2500
  2465.1000      7.8795      2.6010      0.0598      2.9681   -999.2500   -999.2500
  2465.2000      7.8795      2.6244      0.1236      1.5541   -999.2500   -999.2500
  2465.3000      7.8954      2.6443      0.0906      0.3470   -999.2500   -999.2500
  2465.4000      7.8954      2.6452      0.1228      0.2893   -999.2500   -999.2500
  2465.5000      7.8935      2.6346      0.1244      0.9345   -999.2500   -999.2500
  2465.6000      7.8935      2.6312      0.1048      1.1368   -999.2500   -999.2500
  2465.7000      7.8935      2.6373      0.1293      0.7687   -999.2500   -999.2500
  2465.8000      7.8571      2.6291      0.1380      1.2654   -999.2500   -999.2500
  2465.9000      7.8571      2.5973      0.0726      3.1911   -999.2500   -999.2500
  2466.0000      7.8721      2.5647      0.0272      5.1669   -999.2500   -999.2500
  2466.1000      7.8721      2.5445      0.1004      6.3929   -999.2500   -999.2500
  2466.2000      7.8721      2.5283      0.0890      7.3749   -999.2500   -999.2500
  2466.3000      7.8949      2.5198      0.0464      7.8937   -999.2500   -999.2500
  2466.4000      7.8949      2.5342      0.0347      7.0157   -999.2500   -999.2500
  2466.5000      7.8870      2.5727      0.0971      4.6830   -999.2500   -999.2500
  2466.6000      7.8870      2.6171      0.1220      1.9915   -999.2500   -999.2500
  2466.7000      7.8870      2.6486      0.1398      0.0841   -999.2500   -999.2500
  2466.8000      7.8883      2.6593      0.1456     -0.5616   -999.2500   -999.2500
  2466.9000      7.8883      2.6500      0.1316      0.0030   -999.2500   -999.2500
  2467.0000      7.8679      2.6224      0.1578      1.6744   -999.2500   -999.2500
  2467.1000      7.8679      2.5830      0.1056      4.0628   -999.2500   -999.2500
  2467.2000      7.8679      2.5496      0.0524      6.0861   -999.2500   -999.2500
  2467.3000      7.8542      2.5310      0.0629      7.2149   -999.2500   -999.2500
  2467.4000      7.8542      2.5193      0.0508      7.9217   -999.2500   -999.2500
  2467.5000      7.8546      2.5088      0.0427      8.5558   -999.2500   -999.2500
  2467.6000      7.8546      2.4999     -0.0178      9.0944   -999.2500   -999.2500
  2467.7000      7.8546      2.4952      0.0029      9.3841   -999.2500   -999.2500
  2467.8000      7.8829      2.4969      0.0246      9.2793   -999.2500   -999.2500
  2467.9000      7.8829      2.5127      0.0202      8.3192   -999.2500   -999.2500
  2468.0000      7.8963      2.5495      0.0371      6.0904   -999.2500   -999.2500
  2468.1000      7.8963      2.5907      0.1558      3.5957   -999.2500   -999.2500
  2468.2000      7.8963      2.6088      0.1156      2.4982   -999.2500   -999.2500
  2468.3000      7.8920      2.5979      0.1352      3.1570   -999.2500   -999.2500
  2468.4000      7.8920      2.5754      0.1253      4.5190   -999.2500   -999.2500
  2468.5000      7.8569      2.5650      0.0939      5.1531   -999.2500   -999.2500
  2468.6000      7.8569      2.5673      0.1357      5.0114   -999.2500   -999.2500
  2468.7000      7.8569      2.5715      0.0770      4.7559   -999.2500   -999.2500
  2468.8000      7.8533      2.5821      0.0910      4.1165   -999.2500   -999.2500
  2468.9000      7.8533      2.5975      0.1014      3.1811   -999.2500   -999.2500
  2469.0000      7.8771      2.6014      0.1027      2.9470   -999.2500   -999.2500
  2469.1000      7.8771      2.5882      0.0686      3.7427   -999.2500   -999.2500
  2469.2000      7.8771      2.5707      0.0497      4.8049   -999.2500   -999.2500
  2469.3000      7.8903      2.5606      0.0549      5.4192   -999.2500   -999.2500
  2469.4000      7.8903      2.5582      0.0851      5.5620   -999.2500   -999.2500
  2469.5000      7.8861      2.5538      0.0827      5.8276   -999.2500   -999.2500
  2469.6000      7.8861      2.5472      0.0294      6.2316   -999.2500   -999.2500
  2469.7000      7.8861      2.5574      0.0623      5.6109   -999.2500   -999.2500
  2469.8000      7.8783      2.5865      0.1174      3.8471   -999.2500   -999.2500
  2469.9000      7.8783      2.6058      0.1138      2.6766   -999.2500   -999.2500
  2470.0000      7.8746      2.6016      0.1175      2.9309   -999.2500   -999.2500
  2470.1000      7.8746      2.5894      0.0927      3.6714   -999.2500   -999.2500
  2470.2000      7.8746      2.5802      0.1321      4.2306   -999.2500   -999.2500
  2470.3000      7.8848      2.5680      0.0953      4.9696   -999.2500   -999.2500
  2470.4000      7.8848      2.5485      0.0798      6.1486   -999.2500   -999.2500
  2470.5000      7.8714      2.5338      0.0385      7.0425   -999.2500   -999.2500
  2470.6000      7.8714      2.5387      0.0641      6.7436   -999.2500   -999.2500
  2470.7000      7.8714      2.5523      0.1262      5.9216   -999.2500   -999.2500
  2470.8000      7.8976      2.5579      0.0806      5.5791   -999.2500   -999.2500
  2470.9000      7.8976      2.5586      0.0965      5.5423   -999.2500   -999.2500
  2471.0000      7.8210      2.5615      0.0817      5.3630   -999.2500   -999.2500
  2471.1000      7.8210      2.5745      0.0834      4.5771   -999.2500   -999.2500
  2471.2000      7.8210      2.5936      0.1716      3.4153   -999.2500   -999.2500
  2471.3000      7.6313      2.6184      0.1482      1.9136   -999.2500   -999.2500
  2471.4000      7.6313      2.6889      0.1172     -2.3566   -999.2500   -999.2500
  2471.5000      7.6469      2.7088      0.1094     -3.5608   -999.2500   -999.2500
  2471.6000      7.6469      2.2640      0.5547     23.3955   -999.2500   -999.2500
  2471.7000      7.6469      1.2856      0.0300     82.6926   -999.2500   -999.2500
  2471.8000      7.7117      0.4360      0.0300    134.1837   -999.2500   -999.2500
  2471.9000      7.7117      0.0828   -999.2500    155.5884   -999.2500   -999.2500
