~Version Information
VERS.                      2.0: CWLS Log ASCII Standard - VERSION 2.0
WRAP.                       NO: One line per depth step
~Well Information Block
STRT.FT                 0.0000: 
STOP.FT               878.0000: 
STEP.FT                 0.2500: 
NULL.                -999.2500: 
COMP.          Pioneer Natural Resources: COMPANY
WELL.           Hartford 31-18: WELL
FLD.           Purgatorie River: FIELD
LOC.           375' FNL & 1660' FEL: LOCATION
PROV.                 Colorado: PROVINCE
CNTY.               Las Animas: COUNTRY
SRVC.                Patterson: SERVICE COMPANY
DATE.          Mon Nov 28 12:10:49 2005: LOG DATE
UWI.             05-071-08555             : UNIQUE WELL ID
~Curve Information Block
DEPT.FT            0 000 00 00: Depth
CCL.                          : Casing Collar Locator
TT3.usec                      : CBL 3' Travel Time
AMP3.mV                       : CBL 3' Amplitude
GR.GAPI                       : Gamma Ray
~Parameter Information Block
~A  Depth       CCL         TT3         AMP3         GR     
# ...
   167.5000      0.0000    801.2769      7.8305     53.7899
   167.7500      0.0000    812.4050      7.8745     50.5827
   168.0000      0.0000    812.4982      7.9349     50.1231
   168.2500      0.0000    806.1104      8.0219     51.8385
   168.5000      0.0000    796.9476      8.1452     53.9227
   168.7500      0.0000    787.9268      8.2919     55.1361
   169.0000      0.0000    784.6732      8.4002     55.6173
   169.2500      0.0000    789.2966      8.4355     56.0683
   169.5000      0.0000    796.8545      8.4489     56.7078
   169.7500      0.0000    800.8081      8.4938     57.4955
   170.0000      0.0000    793.3785      8.5565     58.9272
   170.2500      0.0000    772.2408      8.6056     61.7072
   170.5000      0.0000    748.5411      8.6362     65.6243
   170.7500      0.0000    733.8367      8.6443     69.4039
   171.0000      0.0000    728.1072      8.5926     71.7915
   171.2500      0.0000    725.5502      8.4406     72.5101
   171.5000      0.0000    721.9032      8.2191     72.2424
   171.7500      0.0000    716.9434      8.0335     72.1002
   172.0000      0.0000    714.3319      7.9514     73.1603
   172.2500      0.0000    716.6182      7.9163     75.9868
   172.5000      0.0000    721.2992      7.8371     80.0360
   172.7500      0.0000    724.7532      7.7128     83.6554
   173.0000      0.0000    726.2519      7.6238     85.2657
   173.2500      0.0000    726.6494      7.6258     84.7405
   173.5000      0.0000    726.5894      7.6724     83.3620
   173.7500      0.0000    726.4012      7.6687     82.2999
   174.0000      0.0000    726.2844      7.5677     81.4620
   174.2500      0.0000    726.2836      7.3985     79.9983
   174.5000      0.0000    726.2898      7.2503     77.5662
   174.7500      0.0000    726.1871      7.1896     74.7184
   175.0000      0.0000    726.0092      7.1859     72.2418
   175.2500      0.0000    725.9152      7.1791     70.5511
   175.5000      0.0000    726.0391      7.1618     69.8546
   175.7500      0.0000    726.5430      7.1516     70.5319
   176.0000      0.0000    727.9651      7.1457     72.8087
   176.2500      0.0000    730.8234      7.1339     76.0116
   176.5000      0.0000    733.0905      7.1258     78.5446
   176.7500      0.0000    729.5363      7.1132     79.0218
   177.0000      0.0000    721.1842      6.9791     77.5036
   177.2500      0.0000    725.0554      6.5054     75.4362
   177.5000      0.0000    761.6689      5.6463     74.2902
   177.7500      0.0000    831.1119      4.7795     74.3432
   178.0000      0.0000    914.3907      4.3801     74.7304
   178.2500      0.0000    997.0208      4.4937     74.6557
   178.5000      2.0000   1066.3501      4.7731     74.7489
   178.7500     -2.0000   1093.9667      4.8743     76.9515
   179.0000      0.0000   1064.5620      4.6858     82.5326
   179.2500      0.0000   1005.0307      4.3412     90.3487
   179.5000      0.0000    944.7918      4.1639     97.4585
   179.7500      0.0000    881.0519      4.4556    101.2536
   180.0000      0.0000    812.7548      5.1022    100.8322
   180.2500      0.0000    759.5953      5.7047     96.9460
   180.5000      0.0000    732.2203      6.1605     91.3925
   180.7500      0.0000    720.7312      6.5920     86.5228
   181.0000      0.0000    711.5814      6.9648     84.5978
   181.2500      0.0000    701.0450      7.1919     86.6361
   181.5000      0.0000    695.9916      7.3030     91.4758
   181.7500      0.0000    701.7334      7.3580     96.3532
   182.0000      0.0000    712.5121      7.3766     98.8881
   182.2500      0.0000    719.5870      7.3882     98.7608
   182.5000      0.0000    719.3210      7.4543     97.6432
   182.7500      0.0000    710.1205      7.6178     97.6075
   183.0000      0.0000    692.9885      7.8591     99.4005
   183.2500      0.0000    678.1015      8.1142    101.9600
   183.5000      0.0000    677.9528      8.3584    103.4668
   183.7500      0.0000    687.8584      8.6206    102.7378
   184.0000      0.0000    689.0118      8.8857     99.6986
   184.2500      0.0000    677.0220      9.1174     95.0639
   184.5000      0.0000    667.1650      9.3575     89.9951
   184.7500      0.0000    667.1257      9.6453     85.7087
   185.0000      0.0000    668.2639      9.9051     82.8293
   185.2500      0.0000    667.5477     10.0034     81.0596
   185.5000      0.0000    674.6098      9.8814     79.5927
   185.7500      0.0000    692.2164      9.6128     77.6974
   186.0000      0.0000    709.9893      9.3406     74.9664
   186.2500      0.0000    719.8339      9.1711     71.5118
   186.5000      0.0000    723.0161      9.0944     68.0716
   186.7500      0.0000    723.6552      8.9985     65.5547
   187.0000      0.0000    723.6783      8.8240     64.2987
   187.2500      0.0000    722.6574      8.6618     63.9358
   187.5000      0.0000    719.2819      8.5928     63.9577
   187.7500      0.0000    713.7464      8.5314     64.3707
   188.0000      0.0000    707.8944      8.3357     65.8790
   188.2500      0.0000    700.1985      7.9793     69.2422
   188.5000      0.0000    686.5015      7.5711     74.2477
   188.7500      0.0000    671.0607      7.2569     79.4792
   189.0000      0.0000    664.9029      7.0920     83.3072
   189.2500      0.0000    670.5208      7.0010     85.0715
   189.5000      0.0000    682.0212      6.8909     85.3702
   189.7500      0.0000    694.0889      6.7688     85.5122
   190.0000      0.0000    702.6778      6.7122     86.6554
   190.2500      0.0000    707.6549      6.7370     88.9584
   190.5000      0.0000    712.5511      6.7413     91.2433
   190.7500      0.0000    717.8106      6.6342     91.7269
   191.0000      0.0000    721.1303      6.4527     89.4167
   191.2500      0.0000    721.4103      6.2952     85.0035
   191.5000      0.0000    718.5239      6.2228     80.4927
   191.7500      0.0000    713.5574      6.2405     77.9254
   192.0000      0.0000    709.6818      6.2971     78.2740
   192.2500      0.0000    708.5121      6.3118     81.2550
   192.5000      0.0000    708.5416      6.2466     85.8259
   192.7500      0.0000    710.6655      6.1483     90.7411
   193.0000      0.0000    717.8360      6.1062     94.9264
   193.2500      0.0000    727.8408      6.1510     97.8128
   193.5000      0.0000    734.0166      6.2363     99.5049
   193.7500      0.0000    733.3721      6.3447    100.4387
   194.0000      0.0000    729.4495      6.5262    100.7077
   194.2500      0.0000    726.6352      6.8029     99.8090
   194.5000      0.0000    725.7904      7.1102     97.0473
   194.7500      0.0000    725.8055      7.3727     92.0935
   195.0000      0.0000    725.8216      7.5930     85.2012
   195.2500      0.0000    725.6315      7.7916     77.1190
   195.5000      0.0000    725.3924      7.9593     69.0167
   195.7500      0.0000    725.2493      8.1319     62.3943
   196.0000      0.0000    725.1722      8.3666     58.6319
   196.2500      0.0000    725.1088      8.6446     58.3215
   196.5000      0.0000    725.0881      8.8957     60.9925
   196.7500      0.0000    725.0874      9.0785     65.4103
   197.0000      0.0000    725.0141      9.1820     70.1081
   197.2500      0.0000    724.8951      9.1724     73.9443
   197.5000      0.0000    724.8469      9.0185     76.5008
   197.7500      0.0000    724.8331      8.7826     77.9370
   198.0000      0.0000    724.6844      8.5750     78.4043
   198.2500      0.0000    724.4209      8.4356     77.8332
   198.5000      0.0000    724.3559      8.3379     76.3763
   198.7500      0.0000    724.6946      8.2541     74.7583
   199.0000      0.0000    725.1899      8.1801     73.9172
   199.2500      0.0000    725.4430      8.1242     74.2424
   199.5000      0.0000    725.5742      8.0880     75.2645
   199.7500      0.0000    726.6414      8.0586     76.0767
   200.0000      0.0000    730.0854      8.0123     75.9696
   200.2500      0.0000    735.5817      7.9264     74.7769
   200.5000      0.0000    740.2588      7.7994     72.8120
   200.7500      0.0000    743.1461      7.6623     70.4575
