~Version Information
VERS.                      2.0: CWLS Log ASCII Standard - VERSION 2.0
WRAP.                       NO: One line per depth step
~Well Information Block
STRT.FT                 0.0000: 
STOP.FT               712.5000: 
STEP.FT                 0.2500: 
NULL.                -999.2500: 
COMP.          Pioneer Natural Resources: COMPANY
WELL.                Mia 21-18: WELL
FLD.           Purgatorie River: FIELD
LOC.           1067' FNL & 1824' FWL: LOCATION
PROV.                 Colorado: PROVINCE
CNTY.               Las Animas: COUNTRY
SRVC.                Patterson: SERVICE COMPANY
DATE.          Mon Nov 28 13:12:22 2005: LOG DATE
UWI.           05-071-08559               : UNIQUE WELL ID
~Curve Information Block
DEPT.FT            0 000 00 00: Depth
CCL.                          : Casing Collar Locator
TT3.usec                      : CBL 3' Travel Time
AMP3.mV                       : CBL 3' Amplitude
GR.GAPI                       : Gamma Ray
~Parameter Information Block
~A  Depth       CCL         TT3         AMP3         GR     
# ...
   502.5000      0.0000    345.9995     12.3657     96.9885
   502.7500      0.0000    342.9517     12.8907     96.6043
   503.0000      0.0000    338.1706     13.5295     92.6126
   503.2500      0.0000    329.6866     14.2181     86.5668
   503.5000      0.0000    319.2249     14.8783     79.9724
   503.7500      0.0000    310.8156     15.5099     73.6115
   504.0000      0.0000    306.4118     16.1535     68.0676
   504.2500      0.0000    304.8718     16.8123     63.9903
   504.5000      0.0000    304.4526     17.4593     61.5133
   504.7500      0.0000    304.3081     18.0599     60.0807
   505.0000      0.0000    304.2488     18.5979     59.1011
   505.2500      0.0000    304.2210     19.0899     58.3055
   505.5000      0.0000    304.1532     19.5451     57.5156
   505.7500      0.0000    304.0053     19.9441     56.5858
   506.0000      0.0000    303.7698     20.2755     55.6135
   506.2500      0.0000    303.4721     20.5602     54.8800
   506.5000      0.0000    303.1790     20.8449     54.4800
   506.7500      0.0000    302.9590     21.1814     54.0932
   507.0000      0.0000    302.8496     21.5773     53.2848
   507.2500      0.0000    302.8473     21.9782     52.0559
   507.5000      0.0000    302.9013     22.3340     50.8089
   507.7500      0.0000    302.9448     22.6290     49.7573
   508.0000      0.0000    302.9565     22.8243     48.8832
   508.2500      0.0000    302.9795     22.8320     48.5398
   508.5000      0.0000    303.0592     22.5862     49.5311
   508.7500      0.0000    303.1619     22.1248     52.3126
   509.0000      0.0000    303.2097     21.5634     56.3394
   509.2500      0.0000    303.1830     21.0106     60.3924
   509.5000      0.0000    303.1316     20.5232     63.4751
   509.7500      0.0000    303.1389     20.0853     65.2575
   510.0000      0.0000    303.2899     19.6266     65.7975
   510.2500      0.0000    303.5997     19.0985     65.2932
   510.5000      0.0000    303.9954     18.5047     64.2363
   510.7500      0.0000    304.3984     17.8663     63.2907
   511.0000      0.0000    304.7749     17.2085     62.6976
   511.2500      0.0000    305.0973     16.5706     62.1523
   511.5000      0.0000    305.3207     16.0005     61.5089
   511.7500      0.0000    305.4250     15.5461     61.2415
   512.0000      0.0000    305.4386     15.2289     61.7874
   512.2500      0.0000    305.4107     15.0273     62.6858
   512.5000      0.0000    305.3802     14.9137     62.8550
   512.7500      0.0000    305.3666     14.8757     61.7156
   513.0000      0.0000    305.3735     14.8980     59.7321
   513.2500      0.0000    305.3976     14.9647     57.8585
   513.5000      0.0000    305.4286     15.0735     56.6176
   513.7500      0.0000    305.4987     15.2236     55.6512
   514.0000      0.0000    306.0842     15.3594     54.1092
   514.2500      0.0000    309.9047     15.2756     51.5859
   514.5000      0.0000    324.9614     14.6214     48.6481
   514.7500      0.0000    360.8935     13.2582     46.3321
   515.0000      0.0000    409.2777     11.7832     45.1897
   515.2500      0.0000    435.9142     11.0894     44.9355
   515.5000      0.0000    422.0342     11.0116     44.9411
   515.7500      0.0000    394.0589     10.6132     44.8473
   516.0000      0.0000    385.5963      9.8282     44.6571
   516.2500      0.0000    405.7376      9.2764     44.5453
   516.5000      0.0000    450.1427      9.1452     44.8870
   516.7500      2.0000    511.2945      9.2196     46.2941
   517.0000      0.0000    575.4366      9.2997     49.1577
   517.2500      0.0000    612.9382      9.2877     53.0260
   517.5000      0.0000    590.0013      9.2792     56.6360
   517.7500      0.0000    512.2842      9.7561     58.8055
   518.0000      0.0000    429.2958     11.1496     59.5377
   518.2500      0.0000    380.1087     12.8259     60.2098
   518.5000      0.0000    363.4719     13.6624     62.4294
   518.7500      0.0000    358.0765     13.7368     66.7397
   519.0000      0.0000    349.0932     13.9765     72.5375
   519.2500      0.0000    335.0236     14.7317     78.9749
   519.5000      0.0000    320.8443     15.5902     85.5139
   519.7500      0.0000    311.0625     16.0790     91.5599
   520.0000      0.0000    306.5399     16.1560     96.0169
   520.2500      0.0000    305.2205     16.0759     97.7264
   520.5000      0.0000    304.9948     16.0378     96.3153
   520.7500      0.0000    304.9931     16.0642     92.3198
   521.0000      0.0000    305.0946     16.0927     86.6539
   521.2500      0.0000    305.2885     16.0791     80.2971
   521.5000      0.0000    305.4836     16.0329     74.2677
   521.7500      0.0000    305.5727     16.0245     69.5221
   522.0000      0.0000    305.5036     16.1286     66.8905
   522.2500      0.0000    305.3001     16.3480     66.9785
   522.5000      0.0000    305.0417     16.6252     69.6551
   522.7500      0.0000    304.7964     16.9030     73.6653
   523.0000      0.0000    304.5680     17.1601     77.2371
   523.2500      0.0000    304.3300     17.4105     79.2362
   523.5000      0.0000    304.1080     17.6534     79.5774
   523.7500      0.0000    303.9872     17.8542     78.5241
   524.0000      0.0000    304.0062     17.9934     75.8918
   524.2500      0.0000    304.1081     18.0794     71.3031
   524.5000      0.0000    304.2454     18.1108     65.1419
   524.7500      0.0000    304.5034     18.0678     58.7595
   525.0000      0.0000    305.4589     17.9335     53.5510
   525.2500      0.0000    310.1283     17.7076     50.0321
   525.5000      0.0000    328.5704     17.3880     47.8024
   525.7500      0.0000    378.8907     16.9728     46.1191
   526.0000      0.0000    469.9976     16.5182     44.4394
   526.2500      0.0000    576.1951     16.1377     42.5488
   526.5000      0.0000    646.9955     15.9081     40.4100
   526.7500      0.0000    646.8510     15.8245     38.2123
   527.0000      0.0000    575.8947     15.8644     36.5579
   527.2500      0.0000    469.8013     16.0141     36.1775
   527.5000      0.0000    378.9616     16.2200     37.2183
   527.7500      0.0000    328.9254     16.4123     38.9742
   528.0000      0.0000    310.7313     16.5900     40.5283
   528.2500      0.0000    306.3281     16.7955     41.6257
   528.5000      0.0000    306.0157     17.0174     42.7421
   528.7500      0.0000    309.1177     17.1893     44.2801
   529.0000      0.0000    324.2312     17.2636     45.9468
   529.2500      0.0000    370.1630     17.2294     47.1379
   529.5000      0.0000    459.6102     17.0842     47.7106
   529.7500      0.0000    571.2621     16.8467     48.0039
   530.0000      0.0000    660.5494     16.5844     48.2544
   530.2500      0.0000    706.1813     16.3820     48.4241
   530.5000      0.0000    720.9096     16.2738     48.4623
   530.7500      0.0000    723.6973     16.2289     48.2946
   531.0000      0.0000    723.5315     16.2083     47.6928
   531.2500      0.0000    720.6829     16.1953     46.4797
   531.5000      0.0000    707.2194     16.1819     44.7705
   531.7500      0.0000    666.4854     16.1622     42.8786
   532.0000      0.0000    589.1712     16.1240     41.1100
   532.2500      0.0000    502.5147     16.0490     39.6548
   532.5000      0.0000    463.3882     15.9280     38.5599
   532.7500      0.0000    502.4393     15.7669     37.8495
   533.0000      0.0000    589.2507     15.5941     37.7901
   533.2500      0.0000    666.8235     15.4343     38.9776
   533.5000      0.0000    707.7933     15.2517     41.9943
   533.7500      0.0000    721.4709     14.9894     47.0059
   534.0000      0.0000    724.4510     14.6617     53.7592
   534.2500      0.0000    724.9036     14.3573     61.7003
   534.5000      0.0000    724.9376     14.1709     69.7687
   534.7500      0.0000    724.8218     14.1386     76.3375
   535.0000      0.0000    724.5459     14.2189     79.9261
   535.2500      0.0000    724.1224     14.3386     80.1267
   535.5000      0.0000    723.6394     14.4692     77.7392
   535.7500      0.0000    723.2004     14.6493     74.2474
