~Version Information
VERS.                      2.0: CWLS Log ASCII Standard - VERSION 2.0
WRAP.                       NO: One line per depth step
~Well Information Block
STRT.FT               875.0000: 
STOP.FT              2053.0000: 
STEP.FT                 0.1000: 
NULL.                -999.2500: 
COMP.          Pioneer Natural Resources: COMPANY
WELL.          Woodstock 43-19: WELL
FLD.           Purgatoire River: FIELD
LOC.           2195' FSL & 250' FEL: LOCATION
CNTY.               Las Animas: COUNTY
SRVC.                Patterson: SERVICE COMPANY
DATE.          Thu Feb 02 12:45:04 2006: LOG DATE
UWI.           05 071 08677 00: UNIQUE WELL ID
STAT.                 Colorado: STATE
~Curve Information Block
DEPT.FT            0 000 00 00: Depth
DCAL.in                       : CDL Caliper
RHOB.g/cc                     : CDL Bulk Density
RHOC.g/cc                     : CDL Density Correction
DPOR.pu                       : CDL Density Porosity
GR.GAPI                       : Gamma Ray
NPOR.pu                       : Neutron Porosity
~Parameter Information Block
~A  Depth       DCAL        RHOB        RHOC        DPOR         GR         NPOR    
# ...
  1335.8000      8.0223      2.4854      0.0705      9.9734     76.6021     18.4505
  1335.9000      8.0223      2.4888     -0.0134      9.7718     78.8842     18.0810
  1336.0000      7.9992      2.5003      0.0173      9.0709     79.0591     17.6631
  1336.1000      7.9992      2.5110      0.0741      8.4260     78.7274     18.0128
  1336.2000      7.9992      2.5110      0.0367      8.4250     79.0175     18.5654
  1336.3000      8.0234      2.5120      0.0401      8.3609     80.6659     18.4990
  1336.4000      8.0234      2.5172      0.0572      8.0476     82.9871     18.4399
  1336.5000      8.0231      2.5164      0.0301      8.0968     84.1220     18.7853
  1336.6000      8.0231      2.5093      0.0327      8.5256     82.4699     18.7171
  1336.7000      8.0231      2.4987      0.0038      9.1715     77.2968     18.0502
  1336.8000      8.0193      2.4844      0.0463     10.0355     73.4072     17.3661
  1336.9000      8.0193      2.4736      0.0213     10.6912     75.9584     16.7785
  1337.0000      8.0269      2.4737     -0.0013     10.6872     81.0756     16.5581
  1337.1000      8.0269      2.4772      0.0098     10.4728     83.1178     17.1042
  1337.2000      8.0269      2.4715     -0.0223     10.8196     81.2098     17.8688
  1337.3000      8.0292      2.4546     -0.0152     11.8430     77.1049     18.2329
  1337.4000      8.0292      2.4342      0.0005     13.0809     74.0843     18.4729
  1337.5000      8.0466      2.4230     -0.0545     13.7553     74.5384     19.2428
  1337.6000      8.0466      2.4242      0.0088     13.6878     78.3344     20.5442
  1337.7000      8.0466      2.4249      0.0034     13.6432     82.3329     21.4034
  1337.8000      8.0445      2.4219     -0.0141     13.8248     82.5456     21.2781
  1337.9000      8.0445      2.4212      0.0317     13.8686     80.3729     20.8689
  1338.0000      8.0454      2.4302     -0.0315     13.3193     79.9550     21.1046
  1338.1000      8.0454      2.4545      0.0127     11.8471     83.6191     21.8133
  1338.2000      8.0454      2.4779      0.0513     10.4291     90.2812     21.9509
  1338.3000      8.0551      2.4827      0.0319     10.1400     94.2815     20.9460
  1338.4000      8.0551      2.4817      0.0561     10.2020     92.2765     19.1570
  1338.5000      8.0217      2.4941      0.0605      9.4502     87.9661     17.7023
  1338.6000      8.0217      2.5122      0.0845      8.3516     84.3053     17.3370
  1338.7000      8.0217      2.5146      0.0901      8.2031     81.4464     17.8082
  1338.8000      7.9939      2.4928      0.0793      9.5274     78.6989     18.5390
  1338.9000      7.9939      2.4573      0.0586     11.6805     75.3917     19.0639
  1339.0000      7.9830      2.4297     -0.0055     13.3527     73.4177     19.1072
  1339.1000      7.9830      2.4331     -0.0306     13.1440     75.0121     18.7661
  1339.2000      7.9830      2.4719      0.0317     10.7916     80.3857     18.9280
  1339.3000      7.9946      2.5124      0.1265      8.3418     84.7895     19.8722
  1339.4000      7.9946      2.5187      0.0732      7.9578     83.9090     20.4926
  1339.5000      7.9912      2.5015      0.0349      9.0024     81.3434     20.0576
  1339.6000      7.9912      2.4935      0.0406      9.4823     81.4999     19.3136
  1339.7000      7.9912      2.4987      0.0501      9.1701     84.0926     19.0358
  1339.8000      7.9942      2.4976      0.0366      9.2358     85.8826     18.9706
  1339.9000      7.9942      2.4845      0.0630     10.0289     83.4817     19.0677
  1340.0000      7.9759      2.4667      0.0421     11.1118     78.3327     19.6943
  1340.1000      7.9759      2.4529      0.0592     11.9483     75.1822     20.3499
  1340.2000      7.9759      2.4474      0.0476     12.2817     74.8706     20.2073
  1340.3000      7.9803      2.4459      0.0636     12.3675     74.8970     19.2724
  1340.4000      7.9803      2.4452      0.0430     12.4143     75.1465     18.2355
  1340.5000      7.9702      2.4524      0.0093     11.9737     75.4895     17.7090
  1340.6000      7.9702      2.4734      0.0408     10.7006     72.3661     17.4821
  1340.7000      7.9702      2.4960      0.1006      9.3309     68.2050     16.9634
  1340.8000      7.9795      2.5021      0.0895      8.9608     69.0588     16.1436
  1340.9000      7.9795      2.4925      0.0439      9.5446     73.3824     15.7774
  1341.0000      7.9782      2.4873      0.0613      9.8619     75.4926     16.0683
  1341.1000      7.9782      2.4952      0.0961      9.3802     74.2923     16.5747
  1341.2000      7.9782      2.5064      0.0940      8.7055     73.1561     17.2848
  1341.3000      7.9821      2.5147      0.0661      8.2005     76.0201     17.8166
  1341.4000      7.9821      2.5283      0.0549      7.3748     82.3477     17.7892
  1341.5000      7.9761      2.5499      0.0764      6.0675     86.3148     17.9922
  1341.6000      7.9761      2.5572      0.1450      5.6248     86.0282     19.0671
  1341.7000      7.9761      2.5402      0.0426      6.6522     86.4145     20.3456
  1341.8000      7.9531      2.5238      0.0696      7.6483     88.3320     20.8112
  1341.9000      7.9531      2.5145      0.0795      8.2118     85.0785     20.3165
  1342.0000      7.9529      2.4964      0.0814      9.3090     77.4508     19.7734
  1342.1000      7.9529      2.4736     -0.0035     10.6916     75.0206     19.4660
  1342.2000      7.9529      2.4601      0.0448     11.5072     78.7643     19.0511
  1342.3000      7.9490      2.4538      0.0397     11.8896     81.7569     18.8751
  1342.4000      7.9490      2.4501      0.0007     12.1172     80.7288     18.8988
  1342.5000      7.9536      2.4450      0.0533     12.4245     77.7478     18.8360
  1342.6000      7.9536      2.4366     -0.0083     12.9312     77.6014     18.7436
  1342.7000      7.9536      2.4329      0.0587     13.1553     80.2533     18.5173
  1342.8000      7.9942      2.4344      0.0865     13.0695     81.1920     18.4113
  1342.9000      7.9942      2.4371      0.0315     12.9036     78.9005     18.8335
  1343.0000      8.0124      2.4465      0.0101     12.3351     76.4959     19.4022
  1343.1000      8.0124      2.4671      0.0520     11.0824     76.6055     19.5916
  1343.2000      8.0124      2.4900      0.1020      9.6943     77.2968     19.3711
  1343.3000      8.0184      2.5007      0.0907      9.0468     76.7087     19.2733
  1343.4000      8.0184      2.5044      0.0483      8.8266     75.9603     19.6762
  1343.5000      7.9967      2.5138      0.0848      8.2563     74.1226     20.2388
  1343.6000      7.9967      2.5205      0.0551      7.8464     69.7100     20.9728
  1343.7000      7.9967      2.5088      0.0622      8.5606     64.0835     21.8090
  1343.8000      7.9992      2.4833      0.0321     10.1037     59.8977     22.2536
  1343.9000      7.9992      2.4672      0.0217     11.0791     58.7362     22.5997
  1344.0000      8.0070      2.4679      0.0535     11.0386     60.7950     23.2651
  1344.1000      8.0070      2.4712      0.0495     10.8337     65.0622     23.6151
  1344.2000      8.0070      2.4770      0.0239     10.4839     68.9031     22.6359
  1344.3000      8.0367      2.4950      0.0705      9.3944     70.9008     20.6309
  1344.4000      8.0367      2.5218      0.0877      7.7680     72.3550     19.1901
  1344.5000      7.9932      2.5435      0.1204      6.4533     72.9446     18.6174
  1344.6000      7.9932      2.5419      0.1301      6.5508     70.5255     18.1011
  1344.7000      7.9932      2.5155      0.1376      8.1532     66.6504     17.7523
  1344.8000      8.0006      2.4900      0.0590      9.6990     66.4012     18.1533
  1344.9000      8.0006      2.4874      0.0816      9.8527     71.2403     19.0994
  1345.0000      7.9996      2.5038      0.0844      8.8636     74.5982     19.9384
  1345.1000      7.9996      2.5282      0.1019      7.3843     72.1817     20.4615
  1345.2000      7.9996      2.5446      0.1218      6.3876     69.4175     20.6188
  1345.3000      7.9971      2.5304      0.1178      7.2467     69.7504     20.4931
