~Version Information
VERS.                      2.0: CWLS Log ASCII Standard - VERSION 2.0
WRAP.                       NO: One line per depth step
~Well Information Block
STRT.FT               325.0000: 
STOP.FT              1013.5000: 
STEP.FT                 0.1000: 
NULL.                -999.2500: 
COMP.          Pioneer Natural Resources: COMPANY
WELL.                Doc 34-30: WELL
FLD.           Purgatoire River: FIELD
LOC.           454' FSL & 1386' FEL: LOCATION
CNTY.               Las Animas: COUNTY
SRVC.                Patterson: SERVICE COMPANY
DATE.          Thu Feb 16 07:19:58 2006: LOG DATE
UWI.           05 071 08694 00: UNIQUE WELL ID
STAT.                 Colorado: STATE
~Curve Information Block
DEPT.FT            0 000 00 00: Depth
DCAL.in                       : CDL Caliper
RHOB.g/cc                     : CDL Bulk Density
RHOC.g/cc                     : CDL Density Correction
DPOR.pu                       : CDL Density Porosity
GR.GAPI                       : Gamma Ray
NPOR.pu                       : Neutron Porosity
~Parameter Information Block
~A  Depth       DCAL        RHOB        RHOC        DPOR         GR         NPOR    
   325.0000      2.9359      2.0027      0.5323     39.2300    126.0249     19.8341
   325.1000      2.9359      1.9971      0.5078     39.5670    127.2719     20.0225
   325.2000      2.9359      1.9963      0.5325     39.6172    114.0846     20.1707
   325.3000      2.9419      1.9991      0.5363     39.4472     92.7568     20.0381
   325.4000      2.9419      1.9983      0.5529     39.4944     81.3112     19.7776
   325.5000      2.9504      1.9845      0.5295     40.3344     83.8380     19.9929
   325.6000      2.9504      1.9570      0.5381     42.0001     87.9301     20.5514
   325.7000      2.9504      1.9255      0.5172     43.9089     86.9355     20.5279
   325.8000      2.9535      1.9010      0.4945     45.3937     86.5244     19.7766
   325.9000      2.9535      1.8846      0.5328     46.3898     90.2765     19.3393
   326.0000      2.9515      1.8694      0.5125     47.3103     97.4183     19.4599
   326.1000      2.9515      1.8544      0.5117     48.2207    107.0780     19.5121
   326.2000      2.9515      1.8431      0.5037     48.9040    116.5576     19.3300
   326.3000      2.9509      1.8387      0.5131     49.1694    120.6839     19.2444
   326.4000      2.9509      1.8403      0.5130     49.0718    113.2677     19.6612
   326.5000      2.9549      1.8415      0.5211     49.0030     99.8055     20.3391
   326.6000      2.9549      1.8380      0.5067     49.2114     95.4078     20.7255
   326.7000      2.9549      1.8320      0.5108     49.5737    101.1586     21.0500
   326.8000      2.9585      1.8237      0.5232     50.0769    109.2855     21.2262
   326.9000      2.9585      1.8100      0.5125     50.9068    115.3283     20.9250
   327.0000      2.9613      1.7925      0.4949     51.9707    117.6170     20.5527
   327.1000      2.9613      1.7776      0.4805     52.8753    120.7702     20.5184
   327.2000      2.9613      1.7686      0.4992     53.4156    127.2528     20.7413
   327.3000      2.9645      1.7619      0.4990     53.8233    133.8004     21.0915
   327.4000      2.9645      1.7514      0.4921     54.4612    137.3821     21.5034
   327.5000      2.9653      1.7330      0.4988     55.5743    136.3795     21.9279
   327.6000      2.9653      1.7075      0.4623     57.1225    132.6642     22.1708
   327.7000      2.9653      1.6803      0.4691     58.7671    130.2232     21.6249
   327.8000      2.9654      1.6572      0.4394     60.1711    132.9554     20.5393
   327.9000      2.9654      1.6411      0.4668     61.1467    140.9436     20.0866
   328.0000      2.9696      1.6289      0.4553     61.8819    145.3475     20.6617
   328.1000      2.9696      1.6147      0.4610     62.7455    142.1229     21.5464
   328.2000      2.9696      1.5949      0.4509     63.9462    139.2691     22.1816
   328.3000      2.9753      1.5705      0.4416     65.4251    141.7397     22.8843
   328.4000      2.9753      1.5467      0.4073     66.8678    145.2292     23.7869
   328.5000      2.9772      1.5235      0.4239     68.2708    146.5663     24.8203
   328.6000      2.9772      1.4932      0.4115     70.1091    146.2238     25.5851
   328.7000      2.9772      1.4572      0.3592     72.2937    146.9219     25.1103
   328.8000      2.9782      1.4297      0.3145     73.9600    149.2761     23.5626
   328.9000      2.9782      1.4148      0.3477     74.8591    146.0982     22.1493
   329.0000      2.9762      1.4010      0.3395     75.6994    136.0519     21.5271
   329.1000      2.9762      1.3829      0.3012     76.7951    129.6690     21.9312
   329.2000      2.9762      1.3642      0.3334     77.9292    130.9395     23.1373
   329.3000      2.9721      1.3450      0.3116     79.0908    136.9122     24.3358
   329.4000      2.9721      1.3240      0.3172     80.3631    142.2511     24.9389
   329.5000      2.9727      1.3028      0.2719     81.6475    139.5734     25.0458
   329.6000      2.9727      1.2863      0.2614     82.6501    131.2648     24.9518
   329.7000      2.9727      1.2736      0.2851     83.4196    124.5293     24.7197
   329.8000      2.9755      1.2567      0.2757     84.4404    120.9137     24.5043
   329.9000      2.9755      1.2304      0.2612     86.0383    121.3579     24.7218
   330.0000      2.9751      1.1966      0.2115     88.0834    125.5703     25.4213
   330.1000      2.9751      1.1595      0.2305     90.3325    126.9531     25.9963
   330.2000      2.9751      1.1200      0.1738     92.7244    125.0645     25.9962
   330.3000      2.9708      1.0827      0.1812     94.9854    129.1575     25.5973
   330.4000      2.9708      1.0501      0.1557     96.9652    142.6675     25.1021
   330.5000      2.9671      1.0162      0.1573     99.0210    157.5927     24.4347
   330.6000      2.9671      0.9764      0.0993    101.4303    165.8295     23.2823
   330.7000      2.9671      0.9325      0.0983    104.0923    165.5425     22.0877
   330.8000      2.9662      0.8889      0.0402    106.7333    156.6850     21.7495
   330.9000      2.9662      0.8568     -0.0261    108.6818    147.6974     22.1850
   331.0000      2.9658      0.8400      0.0139    109.6946    146.2986     22.3838
   331.1000      2.9658      0.8242      0.0104    110.6557    147.6284     21.7327
   331.2000      2.9658      0.7983     -0.0247    112.2239    145.5516     20.7147
   331.3000      2.9635      0.7667     -0.0662    114.1392    151.3119     19.9942
   331.4000      2.9635      0.7347     -0.0617    116.0802    153.0841     19.8267
   331.5000      2.9597      0.7047     -0.1210    117.8946    151.0149     20.4187
   331.6000      2.9597      0.6817     -0.1308    119.2909    150.9980     21.2738
   331.7000      2.9597      0.6646     -0.1338    120.3254    147.8627     21.2254
   331.8000      2.9562      0.6475     -0.1526    121.3650    139.7497     20.2739
   331.9000      2.9562      0.6289     -0.1717    122.4902    134.2925     19.7631
   332.0000      2.9542      0.6116     -0.1877    123.5416    133.4980     19.8584
   332.1000      2.9542      0.5996     -0.2201    124.2687    135.8865     19.2755
   332.2000      2.9542      0.5932     -0.1880    124.6557    124.0111     18.0106
   332.3000      2.9538      0.5850     -0.2064    125.1488    121.5719     17.3977
   332.4000      2.9538      0.5703     -0.2134    126.0430    115.9640     17.6274
   332.5000      2.9544      0.5510     -0.2447    127.2136    112.4660     17.5353
   332.6000      2.9544      0.5313     -0.2596    128.4075    112.8985     17.0102
   332.7000      2.9544      0.5142     -0.2778    129.4408    114.3118     16.8865
   332.8000      2.9542      0.5011     -0.2819    130.2352    113.1221     16.9014
   332.9000      2.9542      0.4907     -0.2839    130.8663    107.5065     16.5705
   333.0000      2.9533      0.4842     -0.3141    131.2635     97.3437     16.3117
   333.1000      2.9533      0.4851     -0.2960    131.2034     87.0773     16.3723
   333.2000      2.9533      0.4876     -0.2709    131.0539     70.7282     16.5610
   333.3000      2.9509      0.4811     -0.2956    131.4512     66.8138     16.9254
   333.4000      2.9509      0.4670     -0.3161    132.3012     66.4092     17.2663
   333.5000      2.9490      0.4542     -0.3294    133.0791     69.2541     17.1370
   333.6000      2.9490      0.4451     -0.3205    133.6333     72.8288     16.5114
   333.7000      2.9490      0.4368     -0.3434    134.1308     74.6960     15.7150
   333.8000      2.9480      0.4308     -0.3509    134.4978     72.1623     15.2044
   333.9000      2.9480      0.4299     -0.3520    134.5501     66.2763     15.1873
   334.0000      2.9475      0.4305     -0.3247    134.5175     63.4712     15.5451
   334.1000      2.9475      0.4260     -0.3500    134.7849     63.8606     16.2206
   334.2000      2.9475      0.4177     -0.3508    135.2934     54.7747     16.9327
   334.3000      2.9497      0.4091     -0.3622    135.8141     52.6370     17.3504
   334.4000      2.9497      0.3997     -0.3523    136.3842     50.3997     17.3394
   334.5000      2.9530      0.3890     -0.3887    137.0300     50.2677     16.7646
