~Version Information
VERS.                      2.0: CWLS Log ASCII Standard - VERSION 2.0
WRAP.                       NO: One line per depth step
~Well Information Block
STRT.FT                -8.5000: 
STOP.FT              1263.2500: 
STEP.FT                 0.2500: 
NULL.                -999.2500: 
COMP.          Pioneer Natural Resources: COMPANY
WELL.          Rockfish 11-30 Tr: WELL
FLD.           Purgatoire River: FIELD
LOC.           1063' FNL & 1068' FWL--: LOCATION
STAT.                       CO: State
CNTY.               Las Animas: COUNTY
CTRY. USA : country
SECT. 30 : Section
TOWN. 32S : Township
RANG. 65W : Range
SRVC.          Patterson Wireline: SERVICE COMPANY
DATE.          Tue Nov 22 16:08:49 2005: LOG DATE
API.           05 071 08585 00: UNIQUE WELL ID
~Curve Information Block
DEPT.FT            0 000 00 00: Depth
HVOLTA.V                      : Head Voltage Apparent
CCL.                          : Casing Collar Locator
TT3.usec                      : CBL 3' Travel Time
AMP3.mV                       : CBL 3' Amplitude
GR.GAPI                       : Gamma Ray
~Parameter Information Block
PPT.usec                0.0000: Predicted Pipe Time
~A  Depth      HVOLTA       CCL         TT3         AMP3         GR     
# ...
   971.5000     96.3557      0.0000    325.5842     27.5483     79.9700
   971.7500     96.4204      0.0000    327.9872     27.4064     81.6565
   972.0000     96.3614      0.0000    335.5906     26.9387     84.8358
   972.2500     96.4708      0.0000    353.8481     25.9608     90.4546
   972.5000     96.2072      0.0000    387.7633     24.3811     97.9265
   972.7500     96.4455      0.0000    436.9991     22.3778    105.3886
   973.0000     96.3768      0.0000    494.0775     20.4140    110.7999
   973.2500     96.3025      0.0000    549.5812     18.9688    112.8060
   973.5000     96.3880      0.0000    598.1660     18.2252    110.7648
   973.7500     96.2898      0.0000    637.0095     18.0384    104.5543
   974.0000     96.3137      0.0000    660.6227     18.1614     94.7836
   974.2500     96.3670      0.0000    661.3103     18.4507     83.0410
   974.5000     96.3768      2.0000    634.4702     18.8992     71.6363
   974.7500     96.2239      0.0000    582.5823     19.5500     62.7888
   975.0000     96.4511      0.0000    516.1949     20.4228     57.6702
   975.2500     95.5649      0.0000    451.1472     21.4981     56.1164
   975.5000     97.1606      0.0000    401.2452     22.6947     57.3451
   975.7500     96.3081      0.0000    371.2553     23.8357     60.6541
   976.0000     96.3390      0.0000    356.6924     24.7491     65.1811
   976.2500     96.2815      0.0000    349.5348     25.4909     69.5755
   976.5000     96.3698      0.0000    343.7625     26.3238     72.6020
   976.7500     96.2562      0.0000    337.3665     27.3629     74.0014
   977.0000     96.3123      0.0000    331.1969     28.3999     74.6186
   977.2500     96.3446      0.0000    326.6292     29.1665     76.0038
   977.5000     96.3081      0.0000    324.0563     29.6044     80.0211
   977.7500     96.3137      0.0000    322.9446     29.8108     88.2991
   978.0000     96.1917      0.0000    322.5773     29.8762    101.2786
   978.2500     96.2856      0.0000    322.4904     29.8565    117.3304
   978.5000     96.3249      0.0000    322.4742     29.8127    133.0058
   978.7500     96.2940      0.0000    322.4544     29.7943    144.6595
   979.0000     96.1692      0.0000    322.4153     29.7976    150.2935
   979.2500     96.2548      0.0000    322.3679     29.7791    150.2655
   979.5000     96.1720      0.0000    322.3272     29.7201    146.6208
   979.7500     96.3010      0.0000    322.2962     29.6627    141.7139
   980.0000     96.1776      0.0000    322.2693     29.6716    136.7627
   980.2500     96.4035      0.0000    322.2480     29.7674    131.1049
   980.5000     96.2856      0.0000    322.2464     29.9096    123.1612
   980.7500     96.2898      0.0000    322.2789     30.0387    112.7056
   981.0000     96.2001      0.0000    322.3408     30.1349    101.8617
   981.2500     96.2926      0.0000    322.4033     30.2308     93.2643
   981.5000     96.3712      0.0000    322.4344     30.3557     87.6567
   981.7500     96.2982      0.0000    322.4307     30.4625     83.8465
   982.0000     96.3726      0.0000    322.4240     30.4346     80.6788
   982.2500     96.2281      0.0000    322.4499     30.1922     78.5369
   982.5000     96.2674      0.0000    322.5113     29.7897     78.9047
   982.7500     96.3768      0.0000    322.5785     29.3850     82.5736
   983.0000     96.2632      0.0000    322.6217     29.1134     88.4466
   983.2500     96.3726      0.0000    322.6356     29.0046     94.2028
   983.5000     96.3179      0.0000    322.6335     29.0131     98.1572
   983.7500     96.2898      0.0000    322.6294     29.0938    100.4743
   984.0000     96.2576      0.0000    322.6294     29.2272    102.7046
   984.2500     96.3151      0.0000    322.6356     29.3896    106.1946
   984.5000     96.3460      0.0000    322.6538     29.5298    110.8412
   984.7500     96.3726      0.0000    322.6937     29.5926    115.3930
   985.0000     96.2926      0.0000    322.7601     29.5571    118.8935
   985.2500     96.2281      0.0000    322.8434     29.4543    121.5508
   985.5000     96.2829      0.0000    322.9201     29.3465    124.1705
   985.7500     96.3726      0.0000    322.9662     29.2832    127.1527
   986.0000     96.2870      0.0000    322.9742     29.2681    130.3338
   986.2500     96.2870      0.0000    322.9557     29.2746    133.5686
   986.5000     96.3432      0.0000    322.9261     29.2935    137.0080
   986.7500     96.3698      0.0000    322.8911     29.3545    140.6767
   987.0000     96.3137      0.0000    322.8466     29.4956    144.1237
   987.2500     96.3698      0.0000    322.7899     29.7211    146.8174
   987.5000     96.2829      0.0000    322.7279     29.9872    148.7961
   987.7500     96.2267      0.0000    322.6767     30.2216    150.5921
   988.0000     96.3768      0.0000    322.6509     30.3609    152.3422
   988.2500     96.2842      0.0000    322.6510     30.3807    153.1183
   988.5000     96.3165      0.0000    322.6620     30.2963    151.6243
   988.7500     96.3179      0.0000    322.6682     30.1314    147.8046
   989.0000     96.2267      0.0000    322.6715     29.8905    143.5624
   989.2500     96.3221      0.0000    322.6888     29.5697    141.5718
   989.5000     96.3642      0.0000    322.7326     29.1909    143.0300
   989.7500     96.2365      0.0000    322.7970     28.8112    146.3486
   990.0000     96.3670      0.0000    322.8651     28.4944    148.3506
   990.2500     96.3249      0.0000    322.9244     28.2769    147.0377
   990.5000     96.2856      0.0000    322.9728     28.1563    142.8866
   990.7500     96.3487      0.0000    323.0113     28.1011    137.4936
   991.0000     96.3698      0.0000    323.0375     28.0764    131.9873
   991.2500     96.3151      0.0000    323.0466     28.0617    127.3235
   991.5000     96.3179      0.0000    323.0418     28.0429    124.9889
   991.7500     96.3376      0.0000    323.0410     27.9942    126.0278
   992.0000     96.4329      0.0000    323.0651     27.8849    129.4981
   992.2500     96.3151      0.0000    323.1160     27.7119    132.8762
   992.5000     96.2926      0.0000    323.1663     27.5257    134.4143
   992.7500     96.3432      0.0000    323.1759     27.4177    134.7254
   993.0000     96.3740      0.0000    323.1215     27.4714    135.6606
   993.2500     96.2884      0.0000    323.0121     27.7050    137.8634
   993.5000     96.2520      0.0000    322.8814     28.0557    139.9607
   993.7500     96.3249      0.0000    322.7656     28.4160    140.0884
   994.0000     96.2856      0.0000    322.6891     28.6874    137.6099
   994.2500     96.3460      0.0000    322.6619     28.8113    133.2148
   994.5000     96.3151      0.0000    322.6833     28.7732    127.8877
   994.7500     96.2478      0.0000    322.7461     28.5915    122.2000
   995.0000     96.2968      0.0000    322.8381     28.3019    116.5053
   995.2500     96.2576      0.0000    322.9415     27.9531    111.4506
   995.5000     96.2281      0.0000    323.0342     27.6093    107.8716
   995.7500     96.2029      0.0000    323.0966     27.3366    106.1929
   996.0000     96.1762      0.0000    323.1230     27.1681    106.4055
   996.2500     96.1959      0.0000    323.1273     27.0762    108.7199
   996.5000     96.3137      0.0000    323.1364     26.9834    113.5440
   996.7500     96.2576      0.0000    323.1758     26.8088    120.2966
   997.0000     96.2912      0.0000    323.2583     26.5097    126.7117
   997.2500     96.3362      0.0000    323.3834     26.0914    130.0903
   997.5000     96.2829      0.0000    323.5418     25.5964    129.3274
   997.7500     96.3796      0.0000    323.7144     25.0976    125.4181
   998.0000     96.3109      0.0000    323.8654     24.6936    120.2560
   998.2500     96.4371      0.0000    323.9510     24.4790    115.4218
   998.5000     96.3390      0.0000    323.9487     24.4910    111.7827
   998.7500     96.4035      0.0000    323.8778     24.6779    109.4590
   999.0000     96.3474      0.0000    323.7874     24.9258    107.9747
   999.2500     96.2842      0.0000    323.7225     25.1244    106.7153
