~Version Information
VERS.                      2.0: CWLS Log ASCII Standard - VERSION 2.0
WRAP.                       NO: One line per depth step
~Well Information Block
STRT.FT               580.0000: 
STOP.FT              1179.0000: 
STEP.FT                 0.1000: 
NULL.                -999.2500: 
COMP.          Pioneer Natural Resources: COMPANY
WELL.          Tin Barn 14-20 TR: WELL
FLD.           Purgatorie River: FIELD
LOC.           925 FSL & 1151 FWL: LOCATION
PROV.                 Colorado: PROVINCE
CNTY.               Las Animas: COUNTRY
SRVC.                Patterson: SERVICE COMPANY
DATE.          Thu Jan 12 12:02:37 2006: LOG DATE
UWI.                          : UNIQUE WELL ID
~Curve Information Block
DEPT.FT            0 000 00 00: Depth
DCAL.in                       : CDL Caliper
RHOB.g/cc                     : CDL Bulk Density
RHOC.g/cc                     : CDL Density Correction
DPOR.pu                       : CDL Density Porosity
GR.GAPI                       : Gamma Ray
~Parameter Information Block
~A  Depth       DCAL        RHOB        RHOC        DPOR         GR     
# ...
  1162.4000      7.9287      2.4171      0.0453     14.1159     87.8074
  1162.5000      7.9263      2.4191     -0.0161     13.9923     89.0573
  1162.6000      7.9263      2.4352      0.0602     13.0172     89.9031
  1162.7000      7.9263      2.4537      0.1083     11.8963     89.0807
  1162.8000      7.9245      2.4568      0.0715     11.7098     88.9105
  1162.9000      7.9245      2.4514      0.0385     12.0353     89.8285
  1163.0000      7.9227      2.4506      0.0601     12.0826     90.9335
  1163.1000      7.9227      2.4582      0.0456     11.6215     93.5828
  1163.2000      7.9227      2.4674      0.0750     11.0682     97.4842
  1163.3000      7.9244      2.4640      0.0608     11.2738    100.1607
  1163.4000      7.9244      2.4432      0.0363     12.5330    100.8466
  1163.5000      7.9155      2.4163      0.0216     14.1655     99.7262
  1163.6000      7.9155      2.4001      0.0092     15.1483     96.1841
  1163.7000      7.9155      2.3980      0.0428     15.2706     90.0910
  1163.8000      7.9031      2.4038      0.0351     14.9189     84.1388
  1163.9000      7.9031      2.4180      0.0461     14.0611     80.9412
  1164.0000      7.8748      2.4381      0.0784     12.8420     78.3292
  1164.1000      7.8748      2.4496      0.0746     12.1429     74.4586
  1164.2000      7.8748      2.4465      0.0666     12.3311     71.9642
  1164.3000      7.8310      2.4416      0.0548     12.6282     72.0988
  1164.4000      7.8310      2.4456      0.0809     12.3872     71.9279
  1164.5000      7.8198      2.4564      0.0665     11.7359     69.9021
  1164.6000      7.8198      2.4676      0.0751     11.0558     67.4577
  1164.7000      7.8198      2.4712      0.0778     10.8366     64.5667
  1164.8000      7.8082      2.4647      0.0667     11.2303     62.1921
  1164.9000      7.8082      2.4546      0.0458     11.8419     62.6368
  1165.0000      7.8160      2.4471      0.0292     12.2980     64.2734
  1165.1000      7.8160      2.4484      0.0036     12.2164     64.6890
  1165.2000      7.8160      2.4618      0.0008     11.4045     64.5477
  1165.3000      7.8741      2.4782      0.0514     10.4129     65.1573
  1165.4000      7.8741      2.4848      0.0550     10.0091     66.2618
  1165.5000      7.9129      2.4843      0.0029     10.0399     63.1732
  1165.6000      7.9129      2.4914      0.0198      9.6141     48.5350
  1165.7000      7.9129      2.5097      0.0447      8.5040     25.5965
  1165.8000      7.9284      2.5291      0.0747      7.3287      8.2592
  1165.9000      7.9284      2.5444      0.0582      6.4009      1.5227
  1166.0000      7.9312      2.5609      0.0167      5.4004      0.1543
  1166.1000      7.9312      2.5777      0.0686      4.3790      0.0082
  1166.2000      7.9312      2.5879      0.0121      3.7630      0.0000
  1166.3000      7.9392      2.5915      0.0182      3.5480   -999.2500
  1166.4000      7.9392      2.5892      0.0458      3.6843   -999.2500
  1166.5000      7.9254      2.5825     -0.0044      4.0931   -999.2500
  1166.6000      7.9254      2.5760      0.0068      4.4859   -999.2500
  1166.7000      7.9254      2.5704      0.0533      4.8265   -999.2500
  1166.8000      7.8788      2.5643      0.0228      5.1949   -999.2500
  1166.9000      7.8788      2.5585      0.0741      5.5458   -999.2500
  1167.0000      7.8481      2.5516      0.0299      5.9654   -999.2500
  1167.1000      7.8481      2.5455      0.0097      6.3313   -999.2500
  1167.2000      7.8481      2.5428      0.0678      6.4980   -999.2500
  1167.3000      7.8270      2.5428      0.0151      6.4977   -999.2500
  1167.4000      7.8270      2.5485      0.0092      6.1523   -999.2500
  1167.5000      7.8538      2.5574      0.0505      5.6149   -999.2500
  1167.6000      7.8538      2.5619      0.1057      5.3379   -999.2500
  1167.7000      7.8538      2.5643      0.1169      5.1963   -999.2500
  1167.8000      7.7747      2.5737      0.0962      4.6245   -999.2500
  1167.9000      7.7747      2.5892      0.1110      3.6877   -999.2500
  1168.0000      7.7579      2.6006      0.0870      2.9931   -999.2500
  1168.1000      7.7579      2.6117      0.0883      2.3237   -999.2500
  1168.2000      7.7579      2.6309      0.1481      1.1579   -999.2500
  1168.3000      7.7618      2.6483      0.1673      0.1027   -999.2500
  1168.4000      7.7618      2.6440      0.1838      0.3617   -999.2500
  1168.5000      7.7601      2.6136      0.1558      2.2075   -999.2500
  1168.6000      7.7601      2.5752      0.0989      4.5330   -999.2500
  1168.7000      7.7601      2.5506      0.0669      6.0229   -999.2500
  1168.8000      7.7720      2.5476      0.0371      6.2069   -999.2500
  1168.9000      7.7720      2.5667      0.0623      5.0462   -999.2500
  1169.0000      7.8187      2.6034      0.0622      2.8222   -999.2500
  1169.1000      7.8187      2.6418      0.1288      0.4983   -999.2500
  1169.2000      7.8187      2.6625      0.1674     -0.7600   -999.2500
  1169.3000      7.7716      2.6588      0.1729     -0.5319   -999.2500
  1169.4000      7.7716      2.6382      0.1327      0.7137   -999.2500
  1169.5000      7.7365      2.6174      0.1184      1.9783   -999.2500
  1169.6000      7.7365      2.6021      0.1103      2.9006   -999.2500
  1169.7000      7.7365      2.5808      0.0695      4.1948   -999.2500
  1169.8000      7.7803      2.5489      0.0324      6.1264   -999.2500
  1169.9000      7.7803      2.5191      0.0405      7.9360   -999.2500
  1170.0000      7.8257      2.5092      0.0129      8.5355   -999.2500
  1170.1000      7.8257      2.5344      0.0621      7.0042   -999.2500
  1170.2000      7.8257      2.5882      0.1003      3.7439   -999.2500
  1170.3000      7.7900      2.6432      0.1763      0.4130   -999.2500
  1170.4000      7.7900      2.6847      0.1476     -2.1001   -999.2500
  1170.5000      7.7428      2.7112      0.1857     -3.7089   -999.2500
  1170.6000      7.7428      2.7069      0.2117     -3.4496   -999.2500
  1170.7000      7.7428      2.6649      0.1354     -0.9011   -999.2500
  1170.8000      7.7826      2.6119      0.0985      2.3084   -999.2500
  1170.9000      7.7826      2.5733      0.0620      4.6499   -999.2500
  1171.0000      7.7969      2.5542      0.0454      5.8055   -999.2500
  1171.1000      7.7969      2.5492      0.0288      6.1077   -999.2500
  1171.2000      7.7969      2.5452      0.0727      6.3516   -999.2500
  1171.3000      7.8202      2.5376      0.0170      6.8107   -999.2500
  1171.4000      7.8202      2.5467     -0.0255      6.2626   -999.2500
  1171.5000      7.8746      2.5794      0.0394      4.2761   -999.2500
  1171.6000      7.8746      2.6054      0.0988      2.7054   -999.2500
  1171.7000      7.8746      2.5986      0.0802      3.1142   -999.2500
  1171.8000      7.8311      2.5737      0.0554      4.6248   -999.2500
  1171.9000      7.8311      2.5567      0.0495      5.6543   -999.2500
  1172.0000      7.8026      2.5474      0.0980      6.2197   -999.2500
  1172.1000      7.8026      2.5348      0.0532      6.9809   -999.2500
  1172.2000      7.8026      2.5237      0.0677      7.6544   -999.2500
  1172.3000      7.7905      2.5181      0.0474      7.9961   -999.2500
  1172.4000      7.7905      2.5113      0.0860      8.4046   -999.2500
  1172.5000      7.7902      2.4998      0.0545      9.1028   -999.2500
  1172.6000      7.7902      2.4908      0.0274      9.6485   -999.2500
  1172.7000      7.7902      2.4911      0.0579      9.6287   -999.2500
  1172.8000      7.7966      2.4953      0.0758      9.3755   -999.2500
  1172.9000      7.7966      2.4964      0.0545      9.3069   -999.2500
  1173.0000      7.7918      2.4969      0.0535      9.2775   -999.2500
  1173.1000      7.7918      2.5014      0.0522      9.0083   -999.2500
  1173.2000      7.7918      2.5057      0.0598      8.7461   -999.2500
  1173.3000      7.7960      2.5031      0.0502      8.9034   -999.2500
  1173.4000      7.7960      2.5020      0.0198      8.9691   -999.2500
  1173.5000      7.8104      2.5143      0.0587      8.2237   -999.2500
