~Version Information
VERS.                      2.0: CWLS Log ASCII Standard - VERSION 2.0
WRAP.                       NO: One line per depth step
~Well Information Block
STRT.FT               645.0000: 
STOP.FT              2131.0000: 
STEP.FT                 0.1000: 
NULL.                -999.2500: 
COMP.          Pioneer Natural Resources: COMPANY
WELL.          Gunslinger 13-24: WELL
FLD.           Purgatoire River: FIELD
LOC.           1968' FSL & 633' FWL: LOCATION
PROV.                 Colorado: PROVINCE
CNTY.               Las Animas: COUNTRY
SRVC.                Patterson: SERVICE COMPANY
DATE.          Sat Jul 30 08:07:53 2005: LOG DATE
UWI.           05 071 08442 00: UNIQUE WELL ID
~Curve Information Block
DEPT.FT            0 000 00 00: Depth
DCAL.in                       : CDL Caliper
RHOB.g/cc                     : CDL Bulk Density
RHOC.g/cc                     : CDL Density Correction
DPOR.pu                       : CDL Density Porosity
GR.GAPI                       : Gamma Ray
NPOR.pu                       : Neutron Porosity
~Parameter Information Block
~A  Depth       DCAL        RHOB        RHOC        DPOR         GR         NPOR    
# ...
  2017.8000      7.8603      2.3923      0.0279     15.6188     77.6238     16.5458
  2017.9000      7.8603      2.3928      0.0469     15.5873     79.6653     16.6578
  2018.0000      7.8673      2.3950      0.0162     15.4539     80.1156     16.5387
  2018.1000      7.8673      2.4101      0.0388     14.5419     79.9326     16.5304
  2018.2000      7.8673      2.4276      0.0983     13.4776     77.3362     16.5748
  2018.3000      7.8713      2.4255      0.0955     13.6066     74.8746     16.3157
  2018.4000      7.8713      2.4047      0.0308     14.8693     76.5104     15.6608
  2018.5000      7.8670      2.3871     -0.0055     15.9319     81.7611     15.2514
  2018.6000      7.8670      2.3868      0.0485     15.9517     89.0571     15.3100
  2018.7000      7.8670      2.3962      0.0875     15.3832     93.9604     15.4585
  2018.8000      7.8530      2.4053      0.0430     14.8317     94.5583     15.5649
  2018.9000      7.8530      2.4152      0.0629     14.2319     93.8178     15.7194
  2019.0000      7.8545      2.4176      0.0994     14.0864     92.5502     15.9859
  2019.1000      7.8545      2.4124      0.0192     14.3988     91.1418     16.3424
  2019.2000      7.8545      2.4284      0.0302     13.4297     88.6375     16.7581
  2019.3000      7.8555      2.4753      0.0623     10.5908     84.3836     17.5297
  2019.4000      7.8555      2.5210      0.1027      7.8206     81.5746     18.6502
  2019.5000      7.8538      2.5353      0.0855      6.9523     81.4354     19.6360
  2019.6000      7.8538      2.5198      0.0294      7.8921     83.2869     20.0388
  2019.7000      7.8538      2.4930      0.0147      9.5182     90.1714     19.7404
  2019.8000      7.8594      2.4731     -0.0223     10.7196    102.1093     18.8922
  2019.9000      7.8594      2.4668      0.0128     11.1041    110.8784     18.0620
  2020.0000      7.8734      2.4663     -0.0022     11.1309    110.6464     17.7324
  2020.1000      7.8734      2.4705      0.0119     10.8765    103.3009     17.5275
  2020.2000      7.8734      2.4816      0.0348     10.2081     94.5005     17.4093
  2020.3000      7.8595      2.4939      0.0445      9.4597     89.4083     17.9321
  2020.4000      7.8595      2.5005      0.1160      9.0587     88.4405     18.4363
  2020.5000      7.8413      2.4986      0.0731      9.1759     89.4117     17.7187
  2020.6000      7.8413      2.4897      0.0909      9.7156     89.2308     16.5473
  2020.7000      7.8413      2.4784      0.0595     10.3996     85.7784     16.0197
  2020.8000      7.8275      2.4758      0.0259     10.5567     81.5179     15.8843
  2020.9000      7.8275      2.4782      0.1150     10.4140     79.3626     16.0084
  2021.0000      7.8322      2.4662      0.0978     11.1398     77.0208     16.6711
  2021.1000      7.8322      2.4436      0.0053     12.5090     71.3111     17.6603
  2021.2000      7.8322      2.4281      0.0340     13.4481     67.1018     18.3487
  2021.3000      7.8329      2.4184      0.0117     14.0377     71.3425     18.4968
  2021.4000      7.8329      2.3984      0.0736     15.2481     82.3847     18.4511
  2021.5000      7.8191      2.3585      0.0127     17.6664     91.0205     18.1730
  2021.6000      7.8191      2.3185     -0.1032     20.0879     95.0504     17.5738
  2021.7000      7.8191      2.3068     -0.0259     20.8007     99.1095     17.2346
  2021.8000      7.8524      2.3198     -0.0399     20.0143    101.9928     17.5652
  2021.9000      7.8524      2.3359      0.0282     19.0381    104.3974     18.0887
  2022.0000      7.8624      2.3396      0.0317     18.8114    110.0098     18.0197
  2022.1000      7.8624      2.3230      0.0495     19.8186    114.4165     17.3357
  2022.2000      7.8624      2.2918      0.0051     21.7114    110.7707     16.7108
  2022.3000      7.8415      2.2689      0.0087     23.0983    102.5336     16.5446
  2022.4000      7.8415      2.2693     -0.0110     23.0729     98.1670     16.4438
  2022.5000      7.8485      2.2856     -0.0049     22.0840     94.1328     16.1371
  2022.6000      7.8485      2.3036      0.0848     20.9955     85.4335     16.2220
  2022.7000      7.8485      2.3229      0.0153     19.8272     79.5289     16.9915
  2022.8000      7.8493      2.3449      0.0834     18.4917     83.8117     17.9915
  2022.9000      7.8493      2.3556      0.0858     17.8409     93.8894     18.6474
  2023.0000      7.8520      2.3542      0.0308     17.9257     97.4347     18.7255
  2023.1000      7.8520      2.3538      0.0795     17.9512     92.3629     18.4568
  2023.2000      7.8520      2.3518      0.0458     18.0704     87.2088     18.1271
  2023.3000      7.8536      2.3388      0.0762     18.8633     84.5192     17.7071
  2023.4000      7.8536      2.3175      0.0181     20.1531     82.9665     17.4947
  2023.5000      7.8625      2.3092     -0.0064     20.6517     84.7336     18.0420
  2023.6000      7.8625      2.3241      0.0443     19.7507     90.1104     19.2295
  2023.7000      7.8625      2.3412      0.0779     18.7160     93.3094     19.9787
  2023.8000      7.8642      2.3470      0.0288     18.3660     92.3780     20.2021
  2023.9000      7.8642      2.3526      0.0580     18.0239     89.7552     20.7177
  2024.0000      7.8707      2.3617      0.0895     17.4736     87.2130     21.0667
  2024.1000      7.8707      2.3647      0.0600     17.2899     85.6018     20.6605
  2024.2000      7.8707      2.3664     -0.0097     17.1853     82.3803     19.8180
  2024.3000      7.8641      2.3812      0.0857     16.2924     77.7954     19.1753
  2024.4000      7.8641      2.4082      0.0800     14.6520     77.4871     19.1263
  2024.5000      7.8602      2.4363      0.0700     12.9532     82.6948     19.3636
  2024.6000      7.8602      2.4505      0.0662     12.0935     88.0516     19.5019
  2024.7000      7.8602      2.4432      0.0776     12.5330     91.4306     19.6410
  2024.8000      7.8688      2.4281      0.0697     13.4502     93.5555     20.0285
  2024.9000      7.8688      2.4243      0.0760     13.6798     92.9891     20.3865
  2025.0000      7.8718      2.4323      0.0298     13.1921     90.4955     20.3104
  2025.1000      7.8718      2.4390      0.0341     12.7852     89.2633     20.0877
  2025.2000      7.8718      2.4352      0.0541     13.0205     88.4990     20.1078
  2025.3000      7.8671      2.4215      0.0562     13.8470     86.9521     20.4098
  2025.4000      7.8671      2.4063      0.0384     14.7680     86.1475     20.3609
  2025.5000      7.8607      2.3940      0.0198     15.5169     87.6774     19.3554
  2025.6000      7.8607      2.3830      0.0399     16.1847     93.1105     18.3070
  2025.7000      7.8607      2.3743      0.0214     16.7089     99.5783     18.4048
  2025.8000      7.8622      2.3683      0.0525     17.0757    100.7216     19.2422
  2025.9000      7.8622      2.3615      0.0347     17.4857     95.7674     19.7940
  2026.0000      7.8687      2.3586      0.0100     17.6625     88.9767     20.0062
  2026.1000      7.8687      2.3611      0.0748     17.5076     85.0294     20.2194
  2026.2000      7.8687      2.3567      0.0586     17.7755     84.3480     20.5859
  2026.3000      7.8923      2.3415      0.0724     18.6946     81.9100     21.0443
  2026.4000      7.8923      2.3274      0.0281     19.5504     75.9776     21.2456
  2026.5000      7.9001      2.3239      0.0119     19.7664     69.3807     21.1602
  2026.6000      7.9001      2.3301      0.0189     19.3871     66.5150     21.2862
  2026.7000      7.9001      2.3329      0.0805     19.2207     70.1468     21.6081
  2026.8000      7.9031      2.3234      0.0061     19.7922     75.4904     21.6968
  2026.9000      7.9031      2.3208     -0.0090     19.9512     77.5557     21.4575
  2027.0000      7.8929      2.3373      0.0517     18.9538     79.4461     21.1411
  2027.1000      7.8929      2.3492      0.0448     18.2319     85.3332     21.2111
  2027.2000      7.8929      2.3360      0.0367     19.0309     92.3222     21.5818
  2027.3000      7.8813      2.3109      0.0163     20.5532     93.4931     21.7964
