~Version Information
VERS.                      2.0: CWLS Log ASCII Standard - VERSION 2.0
WRAP.                       NO: One line per depth step
~Well Information Block
STRT.FT                -7.5000: 
STOP.FT               988.5000: 
STEP.FT                 0.2500: 
NULL.                -999.2500: 
COMP.          Pioneer Natural Resources: COMPANY
WELL.          Stags Leap 13-30: WELL
FLD.           Purgatorie River: FIELD
LOC.           1813' FSL & 117' FWL--: LOCATION
PROV.                       CO: PROVINCE
CNTY.               Las Animas: COUNTRY
SRVC.          Patterson Wireline: SERVICE COMPANY
DATE.          Tue Dec 13 11:29:26 2005: LOG DATE
UWI.           05 071 08595 00: UNIQUE WELL ID
~Curve Information Block
DEPT.FT            0 000 00 00: Depth
CCL.                          : Casing Collar Locator
TT3.usec                      : CBL 3' Travel Time
AMP3.mV                       : CBL 3' Amplitude
GR.GAPI                       : Gamma Ray
~Parameter Information Block
~A  Depth       CCL         TT3         AMP3         GR     
# ...
   830.0000      0.0000    617.5714      8.4664    103.6043
   830.2500      0.0000    598.9513      8.0901    109.1525
   830.5000      0.0000    614.1178      7.5959    112.6596
   830.7500      0.0000    652.6703      7.1001    112.7822
   831.0000      0.0000    693.5259      6.7535    108.6446
   831.2500      0.0000    721.8427      6.6675    100.6149
   831.5000      0.0000    735.6252      6.8708     90.3729
   831.7500      0.0000    739.6804      7.3264     79.8786
   832.0000      0.0000    738.3069      7.9745     70.2679
   832.2500      0.0000    734.1501      8.7525     61.8461
   832.5000      0.0000    730.5167      9.5795     54.9079
   832.7500      0.0000    731.7357     10.3343     50.2218
   833.0000      0.0000    739.7819     10.8812     48.6372
   833.2500      0.0000    750.5641     11.1544     50.2530
   833.5000      0.0000    755.5639     11.2232     53.9951
   833.7500      0.0000    749.0623     11.2502     58.2614
   834.0000      0.0000    732.3938     11.3713     62.0966
   834.2500      0.0000    710.1866     11.6169     65.5959
   834.5000      0.0000    685.4315     11.9260     69.2729
   834.7500      0.0000    659.9778     12.1995     73.3450
   835.0000      0.0000    636.1377     12.3403     77.4869
   835.2500      0.0000    615.5345     12.2799     80.8260
   835.5000      0.0000    600.0466     12.0044     82.1501
   835.7500      0.0000    595.3000     11.5624     80.4824
   836.0000      0.0000    607.7250     11.0374     75.7166
   836.2500      0.0000    635.1186     10.5020     68.7754
   836.5000      0.0000    664.3691      9.9972     61.0899
   836.7500      0.0000    680.5111      9.5460     53.8974
   837.0000      0.0000    675.2670      9.1641     48.1123
   837.2500      0.0000    647.6822      8.8500     44.6175
   837.5000      0.0000    602.2675      8.5798     44.0474
   837.7500      0.0000    548.6141      8.3271     46.1215
   838.0000      0.0000    499.1414      8.0910     49.5988
   838.2500      0.0000    464.2566      7.8983     53.1320
   838.5000      0.0000    449.8862      7.7799     56.0028
   838.7500      0.0000    459.1115      7.7475     57.9521
   839.0000      0.0000    492.9295      7.7852     58.6332
   839.2500      0.0000    546.8806      7.8616     57.7414
   839.5000      0.0000    608.4992      7.9527     55.7775
   839.7500      0.0000    662.1148      8.0586     54.1721
   840.0000      0.0000    697.8730      8.1955     54.1853
   840.2500      0.0000    715.5978      8.3717     55.8102
   840.5000      0.0000    721.1758      8.5703     57.9636
   840.7500      0.0000    721.2125      8.7509     59.5994
   841.0000      0.0000    720.1501      8.8647     60.3473
   841.2500      0.0000    719.6339      8.8770     60.1448
   841.5000      0.0000    719.3522      8.7887     58.8616
   841.7500      0.0000    718.6376      8.6409     56.8163
   842.0000      0.0000    717.4902      8.4944     55.3804
   842.2500      0.0000    716.3195      8.3970     56.2987
   842.5000      0.0000    715.4419      8.3617     60.1084
   842.7500      0.0000    715.3468      8.3688     65.5755
   843.0000      0.0000    717.0198      8.3836     70.8701
   843.2500      0.0000    721.1553      8.3816     74.9739
   843.5000      0.0000    727.0464      8.3659     77.8305
   843.7500      0.0000    732.8285      8.3648     79.5496
   844.0000      0.0000    736.8600      8.4079     79.8677
   844.2500      0.0000    738.3466      8.5030     78.3578
   844.5000      0.0000    736.4749      8.6392     75.0700
   844.7500      0.0000    729.2352      8.8076     70.9466
   845.0000      0.0000    714.1264      9.0136     67.4126
   845.2500      0.0000    691.7308      9.2600     65.4016
   845.5000      0.0000    669.1129      9.5250     64.8912
   845.7500      0.0000    657.0676      9.7682     65.3560
   846.0000      0.0000    661.2069      9.9619     66.2968
   846.2500      0.0000    676.3987     10.1124     67.2409
   846.5000      0.0000    691.4913     10.2521     67.6062
   846.7500      0.0000    698.0812     10.4124     67.0439
   847.0000      0.0000    694.0833     10.5947     66.0606
   847.2500      0.0000    682.2095     10.7556     65.9610
   847.5000      0.0000    667.8047     10.8266     67.7066
   847.7500      0.0000    655.3148     10.7636     70.7421
   848.0000      0.0000    642.6555     10.5823     73.1498
   848.2500      0.0000    620.5470     10.3420     73.1232
   848.5000      0.0000    581.8634     10.0979     70.4024
   848.7500      0.0000    531.3332      9.8739     66.3724
   849.0000      0.0000    482.9485      9.6711     62.8574
   849.2500      0.0000    448.5033      9.4871     60.8501
   849.5000      0.0000    431.0326      9.3239     60.1391
   849.7500      0.0000    427.8685      9.1836     59.7672
   850.0000      0.0000    435.7326      9.0633     58.8717
   850.2500      0.0000    450.7283      8.9551     57.4808
   850.5000      0.0000    465.2755      8.8505     56.5620
   850.7500      0.0000    469.3503      8.7466     57.1565
   851.0000      0.0000    457.8215      8.6492     59.4001
   851.2500      0.0000    435.5811      8.5607     62.2871
   851.5000      0.0000    413.5717      8.4689     64.2017
   851.7500      0.0000    400.3044      8.3578     63.8662
   852.0000      0.0000    397.6076      8.2332     61.2394
   852.2500      0.0000    402.6161      8.1266     57.7246
   852.5000      0.0000    412.4575      8.0684     55.2864
   852.7500      0.0000    428.1061      8.0621     55.0994
   853.0000      0.0000    454.9044      8.0897     56.8850
   853.2500      0.0000    498.3866      8.1314     59.3704
   853.5000      0.0000    557.5093      8.1760     61.2186
   853.7500      0.0000    621.8224      8.2174     61.7338
   854.0000      0.0000    677.0460      8.2506     61.2052
   854.2500      0.0000    714.4828      8.2727     60.7585
   854.5000      0.0000    735.0410      8.2877     61.4602
   854.7500      0.0000    745.5323      8.3083     63.3494
   855.0000      0.0000    752.7574      8.3473     65.5787
   855.2500      0.0000    760.2675      8.4017     67.4121
   855.5000      0.0000    768.2827      8.4455     68.5641
   855.7500      0.0000    775.3302      8.4415     68.6928
   856.0000      0.0000    780.0795      8.3626     67.4399
   856.2500      0.0000    782.1668      8.1999     65.2800
   856.5000      0.0000    781.8862      7.9517     63.4828
   856.7500      0.0000    779.7790      7.6085     62.7019
   857.0000      0.0000    776.3498      7.1564     62.2327
   857.2500      0.0000    771.3909      6.6100     61.2411
   857.5000      0.0000    762.7124      6.0504     60.1084
   857.7500      0.0000    746.0257      5.6037     59.7453
   858.0000      0.0000    717.2405      5.3508     60.0319
   858.2500      0.0000    675.2355      5.2756     59.9082
   858.5000      0.0000    622.0505      5.3247     58.8623
   858.7500      0.0000    561.6031      5.4782     57.4441
   859.0000      0.0000    500.2351      5.7262     56.3046
   859.2500      0.0000    447.3466      6.0213     55.5530
   859.5000      0.0000    412.3897      6.2918     55.1870
   859.7500      2.0000    401.5149      6.4705     55.3831
   860.0000      0.0000    418.2551      6.5046     56.1135
   860.2500      0.0000    463.8611      6.3832     57.0490
   860.5000      0.0000    532.1094      6.1672     58.1025
   860.7500      0.0000    604.4372      5.9496     59.6782
   861.0000      0.0000    655.9434      5.7779     62.0698
   861.2500      0.0000    670.2842      5.6608     64.7397
   861.5000      0.0000    648.6674      5.6409     66.4296
   861.7500      0.0000    604.7413      5.7860     66.1223
   862.0000      0.0000    553.2722      6.0953     63.8935
   862.2500      0.0000    504.4901      6.4719     60.8187
   862.5000      0.0000    464.7116      6.8052     58.2025
   862.7500      0.0000    436.8032      7.0518     56.9141
   863.0000      0.0000    419.4274      7.2306     57.1385
   863.2500      0.0000    408.7424      7.3704     58.4572
