~Version Information
VERS.                      2.0: CWLS Log ASCII Standard - VERSION 2.0
WRAP.                       NO: One line per depth step
~Well Information Block
STRT.FT                10.0000: 
STOP.FT              1063.0000: 
STEP.FT                 0.1000: 
NULL.                -999.2500: 
COMP.          Pioneer Natural Resources: COMPANY
WELL.                Mac 22-36: WELL
FLD.           Purgatorie River: FIELD
LOC.           2545' FNL & 1398' FWL: LOCATION
PROV.                 Colorado: PROVINCE
CNTY.               Las Animas: COUNTRY
SRVC.                Patterson: SERVICE COMPANY
DATE.          Mon Dec 05 10:55:42 2005: LOG DATE
UWI.                          : UNIQUE WELL ID
~Curve Information Block
DEPT.FT            0 000 00 00: Depth
DCAL.in                       : CDL Caliper
RHOB.g/cc                     : CDL Bulk Density
RHOC.g/cc                     : CDL Density Correction
DPOR.pu                       : CDL Density Porosity
GR.GAPI                       : Gamma Ray
NPOR.pu                       : Neutron Porosity
~Parameter Information Block
~A  Depth       DCAL        RHOB        RHOC        DPOR         GR         NPOR    
# ...
   355.6000      8.0227      1.9952      0.0538     39.6845    141.0351     21.1784
   355.7000      8.0227      2.0241      0.0483     37.9326    141.8561     22.4681
   355.8000      8.0117      2.0740      0.0500     34.9077    145.2462     23.6603
   355.9000      8.0117      2.1545      0.0899     30.0322    149.8923     24.6144
   356.0000      8.0178      2.2580      0.2237     23.7597    152.9148     25.3975
   356.1000      8.0178      2.3595      0.2146     17.6075    152.8680     26.2531
   356.2000      8.0178      2.4409      0.1832     12.6724    153.7105     27.1807
   356.3000      7.9996      2.4936      0.1735      9.4789    159.0371     27.8890
   356.4000      7.9996      2.5115      0.0829      8.3940    167.3055     28.2944
   356.5000      8.0119      2.5047      0.0625      8.8052    172.7411     28.5238
   356.6000      8.0119      2.4982      0.0200      9.2028    171.5025     28.5852
   356.7000      8.0119      2.5026      0.0495      8.9352    167.7163     28.3418
   356.8000      8.0048      2.5019      0.0505      8.9779    166.7398     27.8920
   356.9000      8.0048      2.4827      0.0274     10.1411    168.8573     27.5980
   357.0000      8.0049      2.4522      0.0377     11.9876    170.3068     27.4442
   357.1000      8.0049      2.4220     -0.0111     13.8208    168.1643     27.2108
   357.2000      8.0049      2.4007      0.0127     15.1108    165.4461     26.8804
   357.3000      8.0144      2.3932      0.0041     15.5614    166.9695     26.5652
   357.4000      8.0144      2.4004      0.0087     15.1267    169.2651     26.3562
   357.5000      8.0172      2.4212      0.0103     13.8640    167.1018     26.1962
   357.6000      8.0172      2.4533      0.0655     11.9219    163.5318     26.0777
   357.7000      8.0172      2.4936      0.0731      9.4759    162.0764     26.1665
   357.8000      8.0134      2.5380      0.1045      6.7897    161.8565     26.4231
   357.9000      8.0134      2.5719      0.1834      4.7342    161.5166     26.5495
   358.0000      8.0122      2.5804      0.1959      4.2208    161.6370     26.3995
   358.1000      8.0122      2.5702      0.1364      4.8348    163.5573     26.2669
   358.2000      8.0122      2.5570      0.1277      5.6346    165.9301     26.5318
   358.3000      8.0082      2.5392      0.1145      6.7149    166.6066     27.0460
   358.4000      8.0082      2.5104      0.0778      8.4603    166.2619     27.2792
   358.5000      8.0097      2.4787      0.0930     10.3831    167.4747     27.0078
   358.6000      8.0097      2.4634     -0.0075     11.3061    170.2272     26.6302
   358.7000      8.0097      2.4749      0.0454     10.6114    171.0114     26.4358
   358.8000      8.0171      2.4986      0.0488      9.1751    169.7473     26.2752
   358.9000      8.0171      2.5112      0.1166      8.4131    169.1155     26.2176
   359.0000      8.0165      2.5049      0.0950      8.7953    168.6384     26.3372
   359.1000      8.0165      2.4987      0.0611      9.1708    168.6390     26.3311
   359.2000      8.0165      2.5088      0.1199      8.5562    171.6776     26.0372
   359.3000      8.0054      2.5277      0.1474      7.4110    177.9259     25.8155
   359.4000      8.0054      2.5456      0.1241      6.3279    183.9003     26.0189
   359.5000      8.0058      2.5591      0.1091      5.5072    185.4695     26.4285
   359.6000      8.0058      2.5592      0.1755      5.5003    181.9887     26.6543
   359.7000      8.0058      2.5417      0.1414      6.5608    176.2310     26.6479
   359.8000      8.0050      2.5258      0.1095      7.5258    172.0256     26.4727
   359.9000      8.0050      2.5256      0.1542      7.5370    171.4430     26.2680
   360.0000      8.0063      2.5279      0.1337      7.4016    171.8607     26.3372
   360.1000      8.0063      2.5204      0.1207      7.8555    170.9964     26.7298
   360.2000      8.0063      2.5051      0.0632      8.7818    171.4526     27.0632
   360.3000      8.0174      2.4842      0.0770     10.0513    175.8711     27.0033
   360.4000      8.0174      2.4548      0.0588     11.8295    180.2994     26.7025
   360.5000      8.0363      2.4216      0.0115     13.8433    178.7295     26.4892
   360.6000      8.0363      2.4016     -0.0179     15.0524    171.8428     26.4528
   360.7000      8.0363      2.4061     -0.0139     14.7829    163.8971     26.3277
   360.8000      8.1300      2.4253      0.0238     13.6153    158.7724     25.9849
   360.9000      8.1300      2.4473      0.0070     12.2818    157.0971     25.8303
   361.0000      8.1486      2.4700      0.0393     10.9083    153.7625     26.0468
   361.1000      8.1486      2.4866      0.0385      9.9005    146.3545     26.3920
   361.2000      8.1486      2.4932      0.1005      9.5037    139.0833     26.7903
   361.3000      8.0840      2.4973      0.0971      9.2531    134.9374     27.1591
   361.4000      8.0840      2.5076      0.0325      8.6275    132.1544     27.2612
   361.5000      8.0245      2.5215      0.0544      7.7850    129.5094     26.9415
   361.6000      8.0245      2.5285      0.0214      7.3636    128.4159     26.3489
   361.7000      8.0245      2.5244      0.0308      7.6146    128.0983     25.7603
   361.8000      7.9982      2.5135     -0.0097      8.2709    125.9337     25.2408
   361.9000      7.9982      2.5046      0.0125      8.8119    120.1138     24.8075
   362.0000      8.0021      2.5001      0.0216      9.0865    112.0081     24.4635
   362.1000      8.0021      2.4993     -0.0241      9.1320    106.1537     24.0846
   362.2000      8.0021      2.5001      0.0270      9.0844    103.9325     23.5838
   362.3000      7.9992      2.4925      0.0223      9.5468    102.7932     22.9860
   362.4000      7.9992      2.4719      0.0056     10.7932    101.3608     22.2496
   362.5000      7.9996      2.4472     -0.0157     12.2924     99.5199     21.3799
   362.6000      7.9996      2.4273      0.0162     13.4962     96.2001     20.4861
   362.7000      7.9996      2.4115      0.0019     14.4564     90.8045     19.6752
   362.8000      7.9911      2.3983     -0.0013     15.2527     84.3560     19.0862
   362.9000      7.9911      2.3913     -0.0019     15.6768     79.4315     18.8914
   363.0000      7.9879      2.3924      0.0159     15.6111     79.4143     19.0254
   363.1000      7.9879      2.4017      0.0525     15.0489     82.9641     19.1464
   363.2000      7.9879      2.4146      0.0440     14.2672     84.9695     19.0799
   363.3000      7.9949      2.4237      0.0701     13.7124     84.0697     18.9520
   363.4000      7.9949      2.4246      0.0315     13.6611     82.5652     18.9254
   363.5000      7.9957      2.4215      0.0151     13.8487     82.3276     18.8753
   363.6000      7.9957      2.4203      0.0177     13.9238     83.3066     18.5564
   363.7000      7.9957      2.4206      0.0229     13.9012     84.5726     18.1009
   363.8000      7.9878      2.4269      0.0240     13.5204     85.9864     17.8458
   363.9000      7.9878      2.4435      0.0800     12.5157     87.0284     18.0690
   364.0000      7.9885      2.4562      0.1017     11.7483     85.7775     18.6740
   364.1000      7.9885      2.4469      0.1002     12.3082     83.2426     19.1938
   364.2000      7.9885      2.4239      0.0206     13.7055     83.4261     19.5817
   364.3000      7.9951      2.4101      0.0060     14.5419     86.0917     19.9487
   364.4000      7.9951      2.4131      0.0102     14.3573     88.8940     20.1735
   364.5000      7.9976      2.4273     -0.0032     13.4959     92.2691     20.2303
   364.6000      7.9976      2.4374      0.0510     12.8825     97.4496     20.1613
   364.7000      7.9976      2.4220      0.0213     13.8204    104.9599     19.9780
   364.8000      7.9937      2.3701      0.0319     16.9620    113.2810     19.5321
   364.9000      7.9937      2.2818      0.0248     22.3179    119.0949     18.6192
   365.0000      7.9853      2.1675     -0.0561     29.2407    122.7211     17.2901
   365.1000      7.9853      2.0479     -0.0940     36.4906    126.4500     15.8728
