~Version Information
VERS.                      2.0: CWLS Log ASCII Standard - VERSION 2.0
WRAP.                       NO: One line per depth step
~Well Information Block
STRT.FT                -6.0000: 
STOP.FT               783.7500: 
STEP.FT                 0.2500: 
NULL.                -999.2500: 
COMP.          Pioneer Natural Resources: COMPANY
WELL.           Weissach 32-32: WELL
FLD.           Purgatorie River: FIELD
LOC.           --2193' FNL & 2256' FEL--: LOCATION
STAT.                       CO: State
CNTY.               Las Animas: COUNTY
CTRY. USA : Country
SECT. 32 : Section
TOWN. 33S : Township
RANG. 65W : Range
SRVC.          Patterson Wireline: SERVICE COMPANY
DATE.          Thu Sep 29 12:52:09 2005: LOG DATE
API.           05 071 08523 00: UNIQUE WELL ID
~Curve Information Block
DEPT.FT            0 000 00 00: Depth
CCL.                          : Casing Collar Locator
TT3.usec                      : CBL 3' Travel Time
AMP3.mV                       : CBL 3' Amplitude
GR.GAPI                       : Gamma Ray
~Parameter Information Block
~A  Depth       CCL         TT3         AMP3         GR     
# ...
   195.0000      0.0000    696.4901     15.2525     62.8325
   195.2500      0.0000    686.2072     15.8416     63.3207
   195.5000      0.0000    661.7222     16.4215     65.2869
   195.7500      0.0000    616.0378     16.9980     69.1324
   196.0000      0.0000    549.5458     17.5974     73.4488
   196.2500      0.0000    474.1123     18.2603     76.0502
   196.5000      0.0000    407.3906     19.0276     75.6660
   196.7500      0.0000    361.3268     19.9182     72.7546
   197.0000      0.0000    336.4353     20.9050     68.8594
   197.2500      0.0000    325.8340     21.9047     65.3131
   197.5000      0.0000    322.2160     22.7993     62.5076
   197.7500      0.0000    321.1953     23.4897     60.1887
   198.0000      0.0000    320.9585     23.9460     58.2570
   198.2500      0.0000    320.9413     24.2111     57.1215
   198.5000      0.0000    320.9977     24.3596     57.2407
   198.7500      0.0000    321.0818     24.4526     58.4744
   199.0000      0.0000    321.1839     24.5212     60.0991
   199.2500      0.0000    321.3018     24.5728     61.3755
   199.5000      0.0000    321.4337     24.6002     62.0030
   199.7500      0.0000    321.5730     24.5844     62.2427
   200.0000      0.0000    321.7085     24.4897     62.7150
   200.2500      0.0000    321.8577     24.2622     63.8671
   200.5000      0.0000    322.1384     23.8510     65.5667
   200.7500      0.0000    323.0919     23.2444     67.1423
   201.0000      0.0000    326.5133     22.4856     67.5968
   201.2500      0.0000    336.7268     21.6338     65.9751
   201.5000      0.0000    360.7768     20.7028     62.1355
   201.7500      0.0000    404.8358     19.6357     57.3378
   202.0000      0.0000    467.2547     18.3366     53.6765
   202.2500      0.0000    535.5043     16.7490     52.6894
   202.5000      0.0000    593.9614     14.9520     54.6189
   202.7500      0.0000    636.9104     13.1881     58.9864
   203.0000      0.0000    672.5797     11.7418     65.5468
   203.2500      0.0000    713.6060     10.7561     74.3144
   203.5000      0.0000    763.8051     10.1702     84.6421
   203.7500      0.0000    814.3885      9.8116     94.7678
   204.0000      0.0000    853.2192      9.5162    102.7489
   204.2500      0.0000    877.1268      9.1936    107.7780
   204.5000     -2.0000    892.3911      8.8280    110.2862
   204.7500      0.0000    903.1487      8.4453    110.9932
   205.0000      0.0000    903.9041      8.0985    110.3174
   205.2500      0.0000    885.9556      7.8877    108.7369
   205.5000      0.0000    848.6653      7.9499    107.3459
   205.7500      0.0000    802.2198      8.3619    107.6465
   206.0000      0.0000    760.2711      9.0335    110.4029
   206.2500      0.0000    731.3417      9.7304    114.6992
   206.5000      0.0000    716.3210     10.2260    118.5765
   206.7500      0.0000    711.2394     10.4273    120.7210
   207.0000      0.0000    710.8737     10.3709    121.2089
   207.2500      0.0000    711.0405     10.1460    120.7235
   207.5000      0.0000    709.7147      9.8447    119.4979
   207.7500      0.0000    707.1014      9.5548    117.1957
   208.0000      0.0000    704.4169      9.3551    113.9032
   208.2500      0.0000    702.5407      9.2931    111.1768
   208.5000      0.0000    701.5522      9.3645    111.4051
   208.7500      0.0000    701.1161      9.5172    115.4244
   209.0000      0.0000    700.9039      9.6792    121.0272
   209.2500      0.0000    700.7225      9.7933    124.5923
   209.5000      0.0000    700.4869      9.8417    124.3108
   209.7500      0.0000    700.1942      9.8467    121.4901
   210.0000      0.0000    699.8893      9.8439    118.6413
   210.2500      0.0000    699.6149      9.8551    116.8330
   210.5000      0.0000    699.3746      9.8818    115.4251
   210.7500      0.0000    699.1514      9.9168    113.8923
   211.0000      0.0000    698.9437      9.9536    112.5837
   211.2500      0.0000    698.7750      9.9888    111.4345
   211.5000      0.0000    698.6721     10.0284    109.3928
   211.7500      0.0000    698.6775     10.0913    106.1715
   212.0000      0.0000    698.9205     10.1972    103.7557
   212.2500      0.0000    699.6974     10.3439    105.0339
   212.5000      0.0000    701.3610     10.5038    110.8770
   212.7500      0.0000    703.8437     10.6472    118.8423
   213.0000      0.0000    706.1472     10.7661    124.6450
   213.2500      0.0000    706.3891     10.8805    124.9527
   213.5000      0.0000    702.2167     11.0272    119.3713
   213.7500      0.0000    690.2964     11.2420    110.4752
   214.0000      0.0000    665.2867     11.5344    102.0097
   214.2500      0.0000    621.6982     11.8606     96.6360
   214.5000      0.0000    559.9340     12.1269     94.9709
   214.7500      0.0000    490.5108     12.2382     96.2828
   215.0000      0.0000    429.4090     12.1625     99.4802
   215.2500      0.0000    387.8801     11.9453    103.6203
   215.5000      0.0000    367.5584     11.6651    108.2983
   215.7500      0.0000    364.6433     11.3789    113.6046
   216.0000      0.0000    376.0667     11.1061    119.3203
   216.2500      0.0000    400.5645     10.8464    124.3851
   216.5000      0.0000    435.1812     10.5977    127.5018
   216.7500      0.0000    473.4034     10.3582    128.1083
   217.0000      0.0000    509.0226     10.1219    126.5424
   217.2500      0.0000    541.6288      9.8743    123.2393
   217.5000      0.0000    575.6643      9.5926    118.0861
   217.7500      0.0000    613.0671      9.2524    111.0257
   218.0000      0.0000    649.4124      8.8380    103.1320
   218.2500      0.0000    678.5475      8.3529     96.5537
   218.5000      0.0000    698.5067      7.8322     93.2532
   218.7500      0.0000    711.4522      7.3448     93.7376
   219.0000      0.0000    720.0923      6.9695     96.6937
   219.2500      0.0000    726.0707      6.7558     99.9847
   219.5000      0.0000    730.5991      6.7020    102.4955
   219.7500      0.0000    734.6556      6.7673    104.9126
   220.0000      0.0000    738.3975      6.9014    108.4316
   220.2500      0.0000    741.2980      7.0673    113.0360
   220.5000      0.0000    742.9786      7.2467    117.4654
   220.7500      0.0000    743.6335      7.4286    120.5472
   221.0000      0.0000    743.7378      7.5974    122.1254
   221.2500      0.0000    743.6683      7.7349    122.7400
   221.5000      0.0000    743.6072      7.8377    122.7310
   221.7500      0.0000    743.6520      7.9291    121.8335
   222.0000      0.0000    743.9984      8.0443    119.5648
   222.2500      0.0000    745.1402      8.2014    115.8426
   222.5000      0.0000    747.8530      8.3900    111.2372
   222.7500      0.0000    752.6363      8.5851    106.5841
   223.0000      0.0000    758.7436      8.7696    102.1498
   223.2500      0.0000    763.9586      8.9439     97.2017
   223.5000      0.0000    766.3073      9.1177     90.8537
   223.7500      0.0000    766.5261      9.2868     83.6094
   224.0000      0.0000    767.9800      9.4176     77.6000
   224.2500      0.0000    773.1037      9.4594     74.7360
   224.5000      0.0000    780.4294      9.3814     74.9047
   224.7500      0.0000    785.9736      9.1985     76.6451
   225.0000      0.0000    786.8649      8.9587     79.4848
   225.2500      0.0000    782.6893      8.7123     84.5710
   225.5000      0.0000    774.1476      8.4952     92.6116
   225.7500      0.0000    761.8021      8.3345    102.0835
   226.0000      0.0000    746.3986      8.2468    110.2950
   226.2500      0.0000    729.8104      8.2178    115.8838
   226.5000      0.0000    715.2584      8.1903    119.6640
   226.7500      0.0000    706.7035      8.0897    123.1361
   227.0000      0.0000    707.7961      7.8771    126.6235
   227.2500      0.0000    719.9330      7.5829    128.8541
   227.5000      0.0000    740.1026      7.2883    128.1818
   227.7500      0.0000    761.5797      7.0711    124.0748
   228.0000      0.0000    778.1852      6.9638    117.4213
   228.2500      0.0000    787.8372      6.9545    109.8110
