~Version Information
VERS.                      2.0: CWLS Log ASCII Standard - VERSION 2.0
WRAP.                       NO: One line per depth step
~Well Information Block
STRT.FT                10.0000: 
STOP.FT              1665.0000: 
STEP.FT                 0.1000: 
NULL.                -999.2500: 
COMP.          Pioneer Natural Resources: COMPANY
WELL.          Stock Canyon 34-33: WELL
FLD.           Purgatorie River: FIELD
LOC.           980' FSL & 2191' FEL: LOCATION
PROV.                 Colorado: PROVINCE
CNTY.               Las Animas: COUNTRY
SRVC.                Patterson: SERVICE COMPANY
DATE.          Mon Dec 05 10:33:50 2005: LOG DATE
UWI.                          : UNIQUE WELL ID
~Curve Information Block
DEPT.FT            0 000 00 00: Depth
DCAL.in                       : CDL Caliper
RHOB.g/cc                     : CDL Bulk Density
RHOC.g/cc                     : CDL Density Correction
DPOR.pu                       : CDL Density Porosity
GR.GAPI                       : Gamma Ray
NPOR.pu                       : Neutron Porosity
~Parameter Information Block
~A  Depth       DCAL        RHOB        RHOC        DPOR         GR         NPOR    
# ...
  1546.0000      8.7868      1.8727     -0.0511     47.1097     92.8580     22.2087
  1546.1000      8.7868      1.8841     -0.0208     46.4195     96.5158     21.7213
  1546.2000      8.7868      1.9207      0.0162     44.2004    101.7612     21.4960
  1546.3000      8.7411      1.9817      0.0635     40.5028    106.5862     21.7080
  1546.4000      8.7411      2.0679      0.1899     35.2802    110.4309     22.1777
  1546.5000      8.8406      2.1570      0.3121     29.8774    113.4211     22.5584
  1546.6000      8.8406      2.2218      0.3208     25.9507    116.9205     22.5755
  1546.7000      8.8406      2.2592      0.3233     23.6853    120.3261     22.3307
  1546.8000      8.9154      2.2774      0.3265     22.5817    121.8842     22.3028
  1546.9000      8.9154      2.2853      0.3004     22.1032    123.7241     22.6465
  1547.0000      8.9160      2.2945      0.2461     21.5445    128.7225     22.8929
  1547.1000      8.9160      2.3199      0.1510     20.0046    135.1582     22.7772
  1547.2000      8.9160      2.3741      0.1658     16.7236    139.5351     22.5094
  1547.3000      8.5087      2.4387      0.2049     12.8059    142.9918     22.3674
  1547.4000      8.5087      2.4707      0.2161     10.8691    147.4241     22.5216
  1547.5000      8.4834      2.4545      0.1170     11.8460    150.6902     22.8229
  1547.6000      8.4834      2.4176      0.0615     14.0877    153.3961     22.9114
  1547.7000      8.4834      2.3940     -0.0006     15.5153    159.4433     22.7579
  1547.8000      8.4949      2.3984     -0.0049     15.2487    166.3327     22.7254
  1547.9000      8.4949      2.4219      0.0484     13.8221    168.2234     22.8933
  1548.0000      8.4319      2.4456      0.0448     12.3886    168.7527     22.9560
  1548.1000      8.4319      2.4553      0.0858     11.8009    175.3735     22.8792
  1548.2000      8.4319      2.4502      0.0435     12.1062    186.6756     22.8117
  1548.3000      8.4129      2.4438      0.0057     12.4953    199.2614     22.8206
  1548.4000      8.4129      2.4423      0.0571     12.5907    213.2142     22.9807
  1548.5000      8.3365      2.4400     -0.0186     12.7275    226.9822     23.1410
  1548.6000      8.3365      2.4357      0.0151     12.9876    239.0516     23.2153
  1548.7000      8.3365      2.4273      0.0340     13.4942    247.2563     23.4129
  1548.8000      8.3121      2.4154     -0.0209     14.2163    247.3570     23.7208
  1548.9000      8.3121      2.4134     -0.0059     14.3381    238.7255     23.8231
  1549.0000      8.2523      2.4279      0.0128     13.4589    227.4308     23.6118
  1549.1000      8.2523      2.4498      0.0390     12.1306    218.7885     23.1442
  1549.2000      8.2523      2.4750      0.0309     10.6062    208.0791     22.4944
  1549.3000      8.2441      2.4993      0.1371      9.1350    190.2034     21.8436
  1549.4000      8.2441      2.5070      0.1060      8.6643    171.8105     21.3108
  1549.5000      8.2438      2.4941      0.1152      9.4511    159.9062     20.8795
  1549.6000      8.2438      2.4777      0.0492     10.4399    153.9551     20.5902
  1549.7000      8.2438      2.4760      0.0378     10.5425    148.6444     20.6370
  1549.8000      8.2574      2.4821      0.0541     10.1769    141.2038     21.0069
  1549.9000      8.2574      2.4825      0.0752     10.1516    134.5758     21.0828
  1550.0000      8.3255      2.4889      0.0259      9.7655    130.2627     20.5303
  1550.1000      8.3255      2.5096      0.0909      8.5111    128.3175     19.9037
  1550.2000      8.3255      2.5252      0.0968      7.5656    127.9544     19.6178
  1550.3000      8.3567      2.5226      0.0552      7.7186    125.1319     19.4059
  1550.4000      8.3567      2.5061      0.0477      8.7231    119.5797     19.1176
  1550.5000      8.2822      2.4818      0.0387     10.1918    116.7795     19.0021
  1550.6000      8.2822      2.4621      0.0219     11.3875    115.5885     19.0568
  1550.7000      8.2822      2.4552      0.0437     11.8039    112.2610     19.1025
  1550.8000      8.2010      2.4540      0.0254     11.8766    109.9323     19.0621
  1550.9000      8.2010      2.4541     -0.0019     11.8726    109.0835     18.8598
  1551.0000      8.1816      2.4606     -0.0101     11.4791    107.1563     18.6048
  1551.1000      8.1816      2.4670      0.0888     11.0931    107.4341     18.6428
  1551.2000      8.1816      2.4670      0.0125     11.0884    114.0333     19.2472
  1551.3000      8.1858      2.4757     -0.0092     10.5647    124.9558     20.1019
  1551.4000      8.1858      2.4928      0.0613      9.5301    135.7914     20.6692
  1551.5000      8.1353      2.5009      0.0652      9.0367    145.6027     20.9329
  1551.6000      8.1353      2.5021      0.0261      8.9637    156.4534     21.1075
  1551.7000      8.1353      2.5059      0.0584      8.7337    169.1232     21.2056
  1551.8000      8.0455      2.5111      0.0335      8.4188    181.8531     21.1294
  1551.9000      8.0455      2.5127      0.0529      8.3212    191.3627     20.9125
  1552.0000      7.9939      2.5080      0.0472      8.6038    191.3401     20.6788
  1552.1000      7.9939      2.4968      0.0240      9.2846    180.6926     20.5867
  1552.2000      7.9939      2.4842     -0.0039     10.0496    170.9342     20.5991
  1552.3000      7.9915      2.4789      0.0161     10.3688    168.7716     20.4525
  1552.4000      7.9915      2.4828     -0.0109     10.1363    168.3276     20.1710
  1552.5000      7.9914      2.4888      0.0414      9.7669    163.9987     20.1515
  1552.6000      7.9914      2.4930      0.0048      9.5130    159.1571     20.3120
  1552.7000      7.9914      2.4983      0.0341      9.1914    160.0128     20.2769
  1552.8000      7.9801      2.5065      0.0714      8.6948    164.8836     20.0935
  1552.9000      7.9801      2.5239      0.0442      7.6418    169.5496     19.9417
  1553.0000      7.9787      2.5477      0.0980      6.2014    173.6892     19.8629
  1553.1000      7.9787      2.5530      0.0970      5.8764    177.7329     19.9167
  1553.2000      7.9787      2.5330      0.0530      7.0888    181.6587     20.1567
  1553.3000      7.9787      2.5087      0.0521      8.5621    184.5426     20.5855
  1553.4000      7.9787      2.4971      0.0382      9.2689    185.0496     21.1130
  1553.5000      7.9719      2.5038      0.0140      8.8626    182.8610     21.4906
  1553.6000      7.9719      2.5215      0.0610      7.7874    178.6813     21.3980
  1553.7000      7.9719      2.5324      0.0608      7.1257    171.1460     20.9773
  1553.8000      7.9803      2.5319      0.0236      7.1603    158.5816     20.6564
  1553.9000      7.9803      2.5269      0.0258      7.4624    144.1182     20.4293
  1554.0000      7.9749      2.5138      0.0472      8.2574    131.8177     20.1510
  1554.1000      7.9749      2.4927     -0.0030      9.5305    122.6061     19.9564
  1554.2000      7.9749      2.4881     -0.0091      9.8101    114.6049     19.8281
  1554.3000      7.9702      2.5080      0.0759      8.6039    107.3497     19.6391
  1554.4000      7.9702      2.5263      0.0505      7.4960    102.4684     19.4683
  1554.5000      7.9709      2.5321      0.0406      7.1440     97.4055     19.2628
  1554.6000      7.9709      2.5347      0.0838      6.9888     89.2113     18.7174
  1554.7000      7.9709      2.5335      0.0533      7.0624     81.5807     17.8958
  1554.8000      7.9653      2.5294      0.0573      7.3103     76.9319     17.2210
  1554.9000      7.9653      2.5242      0.0727      7.6241     74.0098     16.8937
  1555.0000      7.9668      2.5103      0.0614      8.4657     72.1089     16.8940
  1555.1000      7.9668      2.4872      0.0404      9.8666     69.8476     16.9988
  1555.2000      7.9668      2.4650      0.0219     11.2098     67.0697     16.8867
  1555.3000      7.9698      2.4471      0.0418     12.2965     65.9806     16.5678
  1555.4000      7.9698      2.4280      0.0079     13.4574     67.0779     16.3316
  1555.5000      7.9762      2.4082      0.0284     14.6558     69.2964     16.3305
