~Version Information
VERS.                      2.0: CWLS Log ASCII Standard - VERSION 2.0
WRAP.                       NO: One line per depth step
~Well Information Block
STRT.FT                 0.0000: 
STOP.FT              1877.2500: 
STEP.FT                 0.2500: 
NULL.                -999.2500: 
COMP.          Pioneer Natural Resources: COMPANY
WELL.            Corazon 13-10: WELL
FLD.           Purgatoire River: FIELD
LOC.           2510' FSL & 439' FWL--------: LOCATION
PROV.                 Colorado: PROVINCE
CNTY.               Las Animas: COUNTRY
SRVC.                         : SERVICE COMPANY
DATE.          Mon Dec 19 14:34:49 2005: LOG DATE
UWI.                          : UNIQUE WELL ID
~Curve Information Block
DEPT.FT            0 000 00 00: Depth
CCL.                          : Casing Collar Locator
TT3.usec                      : CBL 3' Travel Time
AMP3.mV                       : CBL 3' Amplitude
AMP5.mV                       : CBL 5' Amplitude
GR.GAPI                       : Gamma Ray
~Parameter Information Block
~A  Depth       CCL         TT3         AMP3        AMP5         GR     
     0.0000   -999.2500    987.0000      1.4094      0.8378     93.5677
     0.2500   -999.2500    987.0000      1.3899      0.9089     90.1862
     0.5000   -999.2500    987.0000      1.3258      0.9402     82.5819
     0.7500   -999.2500    987.0000      1.2358      0.9203     71.5945
     1.0000   -999.2500    987.0000      1.1442      0.8712     59.5703
     1.2500   -999.2500    987.0000      1.0600      0.8312     49.3268
     1.5000   -999.2500    987.0000      0.9837      0.8239     42.4764
     1.7500   -999.2500    987.0000      0.9222      0.8396     38.5691
     2.0000   -999.2500    987.0000      0.8879      0.8449     36.0205
     2.2500   -999.2500    987.0000      0.8848      0.8139     33.8717
     2.5000   -999.2500    987.0000      0.9020      0.7540     32.5867
     2.7500   -999.2500    987.0000      0.9221      0.7060     33.2922
     3.0000   -999.2500    987.0000      0.9341      0.7086     36.4511
     3.2500   -999.2500    987.0000      0.9420      0.7597     41.2800
     3.5000   -999.2500    987.0000      0.9595      0.8174     46.3501
     3.7500   -999.2500    987.0000      0.9923      0.8432     50.5753
     4.0000      0.0000    987.0000      1.0250      0.8342     53.6628
     4.2500      0.0000    987.0000      1.0312      0.8140     55.9580
     4.5000      0.0000    987.0000      1.0004      0.8075     57.9688
     4.7500      0.0000    987.0000      0.9518      0.8291     59.8230
     5.0000      0.0000    987.0000      0.9223      0.8831     61.1752
     5.2500      0.0000    987.0000      0.9432      0.9628     61.7822
     5.5000      0.0000    987.0000      1.0255      1.0501     62.0557
     5.7500      0.0000    987.0000      1.1563      1.1201     62.8612
     6.0000      0.0000    987.0000      1.3016      1.1503     64.8459
     6.2500      0.0000    987.0000      1.4207      1.1302     67.9906
     6.5000      0.0000    987.0000      1.4856      1.0675     71.6080
     6.7500      0.0000    987.0000      1.4902      0.9850     74.7164
     7.0000      0.0000    987.0000      1.4450      0.9069     76.5955
     7.2500      0.0000    987.0000      1.3664      0.8453     77.1305
     7.5000      0.0000    987.0000      1.2740      0.8041     76.6785
     7.7500      0.0000    987.0000      1.1933      0.7914     75.7425
     8.0000      2.0000    987.0000      1.1499      0.8182     74.7670
     8.2500     -2.0000    987.0000      1.1523      0.8813     73.8806
     8.5000      0.0000    987.0000      1.1785      0.9581     72.6810
     8.7500      0.0000    986.9542      1.1905      1.0216     70.6333
     9.0000      0.0000    986.6553      1.1716      1.0589     67.8029
     9.2500      0.0000    985.1379      1.1755      1.0746     64.8616
     9.5000      0.0000    979.1365      1.3947      1.0847     62.3306
     9.7500      0.0000    960.6524      2.2513      1.1104     60.2594
    10.0000      0.0000    916.3284      4.3931      1.1873     58.7775
    10.2500      0.0000    833.6266      8.3596      1.3972     58.3431
    10.5000      0.0000    713.7964     13.9505      1.8893     58.9831
    10.7500      0.0000    580.1032     19.9230      2.8092     59.6305
    11.0000      0.0000    469.1955     24.6224      4.1279     58.8078
    11.2500      0.0000    412.1040     27.0954      5.5458     56.1150
    11.5000      0.0000    422.6857     27.5631      6.6471     52.7592
    11.7500      0.0000    497.2028     26.9232      7.1912     50.3710
    12.0000      0.0000    615.8564     26.0008      7.2377     49.4891
    12.2500      0.0000    746.2988     25.2079      7.0083     49.5826
    12.5000      0.0000    856.1151     24.6163      6.6735     50.3136
    12.7500      0.0000    928.3303     24.1545      6.2566     52.0551
    13.0000      0.0000    965.3918     23.7549      5.6825     55.1778
    13.2500      0.0000    979.3475     23.4042      4.8868     59.4954
    13.5000      0.0000    979.9474     23.0975      3.8952     64.4786
    13.7500      0.0000    969.4824     22.7487      2.8383     69.4684
    14.0000      0.0000    945.5768     22.1270      1.9008     73.5514
    14.2500      0.0000    909.6738     20.9050      1.2330     75.6214
    14.5000      0.0000    874.4910     18.8600      0.8782     74.9865
    14.7500      0.0000    859.5106     16.1218      0.7650     72.1397
    15.0000      0.0000    874.4910     13.2126      0.7687     68.8026
    15.2500      0.0000    909.6738     10.7675      0.7911     66.7815
    15.5000      0.0000    945.6103      9.1724      0.7992     66.6000
    15.7500      0.0000    969.7462      8.4302      0.8028     67.3673
    16.0000      0.0000    981.3531      8.2907      0.8076     67.8727
    16.2500      0.0000    985.2867      8.4628      0.8002     67.5712
    16.5000      0.0000    985.2115      8.7632      0.7748     66.6767
    16.7500     -2.0000    980.9804      9.1758      0.7524     65.6943
    17.0000      0.0000    968.5656      9.8562      0.7550     64.9545
    17.2500      0.0000    942.7026     11.0711      0.7742     64.4849
    17.5000      0.0000    904.0605     13.0232      0.7897     64.2650
    17.7500      0.0000    865.9857     15.6185      0.8162     64.2979
    18.0000      0.0000    849.3809     18.4002      0.9219     64.2603
    18.2500      0.0000    864.9941     20.7855      1.2020     63.4920
    18.5000      0.0000    902.6547     22.4092      1.7402     61.6977
    18.7500      0.0000    941.5151     23.2607      2.5672     59.4462
    19.0000      0.0000    967.8581     23.5679      3.6116     57.6758
    19.2500      0.0000    980.7101     23.6031      4.6987     56.6898
    19.5000      0.0000    985.3852     23.5552      5.6345     55.7253
    19.7500      0.0000    986.6758     23.5026      6.3081     53.7110
    20.0000      0.0000    986.9491     23.4573      6.7150     50.6100
    20.2500      0.0000    986.9991     23.4176      6.9059     47.8713
    20.5000      0.0000    987.0000     23.3912      6.9344     47.4131
    20.7500      0.0000    987.0000     23.3908      6.8353     50.2529
    21.0000      0.0000    987.0000     23.4246      6.6304     55.9992
    21.2500      0.0000    987.0000     23.4896      6.3577     63.2233
    21.5000      0.0000    987.0000     23.5772      6.1014     70.1963
    21.7500      0.0000    987.0000     23.6833      5.9762     75.6410
    22.0000      0.0000    987.0000     23.8111      6.0547     79.2388
    22.2500      0.0000    986.9908     23.9601      6.3048     81.6249
    22.5000      0.0000    986.9305     24.1189      6.6013     83.9127
    22.7500      0.0000    986.6245     24.2706      6.8007     87.1007
    23.0000      0.0000    985.4139     24.4048      6.8132     91.5294
    23.2500      0.0000    981.6845     24.5240      6.6302     96.4838
    23.5000      0.0000    972.7369     24.6397      6.3204    100.4986
    23.7500      0.0000    956.0193     24.7641      6.0025    102.4370
    24.0000      0.0000    931.6992     24.9041      5.7969    102.2182
    24.2500      0.0000    904.1303     25.0656      5.7792    100.5590
    24.5000      0.0000    879.6723     25.2614      5.9642     98.4727
    24.7500      0.0000    861.9738     25.5051      6.3073     96.9293
    25.0000      0.0000    848.6008     25.7953      6.7030     96.3545
    25.2500      0.0000    830.5593     26.1122      7.0061     96.3470
    25.5000      0.0000    794.3896     26.4373      7.1053     96.2924
    25.7500      0.0000    728.3364     26.7715      7.0043     96.1788
    26.0000      0.0000    632.3849     27.1261      6.8258     96.4957
    26.2500      0.0000    523.6248     27.5050      6.7292     97.4802
    26.5000      0.0000    427.6201     27.9074      6.8251     98.8497
    26.7500      0.0000    361.6117     28.3421      7.1460    100.1127
    27.0000      0.0000    326.2334     28.8250      7.6542    100.7017
    27.2500      0.0000    311.4073     29.3630      8.2554     99.8387
    27.5000      0.0000    306.4791     29.9579      8.8239     96.8983
    27.7500      0.0000    305.0703     30.6236      9.2514     92.3892
