~Version Information
VERS.                      2.0: CWLS Log ASCII Standard - VERSION 2.0
WRAP.                       NO: One line per depth step
~Well Information Block
STRT.FT                -8.0000: 
STOP.FT              1060.7500: 
STEP.FT                 0.2500: 
NULL.                -999.2500: 
COMP.          Pioneer Natural Resources: COMPANY
WELL.          Pavillion 44-25: WELL
FLD.           Purgatorie River: FIELD
LOC.           719' FSL & 650' FEL--: LOCATION
PROV.                       CO: PROVINCE
CNTY.               Las Animas: COUNTRY
SRVC.          Patterson Wireline: SERVICE COMPANY
DATE.          Mon Dec 19 11:59:26 2005: LOG DATE
UWI.           05 071 08624 00: UNIQUE WELL ID
~Curve Information Block
DEPT.FT            0 000 00 00: Depth
CCL.                          : Casing Collar Locator
TT3.usec                      : CBL 3' Travel Time
AMP3.mV                       : CBL 3' Amplitude
GR.GAPI                       : Gamma Ray
~Parameter Information Block
~A  Depth       CCL         TT3         AMP3         GR     
# ...
   327.0000      0.0000    821.0825      6.3375    144.6115
   327.2500      0.0000    803.1283      6.1545    146.2916
   327.5000      0.0000    788.6338      6.0590    149.8749
   327.7500      0.0000    782.6253      6.0403    153.8354
   328.0000      0.0000    786.8058      6.0742    157.6330
   328.2500      0.0000    797.8455      6.1355    161.6603
   328.5000      0.0000    809.2156      6.1950    166.8157
   328.7500      0.0000    815.3240      6.2261    173.0455
   329.0000      0.0000    814.2471      6.2190    178.0141
   329.2500      0.0000    807.5131      6.1840    178.6738
   329.5000      0.0000    798.4205      6.1406    174.8997
   329.7500      0.0000    789.7434      6.1077    170.2969
   330.0000      0.0000    782.0352      6.1020    168.4444
   330.2500      0.0000    774.0674      6.1344    169.1258
   330.5000      0.0000    764.9897      6.2040    168.9117
   330.7500      0.0000    755.9700      6.2974    164.8871
   331.0000      0.0000    749.4716      6.3950    157.2813
   331.2500      0.0000    746.6189      6.4795    148.7993
   331.5000      0.0000    745.8571      6.5410    142.1699
   331.7500      0.0000    744.7982      6.5781    138.4715
   332.0000      0.0000    742.6727      6.5923    137.1323
   332.2500      0.0000    740.3749      6.5838    137.0779
   332.5000      0.0000    738.8758      6.5547    137.8592
   332.7500      0.0000    738.4578      6.5126    139.5976
   333.0000      0.0000    739.3041      6.4677    142.0840
   333.2500      0.0000    742.4030      6.4248    144.7554
   333.5000      0.0000    749.7357      6.3825    147.6797
   333.7500      0.0000    763.0026      6.3405    151.6230
   334.0000      0.0000    781.3051      6.3057    156.7576
   334.2500      0.0000    800.2240      6.2904    162.0452
   334.5000      0.0000    814.3030      6.3016    166.1540
   334.7500      0.0000    820.9304      6.3347    168.2133
   335.0000      0.0000    821.6791      6.3773    167.3758
   335.2500      0.0000    820.3845      6.4189    162.6854
   335.5000      0.0000    820.5471      6.4566    154.3716
   335.7500      0.0000    824.1489      6.4952    144.6039
   336.0000      0.0000    831.9941      6.5433    136.0246
   336.2500      0.0000    843.9181      6.6019    130.0354
   336.5000      0.0000    857.4975      6.6570    127.0617
   336.7500      0.0000    867.4050      6.6841    127.4824
   337.0000      0.0000    868.2108      6.6635    131.3354
   337.2500      0.0000    858.6095      6.5902    137.6694
   337.5000      0.0000    842.4075      6.4797    144.9542
   337.7500      0.0000    825.3549      6.3627    152.0070
   338.0000      0.0000    811.4045      6.2673    158.3031
   338.2500      0.0000    801.8253      6.2001    163.5686
   338.5000      0.0000    796.6186      6.1483    167.3543
   338.7500      0.0000    795.4570      6.0991    169.2347
   339.0000      0.0000    797.3182      6.0531    169.2917
   339.2500      0.0000    800.3775      6.0177    167.9656
   339.5000      0.0000    802.9510      5.9963    165.3849
   339.7500      0.0000    804.3561      5.9888    161.2251
   340.0000      0.0000    804.8199      5.9991    155.3153
   340.2500      0.0000    804.8671      6.0343    148.1345
   340.5000      0.0000    804.8591      6.0945    140.7027
   340.7500      0.0000    804.8409      6.1672    134.1871
   341.0000      0.0000    804.5375      6.2370    129.7050
   341.2500      0.0000    803.3326      6.2977    128.2843
   341.5000      0.0000    800.3096      6.3514    130.5864
   341.7500      0.0000    794.6152      6.3993    136.4262
   342.0000      0.0000    786.2399      6.4400    144.6236
   342.2500      0.0000    776.4636      6.4747    153.3849
   342.5000      0.0000    767.2067      6.5110    160.7564
   342.7500      0.0000    759.9094      6.5565    165.0975
   343.0000      0.0000    755.3929      6.6101    165.8123
   343.2500      0.0000    754.3389      6.6622    163.7133
   343.5000      0.0000    756.5720      6.7022    160.0721
   343.7500      0.0000    759.5478      6.7250    155.2991
   344.0000      0.0000    758.8043      6.7308    149.1560
   344.2500      0.0000    750.9866      6.7221    142.2337
   344.5000      0.0000    736.5612      6.7032    136.2971
   344.7500      0.0000    719.5618      6.6804    132.6579
   345.0000      0.0000    704.7675      6.6574    130.9058
   345.2500      0.0000    694.8680      6.6283    129.9579
   345.5000      0.0000    689.7333      6.5772    129.7550
   345.7500      0.0000    687.6483      6.4897    131.0654
   346.0000      0.0000    686.8890      6.3669    134.0505
   346.2500      0.0000    686.4393      6.2278    137.9280
   346.5000      0.0000    685.9243      6.0988    141.8415
   346.7500      0.0000    685.2913      5.9998    145.2970
   347.0000      0.0000    684.6004      5.9374    147.7520
   347.2500      0.0000    683.9450      5.9068    148.3865
   347.5000      0.0000    683.4183      5.8976    146.5787
   347.7500      0.0000    683.0724      5.9012    142.6061
   348.0000      0.0000    682.9025      5.9142    137.7003
   348.2500      0.0000    682.8521      5.9375    133.0910
   348.5000      0.0000    682.8271      5.9719    128.8311
   348.7500      0.0000    682.7296      6.0150    123.9416
   349.0000      0.0000    682.5128      6.0612    118.2028
   349.2500      0.0000    682.2111      6.1017    113.4874
   349.5000      0.0000    681.9067      6.1246    112.5478
   349.7500      0.0000    681.6695      6.1205    116.4695
   350.0000      0.0000    681.5338      6.0895    123.8007
   350.2500      0.0000    681.5032      6.0403    132.0208
   350.5000      0.0000    681.5356      5.9819    139.3604
   350.7500      0.0000    681.3768      5.9215    145.3286
   351.0000      0.0000    680.2870      5.8720    150.0050
   351.2500      0.0000    676.8417      5.8537    152.9072
   351.5000      0.0000    669.5086      5.8824    152.4576
   351.7500      0.0000    658.5641      5.9569    147.0857
   352.0000      0.0000    647.9095      6.0559    137.3853
   352.2500      0.0000    643.5025      6.1462    126.6948
   352.5000      0.0000    648.2993      6.2006    119.0758
   352.7500      0.0000    659.2744      6.2151    116.8971
   353.0000      0.0000    670.4265      6.2055    120.0189
   353.2500      0.0000    677.8613      6.1856    126.2817
   353.5000      0.0000    681.3519      6.1567    132.5572
   353.7500      0.0000    682.4780      6.1196    136.0156
   354.0000      0.0000    682.6679      6.0883    135.2395
   354.2500      0.0000    682.6221      6.0836    130.8101
   354.5000      0.0000    682.5455      6.1158    125.0601
   354.7500      0.0000    682.4554      6.1765    120.7074
   355.0000      0.0000    682.3552      6.2474    119.0031
   355.2500      0.0000    682.2746      6.3135    119.0265
   355.5000      0.0000    682.3513      6.3634    118.9735
   355.7500      0.0000    682.9682      6.3831    117.9551
   356.0000      0.0000    684.7852      6.3591    116.2853
   356.2500      0.0000    688.4161      6.2934    114.4296
   356.5000      0.0000    693.8082      6.2116    112.2664
   356.7500      0.0000    699.9213      6.1501    109.1070
   357.0000      0.0000    705.2314      6.1340    103.8879
   357.2500      0.0000    708.6867      6.1647     95.7373
   357.5000      0.0000    710.2100      6.2261     85.1994
   357.7500      0.0000    710.5457      6.2983     74.5538
   358.0000      0.0000    711.0730      6.3682     66.0972
   358.2500      0.0000    713.7008      6.4272     60.3694
   358.5000      0.0000    719.9677      6.4618     56.5940
   358.7500      0.0000    729.2016      6.4532     54.2898
   359.0000      0.0000    737.8184      6.3991     53.7676
   359.2500      0.0000    741.6865      6.3320     55.4580
   359.5000      0.0000    739.6606      6.3018     59.5212
   359.7500      0.0000    734.3873      6.3350     66.0205
   360.0000      0.0000    729.6982      6.4165     74.9365
   360.2500      0.0000    727.5805      6.5101     85.9023
