~Version Information
VERS.                      2.0: CWLS Log ASCII Standard - VERSION 2.0
WRAP.                       NO: One line per depth step
~Well Information Block
STRT.FT               650.0000: 
STOP.FT              2127.7000: 
STEP.FT                 0.1000: 
NULL.                -999.2500: 
COMP.          Pioneer Natural Resources: COMPANY
WELL.          Kennington 41-26: WELL
FLD.           Purgatoire River: FIELD
LOC.           940' FNL & 1008' FEL--: LOCATION
CNTY.               Las Animas: COUNTY
SRVC.                Patterson: SERVICE COMPANY
DATE.          Wed Mar 29 11:30:50 2006: LOG DATE
UWI.           05 071 08679 00: UNIQUE WELL ID
STAT.                 Colorado: STATE
~Curve Information Block
DEPT.FT            0 000 00 00: Depth
DCAL.in                       : CDL Caliper
RHOB.g/cc                     : CDL Bulk Density
RHOC.g/cc                     : CDL Density Correction
DPOR.pu                       : CDL Density Porosity
NPOR.pu                       : Neutron Porosity
GR.GAPI                       : Gamma Ray
~Parameter Information Block
~A  Depth       DCAL        RHOB        RHOC        DPOR        NPOR         GR     
   650.0000      8.1477      2.4414     -0.2206     12.6395     37.9203     71.3666
   650.1000      8.1477      2.4531     -0.2238     11.9330     37.8186     73.6245
   650.2000      8.1477      2.4681     -0.1672     11.0236     37.9753     77.3502
   650.3000      8.1494      2.4750     -0.1725     10.6055     38.1325     78.3981
   650.4000      8.1494      2.4639     -0.1573     11.2762     38.0922     76.0937
   650.5000      8.1493      2.4432     -0.2410     12.5328     38.0733     73.6999
   650.6000      8.1493      2.4331     -0.2283     13.1452     38.2001     75.5384
   650.7000      8.1493      2.4455     -0.2646     12.3924     38.3447     81.2330
   650.8000      8.1495      2.4670     -0.1689     11.0937     38.3123     88.4375
   650.9000      8.1495      2.4704     -0.2323     10.8858     38.2162     92.8957
   651.0000      8.1535      2.4547     -0.1772     11.8362     38.2140     91.5819
   651.1000      8.1535      2.4356     -0.2505     12.9939     38.0637     87.9280
   651.2000      8.1535      2.4204     -0.2659     13.9165     37.7994     85.6772
   651.3000      8.1617      2.4062     -0.2598     14.7755     37.7628     85.5968
   651.4000      8.1617      2.3865     -0.2228     15.9687     37.8792     84.9952
   651.5000      8.1688      2.3671     -0.2821     17.1468     37.7937     83.3077
   651.6000      8.1688      2.3657     -0.2729     17.2323     37.5064     84.4926
   651.7000      8.1688      2.3838     -0.2142     16.1314     37.3997     88.0958
   651.8000      8.1719      2.4056     -0.1900     14.8108     37.5618     91.3094
   651.9000      8.1719      2.4273     -0.2134     13.4991     37.6069     93.1192
   652.0000      8.1735      2.4540     -0.1720     11.8783     37.4497     91.8427
   652.1000      8.1735      2.4773     -0.1631     10.4666     37.4417     87.9409
   652.2000      8.1735      2.4792     -0.1444     10.3487     37.5973     82.9433
   652.3000      8.1757      2.4571     -0.1679     11.6886     37.7714     77.0941
   652.4000      8.1757      2.4330     -0.2107     13.1532     38.0537     72.2387
   652.5000      8.1760      2.4243     -0.1969     13.6798     38.2629     70.8682
   652.6000      8.1760      2.4264     -0.1815     13.5540     38.1578     73.3736
   652.7000      8.1760      2.4287     -0.2101     13.4118     38.0203     78.7539
   652.8000      8.1738      2.4251     -0.1891     13.6295     38.0839     85.3622
   652.9000      8.1738      2.4169     -0.2247     14.1256     38.3057     91.7000
   653.0000      8.1718      2.4157     -0.2045     14.1975     38.6254     95.1507
   653.1000      8.1718      2.4277     -0.1829     13.4756     38.9106     93.1884
   653.2000      8.1718      2.4479     -0.2059     12.2482     39.0993     88.3125
   653.3000      8.1723      2.4619     -0.1266     11.3997     39.1850     83.3792
   653.4000      8.1723      2.4566     -0.1744     11.7208     39.2097     79.8681
   653.5000      8.1753      2.4418     -0.1808     12.6204     39.1665     78.1572
   653.6000      8.1753      2.4297     -0.1874     13.3510     39.0606     76.6407
   653.7000      8.1753      2.4249     -0.1955     13.6448     39.0081     76.1188
   653.8000      8.1790      2.4341     -0.2255     13.0824     38.9936     79.5483
   653.9000      8.1790      2.4494     -0.1691     12.1585     39.0885     84.9288
   654.0000      8.1816      2.4473     -0.1430     12.2879     39.2218     85.6109
   654.1000      8.1816      2.4299     -0.2171     13.3404     39.1297     81.4448
   654.2000      8.1816      2.4165     -0.1771     14.1505     38.9674     78.5833
   654.3000      8.1823      2.4069     -0.1712     14.7321     38.9397     77.7671
   654.4000      8.1823      2.4057     -0.2117     14.8077     38.9108     77.5316
   654.5000      8.1820      2.4161     -0.1898     14.1786     38.8692     78.8016
   654.6000      8.1820      2.4143     -0.1422     14.2845     39.0260     79.9799
   654.7000      8.1820      2.3898     -0.2128     15.7691     39.2927     79.6114
   654.8000      8.1822      2.3656     -0.2171     17.2374     39.4591     80.1210
   654.9000      8.1822      2.3541     -0.1948     17.9327     39.3182     82.8978
   655.0000      8.1822      2.3465     -0.2338     18.3964     38.7955     84.4637
   655.1000      8.1822      2.3370     -0.2091     18.9684     38.3083     82.8226
   655.2000      8.1822      2.3303     -0.2049     19.3787     38.3329     80.5211
   655.3000      8.1813      2.3355     -0.1998     19.0594     38.7957     80.2844
   655.4000      8.1813      2.3603     -0.2332     17.5578     39.1628     82.8295
   655.5000      8.1803      2.3961     -0.1661     15.3853     38.9897     84.6899
   655.6000      8.1803      2.4166     -0.1446     14.1434     38.4661     82.0377
   655.7000      8.1803      2.4093     -0.1527     14.5891     38.1717     77.2286
   655.8000      8.1786      2.3856     -0.1543     16.0252     38.1300     75.8801
   655.9000      8.1786      2.3624     -0.2135     17.4324     37.9563     78.4398
   656.0000      8.1747      2.3503     -0.1910     18.1651     37.8357     80.0269
   656.1000      8.1747      2.3430     -0.2200     18.6051     38.2277     79.4451
   656.2000      8.1747      2.3263     -0.1656     19.6196     38.9572     78.2055
   656.3000      8.1719      2.3050     -0.2326     20.9119     39.4865     75.9891
   656.4000      8.1719      2.3003     -0.2323     21.1914     39.5771     74.0728
   656.5000      8.1709      2.3171     -0.2106     20.1771     39.3299     74.0547
   656.6000      8.1709      2.3361     -0.1695     19.0223     39.0280     74.1584
   656.7000      8.1709      2.3409     -0.1549     18.7327     39.0046     74.0562
   656.8000      8.1699      2.3329     -0.1965     19.2167     39.3396     74.3690
   656.9000      8.1699      2.3219     -0.2017     19.8849     39.7985     74.3120
   657.0000      8.1682      2.3155     -0.2360     20.2709     40.1439     74.3134
   657.1000      8.1682      2.3204     -0.1959     19.9748     40.5224     73.6793
   657.2000      8.1682      2.3394     -0.2056     18.8225     40.9845     72.6117
   657.3000      8.1685      2.3642     -0.1343     17.3184     41.0998     73.6272
   657.4000      8.1685      2.3756     -0.1454     16.6280     40.7049     75.9154
   657.5000      8.1733      2.3608     -0.1517     17.5287     40.2177     77.1197
   657.6000      8.1733      2.3294     -0.2263     19.4310     40.0496     76.2019
   657.7000      8.1733      2.3075     -0.2288     20.7557     40.1119     74.3224
   657.8000      8.1783      2.3096     -0.2202     20.6277     40.0617     73.9228
   657.9000      8.1783      2.3238     -0.1723     19.7679     39.8957     76.0246
   658.0000      8.1786      2.3273     -0.1982     19.5556     39.8020     79.9743
   658.1000      8.1786      2.3131     -0.1865     20.4196     39.7694     84.3106
   658.2000      8.1786      2.2992     -0.2145     21.2633     39.7879     88.1610
   658.3000      8.1763      2.3073     -0.2058     20.7722     39.7638     91.9902
   658.4000      8.1763      2.3333     -0.1827     19.1929     39.5447     95.7136
   658.5000      8.1736      2.3536     -0.1455     17.9663     39.3357     97.8213
   658.6000      8.1736      2.3566     -0.1852     17.7847     39.5466     98.3769
   658.7000      8.1736      2.3525     -0.1909     18.0278     39.9608     98.3542
   658.8000      8.1708      2.3518     -0.2007     18.0717     40.0211     97.5213
   658.9000      8.1708      2.3512     -0.1839     18.1077     39.6891     96.4113
   659.0000      8.1694      2.3424     -0.2143     18.6421     39.3972     97.5076
   659.1000      8.1694      2.3292     -0.1981     19.4396     39.5153    101.2997
   659.2000      8.1694      2.3169     -0.2144     20.1870     39.7181    105.7673
   659.3000      8.1694      2.3030     -0.2211     21.0297     39.3675    110.2372
   659.4000      8.1694      2.2853     -0.2337     22.1024     38.7658    113.8534
   659.5000      8.1681      2.2746     -0.2798     22.7512     38.6230    111.2871
