~Version Information
VERS.                      2.0: CWLS Log ASCII Standard - VERSION 2.0
WRAP.                       NO: One line per depth step
~Well Information Block
STRT.FT                 0.0000: 
STOP.FT               968.2500: 
STEP.FT                 0.2500: 
NULL.                -999.2500: 
COMP.          Pioneer Natural Resources: COMPANY
WELL.              Atlas 32-18: WELL
FLD.           Purgatorie River: FIELD
LOC.           1892' FNL & 1456' FEL: LOCATION
PROV.                 Colorado: PROVINCE
CNTY.               Las Animas: COUNTRY
SRVC.                Patterson: SERVICE COMPANY
DATE.          Fri Dec 02 11:37:22 2005: LOG DATE
UWI.                          : UNIQUE WELL ID
~Curve Information Block
DEPT.FT            0 000 00 00: Depth
CCL.                          : Casing Collar Locator
TT3.usec                      : CBL 3' Travel Time
AMP3.mV                       : CBL 3' Amplitude
GR.GAPI                       : Gamma Ray
~Parameter Information Block
~A  Depth       CCL         TT3         AMP3         GR     
# ...
   201.0000      0.0000    685.8394      6.8213     92.9348
   201.2500      0.0000    684.0126      6.9989     90.0120
   201.5000      0.0000    708.4445      6.9284     85.0218
   201.7500      0.0000    754.3212      6.5825     79.8904
   202.0000      0.0000    802.2287      6.2373     76.5022
   202.2500     -2.0000    842.2224      5.9823     75.1881
   202.5000      2.0000    879.2819      5.8199     74.8156
   202.7500      0.0000    908.7555      5.7877     74.5418
   203.0000      0.0000    921.8318      5.9020     75.0934
   203.2500      0.0000    912.3638      6.1959     78.0154
   203.5000      0.0000    857.8802      6.8494     83.8194
   203.7500      0.0000    758.7606      7.9612     90.9976
   204.0000      0.0000    676.1605      9.0721     96.7460
   204.2500      0.0000    660.4429      9.5709     98.7797
   204.5000      0.0000    688.7220      9.4756     96.8513
   204.7500      0.0000    715.2497      9.1255     92.7080
   205.0000      0.0000    726.1625      8.6981     88.5570
   205.2500      0.0000    728.6987      8.3027     85.5224
   205.5000      0.0000    729.0172      8.0199     83.3501
   205.7500      0.0000    728.8077      7.8509     81.3284
   206.0000      0.0000    728.1527      7.7473     79.4266
   206.2500      0.0000    726.3482      7.6305     78.4760
   206.5000      0.0000    721.7113      7.4391     79.2587
   206.7500      0.0000    713.7128      7.2038     81.6949
   207.0000      0.0000    706.2456      7.0164     84.9268
   207.2500      0.0000    704.4265      6.9311     87.7352
   207.5000      0.0000    706.5648      6.9187     88.8832
   207.7500      0.0000    706.3259      6.8894     87.7602
   208.0000      0.0000    703.7563      6.7919     84.9756
   208.2500      0.0000    705.0681      6.7080     81.8860
   208.5000      0.0000    711.2367      6.7987     79.2852
   208.7500      0.0000    716.0670      7.1707     76.7460
   209.0000      0.0000    716.1907      7.7746     73.3933
   209.2500      0.0000    715.5964      8.3983     69.1547
   209.5000      0.0000    718.4383      8.8603     64.9700
   209.7500      0.0000    723.1261      9.1845     61.6598
   210.0000      0.0000    726.3066      9.4597     58.8765
   210.2500      0.0000    727.4750      9.6623     55.5504
   210.5000      0.0000    727.8465      9.7447     51.3706
   210.7500      0.0000    728.2434      9.7455     47.5637
   211.0000      0.0000    728.7616      9.7286     46.0838
   211.2500      0.0000    729.0726      9.6962     48.0223
   211.5000      0.0000    728.6808      9.5834     52.8183
   211.7500      0.0000    726.9028      9.3335     59.0119
   212.0000      0.0000    722.7598      8.9645     65.6359
   212.2500      0.0000    716.0592      8.5277     72.6656
   212.5000      0.0000    707.9899      8.0540     80.1035
   212.7500      0.0000    698.2047      7.5524     87.0714
   213.0000      0.0000    684.5053      7.0306     92.2432
   213.2500      0.0000    669.3325      6.5403     94.9970
   213.5000      0.0000    661.1072      6.1787     95.7906
   213.7500      0.0000    663.9553      6.0182     95.5909
   214.0000      0.0000    671.4851      6.0417     95.2955
   214.2500      0.0000    674.6678      6.1461     95.5351
   214.5000      0.0000    668.9752      6.2291     96.4557
   214.7500      0.0000    655.3389      6.2947     97.4814
   215.0000      0.0000    642.1721      6.4546     97.5126
   215.2500      0.0000    639.6442      6.7937     95.6534
   215.5000      0.0000    646.2551      7.2402     91.8947
   215.7500      0.0000    652.4945      7.6299     87.1671
   216.0000      0.0000    658.0535      7.8865     82.8650
   216.2500      0.0000    670.0780      8.0555     80.2972
   216.5000      0.0000    688.5952      8.1824     80.2000
   216.7500      0.0000    706.4621      8.2326     82.4891
   217.0000      0.0000    718.2836      8.1730     86.5087
   217.2500      0.0000    723.5673      8.0981     91.4260
   217.5000      0.0000    723.8935      8.1589     96.2202
   217.7500      0.0000    719.7712      8.3760     99.6489
   218.0000      0.0000    711.7181      8.5991    100.8396
   218.2500      0.0000    703.2983      8.6486    100.0142
   218.5000      0.0000    698.9409      8.5383     98.2606
   218.7500      0.0000    699.4518      8.4783     96.5176
   219.0000      0.0000    705.4346      8.5588     95.0468
   219.2500      0.0000    719.7495      8.6289     93.8245
   219.5000      0.0000    738.9514      8.5580     92.9675
   219.7500      0.0000    751.4485      8.3905     92.6212
   220.0000      0.0000    749.5651      8.2440     92.7432
   220.2500      0.0000    736.0319      8.1975     93.1930
   220.5000      0.0000    719.0748      8.2506     93.8381
   220.7500      0.0000    706.9116      8.3487     94.3531
   221.0000      0.0000    703.9653      8.4369     94.0966
   221.2500      0.0000    707.0844      8.4825     92.5914
   221.5000      0.0000    709.2114      8.4731     90.2043
   221.7500      0.0000    708.3846      8.4116     88.0434
   222.0000      0.0000    707.9575      8.3164     87.0231
   222.2500      0.0000    710.6277      8.1927     87.1459
   222.5000      0.0000    716.0070      8.0250     87.6550
   222.7500      0.0000    721.2441      7.8275     87.9075
   223.0000      0.0000    724.0269      7.6497     88.2934
   223.2500      0.0000    724.4966      7.5474     90.0736
   223.5000      0.0000    723.3030      7.5674     93.8898
   223.7500      0.0000    719.9280      7.7069     98.5746
   224.0000      0.0000    714.0859      7.8832    101.7838
   224.2500      0.0000    707.0807      7.9825    101.7867
   224.5000      0.0000    699.8698      7.9344     98.6733
   224.7500      0.0000    692.4774      7.7579     94.1690
   225.0000      0.0000    686.1937      7.5719     90.3297
   225.2500      0.0000    681.9614      7.4854     88.0009
   225.5000      0.0000    677.4801      7.4673     86.3003
   225.7500      0.0000    668.4329      7.4545     83.7379
   226.0000      0.0000    653.6582      7.5120     79.7845
   226.2500      0.0000    640.7634      7.7027     75.0309
   226.5000      0.0000    640.4021      7.9185     70.0829
   226.7500      0.0000    650.6254      8.0214     65.1181
   227.0000      0.0000    656.3555      7.9869     60.6081
   227.2500      0.0000    647.6452      7.8151     57.6614
   227.5000      0.0000    631.2098      7.5231     57.1832
   227.7500      0.0000    622.8198      7.2439     59.0214
   228.0000      0.0000    631.1746      7.1391     62.1725
   228.2500      0.0000    650.2891      7.2122     65.4923
   228.5000      0.0000    667.5193      7.3155     67.9502
   228.7500      0.0000    675.7662      7.3476     68.5797
   229.0000      0.0000    673.7457      7.3573     66.8838
   229.2500      0.0000    659.8328      7.3917     63.5585
   229.5000      0.0000    637.0095      7.3847     60.3569
   229.7500      0.0000    620.3929      7.2843     58.7875
   230.0000      0.0000    620.6196      7.0893     58.9161
   230.2500      0.0000    623.0881      6.7851     59.4685
   230.5000      0.0000    607.6841      6.4112     58.9611
   230.7500      0.0000    581.1992      6.0949     56.7677
   231.0000      0.0000    563.9263      5.9330     53.3726
   231.2500      0.0000    554.5877      5.8777     49.8399
   231.5000      0.0000    539.2467      5.7931     47.0567
   231.7500      0.0000    520.8233      5.6082     45.3804
   232.0000      0.0000    513.7923      5.3495     44.6979
   232.2500      0.0000    527.1103      5.0956     44.4325
   232.5000      0.0000    558.0856      4.9352     43.5473
   232.7500      0.0000    586.2944      4.8892     41.1061
   233.0000      0.0000    585.8217      4.8705     37.1974
   233.2500      0.0000    555.8260      4.7865     33.1118
   233.5000      0.0000    519.8428      4.6451     30.3124
   233.7500      0.0000    495.8846      4.5184     29.3255
   234.0000      0.0000    489.0502      4.4749     29.7385
   234.2500      0.0000    501.5527      4.5574     30.9827
