~Version Information
VERS.                      2.0: CWLS Log ASCII Standard - VERSION 2.0
WRAP.                       NO: One line per depth step
~Well Information Block
STRT.FT               875.0000: 
STOP.FT              2054.5000: 
STEP.FT                 0.2500: 
NULL.                -999.2500: 
COMP.          Pioneer Natural Resources: COMPANY
WELL.          Woodstock 43-19: WELL
FLD.           Purgatoire River: FIELD
LOC.           2195' FSL & 250' FEL: LOCATION
CNTY.               Las Animas: COUNTY
SRVC.                Patterson: SERVICE COMPANY
DATE.          Thu Feb 02 03:08:19 2006: LOG DATE
UWI.           05 071 08677 00: UNIQUE WELL ID
STAT.                 Colorado: STATE
~Curve Information Block
DEPT.FT            0 000 00 00: Depth
SN.Ohm-m                      : IEL Short Normal
SP.mV                         : IEL Spontaneous Potential
DIR.Ohm-m                     : IEL Induction Resistivity
GR.GAPI                       : Gamma Ray
~Parameter Information Block
~A  Depth        SN          SP         DIR          GR     
# ...
  1947.0000     22.7189     49.5539     22.9321     73.0902
  1947.2500     23.2610     49.4925     23.5374     73.1429
  1947.5000     23.6723     49.4101     24.0888     73.0593
  1947.7500     24.0190     49.3071     24.5397     73.3237
  1948.0000     24.3085     49.1923     24.8682     74.1081
  1948.2500     24.5169     49.0752     25.0837     74.3920
  1948.5000     24.6438     48.9626     25.2191     73.9538
  1948.7500     24.7049     48.8583     25.3155     73.4228
  1949.0000     24.7187     48.7665     25.4071     73.3701
  1949.2500     24.6844     48.6952     25.5101     74.1630
  1949.5000     24.5773     48.6548     25.6203     76.1810
  1949.7500     24.3932     48.6517     25.7184     77.4949
  1950.0000     24.1663     48.6824     25.7799     78.4297
  1950.2500     23.9255     48.7342     25.7830     77.9723
  1950.5000     23.6835     48.7922     25.7145     75.4909
  1950.7500     23.4771     48.8450     25.5770     72.9006
  1951.0000     23.3711     48.8844     25.3929     68.5824
  1951.2500     23.3941     48.9030     25.1971     66.0068
  1951.5000     23.4595     48.8961     25.0175     63.0938
  1951.7500     23.4492     48.8654     24.8597     61.7330
  1952.0000     23.3613     48.8192     24.7131     60.2761
  1952.2500     23.2056     48.7660     24.5673     59.6410
  1952.5000     22.9261     48.7085     24.4205     59.4242
  1952.7500     22.5762     48.6415     24.2701     59.9893
  1953.0000     22.2895     48.5563     24.1009     61.9284
  1953.2500     22.0474     48.4449     23.8894     63.5467
  1953.5000     21.7181     48.3051     23.6250     65.3896
  1953.7500     21.2800     48.1431     23.3268     65.8468
  1954.0000     20.8615     47.9730     23.0374     65.5903
  1954.2500     20.5574     47.8091     22.7986     65.2395
  1954.5000     20.3028     47.6564     22.6283     65.1792
  1954.7500     19.9994     47.5059     22.5190     65.6566
  1955.0000     19.6894     47.3374     22.4524     67.0687
  1955.2500     19.4903     47.1281     22.4167     68.2921
  1955.5000     19.3544     46.8617     22.4101     70.3397
  1955.7500     19.0925     46.5344     22.4340     71.8572
  1956.0000     18.7281     46.1553     22.4864     74.3731
  1956.2500     18.5489     45.7392     22.5660     75.9901
  1956.5000     18.7389     45.2982     22.6759     77.4496
  1956.7500     19.1923     44.8400     22.8232     77.2407
  1957.0000     19.6687     44.3765     23.0108     74.9999
  1957.2500     19.9978     43.9302     23.2309     72.7553
  1957.5000     20.1614     43.5316     23.4615     69.5962
  1957.7500     20.2691     43.2074     23.6650     68.1213
  1958.0000     20.4437     42.9705     23.7967     66.8713
  1958.2500     20.7001     42.8162     23.8289     66.4301
  1958.5000     20.9879     42.7258     23.7769     65.9721
  1958.7500     21.2540     42.6753     23.6942     65.7020
  1959.0000     21.4105     42.6476     23.6355     65.3871
  1959.2500     21.3989     42.6381     23.6199     65.3887
  1959.5000     21.2581     42.6542     23.6255     66.1259
  1959.7500     21.0402     42.7115     23.6119     67.2669
  1960.0000     20.7636     42.8290     23.5455     69.5915
  1960.2500     20.4642     43.0195     23.4109     70.9567
  1960.5000     20.2047     43.2767     23.2098     71.8498
  1960.7500     20.0554     43.5746     22.9570     71.6900
  1961.0000     20.1038     43.8814     22.6768     71.0295
  1961.2500     20.3798     44.1746     22.3988     70.6192
  1961.5000     20.7521     44.4466     22.1472     70.0164
  1961.7500     21.0675     44.7038     21.9299     69.4758
  1962.0000     21.3405     44.9626     21.7349     68.3687
  1962.2500     21.6766     45.2410     21.5392     67.4902
  1962.5000     22.1392     45.5467     21.3254     66.1236
  1962.7500     22.7282     45.8733     21.0911     65.2398
  1963.0000     23.3833     46.2079     20.8464     63.9764
  1963.2500     23.9992     46.5405     20.6051     63.2752
  1963.5000     24.4516     46.8645     20.3792     62.9996
  1963.7500     24.6331     47.1708     20.1773     63.7040
  1964.0000     24.4981     47.4427     20.0055     66.0519
  1964.2500     24.0621     47.6576     19.8665     67.9503
  1964.5000     23.3733     47.7956     19.7580     70.3438
  1964.7500     22.5206     47.8500     19.6745     71.5486
  1965.0000     21.6175     47.8312     19.6109     73.3850
  1965.2500     20.7447     47.7606     19.5655     75.0024
  1965.5000     19.9563     47.6610     19.5370     78.1092
  1965.7500     19.3128     47.5505     19.5183     80.3345
  1966.0000     18.8631     47.4406     19.4930     83.0071
  1966.2500     18.6285     47.3344     19.4418     83.8958
  1966.5000     18.5902     47.2271     19.3535     83.8635
  1966.7500     18.6689     47.1097     19.2308     83.2757
  1967.0000     18.7632     46.9718     19.0868     81.8733
  1967.2500     18.8280     46.8055     18.9349     80.4150
  1967.5000     18.9030     46.6111     18.7824     77.2366
  1967.7500     18.9942     46.3994     18.6295     74.8074
  1968.0000     18.9788     46.1904     18.4717     71.8584
  1968.2500     18.7881     46.0079     18.3046     70.9075
  1968.5000     18.5644     45.8734     18.1310     71.3250
  1968.7500     18.4522     45.8006     17.9654     72.7588
  1969.0000     18.4212     45.7891     17.8305     76.1734
  1969.2500     18.4111     45.8222     17.7441     78.7252
  1969.5000     18.4175     45.8729     17.7079     81.6417
  1969.7500     18.4067     45.9150     17.7079     82.4235
  1970.0000     18.3443     45.9356     17.7256     81.8686
  1970.2500     18.2497     45.9407     17.7482     80.7372
  1970.5000     18.1552     45.9480     17.7684     78.6000
  1970.7500     18.1145     45.9720     17.7759     77.3188
  1971.0000     18.2076     46.0134     17.7522     76.6259
  1971.2500     18.4641     46.0636     17.6757     77.4237
  1971.5000     18.8343     46.1154     17.5322     80.0440
  1971.7500     19.2078     46.1685     17.3220     81.7980
  1972.0000     19.4446     46.2236     17.0561     83.0069
  1972.2500     19.5030     46.2781     16.7484     82.8101
  1972.5000     19.4979     46.3279     16.4121     82.2564
  1972.7500     19.4947     46.3688     16.0638     82.6766
  1973.0000     19.3631     46.3963     15.7256     85.5704
  1973.2500     18.9836     46.4044     15.4220     89.1137
  1973.5000     18.4400     46.3894     15.1762     96.1339
  1973.7500     17.8927     46.3541     15.0074    101.0675
  1974.0000     17.4114     46.3104     14.9270    107.0473
  1974.2500     16.9794     46.2747     14.9332    109.4231
  1974.5000     16.5809     46.2612     15.0091    110.8700
  1974.7500     16.2638     46.2769     15.1284    111.3159
  1975.0000     16.1133     46.3200     15.2663    112.8131
  1975.2500     16.1647     46.3823     15.4072    114.6895
  1975.5000     16.4006     46.4550     15.5464    118.2342
  1975.7500     16.8197     46.5372     15.6877    120.6798
  1976.0000     17.4608     46.6410     15.8428    124.5259
  1976.2500     18.4140     46.7877     16.0283    127.3992
  1976.5000     19.7589     46.9964     16.2593    131.8266
  1976.7500     21.4078     47.2709     16.5410    134.3692
  1977.0000     23.0996     47.5953     16.8656    137.3589
  1977.2500     24.5814     47.9369     17.2175    139.3275
  1977.5000     25.7233     48.2551     17.5845    143.4733
  1977.7500     26.4621     48.5133     17.9651    147.2415
  1978.0000     26.7244     48.6892     18.3637    153.3965
  1978.2500     26.4439     48.7798     18.7762    156.7242
  1978.5000     25.6514     48.7980     19.1789    158.5492
  1978.7500     24.5661     48.7669     19.5329    156.7630
  1979.0000     23.4826     48.7112     19.8011    149.0948
  1979.2500     22.5715     48.6494     19.9612    141.1778
  1979.5000     21.8998     48.5880     20.0051    127.0909
  1979.7500     21.4901     48.5257     19.9314    117.5627
  1980.0000     21.3284     48.4601     19.7442    104.9122
  1980.2500     21.4578     48.3932     19.4593     98.2129
