~Version Information
VERS.                      2.0: CWLS Log ASCII Standard - VERSION 2.0
WRAP.                       NO: One line per depth step
~Well Information Block
STRT.FT                10.0000: 
STOP.FT              1350.5000: 
STEP.FT                 0.1000: 
NULL.                -999.2500: 
COMP.          Pioneer Natural Resources: COMPANY
WELL.              Dicks 32-5R: WELL
FLD.           Purgatorie River: FIELD
LOC.           1485' FNL & 1684' FEL: LOCATION
PROV.                 Colorado: PROVINCE
CNTY.               Las Animas: COUNTRY
SRVC.                Patterson: SERVICE COMPANY
DATE.          Fri Dec 09 10:06:15 2005: LOG DATE
UWI.                          : UNIQUE WELL ID
~Curve Information Block
DEPT.FT            0 000 00 00: Depth
DCAL.in                       : CDL Caliper
RHOB.g/cc                     : CDL Bulk Density
RHOC.g/cc                     : CDL Density Correction
DPOR.pu                       : CDL Density Porosity
GR.GAPI                       : Gamma Ray
NPOR.pu                       : Neutron Porosity
~Parameter Information Block
~A  Depth       DCAL        RHOB        RHOC        DPOR         GR         NPOR    
# ...
  1066.0000      8.0161      2.5764      0.0688      4.4589     72.2531     23.7272
  1066.1000      8.0161      2.5701      0.0484      4.8395     73.3753     23.6489
  1066.2000      8.0161      2.5762      0.0264      4.4699     74.5030     23.3381
  1066.3000      8.0773      2.5988      0.0336      3.1017     73.3798     22.8679
  1066.4000      8.0773      2.6230      0.0860      1.6352     71.4358     22.5756
  1066.5000      8.0877      2.6265      0.0731      1.4246     71.7372     22.6642
  1066.6000      8.0877      2.6077      0.0676      2.5622     76.0401     22.9731
  1066.7000      8.0877      2.5866      0.0106      3.8404     80.8845     23.0542
  1066.8000      8.0763      2.5758      0.0497      4.4944     81.0545     22.6251
  1066.9000      8.0763      2.5725      0.0392      4.6991     77.4505     22.0569
  1067.0000      8.0120      2.5751      0.0091      4.5387     73.9491     21.9669
  1067.1000      8.0120      2.5783      0.0648      4.3460     72.5523     22.4045
  1067.2000      8.0120      2.5713      0.0564      4.7706     73.1344     22.8478
  1067.3000      8.0321      2.5604      0.0307      5.4305     73.0547     22.9952
  1067.4000      8.0321      2.5600      0.0328      5.4548     70.4834     22.9225
  1067.5000      8.0429      2.5703      0.0398      4.8331     68.7443     22.7940
  1067.6000      8.0429      2.5785      0.0575      4.3318     71.0148     22.8854
  1067.7000      8.0429      2.5728      0.0679      4.6772     74.8610     23.3796
  1067.8000      8.0219      2.5561      0.0408      5.6890     75.9623     23.9151
  1067.9000      8.0219      2.5414      0.0329      6.5834     74.0769     24.0356
  1068.0000      8.0478      2.5355      0.0159      6.9388     73.0170     23.7214
  1068.1000      8.0478      2.5398      0.0508      6.6805     73.3673     23.3129
  1068.2000      8.0478      2.5529      0.0503      5.8833     72.5764     23.1956
  1068.3000      8.0358      2.5711      0.1047      4.7825     70.8521     23.4496
  1068.4000      8.0358      2.5924      0.0932      3.4926     70.2974     23.7639
  1068.5000      7.9675      2.6150      0.1172      2.1205     72.4865     23.8634
  1068.6000      7.9675      2.6268      0.1715      1.4062     76.2023     23.7170
  1068.7000      7.9675      2.6250      0.0815      1.5167     77.5053     23.3592
  1068.8000      7.9033      2.6279      0.1083      1.3393     76.5482     23.0290
  1068.9000      7.9033      2.6351      0.1621      0.9051     76.5207     23.0749
  1069.0000      7.8995      2.6249      0.1172      1.5227     77.6494     23.6574
  1069.1000      7.8995      2.5977      0.0650      3.1698     78.4426     24.4281
  1069.2000      7.8995      2.5698      0.0686      4.8615     78.7542     24.8296
  1069.3000      7.9545      2.5519      0.0506      5.9449     78.6812     24.7402
  1069.4000      7.9545      2.5494      0.0324      6.0982     77.4371     24.5259
  1069.5000      8.0155      2.5488      0.0761      6.1325     75.9284     24.4332
  1069.6000      8.0155      2.5357      0.0427      6.9297     75.2742     24.3311
  1069.7000      8.0155      2.5271      0.0352      7.4469     74.3078     24.0937
  1069.8000      8.0123      2.5409      0.0276      6.6131     72.5182     23.8159
  1069.9000      8.0123      2.5670      0.0736      5.0328     70.9682     23.7804
  1070.0000      8.0001      2.5930      0.0647      3.4567     70.9119     24.1986
  1070.1000      8.0001      2.6180      0.0719      1.9365     71.5024     24.7928
  1070.2000      8.0001      2.6370      0.0543      0.7882     71.4078     25.0515
  1070.3000      7.9904      2.6417      0.1085      0.5055     70.6032     24.8545
  1070.4000      7.9904      2.6309      0.0568      1.1549     69.3145     24.4284
  1070.5000      7.9516      2.6087      0.0757      2.5027     68.4723     24.0254
  1070.6000      7.9516      2.5804      0.0589      4.2188     68.1185     23.6220
  1070.7000      7.9516      2.5560      0.0415      5.6983     66.6672     22.9775
  1070.8000      7.9710      2.5458      0.0219      6.3171     64.7665     22.0747
  1070.9000      7.9710      2.5498      0.0365      6.0730     64.9267     21.1831
  1071.0000      8.0115      2.5625      0.0182      5.3006     67.7980     20.6690
  1071.1000      8.0115      2.5872      0.0390      3.8046     71.8433     20.9915
  1071.2000      8.0115      2.6191      0.0787      1.8742     74.4249     22.2622
  1071.3000      8.0262      2.6331      0.0917      1.0235     73.6997     23.9236
  1071.4000      8.0262      2.6234      0.0241      1.6137     69.4571     25.1877
  1071.5000      8.0604      2.5999      0.0768      3.0375     63.3454     25.8143
  1071.6000      8.0604      2.5411      0.0724      6.5992     59.2054     26.0935
  1071.7000      8.0604      2.4255     -0.0006     13.6053     58.7662     26.0973
  1071.8000      8.0713      2.2724     -0.0645     22.8851     60.3581     25.8278
  1071.9000      8.0713      2.1068     -0.0965     32.9205     62.3731     25.5129
  1072.0000      8.0293      1.9417     -0.1916     42.9254     64.7392     25.3659
  1072.1000      8.0293      1.7993     -0.2166     51.5603     66.8331     25.5092
  1072.2000      8.0293      1.6911     -0.1491     58.1126     66.4872     25.9946
  1072.3000      8.0022      1.6017     -0.0995     63.5341     63.4809     26.7352
  1072.4000      8.0022      1.5260     -0.0568     68.1207     60.3818     27.6206
  1072.5000      8.0535      1.4798     -0.0196     70.9207     58.1998     28.5335
  1072.6000      8.0535      1.4613      0.0692     72.0407     56.2217     29.3765
  1072.7000      8.0535      1.4494      0.0613     72.7626     54.8375     30.0074
  1072.8000      8.1563      1.4346      0.0237     73.6581     55.3867     30.3377
  1072.9000      8.1563      1.4179      0.0330     74.6740     56.4597     30.6828
  1073.0000      8.3200      1.3997     -0.0066     75.7778     54.4580     31.2284
  1073.1000      8.3200      1.3856      0.0110     76.6307     49.6231     31.6225
  1073.2000      8.3200      1.3812      0.0113     76.8959     45.7336     31.5966
  1073.3000      8.1969      1.3878     -0.0028     76.4986     44.5696     31.3839
  1073.4000      8.1969      1.4056      0.0148     75.4155     44.4409     31.2750
  1073.5000      8.2421      1.4349      0.0538     73.6453     45.0278     31.3255
  1073.6000      8.2421      1.4793      0.0424     70.9501     48.2644     31.5086
  1073.7000      8.2421      1.5484      0.0410     66.7629     53.2006     31.8907
  1073.8000      8.1297      1.6447      0.0839     60.9251     57.1942     32.4129
  1073.9000      8.1297      1.7611      0.1075     53.8748     60.6423     32.7179
  1074.0000      8.0662      1.8869      0.1490     46.2511     65.9647     32.6425
  1074.1000      8.0662      2.0086      0.1779     38.8732     73.1319     32.3259
  1074.2000      8.0662      2.1195      0.1823     32.1494     80.6357     32.0759
  1074.3000      8.0673      2.2229      0.2129     25.8833     87.7337     32.1079
  1074.4000      8.0673      2.3126      0.2092     20.4497     92.6150     32.2896
  1074.5000      8.0503      2.3720      0.1877     16.8496     95.5247     32.4460
  1074.6000      8.0503      2.4006      0.1293     15.1154    100.3688     32.5009
  1074.7000      8.0503      2.4165      0.1079     14.1485    107.9859     32.3700
  1074.8000      8.0737      2.4289      0.1215     13.3990    114.8494     32.0174
  1074.9000      8.0737      2.4328      0.0950     13.1620    118.5567     31.5491
  1075.0000      8.1103      2.4304      0.0754     13.3074    119.5752     31.0939
  1075.1000      8.1103      2.4329      0.0809     13.1546    119.8418     30.5886
  1075.2000      8.1103      2.4471      0.0327     12.2974    120.6734     30.0791
  1075.3000      8.0875      2.4678      0.0937     11.0407    122.2780     29.7475
  1075.4000      8.0875      2.4808      0.0785     10.2525    124.1023     29.5204
  1075.5000      8.0632      2.4811      0.0456     10.2381    124.9661     29.2654
