~Version Information
 VERS.                                  2.0 : CWLS LAS VERSION
 WRAP.                                   NO : WRAPING MODE
 SWARE .                 MController 2.5.0J : SOFTWARE VERSION
~Well Information
 WELL.                     Hemisphere 32-24 : WELL
 COMP.    Pioneer Natural Resources USA Inc : COMPANY
 FLD.                      Purgatoire River : FIELD
 LOC.                 SE/SW Sec 24 T33 R67W : LOCATION
 DATE.                             08/14/05 : DATE(S) LOGGED
 SRVC.       BLANCO Geological Services LLC : SERVICE COMPANY
 STAT.                                   CO : STATE
 CNTY.                           Las Animas : COUNTY
 CTRY.                                  USA : COUNTRY
 API.                       05-071-08440-00 : API NUMBER
 STRT.FT                             399.00 : START DEPTH
 STOP.FT                            2171.00 : STOP DEPTH
 STEP.FT                               1.00 : DEPTH INCREMENT
 NULL.                                -9999 : NULL VALUE
~Curve information
 DEPTH.FT                                   :
 ROP.MIN/FT                                 :
 GAS.UNITS                                  :
~ASCII Log data
# ...
      1199.0         0.33         75.2 
      1200.0         0.63         60.8 
      1201.0         0.30         48.6 
      1202.0         0.30         42.6 
      1203.0         0.43         41.9 
      1204.0         0.35         40.6 
      1205.0         0.37         39.4 
      1206.0         0.30         38.9 
      1207.0         0.30         39.2 
      1208.0         0.40         39.5 
      1209.0         0.27         37.4 
      1210.0         0.27         37.6 
      1211.0         0.23         36.7 
      1212.0         0.27         35.4 
      1213.0         0.27         34.8 
      1214.0         0.27         35.6 
      1215.0         0.28         35.1 
      1216.0         0.27         35.0 
      1217.0         0.23         34.7 
      1218.0         0.20         34.8 
      1219.0         0.17         34.4 
      1220.0         0.17         34.6 
      1221.0         0.17         34.6 
      1222.0         0.17         35.0 
      1223.0         0.13         34.9 
      1224.0         0.17         36.8 
      1225.0         0.23         37.9 
      1226.0         2.45         94.5 
      1227.0         0.43        155.0 
      1228.0         0.37        193.7 
      1229.0         0.40        171.5 
      1230.0         0.30        112.3 
      1231.0         0.27         77.6 
      1232.0         0.27         56.9 
      1233.0         0.28         53.9 
      1234.0         0.33         45.9 
      1235.0         0.47         41.5 
      1236.0         0.33         37.6 
      1237.0         0.30         38.3 
      1238.0         0.30         38.5 
      1239.0         0.33         38.9 
      1240.0         0.37         37.2 
      1241.0         0.23         37.7 
      1242.0         0.23         37.8 
      1243.0         0.27         37.3 
      1244.0         0.32         44.7 
      1245.0         0.30         76.5 
      1246.0         0.30        109.5 
      1247.0         0.27        119.8 
      1248.0         0.40        105.3 
      1249.0         0.27         88.7 
      1250.0         0.30         70.3 
      1251.0         0.27         59.2 
      1252.0         0.23         52.4 
      1253.0         0.33         49.8 
      1254.0         0.23         46.7 
      1255.0         0.23         45.6 
      1256.0         2.55        180.7 
      1257.0         0.63        228.1 
      1258.0         0.42        148.6 
      1259.0         0.27        104.5 
      1260.0         0.23         72.1 
      1261.0         0.40         53.5 
      1262.0         0.40         44.5 
      1263.0         0.37         42.5 
      1264.0         0.33         40.8 
      1265.0         0.33         40.6 
      1266.0         0.30         41.4 
      1267.0         0.37         41.3 
      1268.0         0.28         39.9 
      1269.0         0.33         38.4 
      1270.0         0.30         38.1 
      1271.0         0.37         37.2 
      1272.0         0.30         37.2 
      1273.0         0.33         36.2 
      1274.0         0.37         36.0 
      1275.0         0.33         35.1 
      1276.0         0.30         35.1 
      1277.0         0.27         34.7 
      1278.0         0.23         33.4 
      1279.0         0.35         34.5 
      1280.0         0.33         34.5 
      1281.0         0.30         34.9 
      1282.0         0.30         35.9 
      1283.0         0.30         35.9 
      1284.0         0.33         34.8 
      1285.0         0.63         34.9 
      1286.0         2.75        224.0 
      1287.0         0.50        220.0 
      1288.0         0.33         99.3 
      1289.0         0.17         68.3 
      1290.0         0.30         60.5 
      1291.0         0.32         59.5 
      1292.0         0.27         48.8 
      1293.0         0.33         44.1 
      1294.0         0.27         42.1 
      1295.0         0.23         39.6 
      1296.0         0.43         38.2 
      1297.0         0.40         38.2 
      1298.0         0.50         37.8 
      1299.0         0.30         38.7 
      1300.0         0.33         37.7 
      1301.0         0.38         38.4 
      1302.0         0.27         38.2 
      1303.0         0.27         37.6 
      1304.0         0.33         38.1 
      1305.0         0.47         37.4 
      1306.0         0.47         37.6 
      1307.0         0.47         37.0 
      1308.0         0.47         36.9 
      1309.0         0.55         36.8 
      1310.0         0.50         36.6 
      1311.0         0.50         36.9 
      1312.0         0.37         36.8 
      1313.0         0.33         37.0 
      1314.0         0.33         36.2 
      1315.0         0.27         36.2 
      1316.0         2.65        171.5 
      1317.0         0.77        170.4 
      1318.0         0.43        103.2 
      1319.0         0.20         59.6 
      1320.0         0.32         55.0 
      1321.0         0.23         53.1 
      1322.0         0.27         46.7 
      1323.0         0.43         41.8 
      1324.0         0.37         37.6 
      1325.0         0.40         36.7 
      1326.0         0.40         35.8 
      1327.0         0.30         35.4 
      1328.0         0.23         36.5 
      1329.0         0.43         36.7 
      1330.0         0.38         36.1 
      1331.0         0.27         36.7 
      1332.0         0.23         36.1 
      1333.0         0.27         35.8 
      1334.0         0.23         35.8 
      1335.0         0.20         35.9 
      1336.0         0.27         34.7 
      1337.0         0.23         35.3 
      1338.0         0.20         34.7 
      1339.0         0.23         33.7 
      1340.0         0.23         33.5 
      1341.0         0.20         32.9 
      1342.0         0.23         33.5 
      1343.0         0.23         33.0 
      1344.0         0.25         33.0 
      1345.0         0.23         31.7 
      1346.0         3.38        258.2 
      1347.0         0.27        272.5 
      1348.0         0.23        257.8 
      1349.0         0.47        187.7 
      1350.0         0.33         96.2 
      1351.0         0.23         67.7 
      1352.0         0.37         66.6 
      1353.0         0.27         51.9 
      1354.0         0.27         46.3 
      1355.0         0.27         41.5 
      1356.0         0.25         39.5 
      1357.0         0.20         38.5 
      1358.0         0.30         38.4 
      1359.0         0.50         38.9 
      1360.0         0.33         38.4 
      1361.0         0.23         39.7 
      1362.0         0.27         39.2 
      1363.0         0.20         39.2 
      1364.0         0.40         39.2 
      1365.0         0.23         38.6 
      1366.0         0.30         38.4 
      1367.0         0.35         37.8 
      1368.0         0.33         35.8 
      1369.0         0.33         35.9 
      1370.0         0.43         36.1 
      1371.0         0.43         35.4 
      1372.0         0.30         34.8 
      1373.0         0.27         34.2 
      1374.0         0.27         34.6 
      1375.0         0.23         34.0 
      1376.0         4.13        247.5 
      1377.0         0.53        248.8 
      1378.0         0.47        110.7 
      1379.0         0.37         62.4 
      1380.0         0.37         61.0 
      1381.0         0.73         50.7 
      1382.0         0.40         39.0 
      1383.0         0.33         38.5 
      1384.0         0.28         37.4 
      1385.0         0.40         37.6 
      1386.0         0.47         38.1 
      1387.0         0.30         37.7 
      1388.0         0.33         37.6 
      1389.0         0.40         36.5 
      1390.0         0.33         36.2 
      1391.0         0.23         35.9 
      1392.0         0.47         35.6 
      1393.0         0.38         35.2 
      1394.0         0.40         34.7 
      1395.0         0.30         33.4 
      1396.0         0.30         33.8 
      1397.0         0.33         33.6 
      1398.0         0.27         35.0 
