~Version Information
 VERS.                                  2.0 : CWLS LAS VERSION
 WRAP.                                   NO : WRAPING MODE
 SWARE .                 MController 2.5.0N : SOFTWARE VERSION
~Well Information
 WELL.                          AMX 13-13TR : WELL
 COMP.       Pioneer Natural Resources, USA : COMPANY
 FLD.                       Purgatory River : FIELD
 LOC.                NW/SW Sec 13 T32S R67W : LOCATION
 DATE.                             12/21/05 : DATE(S) LOGGED
 SRVC.      Blanco Geological Services, LLC : SERVICE COMPANY
 STAT.                             Colorado : STATE
 CNTY.                           Las Animas : COUNTY
 CTRY.                                  USA : COUNTRY
 API.                       05-071-08631-00 : API NUMBER
 STRT.FT                             395.00 : START DEPTH
 STOP.FT                            2187.00 : STOP DEPTH
 STEP.FT                               1.00 : DEPTH INCREMENT
 NULL.                                -9999 : NULL VALUE
~Curve information
 DEPTH.FT                                   :
 ROP.MIN/FT                                 :
 GAS.UNITS                                  :
~ASCII Log data
# ...
      1395.0         0.17         66.7 
      1396.0         0.20         65.1 
      1397.0         0.20         63.6 
      1398.0         0.20         62.2 
      1399.0         0.17         59.1 
      1400.0         0.20         56.0 
      1401.0         0.17         52.3 
      1402.0         0.17         52.0 
      1403.0         0.13         55.6 
      1404.0         0.13         62.1 
      1405.0         0.20         76.4 
      1406.0         1.92        155.6 
      1407.0         0.40        111.8 
      1408.0         0.47         92.1 
      1409.0         0.30         74.5 
      1410.0         0.23         66.7 
      1411.0         0.23         62.0 
      1412.0         0.23         58.6 
      1413.0         0.27         55.9 
      1414.0         0.27         53.6 
      1415.0         0.25         51.7 
      1416.0         0.20         50.2 
      1417.0         0.20         49.0 
      1418.0         0.17         48.0 
      1419.0         0.20         49.3 
      1420.0         0.23         62.9 
      1421.0         0.23         84.0 
      1422.0         0.17        102.0 
      1423.0         0.17        121.1 
      1424.0         0.17        135.8 
      1425.0         0.13        142.1 
      1426.0         0.10        144.6 
      1427.0         0.10        145.8 
      1428.0         0.10        146.2 
      1429.0         0.10        146.1 
      1430.0         0.17        145.2 
      1431.0         0.23        141.8 
      1432.0         0.17        132.2 
      1433.0         0.20        124.2 
      1434.0         0.20        124.2 
      1435.0         0.12        132.6 
      1436.0         1.90        316.4 
      1437.0         0.23        265.8 
      1438.0         0.23        228.8 
      1439.0         0.20        192.7 
      1440.0         0.27        168.3 
      1441.0         0.27        143.6 
      1442.0         0.28        126.4 
      1443.0         0.30        113.3 
      1444.0         0.27        104.9 
      1445.0         0.23         99.6 
      1446.0         0.23         95.8 
      1447.0         0.20         92.4 
      1448.0         0.23         90.3 
      1449.0         0.20         88.0 
      1450.0         0.20         86.0 
      1451.0         0.17         84.2 
      1452.0         0.23         83.0 
      1453.0         0.20         81.1 
      1454.0         0.20         79.8 
      1455.0         0.20         78.2 
      1456.0         0.23         78.0 
      1457.0         0.22         78.6 
      1458.0         0.20         78.6 
      1459.0         0.23         77.9 
      1460.0         0.20         75.4 
      1461.0         0.27         71.5 
      1462.0         0.23         71.7 
      1463.0         0.17         79.4 
      1464.0         0.17         91.4 
      1465.0         0.20        114.9 
      1466.0         1.10        242.6 
      1467.0         0.10        241.6 
      1468.0         0.10        237.7 
      1469.0         0.28        231.3 
      1470.0         0.27        199.6 
      1471.0         0.27        167.4 
      1472.0         0.23        139.6 
      1473.0         0.23        120.9 
      1474.0         0.27        107.0 
      1475.0         0.23         97.1 
      1476.0         0.17         89.7 
      1477.0         0.23         86.1 
      1478.0         0.23         81.4 
      1479.0         0.23         77.9 
      1480.0         0.20         75.2 
      1481.0         0.20         73.2 
      1482.0         0.20         71.7 
      1483.0         0.20         70.7 
      1484.0         0.22         70.7 
      1485.0         0.17         73.5 
      1486.0         0.17         82.6 
      1487.0         0.17         96.9 
      1488.0         0.10        105.8 
      1489.0         0.10        112.8 
      1490.0         0.10        117.4 
      1491.0         0.20        120.8 
      1492.0         0.13        121.5 
      1493.0         0.10        122.9 
      1494.0         0.07        124.7 
      1495.0         0.07        127.2 
      1496.0         2.55        357.5 
      1497.0         0.23        225.1 
      1498.0         0.33        194.7 
      1499.0         0.33        165.0 
      1500.0         0.27        141.0 
      1501.0         0.30        128.1 
      1502.0         0.27        117.7 
      1503.0         0.30        111.6 
      1504.0         0.27        106.9 
      1505.0         0.27        103.9 
      1506.0         0.28        101.2 
      1507.0         0.27         99.2 
      1508.0         0.23         97.5 
      1509.0         0.23         96.1 
      1510.0         0.23         95.1 
      1511.0         0.23         94.2 
      1512.0         0.27         93.3 
      1513.0         0.23         92.0 
      1514.0         0.23         89.8 
      1515.0         0.20         87.6 
      1516.0         0.27         86.0 
      1517.0         0.27         85.7 
      1518.0         0.23         85.9 
      1519.0         0.20         85.9 
      1520.0         0.22         84.1 
      1521.0         0.20         78.7 
      1522.0         0.20         74.8 
      1523.0         0.23         83.1 
      1524.0         0.17         95.9 
      1525.0         0.23        119.6 
      1526.0         2.18        270.3 
      1527.0         0.30        172.7 
      1528.0         0.30        145.5 
      1529.0         0.27        126.1 
      1530.0         0.23        113.1 
      1531.0         0.23        104.6 
      1532.0         0.20         97.6 
      1533.0         0.27         94.1 
      1534.0         0.23         91.7 
      1535.0         0.17         90.6 
      1536.0         0.17         89.8 
      1537.0         0.17         89.1 
      1538.0         0.23         88.3 
      1539.0         0.27         87.2 
      1540.0         0.23         86.0 
      1541.0         0.32         84.7 
      1542.0         0.20         82.9 
      1543.0         0.23         82.1 
      1544.0         0.20         81.5 
      1545.0         0.23         81.1 
      1546.0         0.23         80.7 
      1547.0         0.20         80.1 
      1548.0         0.20         78.7 
      1549.0         0.27         74.8 
      1550.0         0.30         66.5 
      1551.0         0.30         66.7 
      1552.0         0.13         74.8 
      1553.0         0.30        106.1 
      1554.0         0.27        149.5 
      1555.0         0.28        233.3 
      1556.0         1.50        328.2 
      1557.0         0.30        234.8 
      1558.0         0.27        190.0 
      1559.0         0.40        158.8 
      1560.0         0.27        121.8 
      1561.0         0.23         99.1 
      1562.0         0.25         84.7 
      1563.0         0.13         75.2 
      1564.0         3.00        134.7 
      1565.0         0.32        135.4 
      1566.0         0.30        132.9 
      1567.0         0.30        126.2 
      1568.0         0.27        117.8 
      1569.0         0.23        110.5 
      1570.0         0.27        105.9 
      1571.0         0.27        101.7 
      1572.0         0.23         98.1 
      1573.0         0.17         94.9 
      1574.0         0.30         92.4 
      1575.0         0.20         87.8 
      1576.0         0.30         85.1 
      1577.0         0.28         82.3 
      1578.0         0.27         80.2 
      1579.0         0.27         78.8 
      1580.0         0.30         77.9 
      1581.0         0.30         76.9 
      1582.0         0.23         75.9 
      1583.0         0.30         73.7 
      1584.0         0.23         65.7 
      1585.0         0.23         58.7 
      1586.0         3.38        243.1 
      1587.0         0.33        141.3 
      1588.0         0.33        137.9 
      1589.0         0.30        129.7 
      1590.0         0.32        121.4 
      1591.0         0.23        115.4 
      1592.0         0.30        112.2 
      1593.0         0.27        108.4 
      1594.0         0.33        104.7 
