~Version Information
 VERS.                                  2.0 : CWLS LAS VERSION
 WRAP.                                   NO : WRAPING MODE
 SWARE .                 MController 2.5.0N : SOFTWARE VERSION
~Well Information
 WELL.                      Pavillion 44-25 : WELL
 COMP.    Pioneer Natural Resouces USA Inc. : COMPANY
 FLD.                      Purgatoire River : FIELD
 LOC.             SW/SW Sec 25 , T34S, R65W : LOCATION
 DATE.                             12/13/05 : DATE(S) LOGGED
 SRVC.       BLANCO Geological Services LLC : SERVICE COMPANY
 STAT.                                   CO : STATE
 CNTY.                           Las Animas : COUNTY
 CTRY.                                  USA : COUNTRY
 API.                          05-071-08624 : API NUMBER
 STRT.FT                             258.00 : START DEPTH
 STOP.FT                            1100.00 : STOP DEPTH
 STEP.FT                               1.00 : DEPTH INCREMENT
 NULL.                                -9999 : NULL VALUE
~Curve information
 DEPTH.FT                                   :
 ROP.MIN/FT                                 :
 GAS.UNITS                                  :
~ASCII Log data    
       258.0         0.20          1.4 
       259.0         0.20          0.9 
       260.0         0.30          1.1 
       261.0         2.65          1.7 
       262.0         0.33          1.3 
       263.0         0.30          1.4 
       264.0         0.20          1.4 
       265.0         0.17          1.5 
       266.0         0.20          1.1 
       267.0         0.33          1.6 
       268.0         0.28          1.5 
       269.0         0.23          1.0 
       270.0         0.50          1.4 
       271.0         0.40          1.2 
       272.0         0.27          1.3 
       273.0         0.20          1.3 
       274.0         0.17          1.4 
       275.0         0.27          1.1 
       276.0         0.30          1.2 
       277.0         0.33          1.4 
       278.0         0.30          1.5 
       279.0         0.38          1.4 
       280.0         0.30          1.4 
       281.0         0.17          1.5 
       282.0         0.20          1.5 
       283.0         0.17          1.2 
       284.0         0.17          1.4 
       285.0         0.17          1.1 
       286.0         0.20          1.4 
       287.0         0.20          1.2 
       288.0         0.17          0.7 
       289.0         0.33          1.0 
       290.0         0.13          0.7 
       291.0         3.02          1.2 
       292.0         0.33          1.1 
       293.0         0.37          1.5 
       294.0         0.33          0.9 
       295.0         0.32          1.2 
       296.0         0.23          1.0 
       297.0         0.20          1.0 
       298.0         0.27          1.2 
       299.0         0.20          1.1 
       300.0         0.20          1.1 
       301.0         0.17          1.1 
       302.0         0.20          1.1 
       303.0         0.20          0.9 
       304.0         0.27          1.9 
       305.0         0.27         12.5 
       306.0         0.30          7.2 
       307.0         0.30          0.3 
       308.0         0.30          0.6 
       309.0         0.35          0.0 
       310.0         0.27          0.4 
       311.0         0.27          0.3 
       312.0         0.30          0.8 
       313.0         0.27          0.8 
       314.0         0.27          0.7 
       315.0         0.30          0.8 
       316.0         0.33          1.1 
       317.0         0.27          1.1 
       318.0         0.43          0.8 
       319.0         0.33          1.2 
       320.0         0.12          1.0 
       321.0         2.90          1.8 
       322.0         0.65          1.7 
       323.0         0.37          1.9 
       324.0         0.37          1.5 
       325.0         0.30          1.4 
       326.0         0.30          1.4 
       327.0         0.27          1.4 
       328.0         0.27          1.9 
       329.0         0.23          1.6 
       330.0         0.20          1.3 
       331.0         0.27          1.7 
       332.0         0.33          1.4 
       333.0         0.32          1.8 
       334.0         0.27          1.3 
       335.0         0.23          1.8 
       336.0         0.37          1.8 
       337.0         0.27          1.8 
       338.0         0.23          1.5 
       339.0         0.23          1.7 
       340.0         0.30          1.8 
       341.0         0.43          1.6 
       342.0         0.27          1.7 
       343.0         0.30          1.4 
       344.0         0.27          1.6 
       345.0         0.32          1.4 
       346.0         0.27          1.7 
       347.0         0.30          1.6 
       348.0         0.30          1.6 
       349.0         0.30          1.6 
       350.0         0.53          1.6 
       351.0         3.02          2.0 
       352.0         0.33          1.7 
       353.0         0.30          2.0 
       354.0         0.33          1.7 
       355.0         0.33          1.2 
       356.0         0.27          1.6 
       357.0         0.32          2.1 
       358.0         0.53          2.0 
       359.0         0.47          2.1 
       360.0         0.30          2.1 
       361.0         0.27          1.8 
       362.0         0.23          1.9 
       363.0         0.23          2.2 
       364.0         0.27          2.3 
       365.0         0.27          1.8 
       366.0         0.27          2.2 
       367.0         0.35          1.7 
       368.0         0.27          2.0 
       369.0         0.30          2.2 
       370.0         0.30          2.0 
       371.0         0.30          1.9 
       372.0         0.30          1.8 
       373.0         0.23          1.8 
       374.0         0.20          1.6 
       375.0         0.23          2.0 
       376.0         0.27          1.7 
       377.0         0.23          2.0 
       378.0         0.37          1.9 
       379.0         0.27          2.0 
       380.0         0.28          3.1 
       381.0         3.98          2.1 
       382.0         0.37          1.9 
       383.0         0.37          1.7 
       384.0         0.37          1.9 
       385.0         0.33          2.0 
       386.0         0.37          2.0 
       387.0         0.30          1.4 
       388.0         0.27          2.0 
       389.0         0.32          1.9 
       390.0         0.30          2.6 
       391.0         0.30          2.3 
       392.0         0.30          2.3 
       393.0         0.30          1.9 
       394.0         0.30          2.1 
       395.0         0.30          1.9 
       396.0         0.30          2.1 
       397.0         0.30          2.2 
       398.0         0.30          1.9 
       399.0         0.30          2.3 
       400.0         0.32          2.1 
       401.0         0.33          2.3 
       402.0         0.30          1.5 
       403.0         0.27          2.2 
       404.0         0.30          2.2 
       405.0         0.30          1.5 
       406.0         0.30          1.8 
       407.0         0.20          1.4 
       408.0         0.20          1.4 
       409.0         0.27          1.6 
       410.0         0.27          1.5 
       411.0         2.32          2.2 
       412.0         0.33          1.8 
       413.0         0.43          1.6 
       414.0         0.30          1.7 
       415.0         0.30          1.9 
       416.0         0.32          1.9 
       417.0         0.30          2.2 
       418.0         0.23          1.8 
       419.0         0.23          1.6 
       420.0         0.20          2.0 
       421.0         0.23          1.7 
       422.0         0.30          1.8 
       423.0         0.53          1.8 
       424.0         0.37          1.7 
       425.0         0.23          1.7 
       426.0         0.27          1.9 
       427.0         0.32          1.9 
       428.0         0.20          1.5 
       429.0         0.23          1.6 
       430.0         0.23          1.8 
       431.0         0.33          1.6 
       432.0         0.30          1.8 
       433.0         0.27          1.7 
       434.0         0.30          1.4 
       435.0         0.30          1.7 
       436.0         0.27          1.4 
       437.0         0.30          1.7 
       438.0         0.27          1.2 
       439.0         0.28          1.4 
       440.0         0.40          1.7 
       441.0         3.02          1.9 
       442.0         0.27          1.5 
       443.0         0.27          1.3 
       444.0         0.30          1.5 
       445.0         0.27          1.4 
       446.0         0.27          0.9 
       447.0         0.33          1.3 
       448.0         0.33          1.6 
       449.0         0.37          1.4 
       450.0         0.33          1.7 
       451.0         0.37          1.5 
       452.0         0.38          1.7 
       453.0         0.33          2.4 
       454.0         0.37          1.7 
       455.0         0.33          1.5 
       456.0         0.33          1.7 
       457.0         0.37          1.4 
