~Version Information
VERS.                      2.0: CWLS Log ASCII Standard - VERSION 2.0
WRAP.                       NO: One line per depth step
~Well Information Block
STRT.FT                31.2500: 
STOP.FT               700.7500: 
STEP.FT                 0.2500: 
NULL.                -999.2500: 
COMP.          XTO Energy Inc.: COMPANY
WELL.          Golden Eagle 20-14: WELL
FLD.           Purgatrorie River: FIELD
LOC.           587' FSL & 2478' FWL--: LOCATION
STAT.                       CO: State
CNTY.               Las Animas: COUNTY
CTRY. USA : Country
SECT. 20 : Section
TOWN. 33S : Township
RANG. 67W : Range
SRVC.          Patterson Wireline: SERVICE COMPANY
DATE.          Sat Dec 10 15:54:00 2005: LOG DATE
API.           05 071 08614 00: UNIQUE WELL ID
~Curve Information Block
DEPT.FT            0 000 00 00: Depth
CCL.                          : Casing Collar Locator
TT3.usec                      : CBL 3' Travel Time
AMP3.mV                       : CBL 3' Amplitude
GR.GAPI                       : Gamma Ray
~Parameter Information Block
~A  Depth       CCL         TT3         AMP3         GR     
# ...
   299.2500      0.0000    894.0000      4.5605    124.1439
   299.5000      0.0000    894.0000      4.8922    129.7003
   299.7500      0.0000    894.0000      5.2107    132.2533
   300.0000      0.0000    894.0000      5.4493    132.7269
   300.2500      0.0000    894.0000      5.5614    133.6336
   300.5000      0.0000    894.0000      5.5460    137.0033
   300.7500      0.0000    894.0000      5.4317    141.8270
   301.0000      0.0000    894.0000      5.2500    144.4770
   301.2500      0.0000    894.0000      5.0400    141.9371
   301.5000      0.0000    894.0000      4.8588    134.3911
   301.7500      0.0000    894.0000      4.7540    124.9826
   302.0000      0.0000    894.0000      4.7200    117.5492
   302.2500      0.0000    894.0000      4.7006    114.4109
   302.5000      0.0000    894.0000      4.6426    115.5289
   302.7500      0.0000    894.0000      4.5335    119.1358
   303.0000      0.0000    894.0000      4.3736    123.0506
   303.2500      0.0000    894.0000      4.1315    125.7567
   303.5000      0.0000    894.0000      3.7709    126.8369
   303.7500      0.0000    894.0000      3.3228    126.9210
   304.0000      0.0000    894.0000      2.8928    127.2120
   304.2500      0.0000    894.0000      2.5794    128.6148
   304.5000      0.0000    894.0000      2.4072    131.0960
   304.7500      0.0000    894.0000      2.3379    134.0779
   305.0000      0.0000    894.0000      2.3207    137.4512
   305.2500      0.0000    894.0000      2.3224    141.7674
   305.5000      0.0000    894.0000      2.3297    146.9994
   305.7500      0.0000    894.0000      2.3389    151.3622
   306.0000      0.0000    894.0000      2.3479    152.1272
   306.2500      0.0000    894.0000      2.3546    148.0246
   306.5000      0.0000    894.0000      2.3573    140.5712
   306.7500      0.0000    894.0000      2.3562    132.9818
   307.0000      0.0000    894.0000      2.3524    127.9815
   307.2500      0.0000    894.0000      2.3482    126.4423
   307.5000      0.0000    894.0000      2.3461    127.6414
   307.7500      0.0000    894.0000      2.3466    130.4850
   308.0000      0.0000    894.0000      2.3468    134.1639
   308.2500      0.0000    894.0000      2.3418    137.6228
   308.5000      0.0000    894.0000      2.3278    139.3179
   308.7500      0.0000    894.0000      2.3068    138.5803
   309.0000      0.0000    894.0000      2.2858    136.8889
   309.2500      0.0000    894.0000      2.2730    136.5080
   309.5000      0.0000    894.0000      2.2710    137.5970
   309.7500      0.0000    894.0000      2.2758    137.7144
   310.0000      0.0000    894.0000      2.2813    134.7170
   310.2500      0.0000    894.0000      2.2850    129.4548
   310.5000      0.0000    894.0000      2.2896    125.0066
   310.7500      0.0000    894.0000      2.2969    123.5593
   311.0000      0.8047    894.0000      2.3041    124.3664
   311.2500      0.0000    894.0000      2.3057    124.4418
   311.5000      0.0000    894.0000      2.3007    121.1842
   311.7500      0.0000    894.0000      2.2940    114.8468
   312.0000      0.0000    894.0000      2.2916    108.7045
   312.2500      0.0000    894.0000      2.2956    106.3903
   312.5000      0.0000    894.0000      2.3042    108.7817
   312.7500      0.0000    894.0000      2.3145    113.5409
   313.0000      0.0000    894.0000      2.3241    117.4955
   313.2500      0.0000    894.0000      2.3317    119.1748
   313.5000      0.0000    894.0000      2.3372    119.0749
   313.7500      0.0000    894.0000      2.3398    118.1139
   314.0000      0.0000    894.0000      2.3371    116.5948
   314.2500      0.0000    894.0000      2.3268    114.6764
   314.5000      0.0000    894.0000      2.3104    112.9758
   314.7500      0.0000    894.0000      2.2950    112.1032
   315.0000      0.0000    894.0000      2.2875    112.0595
   315.2500      0.7169    894.0000      2.2894    112.6415
   315.5000      0.0000    894.0000      2.2967    114.1380
   315.7500      0.0000    894.0000      2.3049    116.9267
   316.0000      0.0000    894.0000      2.3120    120.4194
   316.2500      0.0000    894.0000      2.3182    122.9444
   316.5000      0.0000    894.0000      2.3224    123.0060
   316.7500      0.0000    894.0000      2.3219    120.7805
   317.0000      0.0000    894.0000      2.3145    118.2149
   317.2500      0.0000    894.0000      2.3005    117.2993
   317.5000      0.0000    894.0000      2.2850    118.2550
   317.7500     -1.0312    894.0000      2.2765    119.8070
   318.0000      2.0000    894.0000      2.2821    120.9968
   318.2500      1.0281    894.0000      2.3018    122.1545
   318.5000     -0.7367    894.0000      2.3265    124.2525
   318.7500      0.0000    894.0000      2.3445    127.8605
   319.0000      0.0000    894.0000      2.3487    132.6531
   319.2500      0.0000    894.0000      2.3387    137.4663
   319.5000      0.0000    894.0000      2.3178    140.6528
   319.7500      0.0000    894.0000      2.2914    140.6360
   320.0000      0.0000    894.0000      2.2668    136.4840
   320.2500      0.0000    894.0000      2.2508    128.2411
   320.5000      0.0000    894.0000      2.2477    116.9047
   320.7500      0.0000    894.0000      2.2561    104.0690
   321.0000      0.0000    894.0000      2.2698     91.4907
   321.2500      0.0000    894.0000      2.2808     80.9511
   321.5000      0.5084    894.0000      2.2833     74.0993
   321.7500      0.0000    894.0000      2.2775     71.7958
   322.0000      0.0000    894.0000      2.2688     73.4992
   322.2500      0.0000    894.0000      2.2632     77.5514
   322.5000      0.0000    894.0000      2.2628     82.2526
   322.7500      0.0000    894.0000      2.2648     86.8454
   323.0000      0.0000    894.0000      2.2653     91.5186
   323.2500      0.0000    894.0000      2.2648     96.4286
   323.5000      0.0000    894.0000      2.2680    101.0542
   323.7500      0.0000    894.0000      2.2779    104.8317
   324.0000      0.0000    894.0000      2.2921    107.9537
   324.2500      0.0000    894.0000      2.3049    110.8958
   324.5000      0.0000    894.0000      2.3135    113.3716
   324.7500      0.0000    894.0000      2.3197    114.4505
   325.0000      0.0000    894.0000      2.3262    113.8435
   325.2500      0.0000    894.0000      2.3328    112.7868
   325.5000      0.0000    894.0000      2.3384    113.5216
   325.7500      0.0000    894.0000      2.3443    117.6003
   326.0000      0.0000    894.0000      2.3533    124.2298
   326.2500      0.5994    894.0000      2.3675    130.4185
   326.5000      0.0000    894.0000      2.3853    133.2179
   326.7500      0.0000    894.0000      2.4009    131.6412
   327.0000      0.0000    894.0000      2.4073    126.1242
   327.2500      0.0000    894.0000      2.4028    117.0679
   327.5000      0.0000    894.0000      2.3957    105.2098
   327.7500      0.0000    894.0000      2.3986     93.0374
   328.0000      0.0000    894.0000      2.4192     84.3536
   328.2500      0.0000    894.0000      2.4548     81.8827
   328.5000      0.0000    894.0000      2.4979     85.6377
   328.7500      0.0000    894.0000      2.5414     93.3521
   329.0000      0.0000    894.0000      2.5791    101.9021
   329.2500      0.0000    894.0000      2.6039    108.5931
   329.5000      0.0000    894.0000      2.6119    112.2225
   329.7500      0.0000    894.0000      2.6072    113.7627
   330.0000      0.0000    894.0000      2.5969    115.6738
   330.2500      0.0000    894.0000      2.5846    119.5770
   330.5000      0.0000    894.0000      2.5705    124.5548
   330.7500      0.0000    894.0000      2.5568    128.2980
   331.0000      0.0000    894.0000      2.5476    129.6073
   331.2500      0.0000    894.0000      2.5445    129.1705
   331.5000      0.0000    894.0000      2.5468    128.2562
   331.7500      0.0000    894.0000      2.5535    127.3625
   332.0000      0.0000    894.0000      2.5614    126.1987
   332.2500      0.0000    894.0000      2.5631    124.5535
   332.5000      0.0000    894.0000      2.5500    122.7511
