~Version Information
 VERS.                                  2.0 : CWLS LAS VERSION
 WRAP.                                   NO : WRAPING MODE
 SWARE .                 MController 2.5.0N : SOFTWARE VERSION
~Well Information
 WELL.                       Screamin 12-29 : WELL
 COMP.       Pioneer Natural Resources, USA : COMPANY
 FLD.                       Purgatory River : FIELD
 LOC.                 SW/NW Sec29 T32S R65W : LOCATION
 DATE.                    3/28/06 - 3/29/06 : DATE(S) LOGGED
 SRVC.      Blanco Geological Services, LLC : SERVICE COMPANY
 STAT.                             Colorado : STATE
 CNTY.                           Las Animas : COUNTY
 CTRY.                                  USA : COUNTRY
 API.                          05-071-08660 : API NUMBER
 STRT.FT                             599.00 : START DEPTH
 STOP.FT                            1583.00 : STOP DEPTH
 STEP.FT                               1.00 : DEPTH INCREMENT
 NULL.                                -9999 : NULL VALUE
~Curve information
 DEPTH.FT                                   :
 ROP.MIN/FT                                 :
 GAS.UNITS                                  :
~ASCII Log data
# ...
       799.0         0.23         85.0 
       800.0         0.27         83.5 
       801.0         0.27         81.3 
       802.0         3.55        305.3 
       803.0         0.57        167.9 
       804.0         0.40        130.3 
       805.0         0.33        113.0 
       806.0         0.32        107.8 
       807.0         0.30         99.2 
       808.0         0.30         92.8 
       809.0         0.27         88.1 
       810.0         0.27         80.6 
       811.0         0.27         75.4 
       812.0         0.47         76.0 
       813.0         0.27         82.7 
       814.0         0.27         84.7 
       815.0         0.27         76.9 
       816.0         0.30         72.1 
       817.0         0.28         69.4 
       818.0         0.27         70.6 
       819.0         0.27         70.5 
       820.0         0.27         69.8 
       821.0         0.23         69.7 
       822.0         0.30         69.9 
       823.0         0.23         71.2 
       824.0         0.27         72.2 
       825.0         0.23         71.9 
       826.0         0.23         71.4 
       827.0         0.27         71.4 
       828.0         0.23         70.8 
       829.0         0.23         71.2 
       830.0         0.17         71.1 
       831.0         0.28         68.3 
       832.0         3.18        817.9 
       833.0         0.20        440.0 
       834.0         0.20        440.0 
       835.0         0.23        154.4 
       836.0         0.20        162.3 
       837.0         0.20        185.7 
       838.0         0.20        212.7 
       839.0         0.23        248.9 
       840.0         0.27        259.1 
       841.0         0.20        258.2 
       842.0         0.40        250.0 
       843.0         0.40        250.5 
       844.0         0.33        261.2 
       845.0         0.28        256.6 
       846.0         0.27        238.4 
       847.0         0.23        188.1 
       848.0         0.23        176.9 
       849.0         0.27        178.0 
       850.0         0.20        185.7 
       851.0         0.20        197.6 
       852.0         0.20        197.4 
       853.0         0.20        185.2 
       854.0         0.17        182.2 
       855.0         0.20        179.2 
       856.0         0.27        178.3 
       857.0         0.30        222.9 
       858.0         0.27        295.3 
       859.0         0.25        308.0 
       860.0         0.33        300.8 
       861.0         0.27        254.9 
       862.0         3.52       1760.9 
       863.0         0.57       1087.7 
       864.0         0.57        689.8 
       865.0         0.60        667.6 
       866.0         0.53        606.9 
       867.0         0.35        521.0 
       868.0         0.33        494.1 
       869.0         0.27        496.8 
       870.0         0.23        475.2 
       871.0         0.33        441.5 
       872.0         2.28        223.3 
       873.0         0.47        270.1 
       874.0         0.43        300.0 
       875.0         0.40        290.6 
       876.0         0.23        225.9 
       877.0         0.33        226.5 
       878.0         0.33        268.2 
       879.0         0.40        295.4 
       880.0         0.33        291.7 
       881.0         0.35        276.7 
       882.0         0.37        258.4 
       883.0         0.30        239.7 
       884.0         0.37        230.3 
       885.0         0.33        254.5 
       886.0         0.40        275.3 
       887.0         0.30        275.1 
       888.0         0.30        257.6 
       889.0         0.27        207.7 
       890.0         0.30        198.0 
       891.0         0.30        216.2 
       892.0         3.87       1971.4 
       893.0         0.47       1207.0 
       894.0         0.50        696.9 
       895.0         0.40        690.2 
       896.0         0.43        688.1 
       897.0         0.43        660.2 
       898.0         0.43        618.1 
       899.0         0.35        537.9 
       900.0         0.30        440.0 
       901.0         0.37        209.5 
       902.0         0.43        216.4 
       903.0         0.30        231.3 
       904.0         0.30        231.8 
       905.0         0.27        215.5 
       906.0         0.30        208.8 
       907.0         0.33        205.3 
       908.0         0.30        210.7 
       909.0         0.35        211.8 
       910.0         0.33        215.8 
       911.0         0.33        214.4 
       912.0         0.37        219.8 
       913.0         0.27        246.1 
       914.0         0.23        243.1 
       915.0         0.23        223.0 
       916.0         0.23        205.9 
       917.0         0.23        198.1 
       918.0         0.20        199.5 
       919.0         0.23        200.7 
       920.0         0.23        202.0 
       921.0         0.23        206.8 
       922.0         4.73       1850.5 
       923.0         0.53        572.6 
       924.0         0.37        777.4 
       925.0         0.33        774.4 
       926.0         0.47        622.1 
       927.0         0.58        485.7 
       928.0         0.33        458.0 
       929.0         0.37        440.0 
       930.0         0.40        228.5 
       931.0         0.37        236.8 
       932.0         0.40        243.4 
       933.0         0.33        263.3 
       934.0         0.37        247.7 
       935.0         0.40        226.6 
       936.0         0.42        214.1 
       937.0         0.37        213.8 
       938.0         0.37        209.9 
       939.0         0.30        207.9 
       940.0         0.30        207.3 
       941.0         0.30        200.1 
       942.0         0.40        199.7 
       943.0         0.33        214.1 
       944.0         0.23        219.9 
       945.0         0.27        216.9 
       946.0         0.28        203.4 
       947.0         0.27        197.7 
       948.0         0.23        200.3 
       949.0         0.33        205.8 
       950.0         0.37        228.4 
       951.0         0.33        260.3 
       952.0         5.60       2609.6 
       953.0         0.33        696.2 
       954.0         0.33        759.2 
       955.0         0.33        713.7 
       956.0         0.37        569.2 
       957.0         0.37        498.1 
       958.0         0.37        453.6 
       959.0         0.37        440.0 
       960.0         0.33        238.5 
       961.0         0.32        231.1 
       962.0         0.27        225.8 
       963.0         0.23        202.6 
       964.0         0.23        211.6 
       965.0         0.20        228.4 
       966.0         0.27        247.2 
       967.0         0.23        255.5 
       968.0         0.20        256.8 
       969.0         0.23        246.5 
       970.0         0.23        233.0 
       971.0         0.40        228.0 
       972.0         0.27        244.6 
       973.0         0.23        245.3 
       974.0         0.22        239.5 
       975.0         0.27        230.7 
       976.0         0.23        208.9 
       977.0         0.40        216.5 
       978.0         0.43        230.1 
       979.0         0.27        243.2 
       980.0         0.23        242.4 
       981.0         0.23        221.4 
       982.0         4.80        888.9 
       983.0         0.33        514.0 
       984.0         0.30        607.6 
       985.0         0.43        641.0 
       986.0         0.43        702.3 
       987.0         0.43        653.8 
       988.0         0.37        480.9 
       989.0         0.40        440.0 
       990.0         0.45        236.0 
       991.0         0.47        229.4 
       992.0         0.67        226.6 
       993.0         0.43        223.0 
       994.0         0.47        213.1 
       995.0         0.57        215.8 
       996.0         0.57        217.2 
       997.0         0.62        220.5 
       998.0         0.50        219.6 
