~Version Information
VERS.                      2.0: CWLS Log ASCII Standard - VERSION 2.0
WRAP.                       NO: One line per depth step
~Well Information Block
STRT.FT               295.7500: 
STOP.FT              1461.0000: 
STEP.FT                 0.2500: 
NULL.                -999.2500: 
COMP.          Pioneer Natural Resources: COMPANY
WELL.              Lucky 21-36: WELL
FLD.           Purgatoire River: FIELD
LOC.           799' FNL & 1578' FWL--: LOCATION
CDN. :
PROV. :
UWI. :
STAT. :
CNTY. :
CTRY. :
API. :
COMP. :
WELL. :
FLD. :
LOC. :
DATE. :
SRVC. :
CNTY.               Las Animas: COUNTY
SRVC.          Superior Well Services: SERVICE COMPANY
DATE.          Mon Jul 07 19-13-01 2008: LOG DATE
UWI.           05 071 08456 00: UNIQUE WELL ID
STAT.                 Colorado: STATE
~Curve Information Block
DEPT.FT            0 000 00 00: Depth
SN.Ohm-m                      : IEL Short Normal
SP.mV                         : IEL Spontaneous Potential
DIR.Ohm-m                     : IEL Induction Resistivity
GR.GAPI                       : Gamma Ray
~Parameter Information Block
~A  Depth        SN          SP         DIR          GR     
# ...
  1133.2500     20.4987      0.5223     20.8159     70.1705
  1133.5000     20.6460      1.1121     20.9141     70.4588
  1133.7500     20.7897      1.7016     21.0960     70.1704
  1134.0000     20.9283      2.2877     21.3695     69.8111
  1134.2500     21.1438      2.8656     21.7211     69.5703
  1134.5000     21.3993      3.4283     22.1188     69.7200
  1134.7500     21.6269      3.9674     22.5116     70.1200
  1135.0000     21.7459      4.4726     22.8287     70.3566
  1135.2500     21.6621      4.9332     22.9883     71.1640
  1135.5000     21.3777      5.3383     22.9225     72.7428
  1135.7500     21.0044      5.6778     22.6050     77.9209
  1136.0000     20.5753      5.9438     22.0611     83.4943
  1136.2500     20.1323      6.1311     21.3538     94.4092
  1136.5000     19.7840      6.2378     20.5575    102.5843
  1136.7500     19.5215      6.2664     19.7345    114.5135
  1137.0000     19.1841      6.2230     18.9250    121.3455
  1137.2500     18.7064      6.1171     18.1491    129.0809
  1137.5000     18.2028      5.9612     17.4163    132.6318
  1137.7500     17.7675      5.7692     16.7351    136.0105
  1138.0000     17.3494      5.5556     16.1181    136.8975
  1138.2500     16.9834      5.3343     15.5810    135.5516
  1138.5000     16.7459      5.1175     15.1382    132.8830
  1138.7500     16.5852      4.9153     14.7972    127.6991
  1139.0000     16.4578      4.7350     14.5553    124.7487
  1139.2500     16.3962      4.5816     14.3988    122.5440
  1139.5000     16.4117      4.4579     14.3070    122.5049
  1139.7500     16.4864      4.3647     14.2567    123.3324
  1140.0000     16.5964      4.3015     14.2265    123.6324
  1140.2500     16.7254      4.2666     14.1990    122.8097
  1140.5000     16.8666      4.2578     14.1618    121.2723
  1140.7500     16.9989      4.2720     14.1096    117.8606
  1141.0000     17.1001      4.3055     14.0456    115.4476
  1141.2500     17.1834      4.3544     13.9820    112.9563
  1141.5000     17.3061      4.4138     13.9369    112.4924
  1141.7500     17.4863      4.4786     13.9296    112.9234
  1142.0000     17.7207      4.5430     13.9733    112.9024
  1142.2500     18.0390      4.6004     14.0712    111.0024
  1142.5000     18.4262      4.6436     14.2181    108.5900
  1142.7500     18.8622      4.6640     14.4061    104.5805
  1143.0000     19.3930      4.6518     14.6317    102.3348
  1143.2500     19.9883      4.5951     14.8992     99.8268
  1143.5000     20.6126      4.4803     15.2210     98.4344
  1143.7500     21.3596      4.2916     15.6144     96.3294
  1144.0000     22.2759      4.0120     16.0962     95.0751
  1144.2500     23.3428      3.6235     16.6729     94.2301
  1144.5000     24.5182      3.1081     17.3313     94.5501
  1144.7500     25.5627      2.4498     18.0318     95.5387
  1145.0000     26.1319      1.6358     18.7100     95.8046
  1145.2500     25.8769      0.6587     19.2879     95.4137
  1145.5000     24.8112     -0.4820     19.6947     95.5483
  1145.7500     23.5430     -1.7784     19.8902     98.9235
  1146.0000     22.7362     -3.2131     19.8778    104.2708
  1146.2500     22.5975     -4.7598     19.6976    116.1366
  1146.5000     22.9488     -6.3843     19.4069    124.9817
  1146.7500     23.4199     -8.0464     19.0622    136.8421
  1147.0000     23.6848     -9.7032     18.7080    142.8450
  1147.2500     23.6002    -11.3127     18.3715    148.4276
  1147.5000     23.2457    -12.8367     18.0599    150.0307
  1147.7500     22.7415    -14.2442     17.7648    150.1495
  1148.0000     22.1443    -15.5128     17.4756    149.2051
  1148.2500     21.4967    -16.6302     17.1944    146.5700
  1148.5000     20.9576    -17.5931     16.9403    144.1855
  1148.7500     20.5919    -18.4063     16.7409    140.7258
  1149.0000     20.3914    -19.0808     16.6192    139.3348
  1149.2500     20.3453    -19.6315     16.5858    139.1265
  1149.5000     20.4036    -20.0753     16.6389    139.6310
  1149.7500     20.5144    -20.4292     16.7670    139.5764
  1150.0000     20.5994    -20.7095     16.9490    138.3489
  1150.2500     20.6489    -20.9309     17.1538    134.8301
  1150.5000     20.7248    -21.1060     17.3433    131.8494
  1150.7500     20.8012    -21.2453     17.4832    127.3765
  1151.0000     20.8677    -21.3572     17.5577    124.9312
  1151.2500     20.9539    -21.4476     17.5787    122.6969
  1151.5000     21.0409    -21.5200     17.5794    122.1562
  1151.7500     21.0999    -21.5751     17.5948    122.1627
  1152.0000     21.1240    -21.6107     17.6427    122.3520
  1152.2500     21.1422    -21.6212     17.7188    122.8750
  1152.5000     21.1691    -21.5976     17.8068    123.6206
  1152.7500     21.1714    -21.5276     17.8944    125.4444
  1153.0000     21.0949    -21.3957     17.9813    126.7964
  1153.2500     20.9899    -21.1837     18.0736    128.4052
  1153.5000     20.9448    -20.8718     18.1744    129.2672
  1153.7500     20.9356    -20.4396     18.2791    130.7993
  1154.0000     20.9416    -19.8682     18.3795    131.8792
  1154.2500     21.0199    -19.1420     18.4703    132.4867
  1154.5000     21.1518    -18.2512     18.5538    131.8716
  1154.7500     21.2356    -17.1938     18.6401    130.4648
  1155.0000     21.2522    -15.9773     18.7439    130.1413
  1155.2500     21.2829    -14.6204     18.8785    130.9371
  1155.5000     21.4149    -13.1520     19.0494    131.7975
  1155.7500     21.7286    -11.6107     19.2520    132.6819
  1156.0000     22.1510    -10.0418     19.4758    132.6798
  1156.2500     22.5090     -8.4940     19.7100    131.0632
  1156.5000     22.6745     -7.0156     19.9457    128.5441
  1156.7500     22.6478     -5.6500     20.1746    123.1733
  1157.0000     22.5400     -4.4322     20.3904    119.5493
  1157.2500     22.5275     -3.3862     20.5948    115.4186
  1157.5000     22.7007     -2.5234     20.8026    113.5716
  1157.7500     23.1276     -1.8424     21.0376    111.6972
  1158.0000     23.8403     -1.3309     21.3189    111.0466
  1158.2500     24.6018     -0.9683     21.6458    111.2132
  1158.5000     25.0046     -0.7289     21.9941    111.9119
  1158.7500     24.9203     -0.5862     22.3257    112.9960
  1159.0000     24.6272     -0.5160     22.6058    113.3701
  1159.2500     24.3933     -0.4985     22.8162    113.4102
  1159.5000     24.3304     -0.5200     22.9589    113.2728
  1159.7500     24.4914     -0.5723     23.0525    112.9844
  1160.0000     24.8744     -0.6511     23.1248    112.7324
  1160.2500     25.3563     -0.7547     23.2053    112.2866
  1160.5000     25.6650     -0.8814     23.3174    112.0713
  1160.7500     25.6506     -1.0287     23.4764    112.2897
  1161.0000     25.5093     -1.1923     23.6958    112.9780
  1161.2500     25.5440     -1.3662     23.9951    114.3954
  1161.5000     25.9465     -1.5436     24.4007    114.7999
  1161.7500     26.8024     -1.7181     24.9363    112.9878
  1162.0000     27.9636     -1.8842     25.6075    109.7067
  1162.2500     29.0756     -2.0383     26.3909    102.3169
  1162.5000     29.9296     -2.1790     27.2363     96.7695
  1162.7500     30.5017     -2.3063     28.0836     89.3434
  1163.0000     30.8504     -2.4224     28.8872     85.5372
  1163.2500     31.1528     -2.5299     29.6257     81.5061
  1163.5000     31.5216     -2.6322     30.2899     79.7958
  1163.7500     31.9612     -2.7325     30.8599     78.8379
  1164.0000     32.3705     -2.8338     31.3033     79.3371
  1164.2500     32.5730     -2.9381     31.5992     81.1326
  1164.5000     32.5688     -3.0470     31.7622     82.2696
  1164.7500     32.5012     -3.1609     31.8383     82.9486
  1165.0000     32.4646     -3.2794     31.8759     82.7089
  1165.2500     32.5162     -3.4010     31.9015     81.7414
  1165.5000     32.6422     -3.5230     31.9180     80.7839
  1165.7500     32.7348     -3.6417     31.9221     78.7910
  1166.0000     32.6873     -3.7524     31.9196     77.1830
  1166.2500     32.5825     -3.8492     31.9284     74.8725
  1166.5000     32.4914     -3.9257     31.9685     73.7314
