~Version Information
VERS.                      2.0: CWLS Log ASCII Standard - VERSION 2.0
WRAP.                       NO: One line per depth step
~Well Information Block
STRT.FT               529.2000: 
STOP.FT              1325.2000: 
STEP.FT                 0.1000: 
NULL.                -999.2500: 
COMP.          Pioneer Natural Resources: COMPANY
WELL.            Erin 21-15 Tr: WELL
FLD.           Purgatoire River: FIELD
LOC.           1217' FNL & 2284' FWL--: LOCATION
CNTY.               Las Animas: COUNTY
SRVC.                Patterson: SERVICE COMPANY
DATE.          Mon Mar 06 14:26:48 2006: LOG DATE
UWI.           05 071 08712 00: UNIQUE WELL ID
STAT.                 Colorado: STATE
~Curve Information Block
DEPT.FT            0 000 00 00: Depth
DCAL.in                       : CDL Caliper
RHOB.g/cc                     : CDL Bulk Density
RHOC.g/cc                     : CDL Density Correction
DPOR.pu                       : CDL Density Porosity
GR.GAPI                       : Gamma Ray
~Parameter Information Block
~A  Depth       DCAL        RHOB        RHOC        DPOR         GR     
# ...
   585.2000      8.1509      2.1852      0.0499     28.1678    139.1069
   585.3000      8.1566      2.1225      0.0147     31.9695    134.7570
   585.4000      8.1566      2.0792     -0.0111     34.5919    130.5610
   585.5000      8.1317      2.0742     -0.0112     34.8955    130.9346
   585.6000      8.1317      2.1049      0.0680     33.0348    132.5455
   585.7000      8.1317      2.1482      0.0600     30.4124    127.7368
   585.8000      8.0864      2.1924      0.0914     27.7357    116.7109
   585.9000      8.0864      2.2424      0.1522     24.7037    108.7573
   586.0000      8.0474      2.3048      0.1894     20.9199    107.5031
   586.1000      8.0474      2.3795      0.2252     16.3932    108.0484
   586.2000      8.0474      2.4530      0.2625     11.9419    108.0420
   586.3000      8.0208      2.5070      0.2305      8.6663    108.2166
   586.4000      8.0208      2.5362      0.1616      6.8980    108.2000
   586.5000      8.0041      2.5470      0.1229      6.2445    109.4553
   586.6000      8.0041      2.5456      0.0761      6.3278    113.5923
   586.7000      8.0041      2.5402      0.0360      6.6571    115.8812
   586.8000      7.9944      2.5390      0.0649      6.7266    111.0240
   586.9000      7.9944      2.5376      0.0431      6.8111    103.2377
   587.0000      7.9903      2.5291      0.0505      7.3243    101.2345
   587.1000      7.9903      2.5253     -0.0161      7.5578    104.5601
   587.2000      7.9903      2.5450      0.0130      6.3608    108.7093
   587.3000      7.9878      2.5824      0.0589      4.0989    113.3573
   587.4000      7.9878      2.6124      0.0760      2.2786    117.0961
   587.5000      7.9821      2.6210      0.0718      1.7577    117.5675
   587.6000      7.9821      2.6085      0.0996      2.5176    115.2252
   587.7000      7.9821      2.5817      0.0492      4.1367    113.5523
   587.8000      7.9746      2.5501      0.0685      6.0547    114.4334
   587.9000      7.9746      2.5245      0.0097      7.6041    116.8678
   588.0000      7.9700      2.5217     -0.0125      7.7760    117.5383
   588.1000      7.9700      2.5438      0.0057      6.4339    112.5309
   588.2000      7.9700      2.5639      0.0804      5.2164    105.9599
   588.3000      7.9698      2.5527      0.0561      5.8977    105.4539
   588.4000      7.9698      2.5139      0.0373      8.2456    110.7948
   588.5000      7.9707      2.4795     -0.0006     10.3320    116.6357
   588.6000      7.9707      2.4726      0.0042     10.7528    119.0033
   588.7000      7.9707      2.4866      0.0777      9.9039    116.6448
   588.8000      7.9697      2.5055      0.0394      8.7550    110.1707
   588.9000      7.9697      2.5276      0.0740      7.4161    101.8829
   589.0000      7.9660      2.5648      0.0627      5.1651     95.1092
   589.1000      7.9660      2.6286      0.0649      1.2995     95.5430
   589.2000      7.9660      2.7055      0.1836     -3.3627    103.3865
   589.3000      7.9576      2.7604      0.2019     -6.6899    108.6111
   589.4000      7.9576      2.7855      0.1632     -8.2135    104.6908
   589.5000      7.9481      2.8057      0.1321     -9.4376     96.4968
   589.6000      7.9481      2.8373      0.1260    -11.3520     92.3428
   589.7000      7.9481      2.8786      0.1089    -13.8574     93.4104
   589.8000      7.9489      2.9098      0.1203    -15.7475     91.6901
   589.9000      7.9489      2.9086      0.0387    -15.6702     84.9043
   590.0000      7.9634      2.8804     -0.0344    -13.9615     84.2075
   590.1000      7.9634      2.8398     -0.0349    -11.5004     92.7928
   590.2000      7.9634      2.7869     -0.0715     -8.2946    101.2271
   590.3000      7.9888      2.7197     -0.1142     -4.2232    106.1295
   590.4000      7.9888      2.6472     -0.1569      0.1702    109.3201
   590.5000      8.0153      2.5851     -0.1405      3.9319    109.7232
   590.6000      8.0153      2.5389     -0.1380      6.7331    108.3667
   590.7000      8.0153      2.5081     -0.0998      8.6025    110.0404
   590.8000      8.0272      2.4924     -0.1121      9.5532    115.5411
   590.9000      8.0272      2.4795     -0.0756     10.3338    119.8442
   591.0000      8.0252      2.4628     -0.1157     11.3427    118.7037
   591.1000      8.0252      2.4588     -0.0457     11.5852    114.9433
   591.2000      8.0252      2.4774     -0.0017     10.4596    111.6017
   591.3000      8.0166      2.5071      0.0647      8.6601    109.3538
   591.4000      8.0166      2.5266      0.0840      7.4768    111.0478
   591.5000      8.0028      2.5261      0.0742      7.5102    117.3050
   591.6000      8.0028      2.5137      0.0904      8.2615    123.7496
   591.7000      8.0028      2.5010      0.0755      9.0306    126.9253
   591.8000      7.9911      2.4943      0.0860      9.4371    125.8459
   591.9000      7.9911      2.4920      0.0424      9.5729    121.0277
   592.0000      7.9897      2.4880      0.0837      9.8157    115.6931
   592.1000      7.9897      2.4827      0.0305     10.1365    114.7889
   592.2000      7.9897      2.4861      0.0512      9.9345    119.2908
   592.3000      7.9938      2.4960      0.0459      9.3319    123.0908
   592.4000      7.9938      2.5032      0.0701      8.8952    123.7211
   592.5000      7.9920      2.5089      0.0596      8.5542    126.5846
   592.6000      7.9920      2.5101      0.1084      8.4763    133.3230
   592.7000      7.9920      2.4963      0.0715      9.3160    138.6520
   592.8000      7.9847      2.4700      0.0506     10.9105    139.9674
   592.9000      7.9847      2.4479      0.0324     12.2509    136.3212
   593.0000      7.9790      2.4381      0.0621     12.8430    127.7994
   593.1000      7.9790      2.4294      0.0582     13.3667    122.1971
   593.2000      7.9790      2.4146      0.0631     14.2642    124.9454
   593.3000      7.9761      2.4033      0.0252     14.9503    130.8808
   593.4000      7.9761      2.4007      0.0480     15.1111    133.6062
   593.5000      7.9747      2.4000      0.0373     15.1516    130.5171
   593.6000      7.9747      2.3970      0.0211     15.3337    124.4759
   593.7000      7.9747      2.3983      0.0055     15.2548    121.2293
   593.8000      7.9745      2.4161      0.0236     14.1741    121.0467
   593.9000      7.9745      2.4466      0.0707     12.3263    120.4272
   594.0000      7.9743      2.4738      0.1044     10.6802    119.5428
   594.1000      7.9743      2.4896      0.1035      9.7235    119.6451
   594.2000      7.9743      2.4904      0.1123      9.6717    119.8416
   594.3000      7.9748      2.4814      0.0572     10.2159    120.6900
   594.4000      7.9748      2.4755      0.1278     10.5760    121.4661
   594.5000      7.9758      2.4754      0.0766     10.5818    119.4290
   594.6000      7.9758      2.4771      0.0707     10.4769    117.4159
   594.7000      7.9758      2.4759      0.0579     10.5495    120.3691
   594.8000      7.9758      2.4744      0.0015     10.6440    124.7403
   594.9000      7.9758      2.4784      0.0169     10.4020    122.7804
   595.0000      7.9755      2.4808      0.0500     10.2520    113.3903
   595.1000      7.9755      2.4782      0.0140     10.4143    104.0240
   595.2000      7.9755      2.4769      0.0432     10.4917    102.4218
   595.3000      7.9739      2.4762      0.0174     10.5330    107.4030
   595.4000      7.9739      2.4723      0.0149     10.7702    112.1396
   595.5000      7.9718      2.4595      0.0241     11.5460    112.8381
   595.6000      7.9718      2.4329      0.0136     13.1600    111.8597
   595.7000      7.9718      2.4007     -0.0093     15.1078    114.3353
   595.8000      7.9710      2.3751      0.0193     16.6590    122.0289
   595.9000      7.9710      2.3553     -0.0167     17.8626    129.8126
   596.0000      7.9693      2.3398     -0.0217     18.8024    132.2595
   596.1000      7.9693      2.3262      0.0054     19.6269    130.2208
   596.2000      7.9693      2.3118      0.0055     20.4952    126.3926
   596.3000      7.9637      2.3081      0.0036     20.7189    121.3560
