~Version Information
VERS.                      2.0: CWLS Log ASCII Standard - VERSION 2.0
WRAP.                       NO: One line per depth step
~Well Information Block
STRT.FT               370.0000: 
STOP.FT              2832.5000: 
STEP.FT                 0.1000: 
NULL.                -999.2500: 
COMP.          Pioneer Natural Resources: COMPANY
WELL.          Black Cat 13-32: WELL
FLD.           Purgatoire River: FIELD
LOC.           1865' FSL & 1120' FWL--: LOCATION
PROV.                 Colorado: PROVINCE
CNTY.               Las Animas: COUNTRY
SRVC.                Patterson: SERVICE COMPANY
DATE.          Sun Jul 31 08:38:44 2005: LOG DATE
UWI.           05 071 08450 00: UNIQUE WELL ID
~Curve Information Block
DEPT.FT            0 000 00 00: Depth
DCAL.in                       : CDL Caliper
DPOR.pu                       : CDL Density Porosity
NPOR.pu                       : Neutron Porosity
RHOB.g/cc                     : CDL Bulk Density
RHOC.g/cc                     : CDL Density Correction
GR.GAPI                       : Gamma Ray
~Parameter Information Block
~A  Depth       DCAL        DPOR        NPOR        RHOB        RHOC         GR     
# ...
  1445.2000      7.9152     10.1034     30.5402      2.4833      0.0241    161.3812
  1445.3000      7.9154     11.7047     30.9008      2.4569     -0.0122    157.6560
  1445.4000      7.9154     12.2431     30.6530      2.4480      0.0246    147.7976
  1445.5000      7.9141     11.4463     29.8001      2.4611      0.0263    138.5081
  1445.6000      7.9141      9.9688     28.9688      2.4855      0.0433    131.4266
  1445.7000      7.9141      8.9319     28.5930      2.5026      0.1131    126.2794
  1445.8000      7.9122      8.8114     28.0798      2.5046      0.0792    126.7790
  1445.9000      7.9122      8.9284     27.4559      2.5027      0.0989    131.2187
  1446.0000      7.9109      8.5549     27.4214      2.5088      0.1187    130.5597
  1446.1000      7.9109      7.1937     27.7196      2.5313      0.1085    122.4753
  1446.2000      7.9109      5.0588     27.7285      2.5665      0.1256    115.2496
  1446.3000      7.9094      3.3060     27.3221      2.5955      0.0995    114.7487
  1446.4000      7.9094      2.5847     26.9244      2.6074      0.1090    116.3461
  1446.5000      7.9092      2.6639     26.8513      2.6060      0.0960    114.2718
  1446.6000      7.9092      2.9684     26.8443      2.6010      0.0569    112.3130
  1446.7000      7.9092      2.9857     26.8673      2.6007      0.0843    113.4953
  1446.8000      7.9113      2.6254     26.9810      2.6067      0.0611    114.0426
  1446.9000      7.9113      1.8761     27.0623      2.6190      0.0623    112.8396
  1447.0000      7.9121      0.8413     27.0197      2.6361      0.0694    115.0160
  1447.1000      7.9121      0.0843     26.8063      2.6486      0.0845    118.0313
  1447.2000      7.9121     -0.0869     26.5992      2.6514      0.0691    115.5678
  1447.3000      7.9107      0.0573     26.7220      2.6491      0.0487    113.8607
  1447.4000      7.9107      0.4414     26.8066      2.6427      0.0607    117.9588
  1447.5000      7.9090      1.1337     26.0981      2.6313      0.0816    122.9986
  1447.6000      7.9090      1.6029     24.9544      2.6236      0.0400    126.1702
  1447.7000      7.9090      1.4848     24.3199      2.6255      0.0647    127.1973
  1447.8000      7.9107      1.9299     24.2319      2.6182      0.1296    124.6615
  1447.9000      7.9107      3.5847     23.9364      2.5909      0.0416    117.4490
  1448.0000      7.9138      4.9502     23.3046      2.5683      0.0329    109.2608
  1448.1000      7.9138      4.5314     23.0018      2.5752      0.0516    106.4227
  1448.2000      7.9138      2.2836     23.2181      2.6123      0.0358    111.0272
  1448.3000      7.9133     -0.2530     23.3048      2.6542      0.1108    117.8628
  1448.4000      7.9133     -0.8685     23.0697      2.6643      0.1198    121.0931
  1448.5000      7.9111      0.5952     22.9703      2.6402      0.0760    120.6219
  1448.6000      7.9111      2.3886     23.0116      2.6106      0.0534    117.8723
  1448.7000      7.9111      3.1998     23.0402      2.5972      0.0205    112.9619
  1448.8000      7.9100      2.9066     23.0015      2.6020      0.0524    107.0661
  1448.9000      7.9100      2.3153     22.8067      2.6118      0.0599    103.8683
  1449.0000      7.9137      1.9329     22.7380      2.6181      0.0209    106.1804
  1449.1000      7.9137      1.5785     22.8676      2.6240      0.0337    109.0429
  1449.2000      7.9137      1.4125     22.5216      2.6267      0.0298    105.9960
  1449.3000      7.9219      1.5091     21.7656      2.6251      0.0431    100.9508
  1449.4000      7.9219      1.5547     21.4049      2.6243      0.0050    101.2633
  1449.5000      7.9255      1.3846     21.1982      2.6272      0.0356    109.1491
  1449.6000      7.9255      0.8634     20.5692      2.6358      0.0223    120.8600
  1449.7000      7.9255     -0.1564     19.8721      2.6526      0.0545    131.3089
  1449.8000      7.9199     -1.1806     19.7956      2.6695      0.0386    133.2716
  1449.9000      7.9199     -1.2785     20.2482      2.6711      0.1000    120.2051
  1450.0000      7.9128      0.0167     20.5399      2.6497      0.0727    101.2590
  1450.1000      7.9128      1.9457     20.4825      2.6179      0.0383     91.0833
  1450.2000      7.9128      3.1719     20.3414      2.5977      0.0386     90.9172
  1450.3000      7.9073      2.8733     20.1699      2.6026     -0.0034     94.4683
  1450.4000      7.9073      1.4631     20.0791      2.6259      0.0686     98.5814
  1450.5000      7.9011      0.5201     20.4355      2.6414      0.0720    102.1909
  1450.6000      7.9011      0.9274     21.2802      2.6347      0.0469    103.6008
  1450.7000      7.9011      1.7437     21.9757      2.6212     -0.0016    102.9517
  1450.8000      7.8988      1.4469     22.0099      2.6261      0.0286    102.8124
  1450.9000      7.8988      0.1698     21.6827      2.6472      0.0707    102.5541
  1451.0000      7.9042     -0.6475     21.2346      2.6607      0.0860     98.6812
  1451.1000      7.9042     -0.5613     20.6870      2.6593      0.0478     93.8049
  1451.2000      7.9042      0.0268     20.3644      2.6496      0.0429     96.0034
  1451.3000      7.9099      0.9427     20.3902      2.6344      0.0337    105.3150
  1451.4000      7.9099      1.5996     20.4384      2.6236      0.0353    111.8641
  1451.5000      7.9103      1.2551     20.4115      2.6293      0.0588    109.3718
  1451.6000      7.9103      0.2707     20.3652      2.6455      0.0616    101.4312
  1451.7000      7.9103     -0.5152     20.1261      2.6585      0.0551     94.7667
  1451.8000      7.9109     -0.6904     19.8345      2.6614      0.0482     92.1674
  1451.9000      7.9109     -0.2803     19.9673      2.6546      0.0363     93.8147
  1452.0000      7.9124      0.0377     20.4450      2.6494      0.0339     95.8354
  1452.1000      7.9124     -0.3137     20.8895      2.6552      0.0327     94.3369
  1452.2000      7.9124     -0.6872     21.3270      2.6613      0.0710     91.1916
  1452.3000      7.9117     -0.2451     21.7600      2.6540      0.0259     90.0553
  1452.4000      7.9117      0.4520     21.9608      2.6425      0.0047     90.6631
  1452.5000      7.9107      0.4805     21.8174      2.6421      0.0316     89.4816
  1452.6000      7.9107     -0.1613     21.4643      2.6527      0.0607     86.0146
  1452.7000      7.9107     -0.3297     21.1838      2.6554      0.0798     86.4674
  1452.8000      7.9099      0.9037     21.2388      2.6351      0.0064     93.9090
  1452.9000      7.9099      2.5904     21.4101      2.6073     -0.0060    100.6650
  1453.0000      7.9086      3.3532     21.3202      2.5947      0.0212     99.1176
  1453.1000      7.9086      2.9472     20.9743      2.6014      0.0613     91.3749
  1453.2000      7.9086      1.7727     20.4114      2.6208      0.0526     84.6798
  1453.3000      7.9067      0.3251     19.5655      2.6446      0.0845     81.9911
  1453.4000      7.9067     -0.8691     18.6416      2.6643      0.0687     80.7680
  1453.5000      7.9068     -1.1476     17.8554      2.6689      0.1070     78.9057
  1453.6000      7.9068      0.0464     17.1827      2.6492      0.0665     74.7493
  1453.7000      7.9068      2.1079     16.7818      2.6152      0.0286     70.2672
  1453.8000      7.9086      3.5063     16.4598      2.5921      0.0074     67.6112
  1453.9000      7.9086      3.3500     15.8210      2.5947      0.0236     64.7817
  1454.0000      7.9099      2.4152     15.4040      2.6101      0.0588     62.7474
  1454.1000      7.9099      2.0332     15.7516      2.6165      0.0527     62.7966
  1454.2000      7.9099      2.1690     16.1587      2.6142      0.0269     63.9432
  1454.3000      7.9106      1.9852     16.0326      2.6172      0.0249     65.3736
  1454.4000      7.9106      1.6013     16.0275      2.6236      0.0542     65.2791
  1454.5000      7.9078      1.5566     16.4528      2.6243      0.0296     63.3713
  1454.6000      7.9078      2.0089     16.7862      2.6169      0.0697     61.6594
  1454.7000      7.9078      3.2069     16.9058      2.5971      0.0475     60.7182
