~Version Information
 VERS.                                  2.0 : CWLS LAS VERSION
 WRAP.                                   NO : WRAPING MODE
 SWARE .                 MController 2.5.0J : SOFTWARE VERSION
~Well Information
 WELL.                Lorencito 15-36-33-67 : WELL
 COMP.    Pioneer Natural Resources USA Inc : COMPANY
 FLD.                      Purgatoire River : FIELD
 LOC.                 SW/SE Sec36 T33S R67W : LOCATION
 DATE.                             10/12/05 : DATE(S) LOGGED
 SRVC.       Blanco Geological Services LLC : SERVICE COMPANY
 STAT.                             Colorado : STATE
 CNTY.                            Las Animas : COUNTY
 CTRY.                                  USA : COUNTRY
 API.                       05-071-08515-00 : API NUMBER
 STRT.FT                             723.00 : START DEPTH
 STOP.FT                            1975.00 : STOP DEPTH
 STEP.FT                               1.00 : DEPTH INCREMENT
 NULL.                                -9999 : NULL VALUE
~Curve information
 DEPTH.FT                                   :
 ROP.MIN/FT                                 :
 GAS.UNITS                                  :
~ASCII Log data
# ...
       923.0         0.23          6.4 
       924.0         0.23          5.8 
       925.0         0.27          5.6 
       926.0         0.80          6.0 
       927.0         0.27          5.7 
       928.0         0.10          5.8 
       929.0         0.08          5.7 
       930.0         0.53          5.5 
       931.0         0.33          6.0 
       932.0         0.27          6.2 
       933.0         0.30          7.0 
       934.0         0.30          7.8 
       935.0         0.17          7.8 
       936.0         0.10          7.9 
       937.0         0.17          7.8 
       938.0         0.23          7.6 
       939.0         0.23          7.1 
       940.0         0.23          6.5 
       941.0         0.20          6.9 
       942.0         0.25          7.5 
       943.0         0.23          8.8 
       944.0         0.20          8.9 
       945.0         0.27          8.3 
       946.0         0.20          8.1 
       947.0         0.23          7.8 
       948.0         0.20          7.4 
       949.0         0.23          7.3 
       950.0         0.23          7.3 
       951.0         0.23          6.8 
       952.0         0.23          6.9 
       953.0         0.23          6.5 
       954.0         0.23          6.8 
       955.0         0.27          6.4 
       956.0         1.48          6.3 
       957.0         0.07          6.3 
       958.0         0.47          6.6 
       959.0         0.37          6.1 
       960.0         0.27          6.5 
       961.0         0.27          7.3 
       962.0         0.30          7.8 
       963.0         0.23          8.9 
       964.0         0.25          8.6 
       965.0         0.23          8.1 
       966.0         0.20          7.7 
       967.0         0.13          7.4 
       968.0         0.10          7.3 
       969.0         0.17          7.1 
       970.0         0.17          7.1 
       971.0         0.20          6.5 
       972.0         0.23          6.4 
       973.0         0.20          6.1 
       974.0         0.37          9.2 
       975.0         0.33         11.3 
       976.0         0.30         11.8 
       977.0         0.27         10.3 
       978.0         0.23          9.6 
       979.0         0.32          8.8 
       980.0         0.20          7.8 
       981.0         0.27          7.5 
       982.0         0.23          7.1 
       983.0         0.23          6.8 
       984.0         0.17          6.8 
       985.0         0.23          6.4 
       986.0         1.53          5.9 
       987.0         0.17          6.0 
       988.0         0.10          6.1 
       989.0         0.38          6.5 
       990.0         0.37          6.7 
       991.0         0.43          8.3 
       992.0         0.50         10.3 
       993.0         0.37         10.0 
       994.0         0.33          8.9 
       995.0         0.30          8.5 
       996.0         0.27          7.5 
       997.0         0.23          7.6 
       998.0         0.20          7.0 
       999.0         0.18          6.6 
      1000.0         0.27          6.8 
      1001.0         0.20          6.6 
      1002.0         0.17          6.7 
      1003.0         0.17          6.5 
      1004.0         0.30          6.2 
      1005.0         0.30          6.1 
      1006.0         0.27          6.6 
      1007.0         0.17          6.3 
      1008.0         0.17          6.3 
      1009.0         0.17          6.5 
      1010.0         0.17          6.4 
      1011.0         0.13          6.2 
      1012.0         0.10          5.9 
      1013.0         0.27          6.4 
      1014.0         0.23          6.4 
      1015.0         0.25          6.3 
      1016.0         2.53         12.8 
      1017.0         0.17         12.9 
      1018.0         0.27         13.2 
      1019.0         0.42         14.9 
      1020.0         0.27         17.5 
      1021.0         0.40         20.7 
      1022.0         0.23         21.5 
      1023.0         0.33         21.8 
      1024.0         0.23         20.1 
      1025.0         0.23         18.5 
      1026.0         0.23         16.6 
      1027.0         0.20         15.5 
      1028.0         0.20         14.0 
      1029.0         0.20         13.2 
      1030.0         0.20         12.6 
      1031.0         0.23         11.6 
      1032.0         0.20         10.6 
      1033.0         0.22         10.0 
      1034.0         0.20         10.1 
      1035.0         0.20          9.6 
      1036.0         0.30          9.1 
      1037.0         0.20          8.7 
      1038.0         0.23          9.4 
      1039.0         0.37          8.4 
      1040.0         0.17          8.6 
      1041.0         0.20          8.1 
      1042.0         0.23          7.8 
      1043.0         0.30          8.5 
      1044.0         0.20          7.9 
      1045.0         0.30          8.0 
      1046.0         2.42          8.3 
      1047.0         0.37          9.6 
      1048.0         0.30         11.1 
      1049.0         0.23         13.9 
      1050.0         0.20         15.0 
      1051.0         0.22         16.4 
      1052.0         0.37         17.1 
      1053.0         0.40         15.3 
      1054.0         0.33         13.3 
      1055.0         0.43         11.1 
      1056.0         0.27          9.6 
      1057.0         0.30          8.6 
      1058.0         0.27          8.4 
      1059.0         0.23          8.0 
      1060.0         0.20          7.8 
      1061.0         0.33          7.3 
      1062.0         0.35          7.4 
      1063.0         0.33          7.5 
      1064.0         0.27          7.2 
      1065.0         0.20          7.0 
      1066.0         0.17          7.2 
      1067.0         0.13          7.1 
      1068.0         0.23          6.9 
      1069.0         0.20          6.7 
      1070.0         0.17          6.8 
      1071.0         0.13          6.7 
      1072.0         0.30          6.9 
      1073.0         0.23          6.9 
      1074.0         0.17          6.9 
      1075.0         0.30          7.2 
      1076.0         2.22          7.1 
      1077.0         0.10          7.0 
      1078.0         0.43          7.0 
      1079.0         0.20          7.7 
      1080.0         0.37          8.9 
      1081.0         0.30         10.1 
      1082.0         0.28         12.0 
      1083.0         0.20         12.3 
      1084.0         0.20         12.3 
      1085.0         0.17         12.2 
      1086.0         0.17         11.8 
      1087.0         0.17         12.0 
      1088.0         0.13         11.2 
      1089.0         0.17         10.8 
      1090.0         0.23         10.4 
      1091.0         0.17         10.0 
      1092.0         0.20          9.3 
      1093.0         0.17          8.5 
      1094.0         0.23          7.9 
      1095.0         0.27         11.1 
      1096.0         0.23         10.6 
      1097.0         0.23          9.4 
      1098.0         0.25          8.1 
      1099.0         0.20          7.3 
      1100.0         0.23          7.1 
      1101.0         0.13          7.6 
      1102.0         0.17          7.6 
      1103.0         0.30          7.9 
      1104.0         0.23          8.3 
      1105.0         0.17          8.1 
      1106.0         1.60          7.7 
      1107.0         0.25          7.6 
      1108.0         0.50          7.0 
      1109.0         0.33          7.1 
      1110.0         0.37          7.4 
      1111.0         0.20          7.6 
      1112.0         0.20          7.3 
      1113.0         0.33          7.9 
      1114.0         0.30          8.4 
      1115.0         0.23          8.8 
      1116.0         0.63          9.3 
      1117.0         0.25          8.1 
      1118.0         0.20          8.4 
      1119.0         0.27          7.9 
      1120.0         0.20          7.7 
      1121.0         0.17          8.2 
      1122.0         0.20          7.6 
