~Version Information
VERS.                      2.0: CWLS Log ASCII Standard - VERSION 2.0
WRAP.                       NO: One line per depth step
~Well Information Block
STRT.FT                -7.5000: 
STOP.FT               988.5000: 
STEP.FT                 0.2500: 
NULL.                -999.2500: 
COMP.          Pioneer Natural Resources: COMPANY
WELL.          Stags Leap 13-30: WELL
FLD.           Purgatorie River: FIELD
LOC.           1813' FSL & 117' FWL--: LOCATION
PROV.                       CO: PROVINCE
CNTY.               Las Animas: COUNTRY
SRVC.          Patterson Wireline: SERVICE COMPANY
DATE.          Tue Dec 13 11:29:26 2005: LOG DATE
UWI.           05 071 08595 00: UNIQUE WELL ID
~Curve Information Block
DEPT.FT            0 000 00 00: Depth
CCL.                          : Casing Collar Locator
TT3.usec                      : CBL 3' Travel Time
AMP3.mV                       : CBL 3' Amplitude
GR.GAPI                       : Gamma Ray
~Parameter Information Block
~A  Depth       CCL         TT3         AMP3         GR     
# ...
   327.5000      0.0000    821.2346     10.4446     87.3532
   327.7500      0.0000    828.4661     10.4370     84.0196
   328.0000      0.0000    839.4775     10.4043     82.5349
   328.2500      0.0000    850.4971     10.3579     84.8426
   328.5000      0.0000    858.0785     10.3022     91.0714
   328.7500      0.0000    860.4857     10.2544     98.6878
   329.0000      0.0000    857.1030     10.2445    104.1706
   329.2500      0.0000    847.6669     10.2944    105.6408
   329.5000      0.0000    833.6013     10.4022    103.8346
   329.7500      0.0000    819.5395     10.5532    100.6827
   330.0000      0.0000    811.3181     10.7330     97.5187
   330.2500      0.0000    811.3559     10.9269     95.0827
   330.5000      0.0000    816.5997     11.1150     94.4716
   330.7500      0.0000    821.2489     11.2721     96.7691
   331.0000      0.0000    820.9785     11.3722    101.7029
   331.2500      0.0000    815.1589     11.3986    107.6490
   331.5000      0.0000    806.6202     11.3586    112.9575
   331.7500      0.0000    799.5327     11.2852    116.5964
   332.0000      0.0000    796.7645     11.2198    117.9206
   332.2500      0.0000    799.0015     11.1900    116.7911
   332.5000      0.0000    805.6368     11.1978    113.8430
   332.7500      0.0000    815.0661     11.2213    110.1236
   333.0000      0.0000    824.5243     11.2265    106.6424
   333.2500      0.0000    831.3958     11.1886    104.4484
   333.5000      0.0000    834.8813     11.1125    104.5946
   333.7500      0.0000    835.7654     11.0284    107.5503
   334.0000      0.0000    834.8889     10.9616    112.8476
   334.2500      0.0000    832.1223     10.9048    119.4721
   334.5000      0.0000    826.6409     10.8226    126.3152
   334.7500      0.0000    818.3871     10.6821    132.2694
   335.0000      0.0000    809.6041     10.4809    136.4484
   335.2500      0.0000    804.2286     10.2493    138.5289
   335.5000      0.0000    804.7386     10.0245    138.7509
   335.7500      0.0000    809.8720      9.8229    137.7802
   336.0000      0.0000    816.0499      9.6383    136.7704
   336.2500      0.0000    820.6046      9.4646    137.2639
   336.5000      0.0000    823.0000      9.3092    140.5262
   336.7500      0.0000    823.4853      9.1847    146.5732
   337.0000      0.0000    821.8440      9.0951    153.6800
   337.2500      0.0000    818.0355      9.0377    159.1623
   337.5000      0.0000    813.2996      9.0149    161.0758
   337.7500      0.0000    809.5374      9.0376    159.2627
   338.0000      0.0000    807.5475      9.1169    154.8967
   338.2500      0.0000    806.6306      9.2538    149.2338
   338.5000      0.0000    806.2162      9.4367    142.6276
   338.7500      0.0000    807.2216      9.6435    134.5634
   339.0000      0.0000    811.0790      9.8410    124.8749
   339.2500      0.0000    817.4896      9.9909    114.8964
   339.5000      0.0000    824.1794     10.0664    107.0584
   339.7500      0.0000    830.2739     10.0667    103.3283
   340.0000      0.0000    839.4671     10.0142    104.1981
   340.2500      0.0000    857.0621      9.9374    108.7079
   340.5000      0.0000    882.3759      9.8595    114.8720
   340.7500      0.0000    906.3744      9.7972    120.4071
   341.0000      0.0000    918.7395      9.7605    123.8501
   341.2500      0.0000    915.8133      9.7419    125.3652
   341.5000      0.0000    900.7468      9.7059    126.3987
   341.7500      0.0000    878.7408      9.6059    128.5122
   342.0000      0.0000    854.4521      9.4218    132.5251
   342.2500      0.0000    832.0441      9.1723    138.4500
   342.5000      0.0000    814.6785      8.8846    145.7262
   342.7500      0.0000    803.4210      8.5641    153.4003
   343.0000      0.0000    797.2789      8.2035    160.2768
   343.2500      0.0000    794.3710      7.8179    164.9941
   343.5000      0.0000    793.0616      7.4705    166.4884
   343.7500      0.0000    792.4349      7.2620    165.1497
   344.0000      0.0000    792.1997      7.2788    163.1642
   344.2500      0.0000    792.4257      7.5347    162.6285
   344.5000      0.0000    793.3802      7.9595    163.1080
   344.7500      0.0000    795.4915      8.4439    161.7011
   345.0000      0.0000    799.1516      8.8974    155.9451
   345.2500      0.0000    804.3926      9.2821    146.7436
   345.5000      0.0000    810.6006      9.6165    138.2480
   345.7500      0.0000    816.3632      9.9603    134.7146
   346.0000      0.0000    819.4908     10.3898    137.3020
   346.2500      0.0000    817.9758     10.9738    143.5175
   346.5000      0.0000    812.1009     11.7466    149.3226
   346.7500      0.0000    805.5673     12.6676    151.9155
   347.0000      0.0000    803.2956     13.5934    151.1840
   347.2500      0.0000    807.3712     14.3185    148.9587
   347.5000      0.0000    815.5032     14.6840    147.0100
   347.7500      0.0000    823.5352     14.6632    145.9921
   348.0000      0.0000    828.7029     14.3498    146.0909
   348.2500      0.0000    830.3309     13.8777    147.6413
   348.5000      0.0000    828.5210     13.3471    150.4646
   348.7500      0.0000    823.1873     12.8042    153.3493
   349.0000      0.0000    814.3173     12.2657    155.2150
   349.2500      0.0000    802.7516     11.7487    156.6003
   349.5000      0.0000    790.6118     11.2739    158.9927
   349.7500      0.0000    781.0602     10.8523    162.5836
   350.0000      0.0000    777.0024     10.4831    165.4717
   350.2500      0.0000    778.9279     10.1694    165.2667
   350.5000      0.0000    783.6431      9.9318    160.9189
   350.7500      0.0000    785.7549      9.8008    153.0529
   351.0000      0.0000    781.4681      9.7956    143.2394
   351.2500      0.0000    772.0140      9.9063    133.2099
   351.5000      0.0000    763.5333     10.0970    124.3668
   351.7500      0.0000    762.4665     10.3253    117.3719
   352.0000      0.0000    770.2222     10.5624    111.8860
   352.2500      0.0000    782.3413     10.7941    106.9433
   352.5000      0.0000    792.3157     11.0058    101.7795
   352.7500      0.0000    795.5479     11.1661     96.1422
   353.0000      0.0000    790.6212     11.2313     90.1326
   353.2500      0.0000    778.9543     11.1722     84.4374
   353.5000      0.0000    764.0721     11.0011     80.4431
   353.7500      0.0000    750.0710     10.7701     79.4032
   354.0000      0.0000    739.3979     10.5393     81.8564
   354.2500      0.0000    731.7191     10.3403     88.1982
   354.5000      0.0000    725.1641     10.1668     98.8580
   354.7500      0.0000    718.6545      9.9965    113.1400
   355.0000      0.0000    712.7672      9.8190    128.4448
   355.2500      0.0000    708.5701      9.6430    141.2626
   355.5000      0.0000    706.3214      9.4849    148.7637
   355.7500      0.0000    705.4147      9.3554    149.5957
   356.0000      0.0000    705.0727      9.2559    144.1469
   356.2500      0.0000    704.8133      9.1834    134.6979
   356.5000      0.0000    704.4769      9.1338    124.8489
   356.7500      0.0000    704.0856      9.1063    117.8998
   357.0000      0.0000    703.7148      9.1064    115.3176
   357.2500      0.0000    703.4318      9.1358    116.4402
   357.5000      0.0000    703.3184      9.1729    119.3333
   357.7500      0.0000    703.5408      9.1705    122.1787
   358.0000      0.0000    704.4022      9.0857    124.4588
   358.2500      0.0000    706.1727      8.9064    126.8828
   358.5000      0.0000    708.5676      8.6436    130.0037
   358.7500      0.0000    710.3386      8.3076    133.2224
   359.0000      0.0000    709.9453      7.9020    135.3045
   359.2500      0.0000    707.4564      7.4343    135.2689
   359.5000      0.0000    705.8631      6.9269    132.4753
   359.7500      0.0000    709.7068      6.4221    126.7439
   360.0000      0.0000    721.8694      5.9768    119.1804
   360.2500      0.0000    742.1100      5.6500    112.3073
   360.5000      0.0000    768.6580      5.4972    108.4199
   360.7500      0.0000    799.5370      5.5547    107.7887
