~Version Information
 VERS.                                  2.0 : CWLS LAS VERSION
 WRAP.                                   NO : WRAPING MODE
 SWARE .                 MController 2.5.0J : SOFTWARE VERSION
~Well Information
 WELL.                     DAYTONA 31-14 TR : WELL
 COMP.    PIONEER NATURAL RESOURCES USA INC : COMPANY
 FLD.                      PURGATOIRE RIVER : FIELD
 LOC.                NW/NE SEC 14 T33S R67W : LOCATION
 DATE.                             01/27/06 : DATE(S) LOGGED
 SRVC.       BLANCO GEOLOGICAL SERVICES LLC : SERVICE COMPANY
 STAT.                             COLORADO : STATE
 CNTY.                           LAS ANIMAS : COUNTY
 CTRY.                                  USA : COUNTRY
 API.                       05-071-08681-00 : API NUMBER
 STRT.FT                             385.00 : START DEPTH
 STOP.FT                            1587.00 : STOP DEPTH
 STEP.FT                               1.00 : DEPTH INCREMENT
 NULL.                                -9999 : NULL VALUE
~Curve information
 DEPTH.FT                                   :
 ROP.MIN/FT                                 :
 GAS.UNITS                                  :
~ASCII Log data
# ...
       985.0         0.17          1.6 
       986.0         2.42          6.6 
       987.0         0.33          2.2 
       988.0         0.33          8.0 
       989.0         0.30         12.6 
       990.0         0.23         16.1 
       991.0         0.28         19.2 
       992.0         0.27         17.7 
       993.0         0.63         23.6 
       994.0         0.30         13.3 
       995.0         0.20          4.5 
       996.0         0.23          7.0 
       997.0         0.23          5.0 
       998.0         0.13          8.9 
       999.0         0.13          8.8 
      1000.0         0.13          4.8 
      1001.0         0.30          5.3 
      1002.0         0.30          2.7 
      1003.0         0.20          2.9 
      1004.0         0.28          3.8 
      1005.0         0.20          3.0 
      1006.0         0.27          2.1 
      1007.0         0.33          2.0 
      1008.0         0.30          3.3 
      1009.0         0.27          2.9 
      1010.0         0.57          2.6 
      1011.0         0.33          2.1 
      1012.0         0.23          1.9 
      1013.0         0.23          1.6 
      1014.0         0.30          1.9 
      1015.0         0.25          1.7 
      1016.0         2.33          3.0 
      1017.0         0.30          2.1 
      1018.0         0.20          2.6 
      1019.0         0.20         13.4 
      1020.0         0.17         12.3 
      1021.0         0.25         15.3 
      1022.0         0.27          9.3 
      1023.0         0.30          8.5 
      1024.0         0.30          6.4 
      1025.0         0.30          3.2 
      1026.0         0.27          2.8 
      1027.0         0.30          3.2 
      1028.0         0.33          2.8 
      1029.0         0.27          6.5 
      1030.0         0.30          6.2 
      1031.0         0.33          5.6 
      1032.0         0.28          6.7 
      1033.0         0.30          8.0 
      1034.0         0.23          8.6 
      1035.0         0.27          5.4 
      1036.0         0.27          4.7 
      1037.0         0.23          5.3 
      1038.0         0.23          4.8 
      1039.0         0.27          2.6 
      1040.0         0.30          1.6 
      1041.0         0.27          1.6 
      1042.0         0.20          1.5 
      1043.0         0.20          1.9 
      1044.0         0.27          1.9 
      1045.0         0.28          1.8 
      1046.0         7.43          3.5 
      1047.0         0.47          4.7 
      1048.0         0.27         19.7 
      1049.0         0.27         25.9 
      1050.0         0.23         32.1 
      1051.0         0.23         95.9 
      1052.0         0.37        118.7 
      1053.0         0.27         95.7 
      1054.0         0.30         80.0 
      1055.0         0.38         72.5 
      1056.0         0.27          7.1 
      1057.0         0.23          3.1 
      1058.0         0.33          4.5 
      1059.0         0.30          4.0 
      1060.0         0.37         12.1 
      1061.0         0.20          7.0 
      1062.0         0.27          5.7 
      1063.0         0.23          6.2 
      1064.0         0.37          6.0 
      1065.0         0.30          3.8 
      1066.0         0.22          4.5 
      1067.0         0.27          4.0 
      1068.0         0.17          2.8 
      1069.0         0.20          0.9 
      1070.0         0.20          0.8 
      1071.0         0.27          1.0 
      1072.0         0.23          1.2 
      1073.0         0.23          0.8 
      1074.0         0.17          1.2 
      1075.0         0.30          1.0 
      1076.0        15.38          2.4 
      1077.0         2.43         45.0 
      1078.0         0.28         17.5 
      1079.0         0.23         22.0 
      1080.0         0.20         26.6 
      1081.0         0.13         30.5 
      1082.0         0.13         38.6 
      1083.0         0.17         28.9 
      1084.0         0.13         13.1 
      1085.0         0.17          9.9 
      1086.0         0.13          9.7 
      1087.0         0.10         14.5 
      1088.0         0.20         14.5 
      1089.0         0.20          8.9 
      1090.0         0.20         10.6 
      1091.0         0.17          4.2 
      1092.0         0.13          4.5 
      1093.0         0.17          3.4 
      1094.0         0.17          3.0 
      1095.0         0.33          3.1 
      1096.0         0.92          6.5 
      1097.0         0.33          3.7 
      1098.0         0.30          3.2 
      1099.0         0.23          3.2 
      1100.0         0.30          4.2 
      1101.0         0.23          4.9 
      1102.0         0.33          6.5 
      1103.0         0.73          2.8 
      1104.0         0.42          1.7 
      1105.0         0.33          1.6 
      1106.0         2.77         10.8 
      1107.0         0.22          9.8 
      1108.0         0.20         11.0 
      1109.0         0.13          9.6 
      1110.0         0.17         12.1 
      1111.0         0.17         11.6 
      1112.0         0.23         13.6 
      1113.0         0.17         12.3 
      1114.0         0.20         11.5 
      1115.0         0.23         11.2 
      1116.0         0.23          5.9 
      1117.0         0.17          8.8 
      1118.0         0.23          8.4 
      1119.0         0.23          7.2 
      1120.0         0.30          5.6 
      1121.0         0.23          7.8 
      1122.0         0.20          6.4 
      1123.0         0.25          4.2 
      1124.0         0.30          3.8 
      1125.0         0.20          3.0 
      1126.0         0.23          2.9 
      1127.0         0.23          3.7 
      1128.0         0.23          3.2 
      1129.0         0.20          2.7 
      1130.0         0.33          2.3 
      1131.0         0.23          1.6 
      1132.0         0.23          1.8 
      1133.0         0.23          1.8 
      1134.0         0.20          1.8 
      1135.0         0.17          2.0 
      1136.0         3.02          9.4 
      1137.0         0.33          5.3 
      1138.0         0.33          7.3 
      1139.0         0.25         16.4 
      1140.0         0.17         33.1 
      1141.0         0.13         30.6 
      1142.0         0.13         18.3 
      1143.0         0.13         11.7 
      1144.0         0.10         12.3 
      1145.0         0.13          8.9 
      1146.0         0.17          7.0 
      1147.0         0.20          7.8 
      1148.0         0.27          8.2 
      1149.0         0.37          5.6 
      1150.0         0.17          6.3 
      1151.0         0.17          6.5 
      1152.0         0.20          5.6 
      1153.0         0.17          3.4 
      1154.0         0.20          3.9 
      1155.0         0.17          4.0 
      1156.0         0.17          2.8 
      1157.0         0.18          2.9 
      1158.0         0.20          3.1 
      1159.0         0.23          5.3 
      1160.0         0.23          5.8 
      1161.0         0.23          5.8 
      1162.0         0.40          4.5 
      1163.0         0.23          1.6 
      1164.0         0.37          1.8 
      1165.0         0.33          2.0 
      1166.0         2.82          2.9 
      1167.0         0.37          6.3 
      1168.0         0.30          6.1 
      1169.0         0.30          7.7 
      1170.0         0.23          9.7 
      1171.0         0.30          9.7 
      1172.0         0.32         10.1 
      1173.0         0.13         11.4 
      1174.0         0.17          9.9 
      1175.0         0.17          4.9 
      1176.0         0.13          6.4 
      1177.0         0.17          5.9 
      1178.0         0.13          4.0 
      1179.0         0.17          4.1 
      1180.0         0.23          4.8 
      1181.0         0.20          5.7 
      1182.0         0.23          4.2 
      1183.0         0.27          2.5 
      1184.0         0.23          0.5 
