~Version Information
VERS.                      2.0: CWLS Log ASCII Standard - VERSION 2.0
WRAP.                       NO: One line per depth step
~Well Information Block
STRT.FT                 0.0000: 
STOP.FT               816.5000: 
STEP.FT                 0.1000: 
NULL.                -999.2500: 
COMP.          Pioneer Natural Resources: COMPANY
WELL.           Weissach 32-32: WELL
FLD.           Purgatorie River: FIELD
LOC.           2193' FNL & 2256' FEL: LOCATION
STAT.                 Colorado: State
CNTY.               Las Animas: COUNTY
CTRY. USA : Country
SECT. 32 : Section
TOWN. 33S : Township
RANG. 66W : Range
SRVC.                Patterson: SERVICE COMPANY
DATE.          Mon Sep 26 09:15:29 2005: LOG DATE
API. 05-071-08523                         : UNIQUE WELL ID
~Curve Information Block
DEPT.FT            0 000 00 00: Depth
DCAL.in                       : CDL Caliper
RHOB.g/cc                     : CDL Bulk Density
RHOC.g/cc                     : CDL Density Correction
DPOR.pu                       : CDL Density Porosity
GR.GAPI                       : Gamma Ray
NPOR.pu                       : Neutron Porosity
~Parameter Information Block
~A  Depth       DCAL        RHOB        RHOC        DPOR         GR         NPOR    
# ...
   422.4000      7.9364      2.4459      0.0811     12.3727    132.1125     29.6162
   422.5000      7.9342      2.4410      0.0604     12.6658    132.5316     30.6292
   422.6000      7.9342      2.4403      0.0747     12.7069    130.6514     30.9977
   422.7000      7.9342      2.4400      0.0545     12.7277    129.0207     30.2166
   422.8000      7.9552      2.4384      0.0689     12.8230    130.3806     29.1881
   422.9000      7.9552      2.4332      0.0712     13.1370    135.1395     28.9251
   423.0000      7.9877      2.4238      0.0549     13.7062    139.3008     29.2616
   423.1000      7.9877      2.4159      0.0296     14.1857    138.3000     29.5913
   423.2000      7.9877      2.4201     -0.0040     13.9337    132.2667     29.9867
   423.3000      7.9955      2.4358      0.0694     12.9831    126.5013     30.4063
   423.4000      7.9955      2.4540      0.0242     11.8796    124.3247     30.4222
   423.5000      7.9583      2.4757      0.0218     10.5665    122.9788     30.0945
   423.6000      7.9583      2.4913      0.0879      9.6178    116.3723     29.8340
   423.7000      7.9583      2.4880      0.0541      9.8161    105.9592     29.3425
   423.8000      7.9668      2.4770      0.0481     10.4838    100.2931     28.2478
   423.9000      7.9668      2.4733      0.0234     10.7105    100.8709     26.5682
   424.0000      7.9690      2.4825     -0.0067     10.1488    101.2484     24.5793
   424.1000      7.9690      2.4986      0.0368      9.1737     97.0979     23.1892
   424.2000      7.9690      2.5089      0.0033      8.5503     91.5551     22.9300
   424.3000      7.9364      2.5178     -0.0038      8.0106     88.9440     23.0028
   424.4000      7.9364      2.5373      0.0462      6.8311     88.6647     22.5514
   424.5000      7.8921      2.5671      0.0770      5.0226     88.7470     21.8471
   424.6000      7.8921      2.5976      0.0943      3.1733     89.0093     21.1715
   424.7000      7.8921      2.6170      0.1240      2.0008     89.8441     20.4419
   424.8000      7.8673      2.6232      0.0934      1.6253     90.9197     20.0094
   424.9000      7.8673      2.6252      0.1483      1.5049     91.4607     20.2792
   425.0000      7.8422      2.6291      0.1526      1.2683     91.7582     20.8955
   425.1000      7.8422      2.6386      0.1395      0.6898     91.8076     20.9154
   425.2000      7.8422      2.6563      0.1518     -0.3808     91.8899     20.5392
   425.3000      7.8408      2.6785      0.1602     -1.7243     92.6415     21.0532
   425.4000      7.8408      2.6917      0.1905     -2.5270     92.2764     22.4453
   425.5000      7.8647      2.6789      0.1756     -1.7526     89.6148     23.3199
   425.6000      7.8647      2.6450      0.1256      0.3050     88.8749     22.8092
   425.7000      7.8647      2.6177      0.0825      1.9569     92.3387     21.4034
   425.8000      7.8864      2.6151      0.0816      2.1161     96.9754     20.7867
   425.9000      7.8864      2.6238      0.0816      1.5898    100.8848     22.2113
   426.0000      7.8524      2.6234      0.1051      1.6118    102.6076     24.7084
   426.1000      7.8524      2.6151      0.0666      2.1144    101.4984     26.3260
   426.2000      7.8524      2.6054      0.0717      2.7000    100.5007     26.5081
   426.3000      7.9007      2.5917      0.1022      3.5364    101.2121     25.8598
   426.4000      7.9007      2.5831      0.0392      4.0530    101.0629     25.0523
   426.5000      7.9180      2.5920      0.0772      3.5164    101.1528     24.6749
   426.6000      7.9180      2.6023      0.0856      2.8916    106.7847     24.6669
   426.7000      7.9180      2.5956      0.0603      3.2961    116.1153     24.6787
   426.8000      7.9115      2.5763      0.0396      4.4644    121.8191     25.0796
   426.9000      7.9115      2.5542      0.0541      5.8046    122.4849     25.8478
   427.0000      7.9134      2.5352      0.0368      6.9604    121.7105     26.3077
   427.1000      7.9134      2.5229      0.0434      7.7010    124.7373     26.5445
   427.2000      7.9134      2.5173      0.0291      8.0403    132.9371     26.8057
   427.3000      7.9288      2.5119      0.0539      8.3710    140.2742     26.6044
   427.4000      7.9288      2.5053     -0.0167      8.7698    142.7044     25.9697
   427.5000      7.9370      2.5033      0.0325      8.8932    139.8138     25.5806
   427.6000      7.9370      2.4990      0.0117      9.1523    131.9826     25.5856
   427.7000      7.9370      2.4859      0.0330      9.9478    123.5012     25.6960
   427.8000      7.9373      2.4752     -0.0038     10.5935    118.7004     25.5765
   427.9000      7.9373      2.4840     -0.0092     10.0582    116.6256     25.0514
   428.0000      7.9333      2.5077      0.0789      8.6213    115.7995     24.6984
   428.1000      7.9333      2.5209      0.1040      7.8226    116.8200     25.2602
   428.2000      7.9333      2.5151      0.0458      8.1756    117.3885     26.3212
   428.3000      7.9339      2.5039      0.0671      8.8519    115.6863     27.0662
   428.4000      7.9339      2.4920      0.0705      9.5727    117.4446     27.1798
   428.5000      7.9341      2.4763      0.0516     10.5302    126.4379     26.3926
   428.6000      7.9341      2.4590      0.0593     11.5766    136.4112     25.0132
   428.7000      7.9341      2.4440      0.0459     12.4874    141.0556     24.6025
   428.8000      7.9256      2.4299      0.0484     13.3399    139.8592     25.9985
   428.9000      7.9256      2.4072      0.0827     14.7123    134.9708     27.7682
   429.0000      7.9151      2.3762      0.0233     16.5941    130.0499     28.5848
   429.1000      7.9151      2.3559      0.0140     17.8250    126.2911     28.5744
   429.2000      7.9151      2.3557      0.0441     17.8348    122.4126     27.9570
   429.3000      7.9202      2.3691      0.0689     17.0259    119.6294     27.0784
   429.4000      7.9202      2.3867      0.1150     15.9572    118.4753     26.7608
   429.5000      7.9227      2.3998      0.1145     15.1638    118.1293     27.1489
   429.6000      7.9227      2.4056      0.1092     14.8118    119.5738     27.3909
   429.7000      7.9227      2.4097      0.1440     14.5660    123.0013     27.5867
   429.8000      7.9198      2.4171      0.1102     14.1128    125.5458     28.4878
   429.9000      7.9198      2.4266      0.1199     13.5391    124.3692     29.5230
   430.0000      7.9194      2.4359      0.1069     12.9734    118.2729     29.7082
   430.1000      7.9194      2.4511      0.0952     12.0520    109.2156     28.9295
   430.2000      7.9194      2.4781      0.1278     10.4205    102.6897     28.0775
   430.3000      7.9172      2.5065      0.1086      8.6940    100.9014     27.9591
   430.4000      7.9172      2.5141      0.1317      8.2359    100.8659     27.8782
   430.5000      7.8996      2.5005      0.0771      9.0618    100.6727     26.7912
   430.6000      7.8996      2.4895      0.0693      9.7268    101.1917     25.1246
   430.7000      7.8996      2.4916      0.0630      9.6003    102.5873     24.4736
   430.8000      7.8855      2.5061      0.0437      8.7196    103.7917     25.4474
   430.9000      7.8855      2.5267      0.0982      7.4697    103.7076     26.7503
   431.0000      7.8573      2.5422      0.1009      6.5363    101.6776     26.9029
   431.1000      7.8573      2.5503      0.1030      6.0429     97.7560     26.2444
   431.2000      7.8573      2.5500      0.1016      6.0592     95.9569     26.0536
   431.3000      7.9039      2.5380      0.0518      6.7871     98.8234     26.3180
   431.4000      7.9039      2.5149      0.0948      8.1851    102.0400     26.6722
   431.5000      7.9150      2.4831      0.0435     10.1154    102.1438     27.2425
   431.6000      7.9150      2.4546      0.0359     11.8413    100.2195     27.8029
   431.7000      7.9150      2.4454      0.0150     12.3987     99.0859     28.1817
   431.8000      7.9172      2.4475      0.0798     12.2729    101.8173     28.4589
   431.9000      7.9172      2.4378      0.0550     12.8636    107.3463     28.6097
