~Version Information
VERS.                      2.0: CWLS Log ASCII Standard - VERSION 2.0
WRAP.                       NO: One line per depth step
~Well Information Block
STRT.FT               480.0000: 
STOP.FT              1946.0000: 
STEP.FT                 0.2500: 
NULL.                -999.2500: 
COMP.          XTO Energy Inc.: COMPANY
WELL.          Golden Eagle 19-15: WELL
FLD.           Purgatoire River: FIELD
LOC.           1121' FSL & 2332' FEL--: LOCATION
CNTY.               Las Animas: COUNTY
SRVC.                Patterson: SERVICE COMPANY
DATE.          Sun Mar 12 15:00:51 2006: LOG DATE
UWI.           05 071 08717 00: UNIQUE WELL ID
STAT.                 Colorado: STATE
~Curve Information Block
DEPT.FT            0 000 00 00: Depth
SP.mV                         : DIL Spontaneous Potential
RILD.Ohm-m                    : DIL Deep Resistivity
RILM.Ohm-m                    : DIL Medium Resistivity
RLL3.Ohm-m                    : DIL Shallow Resistivity
GR.GAPI                       : Gamma Ray
~Parameter Information Block
~A  Depth        SP         RILD        RILM        RLL3         GR     
# ...
  1040.0000   2005.0000     18.3254     19.4809   2000.0000     73.0486
  1040.2500   2005.0000     18.2910     19.3269   2000.0000     72.1772
  1040.5000   2005.0000     18.2708     19.2426   2000.0000     72.2617
  1040.7500   2005.0000     18.2609     19.2097   2000.0000     72.8320
  1041.0000   2005.0000     18.2628     19.1983   2000.0000     73.5987
  1041.2500   2005.0000     18.2802     19.1790   2000.0000     73.8042
  1041.5000   2005.0000     18.3130     19.1366   2000.0000     73.8775
  1041.7500   2005.0000     18.3559     19.0782   2000.0000     74.1766
  1042.0000   2005.0000     18.4045     19.0265   2000.0000     75.8035
  1042.2500   2005.0000     18.4612     19.0067   2000.0000     77.9302
  1042.5000   2005.0000     18.5339     19.0365   2000.0000     82.3148
  1042.7500   2005.0000     18.6282     19.1263   2000.0000     85.3335
  1043.0000   2005.0000     18.7413     19.2831   2000.0000     88.5033
  1043.2500   2005.0000     18.8634     19.5102   2000.0000     89.1067
  1043.5000   2005.0000     18.9840     19.8005   2000.0000     87.7878
  1043.7500   2005.0000     19.0959     20.1310   2000.0000     86.0516
  1044.0000   2005.0000     19.1943     20.4661   2000.0000     83.5437
  1044.2500   2005.0000     19.2722     20.7691   2000.0000     82.4930
  1044.5000   2005.0000     19.3192     21.0136   2000.0000     82.1438
  1044.7500   2005.0000     19.3246     21.1871   2000.0000     82.7089
  1045.0000   2005.0000     19.2858     21.2867   2000.0000     84.7134
  1045.2500   2005.0000     19.2116     21.3153   2000.0000     86.7276
  1045.5000   2005.0000     19.1195     21.2787   2000.0000     90.1717
  1045.7500   2005.0000     19.0285     21.1839   2000.0000     92.2154
  1046.0000   2005.0000     18.9514     21.0369   2000.0000     94.2692
  1046.2500   2005.0000     18.8927     20.8406   2000.0000     94.9734
  1046.5000   2005.0000     18.8503     20.5975   2000.0000     95.3061
  1046.7500   2005.0000     18.8182     20.3148   2000.0000     95.0132
  1047.0000   2005.0000     18.7877     20.0080   2000.0000     93.4483
  1047.2500   2005.0000     18.7494     19.6980   2000.0000     91.5779
  1047.5000   2005.0000     18.6980     19.4049   2000.0000     87.9028
  1047.7500   2005.0000     18.6370     19.1429   2000.0000     85.3042
  1048.0000   2005.0000     18.5783     18.9188   2000.0000     82.1454
  1048.2500   2005.0000     18.5331     18.7335   2000.0000     81.1094
  1048.5000   2005.0000     18.5036     18.5841   2000.0000     81.5324
  1048.7500   2005.0000     18.4829     18.4658   2000.0000     82.6566
  1049.0000   2005.0000     18.4619     18.3737   2000.0000     83.9576
  1049.2500   2005.0000     18.4375     18.3040   2000.0000     83.8128
  1049.5000   2005.0000     18.4156     18.2541   2000.0000     82.1361
  1049.7500   2005.0000     18.4078     18.2225   2000.0000     80.7337
  1050.0000   2005.0000     18.4257     18.2092   2000.0000     79.3154
  1050.2500   2005.0000     18.4739     18.2158   2000.0000     78.8998
  1050.5000   2005.0000     18.5478     18.2436   2000.0000     78.3708
  1050.7500   2005.0000     18.6389     18.2908   2000.0000     77.7419
  1051.0000   2005.0000     18.7436     18.3513   2000.0000     76.5674
  1051.2500   2005.0000     18.8674     18.4205   2000.0000     75.9288
  1051.5000   2005.0000     19.0198     18.5026   2000.0000     75.1986
  1051.7500   2005.0000     19.2014     18.6117   2000.0000     74.5496
  1052.0000   2005.0000     19.3929     18.7629   2000.0000     72.9980
  1052.2500   2005.0000     19.5519     18.9599   2000.0000     71.8141
  1052.5000   2005.0000     19.6239     19.1905   2000.0000     70.6655
  1052.7500   2005.0000     19.5636     19.4321   2000.0000     70.6023
  1053.0000   2005.0000     19.3548     19.6626   2000.0000     71.2341
  1053.2500   2005.0000     19.0144     19.8649   2000.0000     71.7571
  1053.5000   2005.0000     18.5784     20.0211   2000.0000     72.5247
  1053.7500   2005.0000     18.0823     20.0972   2000.0000     73.2110
  1054.0000   2005.0000     17.5511     20.0334   2000.0000     74.6929
  1054.2500   2005.0000     17.0022     19.7540   2000.0000     75.9827
  1054.5000   2005.0000     16.4531     19.2044   2000.0000     78.8050
  1054.7500   2005.0000     15.9230     18.3944   2000.0000     81.8619
  1055.0000   2005.0000     15.4276     17.4105   2000.0000     88.9121
  1055.2500   2005.0000     14.9734     16.3794   2000.0000     94.9930
  1055.5000   2005.0000     14.5579     15.4115   2000.0000    104.6874
  1055.7500   2005.0000     14.1720     14.5644   2000.0000    110.5742
  1056.0000   2005.0000     13.8030     13.8441   2000.0000    117.6464
  1056.2500   2005.0000     13.4378     13.2285   2000.0000    121.1709
  1056.5000   2005.0000     13.0683     12.6958   2000.0000    124.8692
  1056.7500   2005.0000     12.6966     12.2401   2000.0000    126.1974
  1057.0000   2005.0000     12.3358     11.8695   2000.0000    126.3217
  1057.2500   2005.0000     12.0035     11.5954   2000.0000    125.5278
  1057.5000   2005.0000     11.7144     11.4215   2000.0000    124.5216
  1057.7500   2005.0000     11.4772     11.3403   2000.0000    124.6814
  1058.0000   2005.0000     11.2959     11.3327   2000.0000    125.8382
  1058.2500   2005.0000     11.1708     11.3709   2000.0000    126.2764
  1058.5000   2005.0000     11.0978     11.4227   2000.0000    125.1325
  1058.7500   2005.0000     11.0667     11.4585   2000.0000    123.3321
  1059.0000   2005.0000     11.0616     11.4594   2000.0000    120.7144
  1059.2500   2005.0000     11.0644     11.4219   2000.0000    119.9038
  1059.5000   2005.0000     11.0588     11.3553   2000.0000    120.1109
  1059.7500   2005.0000     11.0323     11.2716   2000.0000    120.4966
  1060.0000   2005.0000     10.9754     11.1763   2000.0000    120.5549
  1060.2500   2005.0000     10.8808     11.0648   2000.0000    120.4515
  1060.5000   2005.0000     10.7444     10.9252   2000.0000    121.1971
  1060.7500   2005.0000     10.5675     10.7445   2000.0000    122.7645
  1061.0000   2005.0000     10.3584     10.5144   2000.0000    126.5890
  1061.2500   2005.0000     10.1303     10.2348   2000.0000    129.6474
  1061.5000   2005.0000      9.8978      9.9159   2000.0000    134.2537
  1061.7500   2005.0000      9.6728      9.5779   2000.0000    137.1352
  1062.0000   2005.0000      9.4634      9.2453   2000.0000    140.7764
  1062.2500   2005.0000      9.2756      8.9403   2000.0000    142.2222
  1062.5000   2005.0000      9.1151      8.6779   2000.0000    142.1073
  1062.7500   2005.0000      8.9882      8.4646   2000.0000    140.7069
  1063.0000   2005.0000      8.8983      8.3010   2000.0000    138.0367
  1063.2500   2005.0000      8.8432      8.1852   2000.0000    136.5867
  1063.5000   2005.0000      8.8129      8.1152   2000.0000    135.0934
  1063.7500   2005.0000      8.7934      8.0899   2000.0000    134.3095
  1064.0000   2005.0000      8.7715      8.1080   2000.0000    133.1054
  1064.2500   2005.0000      8.7395      8.1679   2000.0000    132.1702
  1064.5000   2005.0000      8.6965      8.2667   2000.0000    130.4540
  1064.7500   2005.0000      8.6458      8.3995   2000.0000    129.1330
  1065.0000   2005.0000      8.5878      8.5573   2000.0000    127.1164
  1065.2500   2005.0000      8.5310      8.7252   2000.0000    125.8282
  1065.5000   2005.0000      8.4831      8.8820   2000.0000    123.8499
  1065.7500   2005.0000      8.4426      9.0041   2000.0000    122.4425
  1066.0000   2005.0000      8.4107      9.0740   2000.0000    120.5270
  1066.2500   2005.0000      8.3859      9.0881   2000.0000    119.7258
  1066.5000   2005.0000      8.3640      9.0580   2000.0000    119.5631
  1066.7500   2005.0000      8.3404      9.0027   2000.0000    120.0988
  1067.0000   2005.0000      8.3119      8.9379   2000.0000    121.7115
  1067.2500   2005.0000      8.2776      8.8695   2000.0000    123.4010
  1067.5000   2005.0000      8.2363      8.7938   2000.0000    127.1937
  1067.7500   2005.0000      8.1848      8.7017   2000.0000    130.5491
