~Version Information
VERS.                      2.0: CWLS Log ASCII Standard - VERSION 2.0
WRAP.                       NO: One line per depth step
~Well Information Block
STRT.FT               -11.5000: 
STOP.FT              1961.7500: 
STEP.FT                 0.2500: 
NULL.                -999.2500: 
COMP.          Petrogulf Corporation: COMPANY
WELL.           State 16-23R-X: WELL
FLD.           Purgatorie River: FIELD
LOC.           2381' FSL & 2072' FWL--: LOCATION
PROV.                       CO: PROVINCE
CNTY.               Las Animas: COUNTRY
SRVC.          Patterson Wireline: SERVICE COMPANY
DATE.          Fri Sep 09 14:32:42 2005: LOG DATE
UWI.           05 071 08324 00: UNIQUE WELL ID
~Curve Information Block
DEPT.FT            0 000 00 00: Depth
CCL.                          : Casing Collar Locator
TT3.usec                      : CBL 3' Travel Time
AMP3.mV                       : CBL 3' Amplitude
GR.GAPI                       : Gamma Ray
~Parameter Information Block
~A  Depth       CCL         TT3         AMP3         GR     
# ...
  1529.5000      0.0000    679.2680      3.7825    143.0956
  1529.7500      0.0000    695.5779      3.9260    144.7631
  1530.0000      0.0000    714.3558      4.0877    141.7772
  1530.2500      0.0000    734.4152      4.2398    136.7887
  1530.5000      0.0000    752.6836      4.3989    132.2724
  1530.7500      0.0000    765.9701      4.6061    129.0723
  1531.0000      0.0000    772.8869      4.8736    126.1975
  1531.2500      0.0000    773.8734      5.1626    121.7712
  1531.5000      0.0000    769.8198      5.4128    114.6238
  1531.7500      0.0000    762.1346      5.5774    105.3211
  1532.0000      2.0000    753.8688      5.6369     95.6399
  1532.2500      0.0000    748.0221      5.5921     87.3480
  1532.5000     -2.0000    744.0315      5.4507     81.6881
  1532.7500      0.0000    738.2737      5.2241     79.4105
  1533.0000      0.0000    728.5497      4.9428     80.5839
  1533.2500      0.0000    716.2104      4.6598     84.4774
  1533.5000      0.0000    703.8845      4.4158     89.9175
  1533.7500      0.0000    692.8510      4.2027     95.6743
  1534.0000      0.0000    683.0710      3.9844    100.4751
  1534.2500      0.0000    674.8533      3.7509    102.9753
  1534.5000      0.0000    669.4476      3.5303    102.2378
  1534.7500      0.0000    667.3668      3.3533     98.5623
  1535.0000      0.0000    666.7573      3.2270     93.7264
  1535.2500      0.0000    664.6468      3.1413     90.0509
  1535.5000      0.0000    660.1053      3.0838     88.9837
  1535.7500      0.0000    655.8271      3.0473     90.3554
  1536.0000      0.0000    656.3876      3.0306     92.7062
  1536.2500      0.0000    664.5935      3.0379     94.2678
  1536.5000      0.0000    679.0281      3.0739     94.0452
  1536.7500      0.0000    694.9146      3.1377     92.6220
  1537.0000      0.0000    707.7568      3.2219     92.1500
  1537.2500      0.0000    716.7739      3.3151     95.0289
  1537.5000      0.0000    725.2488      3.4057    102.0736
  1537.7500      0.0000    736.8551      3.4877    111.9619
  1538.0000      0.0000    750.4717      3.5682    122.3198
  1538.2500      0.0000    759.0327      3.6656    131.0098
  1538.5000      0.0000    755.2957      3.7956    136.8145
  1538.7500      0.0000    739.0049      3.9518    139.8081
  1539.0000      0.0000    717.0447      4.0992    141.2322
  1539.2500      0.0000    697.0574      4.1912    142.4793
  1539.5000      0.0000    682.8165      4.1976    144.0258
  1539.7500      0.0000    675.0748      4.1189    145.4453
  1540.0000      0.0000    674.0435      3.9781    146.2353
  1540.2500      0.0000    679.8992      3.8067    146.0497
  1540.5000      0.0000    691.7554      3.6355    144.0911
  1540.7500      0.0000    707.0224      3.4886    139.2126
  1541.0000      0.0000    722.1995      3.3762    131.4685
  1541.2500      0.0000    734.4738      3.2918    122.9703
  1541.5000      0.0000    742.7672      3.2217    116.2936
  1541.7500      0.0000    747.3378      3.1605    112.3513
  1542.0000      0.0000    748.4191      3.1213    110.3571
  1542.2500      0.0000    745.6274      3.1314    109.3613
  1542.5000      0.0000    739.3589      3.2182    109.1775
  1542.7500      0.0000    732.4263      3.3929    110.0141
  1543.0000      0.0000    729.0640      3.6439    111.7193
  1543.2500      0.0000    731.6649      3.9411    113.5926
  1543.5000      0.0000    738.8547      4.2468    114.8143
  1543.7500      0.0000    746.9908      4.5252    114.7622
  1544.0000      0.0000    752.8281      4.7437    112.9064
  1544.2500      0.0000    754.2541      4.8699    108.8830
  1544.5000      0.0000    750.2583      4.8772    103.0689
  1544.7500      0.0000    742.0947      4.7588     96.8017
  1545.0000      0.0000    732.9014      4.5349     91.6494
  1545.2500      0.0000    724.3920      4.2446     88.5527
  1545.5000      0.0000    715.6987      3.9282     87.8885
  1545.7500      0.0000    706.4661      3.6161     90.0243
  1546.0000      0.0000    698.5428      3.3272     95.1168
  1546.2500      0.0000    693.5943      3.0708    102.2860
  1546.5000      0.0000    691.2366      2.8500    109.6319
  1546.7500      0.0000    690.6790      2.6630    115.4821
  1547.0000      0.0000    692.7609      2.5061    119.3431
  1547.2500      0.0000    698.9684      2.3755    121.6326
  1547.5000      0.0000    708.4272      2.2679    123.0211
  1547.7500      0.0000    716.3750      2.1830    124.0287
  1548.0000      0.0000    716.1341      2.1241    124.7624
  1548.2500      0.0000    703.4987      2.0939    124.8585
  1548.5000      0.0000    680.5884      2.0892    123.7896
  1548.7500      0.0000    656.3112      2.1002    121.2710
  1549.0000      0.0000    641.7598      2.1174    117.6921
  1549.2500      0.0000    642.7319      2.1367    114.1751
  1549.5000      0.0000    655.8868      2.1580    111.7700
  1549.7500      0.0000    672.5523      2.1804    110.5642
  1550.0000      0.0000    686.0510      2.1989    109.8795
  1550.2500      0.0000    695.4487      2.2085    109.1959
  1550.5000      0.0000    703.4867      2.2091    108.6152
  1550.7500      0.0000    711.9858      2.2063    108.6491
  1551.0000      0.0000    719.3756      2.2072    109.8162
  1551.2500      0.0000    722.5050      2.2186    112.3035
  1551.5000      0.0000    720.4176      2.2457    115.5975
  1551.7500      0.0000    715.5206      2.2879    118.3853
  1552.0000      0.0000    710.7291      2.3360    119.2989
  1552.2500      0.0000    706.4588      2.3776    118.0337
  1552.5000      0.0000    701.2741      2.4060    115.4435
  1552.7500      0.0000    694.7134      2.4238    112.4175
  1553.0000      0.0000    688.1852      2.4399    109.1183
  1553.2500      0.0000    683.4096      2.4651    105.3707
  1553.5000      0.0000    681.0897      2.5082    101.3640
  1553.7500      0.0000    681.2112      2.5724     97.8388
  1554.0000      0.0000    683.8277      2.6543     95.8012
  1554.2500      0.0000    688.9524      2.7457     96.0388
  1554.5000      0.0000    695.5539      2.8380     98.8043
  1554.7500      0.0000    701.0620      2.9255    103.8963
  1555.0000      0.0000    702.7072      3.0076    110.7662
  1555.2500      0.0000    699.8173      3.0910    118.4487
  1555.5000      0.0000    694.4294      3.1931    125.8501
  1555.7500      0.0000    689.4234      3.3399    132.5194
  1556.0000      0.0000    686.4141      3.5550    138.9190
  1556.2500      0.0000    685.4238      3.8447    145.5441
  1556.5000      0.0000    685.8921      4.1948    152.0076
  1556.7500      0.0000    687.6223      4.5817    157.4308
  1557.0000      0.0000    691.0255      4.9807    161.3519
  1557.2500      0.0000    696.6311      5.3622    163.6097
  1557.5000      0.0000    704.1790      5.6888    163.8332
  1557.7500      0.0000    712.0449      5.9267    162.0170
  1558.0000      0.0000    717.7560      6.0637    159.4190
  1558.2500      0.0000    719.2468      6.1124    157.9751
  1558.5000      0.0000    715.7001      6.0966    158.4824
  1558.7500      0.0000    707.4185      6.0394    159.4493
  1559.0000      0.0000    695.3729      5.9572    157.7625
  1559.2500      0.0000    681.0474      5.8604    150.8636
  1559.5000      0.0000    666.2092      5.7563    138.8990
  1559.7500      0.0000    652.2816      5.6517    124.8481
  1560.0000      0.0000    640.0961      5.5500    112.3243
  1560.2500      0.0000    630.4708      5.4484    103.2040
  1560.5000      0.0000    624.4407      5.3449     97.2449
  1560.7500      0.0000    622.4448      5.2490     93.5483
  1561.0000      0.0000    623.7957      5.1831     92.0528
  1561.2500      0.0000    627.6664      5.1686     93.5099
  1561.5000      0.0000    634.2501      5.2105     98.0839
  1561.7500      0.0000    644.0906      5.2964    104.3867
  1562.0000      0.0000    656.3230      5.4090    110.2941
  1562.2500      0.0000    668.4956      5.5381    114.6341
  1562.5000      0.0000    678.5129      5.6819    117.9521
  1562.7500      0.0000    686.0643      5.8435    121.6442
