~Version Information
VERS.                      2.0: CWLS Log ASCII Standard - VERSION 2.0
WRAP.                       NO: One line per depth step
~Well Information Block
STRT.FT               680.0000: 
STOP.FT              1585.5000: 
STEP.FT                 0.1000: 
NULL.                -999.2500: 
COMP.          Pioneer Natural Resources: COMPANY
WELL.          Screamin' 12-29: WELL
FLD.           Purgatoire River: FIELD
LOC.           2038' FNL & 612' FWL: LOCATION
CNTY.               Las Animas: COUNTY
SRVC.                Patterson: SERVICE COMPANY
DATE.          Wed Mar 29 10:01:18 2006: LOG DATE
UWI.           05 071 08661 00: UNIQUE WELL ID
STAT.                 Colorado: STATE
~Curve Information Block
DEPT.FT            0 000 00 00: Depth
DCAL.in                       : CDL Caliper
RHOB.g/cc                     : CDL Bulk Density
RHOC.g/cc                     : CDL Density Correction
DPOR.pu                       : CDL Density Porosity
GR.GAPI                       : Gamma Ray
NPOR.pu                       : Neutron Porosity
~Parameter Information Block
~A  Depth       DCAL        RHOB        RHOC        DPOR         GR         NPOR    
# ...
   920.0000      7.8731      2.5485      0.1286      6.1530    134.8920     28.0693
   920.1000      7.8731      2.5488      0.0565      6.1355    137.4334     29.0299
   920.2000      7.8731      2.5354      0.0255      6.9480    134.4899     28.9418
   920.3000      7.8713      2.5368      0.0034      6.8593    131.5956     28.2805
   920.4000      7.8713      2.5553      0.0250      5.7383    132.9849     28.1098
   920.5000      7.8691      2.5799      0.0381      4.2474    136.3889     28.3787
   920.6000      7.8691      2.6047      0.0220      2.7471    137.0962     28.4670
   920.7000      7.8691      2.6229      0.0869      1.6414    133.6394     28.2492
   920.8000      7.8656      2.6229      0.0494      1.6448    127.6903     28.0074
   920.9000      7.8656      2.6123      0.0169      2.2855    117.4119     27.9978
   921.0000      7.8577      2.6116      0.0223      2.3271    104.5703     28.0544
   921.1000      7.8577      2.6179      0.0624      1.9447     98.0331     27.7614
   921.2000      7.8577      2.6109      0.0555      2.3696    101.8666     27.0678
   921.3000      7.8477      2.5926      0.0014      3.4794    110.7005     26.3208
   921.4000      7.8477      2.5840      0.0377      3.9971    115.1669     25.8387
   921.5000      7.8429      2.5909      0.0116      3.5801    111.9746     25.7698
   921.6000      7.8429      2.5982      0.0341      3.1398    104.9179     26.0211
   921.7000      7.8429      2.5864      0.0300      3.8559     99.1739     26.2086
   921.8000      7.8437      2.5602     -0.0304      5.4399     98.7274     26.0854
   921.9000      7.8437      2.5422     -0.0207      6.5348    102.0025     25.6796
   922.0000      7.8426      2.5401     -0.0048      6.6599    105.5665     25.0346
   922.1000      7.8426      2.5467     -0.0017      6.2579    111.6357     24.4029
   922.2000      7.8426      2.5527      0.0272      5.8995    120.4053     24.2837
   922.3000      7.8369      2.5548      0.0369      5.7675    125.6413     24.4324
   922.4000      7.8369      2.5617      0.0655      5.3539    123.2206     24.3484
   922.5000      7.8399      2.5771      0.0448      4.4194    117.7721     23.9214
   922.6000      7.8399      2.5896      0.0740      3.6613    116.1570     23.1669
   922.7000      7.8399      2.5830      0.0380      4.0626    119.3475     22.2975
   922.8000      7.8544      2.5499      0.0349      6.0677    122.7586     21.5641
   922.9000      7.8544      2.4984      0.0008      9.1850    123.7525     21.1815
   923.0000      7.8659      2.4484     -0.0483     12.2207    125.6528     21.2259
   923.1000      7.8659      2.4102     -0.0419     14.5332    128.5941     21.5500
   923.2000      7.8659      2.3761     -0.0407     16.6010    130.8493     21.9405
   923.3000      7.8683      2.3390     -0.0573     18.8506    132.2975     22.4260
   923.4000      7.8683      2.3000     -0.0375     21.2094    133.1778     23.1398
   923.5000      7.8672      2.2638     -0.0621     23.4050    135.9891     23.6839
   923.6000      7.8672      2.2434     -0.0502     24.6399    141.9680     23.5604
   923.7000      7.8672      2.2492     -0.0559     24.2919    145.6857     23.1491
   923.8000      7.8663      2.2733     -0.0127     22.8280    142.9607     23.0800
   923.9000      7.8663      2.2971     -0.0053     21.3892    136.5258     23.3684
   924.0000      7.8640      2.3033      0.0636     21.0131    129.5301     23.8214
   924.1000      7.8640      2.2920      0.0437     21.6947    124.8137     24.5089
   924.2000      7.8640      2.2853      0.0464     22.1046    123.9588     25.3690
   924.3000      7.8569      2.3000      0.0484     21.2110    120.8451     26.4566
   924.4000      7.8569      2.3304      0.0534     19.3667    111.0111     27.8304
   924.5000      7.8441      2.3698     -0.0156     16.9848     99.8548     28.9537
   924.6000      7.8441      2.4199      0.0166     13.9471     92.9398     29.5608
   924.7000      7.8441      2.4704      0.0605     10.8820     89.2927     29.8803
   924.8000      7.8332      2.5083      0.0935      8.5854     84.7400     29.7991
   924.9000      7.8332      2.5357      0.0927      6.9288     78.5348     29.0458
   925.0000      7.8251      2.5552      0.1028      5.7449     73.5857     28.0196
   925.1000      7.8251      2.5537      0.1071      5.8381     72.6859     27.4208
   925.2000      7.8251      2.5188      0.0515      7.9519     74.6994     27.1703
   925.3000      7.8131      2.4663     -0.0487     11.1343     74.8496     26.8792
   925.4000      7.8131      2.4320     -0.0759     13.2144     72.5243     26.5216
   925.5000      7.8084      2.4401     -0.0651     12.7186     71.5221     25.7103
   925.6000      7.8084      2.4906      0.0004      9.6580     71.8078     24.0706
   925.7000      7.8084      2.5616      0.0641      5.3581     70.3912     22.2995
   925.8000      7.8002      2.6302      0.1276      1.2016     68.3706     20.8536
   925.9000      7.8002      2.6914      0.1728     -2.5076     66.9038     19.3617
   926.0000      7.7805      2.7374      0.3193     -5.2991     65.9679     18.1121
   926.1000      7.7805      2.7449      0.3489     -5.7502     66.3347     17.7792
   926.2000      7.7805      2.7041      0.2942     -3.2769     66.8607     17.9989
   926.3000      7.7723      2.6292      0.2499      1.2580     66.2742     18.1498
   926.4000      7.7723      2.5390      0.1759      6.7280     65.9603     18.6682
   926.5000      7.7753      2.4548     -0.0004     11.8331     68.3341     19.8590
   926.6000      7.7753      2.4011     -0.0254     15.0827     74.2725     20.9105
   926.7000      7.7753      2.3847      0.0353     16.0792     81.7615     21.4178
   926.8000      7.7773      2.3993      0.0191     15.1966     88.4764     21.8040
   926.9000      7.7773      2.4456      0.0672     12.3892     97.3306     22.4540
   927.0000      7.7865      2.5107      0.1727      8.4450    110.6284     23.3024
   927.1000      7.7865      2.5634      0.2274      5.2472    124.3969     23.9388
   927.2000      7.7865      2.5875      0.2179      3.7855    134.7785     24.4209
   927.3000      7.8087      2.5868      0.2052      3.8295    142.8532     24.8847
   927.4000      7.8087      2.5648      0.1767      5.1634    149.9001     25.2011
   927.5000      7.8371      2.5249      0.1227      7.5805    153.6665     25.1897
   927.6000      7.8371      2.4778      0.0789     10.4391    152.5693     24.6902
   927.7000      7.8371      2.4360      0.0460     12.9704    150.1232     24.2373
   927.8000      7.8564      2.4122     -0.0061     14.4139    149.5346     24.6233
   927.9000      7.8564      2.4128      0.0050     14.3728    147.8373     25.6230
   928.0000      7.8626      2.4293      0.0491     13.3769    144.5314     26.3702
   928.1000      7.8626      2.4513      0.0128     12.0409    145.7897     26.5820
   928.2000      7.8626      2.4762      0.0562     10.5325    151.3959     26.3962
   928.3000      7.8579      2.4957      0.0797      9.3485    153.3296     26.0936
   928.4000      7.8579      2.5092      0.0390      8.5310    151.5182     26.0080
   928.5000      7.8438      2.5261      0.1004      7.5114    150.7094     26.1504
   928.6000      7.8438      2.5408      0.1272      6.6202    147.5137     26.3137
   928.7000      7.8438      2.5424      0.1089      6.5218    136.9964     26.4049
   928.8000      7.8344      2.5332      0.0897      7.0775    123.1342     26.2199
   928.9000      7.8344      2.5235      0.0610      7.6649    114.0139     25.6209
   929.0000      7.8391      2.5236      0.0034      7.6602    112.5986     25.0788
   929.1000      7.8391      2.5331      0.0337      7.0871    115.3339     25.1014
   929.2000      7.8391      2.5358      0.0559      6.9221    117.7123     25.5640
   929.3000      7.8447      2.5215      0.0492      7.7905    119.2787     26.0730
   929.4000      7.8447      2.4986      0.0542      9.1740    122.5414     26.3419
   929.5000      7.8497      2.4845      0.0387     10.0326    126.4283     26.3519
