~Version Information
VERS.                      2.0: CWLS Log ASCII Standard - VERSION 2.0
WRAP.                       NO: One line per depth step
~Well Information Block
STRT.FT                -4.7500: 
STOP.FT              2723.2500: 
STEP.FT                 0.2500: 
NULL.                -999.2500: 
COMP.          Pioneer Natural Resources: COMPANY
WELL.           Dolzanie 34-12: WELL
FLD.           Purgatorie River: FIELD
LOC.           1001' FSL & 1750' FEL: LOCATION
PROV.                 Colorado: PROVINCE
CNTY.               Las Animas: COUNTRY
SRVC.                Patterson: SERVICE COMPANY
DATE.          Wed Jul 27 14:23:29 2005: LOG DATE
UWI.                          : UNIQUE WELL ID
~Curve Information Block
DEPT.FT            0 000 00 00: Depth
GR.GAPI                       : Gamma Ray
CCL.                          : Casing Collar Locator
TT3.usec                      : CBL 3' Travel Time
AMP3.mV                       : CBL 3' Amplitude
~Parameter Information Block
~A  Depth        GR         CCL         TT3         AMP3    
    -4.7500   -999.2500   -999.2500   -999.2500   -999.2500
    -4.5000   -999.2500   -999.2500   -999.2500   -999.2500
    -4.2500   -999.2500   -999.2500   -999.2500   -999.2500
    -4.0000   -999.2500   -999.2500   -999.2500   -999.2500
    -3.7500   -999.2500   -999.2500   -999.2500   -999.2500
    -3.5000   -999.2500   -999.2500   -999.2500   -999.2500
    -3.2500   -999.2500   -999.2500   -999.2500   -999.2500
    -3.0000   -999.2500   -999.2500   -999.2500   -999.2500
    -2.7500   -999.2500   -999.2500   -999.2500   -999.2500
    -2.5000   -999.2500   -999.2500   1200.0000     -0.7701
    -2.2500   -999.2500   -999.2500   1200.0000     -0.7784
    -2.0000   -999.2500   -999.2500   1200.0000     -0.7900
    -1.7500   -999.2500   -999.2500   1200.0000     -0.8089
    -1.5000   -999.2500   -999.2500   1200.0000     -0.8229
    -1.2500   -999.2500   -999.2500   1200.0000     -0.8237
    -1.0000   -999.2500   -999.2500   1200.0000     -0.8208
    -0.7500   -999.2500   -999.2500   1200.0000     -0.8302
    -0.5000   -999.2500   -999.2500   1200.0000     -0.8471
    -0.2500   -999.2500   -999.2500   1200.0000     -0.8494
     0.0000   -999.2500   -999.2500   1200.0000     -0.8309
     0.2500   -999.2500   -999.2500   1200.0000     -0.8420
     0.5000   -999.2500   -999.2500   1200.0000     -0.8477
     0.7500   -999.2500   -999.2500   1200.0000     -0.8277
     1.0000   -999.2500   -999.2500   1200.0000     -0.7956
     1.2500   -999.2500   -999.2500   1200.0000     -0.7825
     1.5000   -999.2500   -999.2500   1200.0000     -0.7973
     1.7500   -999.2500   -999.2500   1200.0000     -0.8289
     2.0000   -999.2500   -999.2500   1200.0000     -0.8674
     2.2500   -999.2500   -999.2500   1200.0000     -0.9036
     2.5000   -999.2500   -999.2500   1200.0000     -0.9209
     2.7500   -999.2500   -999.2500   1200.0000     -0.9056
     3.0000   -999.2500   -999.2500   1200.0000     -0.8646
     3.2500   -999.2500      0.0000   1200.0000     -0.8247
     3.5000   -999.2500      0.0000   1200.0000     -0.8112
     3.7500   -999.2500      0.0000   1200.0000     -0.8205
     4.0000   -999.2500      0.0000   1200.0000     -0.8329
     4.2500   -999.2500      0.0000   1200.0000     -0.8501
     4.5000   -999.2500      0.0000   1200.0000     -0.8789
     4.7500   -999.2500      0.0000   1200.0000     -0.8978
     5.0000   -999.2500      0.0000   1200.0000     -0.8848
     5.2500   -999.2500      0.0000   1200.0000     -0.8524
     5.5000   -999.2500      0.0000   1200.0000     -0.8258
     5.7500   -999.2500      0.0000   1200.0000     -0.8131
     6.0000   -999.2500      0.0000   1200.0000     -0.8104
     6.2500   -999.2500      0.0000   1200.0000     -0.8170
     6.5000   -999.2500      0.0000   1200.0000     -0.8332
     6.7500   -999.2500      0.0000   1200.0000     -0.8466
     7.0000   -999.2500      0.0000   1200.0000     -0.8435
     7.2500   -999.2500      0.0000   1200.0000     -0.8304
     7.5000   -999.2500      0.0000   1200.0000     -0.8229
     7.7500   -999.2500      0.0000   1200.0000     -0.8245
     8.0000     48.6584      0.0000   1200.0000     -0.8266
     8.2500     47.5325      0.0000   1200.0000     -0.8227
     8.5000     46.8843      0.0000   1200.0000     -0.8150
     8.7500     46.7967      0.0000   1200.0000     -0.8088
     9.0000     47.0250      0.0000   1200.0000     -0.8105
     9.2500     47.2630      0.0000   1200.0000     -0.8277
     9.5000     47.5924      0.0000   1200.0000     -0.8566
     9.7500     48.4117      0.0000   1200.0000     -0.8788
    10.0000     49.8146      0.0000   1200.0000     -0.8862
    10.2500     51.3902      0.0000   1200.0000     -0.8891
    10.5000     52.8626      0.0000   1200.0000     -0.8894
    10.7500     54.6489      0.0000   1200.0000     -0.8769
    11.0000     57.3689      0.0000   1200.0000     -0.8576
    11.2500     60.6807      0.0000   1200.0000     -0.8519
    11.5000     62.8761      0.0000   1200.0000     -0.8605
    11.7500     62.0535      0.0000   1200.0000     -0.8611
    12.0000     57.8048      0.0000   1200.0000     -0.8488
    12.2500     51.6318      0.0000   1200.0000     -0.8467
    12.5000     45.7833      0.0000   1200.0000     -0.8639
    12.7500     41.8202      0.0000   1200.0000     -0.8772
    13.0000     40.0440      0.0000   1200.0000     -0.8688
    13.2500     39.7885      0.0000   1200.0000     -0.8527
    13.5000     40.0568      0.0000   1200.0000     -0.8421
    13.7500     40.0904      0.0000   1200.0000     -0.8246
    14.0000     39.6537      0.0000   1200.0000     -0.7940
    14.2500     38.9241      0.0000   1200.0000     -0.7732
    14.5000     38.1472      0.0000   1200.0000     -0.7796
    14.7500     37.4179      0.0000   1200.0000     -0.7960
    15.0000     36.7957      0.0000   1200.0000     -0.7971
    15.2500     36.5106      2.0000   1200.0000     -0.7885
    15.5000     36.8891      2.0000   1200.0000     -0.7928
    15.7500     38.1073      0.0000   1200.0000     -0.8090
    16.0000     40.0891      0.0000   1200.0000     -0.8178
    16.2500     42.5671      0.0000   1200.0000     -0.8166
    16.5000     45.0721      0.0000   1200.0000     -0.8166
    16.7500     46.8583      0.0000   1200.0000     -0.8184
    17.0000     47.1689      0.0000   1200.0000     -0.8179
    17.2500     45.9202      0.0000   1200.0000     -0.8193
    17.5000     43.9975      0.0000   1200.0000     -0.8191
    17.7500     42.5335      0.0000   1200.0000     -0.8026
    18.0000     41.8802      0.0000   1200.0000     -0.7754
    18.2500     41.4493      0.0000   1200.0000     -0.7619
    18.5000     40.5257      0.0000   1200.0000     -0.7694
    18.7500     39.0733      0.0000   1200.0000     -0.7861
    19.0000     37.7969      0.0000   1200.0000     -0.8007
    19.2500     37.6288      0.0000   1200.0000     -0.8011
    19.5000     39.1380      0.0000   1200.0000     -0.7824
    19.7500     42.1176      0.0000   1200.0000     -0.7622
    20.0000     45.5853      0.0000   1200.0000     -0.7624
    20.2500     48.3897      0.0000   1200.0000     -0.7777
    20.5000     50.0363      0.0000   1200.0000     -0.7869
    20.7500     50.9623      0.0000   1200.0000     -0.7876
    21.0000     52.0276      0.0000   1200.0000     -0.7919
    21.2500     53.7633      0.0000   1199.9205     -0.7903
    21.5000     56.0498      0.0000   1199.0709     -0.7212
    21.7500     58.4182      0.0000   1193.0693     -0.3640
    22.0000     60.5737      0.0000   1166.6887      0.9525
    22.2500     62.4615      0.0000   1096.3278      4.4058
    22.5000     63.8782      0.0000    989.4310     10.4354
    22.7500     64.3301      0.0000    916.6513     17.0465
    23.0000     63.4668      0.0000    939.1000     21.1172
    23.2500     61.4912      0.0000   1019.4946     21.7915
    23.5000     58.9790      0.0000   1070.5839     20.7485
    23.7500     56.4929      0.0000   1049.6346     19.7653
    24.0000     54.6633      0.0000    980.0429     19.4957
    24.2500     54.2873      0.0000    911.7018     19.8340
    24.5000     55.6781      0.0000    870.9301     20.4254
    24.7500     57.8692      0.0000    852.6538     20.9179
    25.0000     59.0081      0.0000    843.6672     21.1387
    25.2500     57.9404      0.0000    836.2761     21.1423
    25.5000     55.3926      0.0000    828.9954     21.0713
    25.7500     53.4384      0.0000    822.3127     21.0138
    26.0000     53.6849      0.0000    816.7134     21.0124
    26.2500     55.8368      0.0000    814.3835     21.0955
    26.5000     57.9230      0.0000    816.7554     21.1906
    26.7500     57.9424      0.0000    821.0905     21.1311
    27.0000     55.4145      0.0000    823.9772     20.8761
    27.2500     51.5902      0.0000    825.0418     20.5800
    27.5000     48.4958      0.0000    825.4113     20.3783
    27.7500     47.7422      0.0000    825.7073     20.2329
    28.0000     49.7576      0.0000    826.0247     20.0120
    28.2500     53.6751      0.0000    826.3494     19.6702
    28.5000     57.8838      0.0000    826.6276     19.3216
