~Version Information
VERS.                      2.0: CWLS Log ASCII Standard - VERSION 2.0
WRAP.                       NO: One line per depth step
~Well Information Block
STRT.FT               -12.0000: 
STOP.FT              1728.0000: 
STEP.FT                 0.2500: 
NULL.                -999.2500: 
COMP.          XTO Energy Inc.: COMPANY
WELL.          Apache Canyon 35-06: WELL
FLD.              Vermejo Coal: FIELD
LOC.           2422' FNL & 1889' FWL--: LOCATION
STAT.                       CO: State
CNTY.               Las Animas: COUNTY
CTRY. USA : Country
SECT.  : Section
TOWN.  : Township
RANG.  : Range
SRVC.          Patterson Wireline: SERVICE COMPANY
DATE.          Fri Jan 06 08:11:44 2006: LOG DATE
API.              05 071 08540: UNIQUE WELL ID
~Curve Information Block
DEPT.FT            0 000 00 00: Depth
CCL.                          : Casing Collar Locator
TT3.usec                      : CBL 3' Travel Time
AMP3.mV                       : CBL 3' Amplitude
GR.GAPI                       : Gamma Ray
~Parameter Information Block
~A  Depth       CCL         TT3         AMP3         GR     
# ...
   792.0000      0.0000    691.8054      6.3190    148.6798
   792.2500      0.0000    699.0396      6.3071    150.3373
   792.5000      0.0000    710.1324      6.3096    150.0790
   792.7500      0.0000    720.4892      6.3376    149.1526
   793.0000      0.0000    726.8437      6.4060    148.1543
   793.2500      0.0000    729.4081      6.5197    146.9145
   793.5000      0.0000    730.1182      6.6623    145.6974
   793.7500      0.0000    730.2359      6.8001    145.4933
   794.0000      0.0000    730.2626      6.9015    146.7820
   794.2500      0.0000    730.5574      6.9562    148.7120
   794.5000      0.0000    730.7879      6.9813    149.9518
   794.7500      0.0000    729.6600      7.0071    149.8799
   795.0000      0.0000    726.3659      7.0562    148.6375
   795.2500      0.0000    721.4771      7.1311    146.6951
   795.5000      0.0000    715.2663      7.2176    144.9277
   795.7500      0.0000    705.9466      7.2964    144.4861
   796.0000      0.0000    690.9373      7.3492    145.8711
   796.2500      0.0000    669.7474      7.3535    148.4526
   796.5000      0.0000    645.0704      7.2813    151.2618
   796.7500      0.0000    621.0778      7.1166    153.7669
   797.0000      0.0000    600.4506      6.8814    155.7937
   797.2500      0.0000    582.9005      6.6341    157.4530
   797.5000      0.0000    566.8004      6.4360    159.2499
   797.7500      0.0000    551.9463      6.3156    161.5366
   798.0000      0.0000    540.1384      6.2630    163.7159
   798.2500      0.0000    533.6636      6.2493    164.5350
   798.5000      0.0000    534.4536      6.2506    163.3066
   798.7500      0.0000    544.6209      6.2581    160.4010
   799.0000      0.0000    566.2656      6.2749    156.3283
   799.2500      0.0000    599.0591      6.3041    151.0027
   799.5000      0.0000    637.4281      6.3386    144.7132
   799.7500      0.0000    671.1338      6.3628    139.4836
   800.0000      0.0000    690.6014      6.3627    138.2059
   800.2500      0.0000    692.7906      6.3368    141.8290
   800.5000      0.0000    682.0450      6.2940    148.1272
   800.7500      0.0000    665.9275      6.2446    153.8701
   801.0000      0.0000    651.0872      6.1925    157.9917
   801.2500      0.0000    642.1761      6.1374    162.1994
   801.5000      0.0000    642.1075      6.0788    168.3328
   801.7500      0.0000    651.4935      6.0175    175.3832
   802.0000      0.0000    667.5322      5.9559    179.8094
   802.2500      0.0000    684.6923      5.8966    179.1571
   802.5000      0.0000    698.4460      5.8394    174.7466
   802.7500      0.0000    709.5308      5.7804    170.2494
   803.0000      0.0000    723.3452      5.7183    168.0763
   803.2500      0.0000    743.2153      5.6582    167.7097
   803.5000      0.0000    764.4387      5.6073    167.1903
   803.7500      0.0000    777.0869      5.5702    165.4821
   804.0000      0.0000    775.3801      5.5458    163.1575
   804.2500      0.0000    762.9307      5.5268    161.1768
   804.5000      0.0000    748.6438      5.5012    159.5002
   804.7500      0.0000    739.2804      5.4600    157.1339
   805.0000      0.0000    736.2261      5.4081    153.5683
   805.2500      0.0000    737.1970      5.3641    150.0008
   805.5000      0.0000    739.3555      5.3467    148.8443
   805.7500      0.0000    741.2198      5.3607    151.9015
   806.0000      0.0000    742.8506      5.3959    159.0238
   806.2500      0.0000    745.2234      5.4359    168.2231
   806.5000      0.0000    749.5763      5.4666    176.5254
   806.7500      0.0000    757.3660      5.4798    181.0442
   807.0000      0.0000    770.7503      5.4740    180.4365
   807.2500      0.0000    792.6199      5.4535    176.0699
   807.5000      0.0000    824.2839      5.4262    171.3114
   807.7500      0.0000    861.3671      5.4006    168.8613
   808.0000      0.0000    892.5136      5.3826    168.6487
   808.2500      0.0000    904.6901      5.3731    168.7487
   808.5000      0.0000    891.7697      5.3699    168.1531
   808.7500      0.0000    858.4062      5.3716    167.9191
   809.0000      0.0000    815.9940      5.3760    169.5474
   809.2500      0.0000    775.7665      5.3725    172.9480
   809.5000      0.0000    745.6531      5.3401    176.3332
   809.7500      0.0000    732.0053      5.2599    177.4635
   810.0000      0.0000    741.5178      5.1337    174.3663
   810.2500      0.0000    778.2798      4.9919    165.5467
   810.5000      0.0000    837.3272      4.8778    150.9730
   810.7500      0.0000    902.3576      4.8178    133.4076
   811.0000      0.0000    952.7551      4.8055    118.0493
   811.2500      2.0000    974.5139      4.8142    109.9583
   811.5000      0.0000    965.3633      4.8229    111.1787
   811.7500      0.0000    933.2045      4.8307    119.7012
   812.0000      0.0000    892.2239      4.8513    130.9061
   812.2500      0.0000    856.5236      4.8961    140.5036
   812.5000      0.0000    832.2672      4.9695    146.7592
   812.7500      0.0000    815.4573      5.0772    150.2639
   813.0000      0.0000    798.4502      5.2277    151.8896
   813.2500      0.0000    777.9163      5.4162    151.5666
   813.5000      0.0000    756.6533      5.6163    149.1041
   813.7500      0.0000    740.0114      5.7937    145.3092
   814.0000      0.0000    731.9452      5.9250    141.6926
   814.2500      0.0000    733.2839      6.0031    139.3955
   814.5000      0.0000    742.2515      6.0340    138.7306
   814.7500      0.0000    755.1111      6.0341    139.5880
   815.0000      0.0000    766.1453      6.0244    141.8667
   815.2500      0.0000    769.2418      6.0199    145.1078
   815.5000      0.0000    761.8768      6.0219    148.0595
   815.7500      0.0000    748.2086      6.0217    149.4164
   816.0000      0.0000    737.5228      6.0128    148.9829
   816.2500      0.0000    738.1133      5.9988    147.3041
   816.5000      0.0000    751.5486      5.9893    144.1722
   816.7500      0.0000    772.6006      5.9901    138.3985
   817.0000      0.0000    794.4077      5.9986    129.2364
   817.2500      0.0000    812.7924      6.0082    117.4736
   817.5000      0.0000    825.9775      6.0164    105.0715
   817.7500      0.0000    832.6496      6.0263     94.1057
   818.0000      0.0000    832.2642      6.0415     85.9223
   818.2500      0.0000    826.3452      6.0610     80.9345
   818.5000      0.0000    818.3031      6.0779     79.1285
   818.7500      0.0000    812.3631      6.0849     80.7437
   819.0000      0.0000    812.9807      6.0785     86.2401
   819.2500      0.0000    823.4689      6.0598     95.5191
   819.5000      0.0000    843.0316      6.0342    107.4939
   819.7500      0.0000    865.2906      6.0090    120.5156
   820.0000      0.0000    881.3879      5.9906    132.9971
   820.2500      0.0000    885.8114      5.9806    143.6212
   820.5000      0.0000    880.0975      5.9776    151.3404
   820.7500      0.0000    871.2041      5.9791    155.5587
   821.0000      0.0000    865.6428      5.9822    156.3244
   821.2500      0.0000    864.6056      5.9823    154.0701
   821.5000      0.0000    864.4843      5.9745    149.2179
   821.7500      0.0000    861.2476      5.9565    142.4521
   822.0000      0.0000    853.6486      5.9313    135.3176
   822.2500      0.0000    842.9870      5.9048    129.9586
   822.5000      0.0000    831.1939      5.8811    127.7485
   822.7500      0.0000    819.6414      5.8584    128.0105
   823.0000      0.0000    809.3204      5.8328    128.2218
   823.2500      0.0000    801.2106      5.8048    125.7978
   823.5000      0.0000    795.5212      5.7826    119.9103
   823.7500      0.0000    790.4782      5.7764    111.8007
   824.0000      0.0000    782.8234      5.7879    103.6172
   824.2500      0.0000    770.5028      5.8074     96.9778
   824.5000      0.0000    755.0363      5.8206     92.4196
   824.7500      0.0000    740.7556      5.8208     90.0413
   825.0000      0.0000    731.6852      5.8137     90.4115
   825.2500      0.0000    729.1976      5.8124     94.3581
