~Version Information
VERS.                      2.0: CWLS Log ASCII Standard - VERSION 2.0
WRAP.                       NO: One line per depth step
~Well Information Block
STRT.FT               550.0000: 
STOP.FT              1981.5000: 
STEP.FT                 0.2500: 
NULL.                -999.2500: 
COMP.          Pioneer Natural Resources: COMPANY
WELL.          Flying Horse 12-11 Tr: WELL
FLD.           Purgatoire River: FIELD
LOC.           2459' FNL & 410' FWL: LOCATION
STAT.                 Colorado: State
CNTY.               Las Animas: COUNTY
CTRY. USA : Country
SECT. 11 : Section
TOWN. 32S : Township
RANG. 66W : Range
SRVC.                Patterson: SERVICE COMPANY
DATE.          Sat Sep 03 20:17:31 2005: LOG DATE
API.           05 071 08485 00: UNIQUE WELL ID
~Curve Information Block
DEPT.FT            0 000 00 00: Depth
SN.Ohm-m                      : IEL Short Normal
SP.mV                         : IEL Spontaneous Potential
DIR.Ohm-m                     : IEL Induction Resistivity
GR.GAPI                       : Gamma Ray
~Parameter Information Block
~A  Depth        SN          SP         DIR          GR     
# ...
  1756.0000     18.4826    179.2340     18.0353    160.4802
  1756.2500     18.7139    177.8988     18.4239    157.9349
  1756.5000     19.3987    176.5789     18.8854    150.2762
  1756.7500     20.4663    175.6903     19.4017    143.6187
  1757.0000     21.8848    175.6942     19.9778    130.7006
  1757.2500     23.7748    176.8743     20.6398    119.1186
  1757.5000     26.3429    179.1830     21.4141     97.5044
  1757.7500     29.7744    182.3016     22.3003     82.2002
  1758.0000     34.2445    185.8388     23.2584     62.3435
  1758.2500     39.8105    189.4615     24.2281     52.8577
  1758.5000     45.9552    192.8919     25.1712     44.6701
  1758.7500     51.3988    195.9029     26.1025     42.5962
  1759.0000     54.9047    198.4090     27.0711     42.9656
  1759.2500     56.2606    200.5326     28.1011     44.4375
  1759.5000     56.0869    202.4971     29.1389     46.7110
  1759.7500     54.9533    204.4156     30.0541     47.7677
  1760.0000     53.0804    206.1845     30.7087     49.2008
  1760.2500     50.5751    207.5715     31.0365     50.8996
  1760.5000     47.5366    208.3825     31.0515     55.9468
  1760.7500     44.0911    208.5540     30.7824     61.3487
  1761.0000     40.5706    208.1187     30.2208     72.0408
  1761.2500     37.4654    207.1148     29.3398     79.9570
  1761.5000     35.0078    205.5404     28.1475     90.7277
  1761.7500     33.0122    203.3766     26.7070     95.9811
  1762.0000     31.2077    200.5878     25.1128    100.2021
  1762.2500     29.4953    197.0480     23.4609    101.0739
  1762.5000     27.8644    192.5046     21.8397    101.3254
  1762.7500     26.2993    186.7681     20.3260    101.8679
  1763.0000     24.7922    180.0950     18.9756    104.4417
  1763.2500     23.3093    173.4068     17.8149    107.6577
  1763.5000     21.7759    167.9993     16.8416    114.6531
  1763.7500     20.1550    164.8578     16.0322    120.1845
  1764.0000     18.4971    164.1421     15.3492    127.9518
  1764.2500     16.9208    165.2548     14.7474    131.7689
  1764.5000     15.5657    167.3409     14.1858    134.9113
  1764.7500     14.5513    169.7318     13.6422    135.6196
  1765.0000     13.9470    172.0576     13.1203    135.3339
  1765.2500     13.7007    174.1359     12.6422    134.5313
  1765.5000     13.6262    175.8792     12.2304    133.1211
  1765.7500     13.5581    177.2990     11.8950    132.6316
  1766.0000     13.4608    178.5040     11.6318    132.8917
  1766.2500     13.3692    179.5886     11.4304    133.1300
  1766.5000     13.3032    180.4934     11.2829    132.2796
  1766.7500     13.2400    181.0205     11.1902    130.9598
  1767.0000     13.1672    181.0439     11.1611    129.4855
  1767.2500     13.1673    180.7073     11.2097    129.7965
  1767.5000     13.3731    180.3809     11.3497    132.5978
  1767.7500     13.7868    180.3921     11.5899    135.6616
  1768.0000     14.2507    180.7794     11.9308    140.9085
  1768.2500     14.6482    181.2760     12.3625    143.6828
  1768.5000     14.9934    181.4974     12.8657    143.7963
  1768.7500     15.3265    181.1588     13.4165    139.6049
  1769.0000     15.7239    180.2088     13.9950    126.5707
  1769.2500     16.3372    178.8547     14.5913    114.9794
  1769.5000     17.2848    177.4752     15.2062     97.7130
  1769.7500     18.6149    176.4380     15.8473     88.5901
  1770.0000     20.3721    175.9259     16.5227     80.1749
  1770.2500     22.5527    175.8902     17.2365     77.6551
  1770.5000     24.9918    176.1559     17.9831     76.4633
  1770.7500     27.3916    176.5700     18.7425     76.1783
  1771.0000     29.4772    177.0585     19.4735     75.3450
  1771.2500     31.0850    177.5860     20.1085     74.5762
  1771.5000     32.1164    178.1387     20.5539     74.3660
  1771.7500     32.4709    178.7866     20.7114     75.8535
  1772.0000     32.0881    179.7060     20.5213     81.3802
  1772.2500     31.0787    181.0598     20.0033     86.7967
  1772.5000     29.6904    182.8246     19.2536     95.6673
  1772.7500     28.1045    184.7326     18.3963    101.2486
  1773.0000     26.3551    186.3600     17.5308    109.1542
  1773.2500     24.4213    187.2854     16.7125    114.7122
  1773.5000     22.3583    187.2548     15.9664    124.1210
  1773.7500     20.3435    186.3017     15.3076    130.8236
  1774.0000     18.5802    184.7413     14.7508    140.3125
  1774.2500     17.1738    183.0108     14.3062    145.6082
  1774.5000     16.1247    181.4621     13.9709    151.3838
  1774.7500     15.4005    180.2737     13.7277    153.6077
  1775.0000     14.9699    179.5292     13.5542    154.1639
  1775.2500     14.7771    179.3378     13.4350    152.4062
  1775.5000     14.7386    179.8366     13.3689    146.2114
  1775.7500     14.7882    181.0651     13.3640    139.8186
  1776.0000     14.9171    182.8581     13.4245    127.8647
  1776.2500     15.1840    184.8833     13.5415    119.2222
  1776.5000     15.6885    186.7922     13.6942    106.3899
  1776.7500     16.5920    188.3623     13.8615     98.0887
  1777.0000     18.1095    189.5429     14.0347     86.1367
  1777.2500     20.2771    190.4020     14.2173     79.0324
  1777.5000     22.7053    191.0349     14.4131     71.3263
  1777.7500     24.6539    191.5144     14.6099     69.0424
  1778.0000     25.4424    191.9193     14.7746     70.5998
  1778.2500     24.8426    192.3836     14.8639     74.8998
  1778.5000     23.1383    193.0856     14.8434     85.5028
  1778.7500     20.9394    194.1682     14.6993     94.5424
  1779.0000     18.8631    195.6552     14.4368    109.1665
  1779.2500     17.2101    197.4179     14.0717    118.4669
  1779.5000     15.9029    199.1928     13.6260    130.2843
  1779.7500     14.7367    200.6353     13.1296    136.3505
  1780.0000     13.6920    201.4205     12.6193    142.6641
  1780.2500     12.9495    201.4092     12.1317    145.1511
  1780.5000     12.5738    200.8155     11.6954    146.6770
  1780.7500     12.3764    200.2177     11.3257    146.5144
  1781.0000     12.1858    200.3055     11.0259    145.2562
  1781.2500     12.0340    201.4915     10.7917    144.3855
  1781.5000     11.9857    203.6727     10.6145    144.0510
  1781.7500     11.9538    206.3063     10.4830    144.5450
  1782.0000     11.8311    208.7199     10.3840    145.4729
  1782.2500     11.6761    210.4465     10.3035    145.6305
  1782.5000     11.5941    211.3901     10.2294    144.7823
  1782.7500     11.5873    211.7445     10.1545    143.5318
  1783.0000     11.5877    211.7634     10.0763    140.9796
  1783.2500     11.5347    211.5884      9.9940    139.4223
  1783.5000     11.4594    211.2454      9.9042    138.9036
  1783.7500     11.4559    210.7247      9.8019    140.4140
  1784.0000     11.5336    210.0245      9.6853    144.9931
  1784.2500     11.6029    209.1634      9.5595    148.5279
  1784.5000     11.5952    208.2087      9.4356    152.6082
  1784.7500     11.4745    207.2986      9.3260    153.9021
  1785.0000     11.1837    206.5966      9.2417    153.9141
  1785.2500     10.7192    206.1977      9.1909    153.2076
  1785.5000     10.2234    206.0762      9.1789    151.8485
  1785.7500      9.8901    206.1304      9.2068    150.8322
  1786.0000      9.7734    206.2883      9.2727    148.9272
  1786.2500      9.7653    206.5724      9.3732    147.2211
  1786.5000      9.7619    207.0416      9.5044    143.6520
  1786.7500      9.7593    207.6546      9.6610    140.5214
  1787.0000      9.8147    208.2095      9.8335    135.0306
  1787.2500     10.0235    208.4597     10.0077    131.0362
  1787.5000     10.4661    208.3036     10.1683    124.2888
  1787.7500     11.1515    207.8451     10.3032    118.9797
  1788.0000     12.0675    207.2718     10.4069    110.0716
  1788.2500     13.1467    206.7052     10.4791    104.4022
  1788.5000     14.2124    206.1676     10.5214     98.4027
  1788.7500     15.1401    205.6316     10.5350     96.9203
  1789.0000     15.8749    205.0453     10.5216     98.6269
  1789.2500     16.2318    204.3347     10.4860    101.9632
