~Version Information
VERS.                      2.0: CWLS Log ASCII Standard - VERSION 2.0
WRAP.                       NO: One line per depth step
~Well Information Block
STRT.FT                -8.2500: 
STOP.FT              1729.7500: 
STEP.FT                 0.2500: 
NULL.                -999.2500: 
COMP.          Pioneer Natural Resources: COMPANY
WELL.            Dude 43-34 Tr: WELL
FLD.           Purgatorie River: FIELD
LOC.           2083' FSL & 1042' FEL--: LOCATION
PROV.                       CO: PROVINCE
CNTY.               Las Animas: COUNTRY
SRVC.          Patterson Wireline: SERVICE COMPANY
DATE.          Tue Jan 31 09:23:54 2006: LOG DATE
UWI.           05 071 08676 00: UNIQUE WELL ID
~Curve Information Block
DEPT.FT            0 000 00 00: Depth
CCL.                          : Casing Collar Locator
TT3.usec                      : CBL 3' Travel Time
AMP3.mV                       : CBL 3' Amplitude
GR.GAPI                       : Gamma Ray
~Parameter Information Block
~A  Depth       CCL         TT3         AMP3         GR     
# ...
   326.7500      0.0000    758.9063      7.3141     90.8481
   327.0000      0.0000    759.6116      7.2876     89.2767
   327.2500      0.0000    761.9139      7.2689     87.1876
   327.5000      0.0000    765.9540      7.2334     84.3827
   327.7500      0.0000    769.9399      7.1643     80.7137
   328.0000      0.0000    771.3854      7.0622     76.2350
   328.2500      0.0000    768.9790      6.9431     71.0518
   328.5000      0.0000    763.4436      6.8292     65.3721
   328.7500      0.0000    757.0817      6.7363     60.0962
   329.0000      0.0000    752.2520      6.6650     56.9107
   329.2500      0.0000    749.7642      6.6041     57.1298
   329.5000      0.0000    748.7770      6.5420     60.6302
   329.7500      0.0000    748.2509      6.4771     66.3239
   330.0000      0.0000    747.9210      6.4166     73.3815
   330.2500      0.0000    747.6741      6.3674     81.6511
   330.5000      0.0000    746.8491      6.3315     91.0596
   330.7500      0.0000    744.8575      6.3097    100.8256
   331.0000      0.0000    742.0673      6.3032    109.4470
   331.2500      0.0000    739.4946      6.3124    115.6581
   331.5000      0.0000    737.8251      6.3336    119.3970
   331.7500      0.0000    737.0318      6.3586    121.7000
   332.0000      0.0000    736.7299      6.3786    123.5317
   332.2500      0.0000    736.5938      6.3894    124.6831
   332.5000      0.0000    736.4816      6.3922    123.8693
   332.7500      0.0000    736.3553      6.3883    119.9132
   333.0000      0.0000    736.1933      6.3766    112.7623
   333.2500      0.0000    735.9677      6.3583    103.6264
   333.5000      0.0000    735.6830      6.3418     94.6310
   333.7500      0.0000    735.4038      6.3384     88.1801
   334.0000      0.0000    735.2145      6.3511     85.8047
   334.2500      0.0000    735.1411      6.3714     87.0492
   334.5000      0.0000    735.1387      6.3877     89.4531
   334.7500      0.0000    735.1635      6.3951     90.0825
   335.0000      0.0000    735.2288      6.3940     87.7171
   335.2500      0.0000    735.4290      6.3835     83.7301
   335.5000      0.0000    735.9799      6.3610     80.7182
   335.7500      0.0000    737.2716      6.3286     80.4344
   336.0000      0.0000    739.7791      6.2932     82.9924
   336.2500      0.0000    743.7352      6.2633     87.2686
   336.5000      0.0000    748.7767      6.2445     91.4711
   336.7500      0.0000    753.9351      6.2376     93.8182
   337.0000      0.0000    758.0179      6.2396     93.2632
   337.2500      0.0000    760.1478      6.2478     89.6337
   337.5000      0.0000    760.3726      6.2626     83.3881
   337.7500      0.0000    759.8996      6.2845     75.6986
   338.0000      0.0000    760.2214      6.3077     68.4198
   338.2500      0.0000    761.7839      6.3227     63.1765
   338.5000      0.0000    763.8768      6.3250     60.3849
   338.7500      0.0000    765.5614      6.3186     59.4661
   339.0000      0.0000    765.9700      6.3109     59.9691
   339.2500      0.0000    764.0917      6.3025     62.1246
   339.5000      0.0000    759.4053      6.2856     66.2772
   339.7500      0.0000    752.9039      6.2514     72.2483
   340.0000      0.0000    746.8435      6.1998     79.6389
   340.2500      0.0000    743.3677      6.1429     88.2722
   340.5000      0.0000    743.5878      6.0976     97.5086
   340.7500      0.0000    747.5794      6.0737    105.2906
   341.0000      0.0000    754.4825      6.0686    109.0918
   341.2500      0.0000    762.5284      6.0736    108.3352
   341.5000      0.0000    769.6368      6.0823    105.0316
   341.7500      0.0000    774.4783      6.0930    101.4804
   342.0000      0.0000    776.9905      6.1055     98.0041
   342.2500      0.0000    777.9272      6.1200     93.4562
   342.5000      0.0000    778.0650      6.1380     87.3751
   342.7500      0.0000    777.7180      6.1604     80.9763
   343.0000      0.0000    776.6505      6.1852     76.2710
   343.2500      0.0000    774.3765      6.2100     74.6317
   343.5000      0.0000    770.9053      6.2361     75.9455
   343.7500      0.0000    767.3880      6.2647     78.7954
   344.0000      0.0000    765.5529      6.2919     81.7518
   344.2500      0.0000    765.9146      6.3096     84.5909
   344.5000      0.0000    766.8549      6.3121     87.8963
   344.7500      0.0000    766.1093      6.3028     91.6355
   345.0000      0.0000    763.0274      6.2948     94.7738
   345.2500      0.0000    758.7947      6.3060     96.3696
   345.5000      0.0000    754.5357      6.3488     96.6220
   345.7500      0.0000    750.0112      6.4204     96.6060
   346.0000      0.0000    744.6391      6.5037     96.9956
   346.2500      0.0000    739.2557      6.5785     97.1683
   346.5000      0.0000    736.0706      6.6331     95.6659
   346.7500      0.0000    736.8291      6.6654     91.4929
   347.0000      0.0000    741.3181      6.6774     85.0968
   347.2500      0.0000    747.4477      6.6710     78.3761
   347.5000      0.0000    752.5063      6.6494     73.5654
   347.7500      0.0000    754.7665      6.6146     71.7601
   348.0000      0.0000    754.2101      6.5593     72.4416
   348.2500      0.0000    751.2989      6.4601     74.2658
   348.5000      0.0000    745.3509      6.2981     76.0894
   348.7500      0.0000    735.3197      6.0968     77.5758
   349.0000      0.0000    722.4751      5.9167     79.2955
   349.2500      0.0000    711.2805      5.7790     82.0557
   349.5000      0.0000    706.9542      5.6219     85.7435
   349.7500      0.0000    712.0920      5.3833     89.0777
   350.0000      0.0000    725.0634      5.0991     90.7621
   350.2500      0.0000    741.1356      4.8681     90.5188
   350.5000      0.0000    755.6711      4.7425     88.8301
   350.7500      2.0000    766.8107      4.6997     86.3473
   351.0000      0.0000    774.7944      4.6961     83.9863
   351.2500      0.0000    778.7547      4.7262     82.9088
   351.5000      0.0000    775.5176      4.8378     83.6058
   351.7500      0.0000    763.1913      5.0882     85.1369
   352.0000      0.0000    745.8624      5.4623     85.7908
   352.2500      0.0000    732.2656      5.8488     84.5356
   352.5000      0.0000    728.1771      6.1349     81.7046
   352.7500      0.0000    731.6017      6.3027     78.5770
   353.0000      0.0000    736.4598      6.4044     76.5353
   353.2500      0.0000    738.9647      6.4787     76.2366
   353.5000      0.0000    739.2457      6.5281     77.1629
   353.7500      0.0000    738.8537      6.5474     78.2164
   354.0000      0.0000    738.6785      6.5423     78.9798
   354.2500      0.0000    738.8000      6.5252     80.1060
   354.5000      0.0000    739.0479      6.5040     82.3614
   354.7500      0.0000    739.3129      6.4795     85.6890
   355.0000      0.0000    739.5574      6.4504     89.3746
   355.2500      0.0000    739.7871      6.4205     92.8044
   355.5000      0.0000    740.1080      6.3978     95.8367
   355.7500      0.0000    740.8065      6.3866     98.6081
   356.0000      0.0000    742.2430      6.3806    101.1688
   356.2500      0.0000    744.4264      6.3635    103.3117
   356.5000      0.0000    746.5882      6.3187    104.6312
   356.7500      0.0000    747.4863      6.2399    104.6933
   357.0000      0.0000    746.4857      6.1370    103.2981
   357.2500      0.0000    744.2250      6.0302    100.6878
   357.5000      0.0000    742.0229      5.9376     97.5205
   357.7500      0.0000    740.8499      5.8661     94.6520
   358.0000      0.0000    741.0394      5.8124     92.7697
   358.2500      0.0000    742.5666      5.7708     91.9299
   358.5000      0.0000    745.0546      5.7377     91.5152
   358.7500      0.0000    747.5422      5.7105     90.8633
   359.0000      0.0000    748.8384      5.6839     89.7358
   359.2500      0.0000    748.5942      5.6496     88.0840
   359.5000      0.0000    747.7835      5.5993     85.9340
   359.7500      0.0000    747.6445      5.5301     83.7708
   360.0000      0.0000    748.2023      5.4479     82.3120
