~Version Information
VERS.                      2.0: CWLS Log ASCII Standard - VERSION 2.0
WRAP.                       NO: One line per depth step
~Well Information Block
STRT.FT               305.0000: 
STOP.FT              1376.5000: 
STEP.FT                 0.1000: 
NULL.                -999.2500: 
COMP.          Pioneer Natural Resources: COMPANY
WELL.               LPGC 32-32: WELL
FLD.           Purgatoire River: FIELD
LOC.           1937' FNL & 1661' FEL: LOCATION
PROV.                 Colorado: PROVINCE
CNTY.               Las Animas: COUNTRY
SRVC.                Patterson: SERVICE COMPANY
DATE.          Mon Jan 30 07:33:36 2006: LOG DATE
UWI.           05 071 08641 00: UNIQUE WELL ID
~Curve Information Block
DEPT.FT            0 000 00 00: Depth
DCAL.in                       : CDL Caliper
RHOB.g/cc                     : CDL Bulk Density
RHOC.g/cc                     : CDL Density Correction
DPOR.pu                       : CDL Density Porosity
GR.GAPI                       : Gamma Ray
NPOR.pu                       : Neutron Porosity
~Parameter Information Block
~A  Depth       DCAL        RHOB        RHOC        DPOR         GR         NPOR    
# ...
  1005.8000      8.0084      2.4304      0.0290     13.3112     42.6848     23.7783
  1005.9000      8.0084      2.4288      0.0278     13.4044     50.3667     23.1815
  1006.0000      8.0158      2.4164      0.0106     14.1594     54.0874     22.1862
  1006.1000      8.0158      2.4066     -0.0154     14.7497     51.8717     21.7582
  1006.2000      8.0158      2.4055      0.0503     14.8152     46.0752     21.7067
  1006.3000      8.0148      2.4082      0.0164     14.6516     39.5128     21.4854
  1006.4000      8.0148      2.4125      0.0863     14.3948     34.3934     21.2435
  1006.5000      8.0315      2.4158      0.0380     14.1956     29.9588     21.1982
  1006.6000      8.0315      2.4211      0.0463     13.8698     24.5856     21.0695
  1006.7000      8.0315      2.4381      0.0474     12.8427     20.1845     20.6076
  1006.8000      8.0077      2.4613      0.0974     11.4364     19.8281     20.2609
  1006.9000      8.0077      2.4660      0.1190     11.1530     24.7500     20.4387
  1007.0000      8.0018      2.4482      0.0658     12.2285     31.3234     21.0305
  1007.1000      8.0018      2.4372      0.0387     12.8978     34.9744     21.8763
  1007.2000      8.0018      2.4431      0.0835     12.5379     36.0395     23.0213
  1007.3000      8.0015      2.4444      0.0819     12.4635     35.8625     24.3590
  1007.4000      8.0015      2.4287      0.0285     13.4149     35.0322     25.0285
  1007.5000      7.9654      2.3930      0.0694     15.5740     33.1617     24.8512
  1007.6000      7.9654      2.3291      0.0032     19.4483     30.4549     25.0143
  1007.7000      7.9654      2.2410      0.0285     24.7898     29.8573     25.9925
  1007.8000      7.9494      2.1397      0.0039     30.9279     32.9383     26.9099
  1007.9000      7.9494      2.0251     -0.0353     37.8726     37.5311     27.3793
  1008.0000      7.9645      1.8909     -0.0758     46.0050     39.4762     28.2259
  1008.1000      7.9645      1.7430     -0.1209     54.9727     36.4936     29.5413
  1008.2000      7.9645      1.6036     -0.1641     63.4203     34.9192     30.4947
  1008.3000      8.0097      1.5109     -0.1726     69.0375     34.7437     30.9160
  1008.4000      8.0097      1.4988     -0.0764     69.7719     38.8860     31.3123
  1008.5000      8.0421      1.5622      0.0221     65.9303     43.2923     31.7942
  1008.6000      8.0421      1.6660      0.1141     59.6343     44.7243     32.1170
  1008.7000      8.0421      1.7836      0.1354     52.5069     44.1634     32.3200
  1008.8000      8.0023      1.9107      0.1576     44.8039     48.1915     32.5426
  1008.9000      8.0023      2.0470      0.1868     36.5477     60.7310     32.5438
  1009.0000      8.1116      2.1765      0.2450     28.6980     75.1017     31.8754
  1009.1000      8.1116      2.2782      0.2348     22.5306     83.7685     30.8756
  1009.2000      8.1116      2.3462      0.1673     18.4104     97.5652     30.2494
  1009.3000      8.2271      2.3789      0.1594     16.4298    106.2116     29.9246
  1009.4000      8.2271      2.3819      0.0011     16.2456    112.3168     29.7139
  1009.5000      8.1934      2.3783      0.0199     16.4642    117.4740     29.7331
  1009.6000      8.1934      2.3845     -0.0405     16.0912    127.0915     29.9122
  1009.7000      8.1934      2.4063      0.0070     14.7692    136.8076     30.0436
  1009.8000      8.1509      2.4407      0.0275     12.6876    139.2976     29.6505
  1009.9000      8.1509      2.4779      0.0739     10.4307    136.5547     28.5648
  1010.0000      8.0844      2.5150      0.0772      8.1825    130.5919     27.5242
  1010.1000      8.0844      2.5533      0.1139      5.8594    126.6826     27.2782
  1010.2000      8.0844      2.5811      0.1413      4.1778    130.8528     27.9519
  1010.3000      7.9868      2.5880      0.1356      3.7554    135.5179     28.8604
  1010.4000      7.9868      2.5892      0.1442      3.6820    132.0511     28.8330
  1010.5000      7.9543      2.5977      0.1789      3.1725    123.4007     27.9852
  1010.6000      7.9543      2.6036      0.1328      2.8135    117.5464     27.6421
  1010.7000      7.9543      2.6001      0.1149      3.0222    119.3703     27.9060
  1010.8000      7.9219      2.5926      0.1151      3.4760    125.7595     27.8089
  1010.9000      7.9219      2.5849      0.1282      3.9465    133.9223     27.4115
  1011.0000      7.9213      2.5735      0.1087      4.6377    142.9453     27.6714
  1011.1000      7.9213      2.5544      0.0920      5.7922    145.5372     28.7499
  1011.2000      7.9213      2.5262      0.1167      7.5047    141.4488     29.8969
  1011.3000      7.9280      2.4975      0.0524      9.2402    138.4164     30.4145
  1011.4000      7.9280      2.4869      0.0269      9.8820    137.5121     30.1748
  1011.5000      7.9270      2.4818      0.1661     10.1954    134.2120     29.6329
  1011.6000      7.9270      2.4487      0.0868     12.2001    125.5545     29.2909
  1011.7000      7.9270      2.3986      0.0551     15.2358    117.2457     29.2993
  1011.8000      7.9338      2.3731     -0.0118     16.7807    115.2286     29.6105
  1011.9000      7.9338      2.3822      0.0501     16.2330    119.0730     30.0014
  1012.0000      7.9720      2.3897      0.1058     15.7777    127.6631     30.1906
  1012.1000      7.9720      2.3638      0.0641     17.3446    135.9340     30.2224
  1012.2000      7.9720      2.3109      0.0309     20.5516    136.6941     30.1825
  1012.3000      7.9892      2.2494      0.0104     24.2769    132.8014     29.9179
  1012.4000      7.9892      2.1887      0.0244     27.9558    131.0968     29.6179
  1012.5000      7.9719      2.1416     -0.0356     30.8107    128.5876     29.8664
  1012.6000      7.9719      2.1305     -0.0710     31.4846    122.7243     30.5840
  1012.7000      7.9719      2.1594     -0.0227     29.7306    116.3991     31.1118
  1012.8000      7.9744      2.2091      0.0457     26.7208    109.0307     31.3738
  1012.9000      7.9744      2.2737      0.0778     22.8057    101.5173     31.3995
  1013.0000      7.9968      2.3527      0.1779     18.0185     99.8768     30.8494
  1013.1000      7.9968      2.4271      0.2411     13.5113    104.8265     29.9678
  1013.2000      7.9968      2.4861      0.2377      9.9347    110.2793     29.6171
  1013.3000      7.9311      2.5294      0.2702      7.3063    111.5570     29.9033
  1013.4000      7.9311      2.5546      0.1732      5.7827    110.8438     30.3016
  1013.5000      7.9068      2.5680      0.1046      4.9703    109.9860     30.5395
  1013.6000      7.9068      2.5794      0.1150      4.2803    108.3056     30.3439
  1013.7000      7.9068      2.5939      0.1257      3.3984    106.8275     29.4230
  1013.8000      7.9124      2.6086      0.1330      2.5095    107.2662     28.0902
  1013.9000      7.9124      2.6087      0.1302      2.5029    107.7239     26.9811
  1014.0000      7.9019      2.5966      0.0531      3.2376    103.7331     26.3142
  1014.1000      7.9019      2.5996      0.0619      3.0521     98.0722     26.2543
  1014.2000      7.9019      2.6204      0.1151      1.7949     96.4780     26.9552
  1014.3000      7.8954      2.6279      0.1113      1.3408     98.3444     27.5934
  1014.4000      7.8954      2.6119      0.0275      2.3107    101.9889     27.3757
  1014.5000      7.8960      2.5938      0.0592      3.4060    106.1973     26.7453
  1014.6000      7.8960      2.5868      0.0392      3.8275    107.7703     26.3023
  1014.7000      7.8960      2.5883      0.0531      3.7406    108.1320     25.9936
  1014.8000      7.8938      2.5890      0.0729      3.6952    111.3516     25.9159
  1014.9000      7.8938      2.5813      0.0819      4.1611    114.2126     26.2598
  1015.0000      7.9207      2.5690      0.0524      4.9062    113.4448     26.7699
  1015.1000      7.9207      2.5627      0.0200      5.2926    114.5222     27.2337
  1015.2000      7.9207      2.5657      0.0377      5.1106    120.2816     27.3613
  1015.3000      7.9275      2.5711      0.0054      4.7837    125.1039     26.8311
