~Version Information
VERS.                      2.0: CWLS Log ASCII Standard - VERSION 2.0
WRAP.                       NO: One line per depth step
~Well Information Block
STRT.FT                -7.0000: 
STOP.FT              2328.5000: 
STEP.FT                 0.2500: 
NULL.                -999.2500: 
COMP.          Pioneer Natural Resources: COMPANY
WELL.              Rolls 14-14: WELL
FLD.           Purgatorie River: FIELD
LOC.           572' FSL & 856' FWL--: LOCATION
PROV.                       CO: PROVINCE
CNTY.               Las Animas: COUNTRY
SRVC.          Patterson Wireline: SERVICE COMPANY
DATE.          Mon Aug 08 10:10:54 2005: LOG DATE
UWI.           05 071 08455 00: UNIQUE WELL ID
~Curve Information Block
DEPT.FT            0 000 00 00: Depth
CCL.                          : Casing Collar Locator
TT3.usec                      : CBL 3' Travel Time
AMP3.mV                       : CBL 3' Amplitude
GR.GAPI                       : Gamma Ray
~Parameter Information Block
~A  Depth       CCL         TT3         AMP3         GR     
# ...
   160.5000      0.0000    772.0214      7.2895     69.0313
   160.7500      0.0000    772.3300      7.3237     70.7514
   161.0000      0.0000    771.7598      7.3309     70.3566
   161.2500      0.0000    770.1200      7.3186     67.8945
   161.5000      0.0000    767.3194      7.3078     64.0127
   161.7500      0.0000    763.8363      7.3177     59.5864
   162.0000      0.0000    760.7422      7.3509     55.4471
   162.2500      0.0000    759.1582      7.3934     52.1341
   162.5000      0.0000    759.3549      7.4272     49.8067
   162.7500      0.0000    760.2784      7.4433     48.5756
   163.0000      0.0000    760.1581      7.4430     48.7567
   163.2500      0.0000    757.7219      7.4329     50.4905
   163.5000      0.0000    752.9987      7.4217     53.3117
   163.7500      0.0000    747.2891      7.4185     56.3439
   164.0000      0.0000    742.4984      7.4309     58.4887
   164.2500      0.0000    740.1707      7.4607     58.3988
   164.5000      0.0000    740.6840      7.5024     55.2240
   164.7500      0.0000    743.2599      7.5460     49.7892
   165.0000      0.0000    746.7710      7.5801     44.3750
   165.2500      0.0000    750.3567      7.5934     41.0592
   165.5000      0.0000    753.2399      7.5773     40.5563
   165.7500      0.0000    754.5739      7.5317     42.4155
   166.0000      0.0000    754.0114      7.4676     45.7363
   166.2500      0.0000    752.1964      7.4024     49.6852
   166.5000      0.0000    750.2561      7.3524     53.8177
   166.7500      0.0000    748.9006      7.3288     58.0631
   167.0000      0.0000    748.1656      7.3376     62.2017
   167.2500      0.0000    747.7712      7.3783     65.4810
   167.5000      0.0000    747.4760      7.4414     67.2000
   167.7500      0.0000    747.1783      7.5090     67.5778
   168.0000      0.0000    746.9095      7.5620     67.3284
   168.2500      0.0000    746.7969      7.5877     66.4566
   168.5000      0.0000    746.9826      7.5825     64.4920
   168.7500      0.0000    747.5990      7.5526     61.9909
   169.0000      0.0000    748.9131      7.5136     60.5947
   169.2500      0.0000    751.4907      7.4840     61.0454
   169.5000      0.0000    755.9763      7.4761     61.9514
   169.7500      0.0000    762.3777      7.4929     61.1094
   170.0000      0.0000    769.4908      7.5316     57.5924
   170.2500      0.0000    775.2261      7.5859     52.1657
   170.5000      0.0000    777.6695      7.6430     46.3577
   170.7500      0.0000    776.0004      7.6868     41.8410
   171.0000      0.0000    770.8098      7.7064     40.2350
   171.2500      0.0000    763.8477      7.7023     42.4909
   171.5000      0.0000    757.2100      7.6853     48.1386
   171.7500      0.0000    752.3055      7.6723     55.3398
   172.0000      0.0000    749.3876      7.6813     61.7342
   172.2500      0.0000    747.8940      7.7232     65.3785
   172.5000      0.0000    747.0134      7.7962     65.4678
   172.7500      0.0000    745.9073      7.8872     62.6996
   173.0000      0.0000    743.7247      7.9807     58.9663
   173.2500      0.0000    739.8904      8.0701     56.4306
   173.5000      0.0000    734.7926      8.1621     56.4896
   173.7500      0.0000    730.1677      8.2659     59.1051
   174.0000      0.0000    728.2926      8.3747     62.8605
   174.2500      0.0000    730.2853      8.4590     65.8144
   174.5000      0.0000    735.1426      8.4869     66.6544
   174.7500      0.0000    740.6094      8.4542     65.4328
   175.0000      0.0000    744.9693      8.3916     63.5139
   175.2500      0.0000    748.0114      8.3422     62.6326
   175.5000      0.0000    750.5355      8.3301     63.4722
   175.7500      0.0000    753.1876      8.3516     65.1199
   176.0000      0.0000    755.7839      8.3890     66.1720
   176.2500      0.0000    757.7917      8.4290     66.0815
   176.5000      0.0000    759.4700      8.4674     64.9821
   176.7500      0.0000    762.1391      8.5039     62.7752
   177.0000      0.0000    766.9288      8.5339     59.4321
   177.2500      0.0000    773.6009      8.5486     56.0564
   177.5000      0.0000    781.2902      8.5407     54.5078
   177.7500      0.0000    790.6568      8.5088     55.5479
   178.0000      0.0000    804.9792      8.4561     57.9169
   178.2500      0.0000    828.2593      8.3901     59.6219
   178.5000      0.0000    861.2180      8.3243     59.9175
   178.7500      0.0000    898.9158      8.2754     59.8916
   179.0000      0.0000    933.0036      8.2517     61.3760
   179.2500      0.0000    956.5851      8.2445     65.4547
   179.5000      0.0000    967.0357      8.2331     71.8681
   179.7500      0.0000    965.9404      8.2020     79.5349
   180.0000      0.0000    958.4014      8.1530     87.3351
   180.2500      0.0000    951.2991      8.1009     94.3304
   180.5000      0.0000    948.7828      8.0601     99.5821
   180.7500      0.0000    948.3264      8.0350    102.3681
   181.0000      0.0000    943.3748      8.0217    102.9085
   181.2500      0.0000    930.7563      8.0140    102.5607
   181.5000      0.0000    913.6067      8.0078    102.7179
   181.7500      0.0000    896.6191      8.0005    103.4489
   182.0000      0.0000    881.0223      7.9896    103.5630
   182.2500      0.0000    865.4592      7.9711    101.9822
   182.5000      0.0000    849.4090      7.9416     98.6434
   182.7500      0.0000    833.7501      7.8999     94.1227
   183.0000      0.0000    819.3661      7.8492     88.9479
   183.2500      0.0000    806.8810      7.7971     83.5266
   183.5000      0.0000    797.0703      7.7544     78.3441
   183.7500      0.0000    790.3884      7.7290     73.9044
   184.0000      0.0000    786.2499      7.7199     70.6876
   184.2500      0.0000    783.3147      7.7166     69.3126
   184.5000      0.0000    780.5944      7.7058     70.2806
   184.7500      0.0000    778.2388      7.6817     73.0953
   185.0000      0.0000    777.1974      7.6498     76.0081
   185.2500      0.0000    778.0002      7.6196     77.3191
   185.5000      0.0000    780.0348      7.5959     76.8481
   185.7500      0.0000    782.1161      7.5755     75.6494
   186.0000      0.0000    783.4869      7.5535     74.5761
   186.2500      0.0000    784.0969      7.5311     73.7681
   186.5000      0.0000    784.2313      7.5179     73.1394
   186.7500      0.0000    784.1610      7.5275     72.5903
   187.0000      0.0000    784.0408      7.5693     71.9928
   187.2500      0.0000    783.9161      7.6404     71.4367
   187.5000      0.0000    783.7764      7.7253     71.1550
   187.7500      0.0000    783.6550      7.8033     70.9568
   188.0000      0.0000    783.8450      7.8596     70.1721
   188.2500      0.0000    785.2051      7.8906     68.6116
   188.5000      0.0000    789.4515      7.9030     67.3037
   188.7500      0.0000    798.7181      7.9105     67.7023
   189.0000      0.0000    813.7044      7.9296     69.9884
   189.2500      0.0000    831.6154      7.9713     72.3916
   189.5000      0.0000    846.9988      8.0290     72.4570
   189.7500      0.0000    855.8848      8.0768     69.1015
   190.0000      0.0000    858.8657      8.0854     63.5661
   190.2500      0.0000    860.4577      8.0320     58.4966
   190.5000      0.0000    866.8757      7.8850     55.9149
   190.7500      0.0000    883.3983      7.5924     55.7296
   191.0000      0.0000    910.2029      7.1220     56.0965
   191.2500      0.0000    939.2638      6.5319     55.2735
   191.5000      0.0000    958.0016      5.9665     53.1351
   191.7500      0.0000    959.2493      5.5507     50.9504
   192.0000      0.0000    948.2400      5.2964     49.8856
   192.2500      2.0000    937.6198      5.1252     49.9163
   192.5000      2.0000    934.5267      4.9606     50.1411
   192.7500      0.0000    934.2042      4.7963     49.8429
   193.0000      0.0000    926.5455      4.6949     49.0720
   193.2500      0.0000    906.3605      4.7272     48.6562
   193.5000      0.0000    876.9781      4.8939     49.9946
   193.7500      0.0000    846.9432      5.1182     54.2451
