~Version Information
VERS.                      2.0: CWLS Log ASCII Standard - VERSION 2.0
WRAP.                       NO: One line per depth step
~Well Information Block
STRT.FT                14.0000: 
STOP.FT              1631.0000: 
STEP.FT                 0.1000: 
NULL.                -999.2500: 
COMP.          Pioneer Natural Resources: COMPANY
WELL.            Bluesky 44-17: WELL
FLD.           Purgatorie River: FIELD
LOC.           39' FSL & 288' FEL: LOCATION
STAT.                 Colorado: State
CNTY.               Las Animas: COUNTY
CTRY. USA : Country
SECT. 17 : Section
TOWN. 33S : Township
RANG. 66W : Range
SRVC.                Patterson: SERVICE COMPANY
DATE.          Thu Sep 08 07:30:20 2005: LOG DATE
API. 05-071-08511                         : UNIQUE WELL ID
~Curve Information Block
DEPT.FT            0 000 00 00: Depth
DCAL.in                       : CDL Caliper
RHOB.g/cc                     : CDL Bulk Density
RHOC.g/cc                     : CDL Density Correction
DPOR.pu                       : CDL Density Porosity
GR.GAPI                       : Gamma Ray
NPOR.pu                       : Neutron Porosity
~Parameter Information Block
~A  Depth       DCAL        RHOB        RHOC        DPOR         GR         NPOR    
# ...
   647.6000      7.9833      2.6258      0.2564      1.4671    114.7338     25.8578
   647.7000      7.9833      2.7084      0.3028     -3.5378    109.6067     26.1382
   647.8000      8.0136      2.7450      0.2710     -5.7552    105.0850     26.3983
   647.9000      8.0136      2.7497      0.2348     -6.0454    100.2603     26.3875
   648.0000      8.0111      2.7478      0.2210     -5.9298     94.5641     26.0715
   648.1000      8.0111      2.7423      0.2362     -5.5965     89.5182     25.6822
   648.2000      8.0111      2.7274      0.1722     -4.6891     86.7511     25.4700
   648.3000      7.9823      2.7055      0.1472     -3.3650     84.4583     25.4018
   648.4000      7.9823      2.6760      0.1397     -1.5763     82.0153     25.1246
   648.5000      7.9512      2.6367      0.0696      0.8067     82.4619     24.7509
   648.6000      7.9512      2.6022      0.0256      2.8967     85.7770     24.6070
   648.7000      7.9512      2.5881      0.0201      3.7509     88.0390     24.4580
   648.8000      7.9424      2.5920      0.0367      3.5173     87.9893     24.1178
   648.9000      7.9424      2.6032      0.0181      2.8388     87.9030     23.8605
   649.0000      7.9495      2.6136      0.0465      2.2079     88.5269     23.8766
   649.1000      7.9495      2.6189      0.0313      1.8820     88.4113     24.0470
   649.2000      7.9495      2.6205      0.0811      1.7872     86.9180     24.1436
   649.3000      7.9640      2.6265      0.0331      1.4226     83.8730     23.8574
   649.4000      7.9640      2.6463      0.0913      0.2235     80.0408     23.1965
   649.5000      8.0685      2.6730      0.0672     -1.3927     76.7433     22.6380
   649.6000      8.0685      2.6908      0.0784     -2.4736     74.0270     22.4104
   649.7000      8.0685      2.6962      0.0561     -2.7994     72.4619     22.3635
   649.8000      7.9562      2.6958      0.0827     -2.7737     72.2957     22.4441
   649.9000      7.9562      2.6926      0.0683     -2.5817     72.4202     22.6832
   650.0000      7.9201      2.6842      0.0784     -2.0738     71.9656     22.8999
   650.1000      7.9201      2.6629      0.0782     -0.7847     70.0565     22.8090
   650.2000      7.9201      2.6278      0.0511      1.3467     67.2404     22.3964
   650.3000      7.9214      2.5966     -0.0021      3.2373     65.1123     21.9870
   650.4000      7.9214      2.5905     -0.0043      3.6055     64.0159     21.7704
   650.5000      7.9200      2.6084     -0.0012      2.5186     64.3676     21.6301
   650.6000      7.9200      2.6284      0.0645      1.3082     67.7207     21.5720
   650.7000      7.9200      2.6336      0.0498      0.9950     73.6531     21.5984
   650.8000      7.9141      2.6307      0.0167      1.1667     77.6540     21.6449
   650.9000      7.9141      2.6365      0.0355      0.8178     76.9734     21.8435
   651.0000      7.9155      2.6591      0.0487     -0.5525     73.9621     22.2791
   651.1000      7.9155      2.6865      0.0971     -2.2129     70.4771     22.7607
   651.2000      7.9155      2.6947      0.0819     -2.7073     66.8399     23.0167
   651.3000      7.9097      2.6829      0.0590     -1.9964     64.4641     23.1116
   651.4000      7.9097      2.6746      0.0545     -1.4929     64.0030     23.3427
   651.5000      7.9103      2.6820      0.0714     -1.9365     64.8877     23.6005
   651.6000      7.9103      2.6974      0.0606     -2.8729     66.8474     23.6666
   651.7000      7.9103      2.7037      0.0968     -3.2567     70.2178     23.6754
   651.8000      7.9198      2.6939      0.0208     -2.6607     75.5240     23.7005
   651.9000      7.9198      2.6765      0.0929     -1.6079     81.8970     23.5394
   652.0000      7.9139      2.6541      0.0262     -0.2487     86.9380     23.1039
   652.1000      7.9139      2.6343     -0.0128      0.9496     89.4951     22.7079
   652.2000      7.9139      2.6303      0.0560      1.1953     90.0737     22.5885
   652.3000      7.9034      2.6328      0.1014      1.0401     89.3134     22.4951
   652.4000      7.9034      2.6322      0.0816      1.0759     87.8922     22.4727
   652.5000      7.8918      2.6362      0.1331      0.8340     87.9128     22.8535
   652.6000      7.8918      2.6419      0.1595      0.4918     90.8724     23.4441
   652.7000      7.8918      2.6445      0.1200      0.3338     95.4145     24.0401
   652.8000      7.8942      2.6588      0.0796     -0.5318    100.3969     24.7930
   652.9000      7.8942      2.6896      0.1322     -2.3984    105.6086     25.6950
   653.0000      7.9297      2.7149      0.1275     -3.9358    108.5808     26.3801
   653.1000      7.9297      2.7197      0.1140     -4.2224    108.4764     26.5166
   653.2000      7.9297      2.7111      0.0952     -3.7027    110.6383     26.3693
   653.3000      7.9317      2.6995      0.0645     -2.9996    118.1840     26.3454
   653.4000      7.9317      2.6870      0.0845     -2.2412    126.7216     26.4767
   653.5000      7.9377      2.6671      0.0236     -1.0379    131.3458     26.7702
   653.6000      7.9377      2.6182      0.1324      1.9275    133.5337     27.2052
   653.7000      7.9377      2.5326      0.1089      7.1144    136.7014     27.4354
   653.8000      7.9230      2.4720     -0.0159     10.7869    139.5650     27.2344
   653.9000      7.9230      2.4851      0.0883      9.9925    141.9490     26.8120
   654.0000      7.9514      2.5184      0.0834      7.9782    144.5785     26.3159
   654.1000      7.9514      2.5156      0.0531      8.1478    146.1944     25.7920
   654.2000      7.9514      2.4803      0.0520     10.2873    146.3931     25.2357
   654.3000      7.9510      2.4290      0.0495     13.3942    143.6776     24.5767
   654.4000      7.9510      2.3739     -0.0694     16.7303    138.8367     23.8399
   654.5000      8.1438      2.3227      0.0231     19.8359    138.0358     23.1323
   654.6000      8.1438      2.2782     -0.0327     22.5311    143.7146     22.5842
   654.7000      8.1438      2.2483      0.0079     24.3451    149.4987     22.2795
   654.8000      8.2739      2.2273      0.0926     25.6171    150.9850     22.1366
   654.9000      8.2739      2.2108      0.0694     26.6199    151.6782     22.0574
   655.0000      8.2959      2.2092      0.1865     26.7121    153.4247     21.9525
   655.1000      8.2959      2.2111      0.2893     26.6008    154.1306     21.6411
   655.2000      8.2959      2.1985      0.2778     27.3630    152.8026     21.3013
   655.3000      8.1216      2.1861      0.2481     28.1133    150.7798     21.1734
   655.4000      8.1216      2.1927      0.2507     27.7174    149.0306     21.0750
   655.5000      7.9916      2.2013      0.2745     27.1946    148.1998     20.9261
   655.6000      7.9916      2.1816      0.2289     28.3892    148.3783     20.7249
   655.7000      7.9916      2.1323      0.1656     31.3746    148.3126     20.5459
   655.8000      8.1696      2.0802      0.1255     34.5327    146.3244     20.5458
   655.9000      8.1696      2.0521      0.0822     36.2345    142.5289     20.6044
   656.0000      8.2157      2.0579      0.0516     35.8864    140.6329     20.6152
   656.1000      8.2157      2.0907      0.0387     33.8983    143.8110     20.6990
   656.2000      8.2157      2.1437      0.0396     30.6846    148.3595     21.0985
   656.3000      8.2153      2.2111      0.1432     26.5994    148.5410     21.7775
   656.4000      8.2153      2.2695      0.2790     23.0600    145.7632     22.2837
   656.5000      8.2174      2.2919      0.3298     21.7055    145.5829     22.4216
   656.6000      8.2174      2.2776      0.3056     22.5726    147.8794     22.4034
   656.7000      8.2174      2.2480      0.1877     24.3628    147.0523     22.2917
   656.8000      8.1390      2.2204      0.1082     26.0375    142.3564     22.0498
   656.9000      8.1390      2.1961      0.0484     27.5090    137.7731     21.8369
   657.0000      8.1775      2.1791      0.0174     28.5408    135.3942     21.7873
   657.1000      8.1775      2.1797      0.0569     28.5050    135.2984     21.8615
