~Version Information
VERS.                      2.0: CWLS Log ASCII Standard - VERSION 2.0
WRAP.                       NO: One line per depth step
~Well Information Block
STRT.FT               595.7000: 
STOP.FT              1567.2000: 
STEP.FT                 0.1000: 
NULL.                -999.2500: 
COMP.          Pioneer Natural Resources: COMPANY
WELL.           Butch 33-10 Tr: WELL
FLD.           Purgatoire River: FIELD
LOC.           2309' FSL & 1337' FEL--: LOCATION
PROV.                 Colorado: PROVINCE
CNTY.               Las Animas: COUNTRY
SRVC.                Patterson: SERVICE COMPANY
DATE.          Mon Jan 16 07:34:05 2006: LOG DATE
UWI.           05 071 08649 00: UNIQUE WELL ID
~Curve Information Block
DEPT.FT            0 000 00 00: Depth
DCAL.in                       : CDL Caliper
RHOB.g/cc                     : CDL Bulk Density
RHOC.g/cc                     : CDL Density Correction
DPOR.pu                       : CDL Density Porosity
GR.GAPI                       : Gamma Ray
~Parameter Information Block
~A  Depth       DCAL        RHOB        RHOC        DPOR         GR     
# ...
   606.9000      8.1289      2.4610     -0.1672     11.4568     39.8955
   607.0000      8.1266      2.4834     -0.1687     10.0969     39.4580
   607.1000      8.1266      2.5215     -0.1170      7.7857     37.7393
   607.2000      8.1266      2.5476     -0.1050      6.2067     38.7093
   607.3000      8.1242      2.5476     -0.1088      6.2064     42.6993
   607.4000      8.1242      2.5299     -0.1504      7.2765     46.5257
   607.5000      8.1263      2.5057     -0.1791      8.7477     47.8410
   607.6000      8.1263      2.4794     -0.1811     10.3373     48.2481
   607.7000      8.1263      2.4577     -0.2311     11.6569     50.7398
   607.8000      8.1295      2.4445     -0.1700     12.4574     53.8195
   607.9000      8.1295      2.4297     -0.2152     13.3506     54.4970
   608.0000      8.1303      2.4074     -0.2303     14.7046     52.8803
   608.1000      8.1303      2.3823     -0.2040     16.2256     50.6891
   608.2000      8.1303      2.3658     -0.3095     17.2228     50.0119
   608.3000      8.1313      2.3745     -0.2158     16.6964     50.3902
   608.4000      8.1313      2.4112     -0.2374     14.4740     50.9779
   608.5000      8.1328      2.4580     -0.1726     11.6383     53.5076
   608.6000      8.1328      2.4814     -0.1355     10.2202     58.1187
   608.7000      8.1328      2.4695     -0.1831     10.9380     60.3481
   608.8000      8.1302      2.4504     -0.2234     12.0998     58.1329
   608.9000      8.1302      2.4414     -0.1586     12.6434     55.1406
   609.0000      8.1251      2.4391     -0.1730     12.7844     52.7907
   609.1000      8.1251      2.4501     -0.1847     12.1142     50.6585
   609.2000      8.1251      2.4724     -0.1215     10.7654     47.6760
   609.3000      8.1275      2.4861     -0.1739      9.9321     42.8574
   609.4000      8.1275      2.4806     -0.1932     10.2660     39.4217
   609.5000      8.1325      2.4589     -0.1768     11.5814     40.2829
   609.6000      8.1325      2.4362     -0.2415     12.9562     44.2037
   609.7000      8.1325      2.4257     -0.2507     13.5966     48.4612
   609.8000      8.1338      2.4247     -0.2268     13.6571     50.4583
   609.9000      8.1338      2.4210     -0.1706     13.8798     48.1782
   610.0000      8.1331      2.4126     -0.2656     14.3898     42.0665
   610.1000      8.1331      2.4114     -0.2217     14.4628     35.7282
   610.2000      8.1331      2.4143     -0.2022     14.2857     32.8374
   610.3000      8.1321      2.4126     -0.2163     14.3851     34.1662
   610.4000      8.1321      2.4095     -0.2630     14.5738     37.2910
   610.5000      8.1304      2.4023     -0.1880     15.0093     39.7008
   610.6000      8.1304      2.3879     -0.2424     15.8835     41.5359
   610.7000      8.1304      2.3807     -0.3125     16.3195     41.9981
   610.8000      8.1296      2.3827     -0.2024     16.1990     39.2872
   610.9000      8.1296      2.3753     -0.2516     16.6484     34.9485
   611.0000      8.1301      2.3585     -0.2173     17.6657     32.2341
   611.1000      8.1301      2.3414     -0.2659     18.7026     31.8326
   611.2000      8.1301      2.3305     -0.2984     19.3654     32.3414
   611.3000      8.1313      2.3404     -0.2782     18.7607     32.7344
   611.4000      8.1313      2.3729     -0.1758     16.7923     33.1468
   611.5000      8.1323      2.4024     -0.2063     15.0086     33.4558
   611.6000      8.1323      2.4143     -0.1969     14.2854     33.0890
   611.7000      8.1323      2.4232     -0.2120     13.7450     33.1892
   611.8000      8.1324      2.4366     -0.1839     12.9348     34.4280
   611.9000      8.1324      2.4355     -0.1815     13.0023     35.4369
   612.0000      8.1327      2.4143     -0.2464     14.2874     35.5630
   612.1000      8.1327      2.4009     -0.2500     15.0948     35.8833
   612.2000      8.1327      2.4110     -0.2371     14.4845     37.1445
   612.3000      8.1323      2.4216     -0.1668     13.8449     38.4130
   612.4000      8.1323      2.4068     -0.2352     14.7403     39.2792
   612.5000      8.1299      2.3726     -0.2260     16.8114     39.9105
   612.6000      8.1299      2.3404     -0.2724     18.7616     39.7736
   612.7000      8.1299      2.3148     -0.2049     20.3178     39.5627
   612.8000      8.1268      2.2882     -0.2841     21.9253     39.7881
   612.9000      8.1268      2.2688     -0.2760     23.1006     39.8154
   613.0000      8.1264      2.2648     -0.2542     23.3483     39.4608
   613.1000      8.1264      2.2651     -0.2176     23.3273     38.5146
   613.2000      8.1264      2.2615     -0.2743     23.5477     38.5660
   613.3000      8.1294      2.2696     -0.2738     23.0531     42.0197
   613.4000      8.1294      2.3027     -0.1753     21.0480     47.4761
   613.5000      8.1311      2.3333     -0.1026     19.1928     51.6992
   613.6000      8.1311      2.3299     -0.1258     19.3986     53.4533
   613.7000      8.1311      2.3130     -0.2103     20.4267     54.0511
   613.8000      8.1303      2.3152     -0.1623     20.2889     56.6336
   613.9000      8.1303      2.3336     -0.1441     19.1782     63.7649
   614.0000      8.1268      2.3512     -0.1594     18.1080     73.6768
   614.1000      8.1268      2.3478     -0.0784     18.3159     79.2647
   614.2000      8.1268      2.3096     -0.1638     20.6281     75.2587
   614.3000      8.1227      2.2609     -0.2326     23.5815     66.7384
   614.4000      8.1227      2.2350     -0.2124     25.1530     63.6274
   614.5000      8.1242      2.2345     -0.2263     25.1830     67.8299
   614.6000      8.1242      2.2422     -0.1645     24.7157     73.9691
   614.7000      8.1242      2.2447     -0.1840     24.5667     77.2781
   614.8000      8.1285      2.2478     -0.2157     24.3759     75.5676
   614.9000      8.1285      2.2629     -0.1483     23.4590     70.1335
   615.0000      8.1302      2.2823     -0.1345     22.2872     64.1578
   615.1000      8.1302      2.2940     -0.1797     21.5764     61.0410
   615.2000      8.1302      2.3024     -0.1906     21.0689     63.7610
   615.3000      8.1315      2.3179     -0.1471     20.1256     71.1701
   615.4000      8.1315      2.3419     -0.1389     18.6725     77.6475
   615.5000      8.1339      2.3617     -0.1312     17.4733     79.1661
   615.6000      8.1339      2.3587     -0.0965     17.6565     76.4560
   615.7000      8.1339      2.3329     -0.1698     19.2192     72.9737
   615.8000      8.1348      2.3071     -0.1916     20.7808     71.2815
   615.9000      8.1348      2.2878     -0.1580     21.9520     69.7508
   616.0000      8.1360      2.2651     -0.1470     23.3281     65.7791
   616.1000      8.1360      2.2479     -0.2177     24.3676     62.2170
   616.2000      8.1360      2.2511     -0.1811     24.1767     64.1135
   616.3000      8.1366      2.2658     -0.1227     23.2854     68.1999
   616.4000      8.1366      2.2796     -0.1553     22.4480     68.1941
   616.5000      8.1348      2.2883     -0.1328     21.9228     65.3560
   616.6000      8.1348      2.2802     -0.1195     22.4109     64.3130
   616.7000      8.1348      2.2528     -0.1686     24.0697     66.3912
   616.8000      8.1298      2.2240     -0.2108     25.8169     69.1985
   616.9000      8.1298      2.2110     -0.2423     26.6055     70.3130
   617.0000      8.1227      2.2163     -0.1938     26.2873     71.7409
   617.1000      8.1227      2.2282     -0.2042     25.5629     77.0188
   617.2000      8.1227      2.2305     -0.1636     25.4221     82.7292
   617.3000      8.1225      2.2187     -0.1979     26.1400     83.8423
   617.4000      8.1225      2.2087     -0.2476     26.7432     81.7255
   617.5000      8.1273      2.2174     -0.2494     26.2158     79.7531
   617.6000      8.1273      2.2365     -0.1716     25.0612     76.4965
   617.7000      8.1273      2.2445     -0.1874     24.5768     69.4556
   617.8000      8.1312      2.2383     -0.1828     24.9537     62.3287
   617.9000      8.1312      2.2316     -0.2070     25.3588     60.8192
   618.0000      8.1313      2.2349     -0.1992     25.1592     65.0239
