~Version Information
VERS.                      2.0: CWLS Log ASCII Standard - VERSION 2.0
WRAP.                       NO: One line per depth step
~Well Information Block
STRT.FT                10.0000: 
STOP.FT              1350.5000: 
STEP.FT                 0.1000: 
NULL.                -999.2500: 
COMP.          Pioneer Natural Resources: COMPANY
WELL.              Dicks 32-5R: WELL
FLD.           Purgatorie River: FIELD
LOC.           1485' FNL & 1684' FEL: LOCATION
PROV.                 Colorado: PROVINCE
CNTY.               Las Animas: COUNTRY
SRVC.                Patterson: SERVICE COMPANY
DATE.          Fri Dec 09 10:06:15 2005: LOG DATE
UWI.                          : UNIQUE WELL ID
~Curve Information Block
DEPT.FT            0 000 00 00: Depth
DCAL.in                       : CDL Caliper
RHOB.g/cc                     : CDL Bulk Density
RHOC.g/cc                     : CDL Density Correction
DPOR.pu                       : CDL Density Porosity
GR.GAPI                       : Gamma Ray
NPOR.pu                       : Neutron Porosity
~Parameter Information Block
~A  Depth       DCAL        RHOB        RHOC        DPOR         GR         NPOR    
# ...
  1162.0000      8.2545      1.3132     -0.0096     81.0160     44.9694     33.2899
  1162.1000      8.2545      1.3251      0.0171     80.2947     45.3316     33.2543
  1162.2000      8.2545      1.3293      0.0249     80.0412     44.3356     33.4899
  1162.3000      8.2654      1.3273     -0.0136     80.1643     43.0607     33.6183
  1162.4000      8.2654      1.3288      0.0366     80.0719     43.0467     33.4789
  1162.5000      8.2050      1.3317      0.0050     79.8980     44.4151     33.2833
  1162.6000      8.2050      1.3312      0.0059     79.9274     46.9592     33.2721
  1162.7000      8.2050      1.3241      0.0141     80.3580     49.0862     33.3289
  1162.8000      8.3332      1.3085      0.0077     81.3008     49.0066     33.1955
  1162.9000      8.3332      1.3031     -0.0659     81.6322     48.2419     32.9790
  1163.0000      8.2646      1.3381     -0.0358     79.5083     49.4211     32.9135
  1163.1000      8.2646      1.4165      0.0444     74.7546     51.4924     33.0222
  1163.2000      8.2646      1.5126      0.0757     68.9359     52.4070     33.1831
  1163.3000      8.2349      1.6035      0.0834     63.4216     52.5664     33.2735
  1163.4000      8.2349      1.6822      0.0701     58.6551     53.3744     33.2883
  1163.5000      8.3611      1.7471      0.1192     54.7235     55.9035     33.2695
  1163.6000      8.3611      1.7948      0.1453     51.8282     59.7402     33.1730
  1163.7000      8.3611      1.8195      0.1572     50.3334     62.8756     32.8995
  1163.8000      8.6487      1.8172      0.0884     50.4746     63.7409     32.4844
  1163.9000      8.6487      1.7993     -0.0030     51.5557     62.7504     32.1622
  1164.0000      8.4958      1.7869     -0.0387     52.3101     61.8127     32.0680
  1164.1000      8.4958      1.7893      0.0044     52.1613     62.6814     32.1161
  1164.2000      8.4958      1.8105      0.0135     50.8770     65.6075     32.1820
  1164.3000      8.1620      1.8688      0.0126     47.3447     70.0073     32.1817
  1164.4000      8.1620      1.9759      0.1257     40.8519     75.0435     32.1373
  1164.5000      8.0743      2.1036      0.2417     33.1125     79.6374     32.1035
  1164.6000      8.0743      2.2151      0.2431     26.3590     81.5026     32.0803
  1164.7000      8.0743      2.3064      0.2041     20.8255     80.7129     31.9968
  1164.8000      8.0239      2.3824      0.2492     16.2163     80.1085     31.8188
  1164.9000      8.0239      2.4364      0.1937     12.9457     79.5713     31.5463
  1165.0000      8.0203      2.4678      0.1710     11.0429     78.1376     31.1493
  1165.1000      8.0203      2.4831      0.1111     10.1179     77.6495     30.7247
  1165.2000      8.0203      2.4892      0.0634      9.7434     79.2407     30.4549
  1165.3000      8.0282      2.4946      0.0553      9.4211     83.2706     30.2834
  1165.4000      8.0282      2.5039      0.0606      8.8571     89.3554     29.9862
  1165.5000      8.0196      2.5095      0.0715      8.5165     94.6651     29.6871
  1165.6000      8.0196      2.5033      0.0489      8.8892     95.9595     29.5544
  1165.7000      8.0196      2.4991      0.0446      9.1453     93.1313     29.3823
  1165.8000      8.0311      2.5096      0.0473      8.5109     91.6344     28.8943
  1165.9000      8.0311      2.5204      0.0889      7.8559     94.8721     28.2700
  1166.0000      8.0134      2.5157      0.0434      8.1409     99.5110     27.9384
  1166.1000      8.0134      2.5015      0.0639      8.9976    101.6140     27.9116
  1166.2000      8.0134      2.4876      0.0392      9.8438     99.4265     28.0079
  1166.3000      8.0228      2.4794     -0.0067     10.3423     95.3094     28.0567
  1166.4000      8.0228      2.4819      0.0220     10.1903     93.3561     27.9098
  1166.5000      8.0360      2.4873      0.0560      9.8576     94.3249     27.7228
  1166.6000      8.0360      2.4889      0.0306      9.7662     94.7801     27.7047
  1166.7000      8.0360      2.5014      0.0030      9.0056     92.0406     27.7774
  1166.8000      8.0383      2.5337      0.0647      7.0477     88.6318     27.8169
  1166.9000      8.0383      2.5650      0.0915      5.1526     88.6906     27.8318
  1167.0000      8.0516      2.5786      0.0654      4.3251     92.3659     27.8049
  1167.1000      8.0516      2.5850      0.0535      3.9364     94.5773     27.5927
  1167.2000      8.0516      2.5923      0.0882      3.4951     92.4622     27.2386
  1167.3000      8.0429      2.5917      0.0785      3.5311     90.8088     27.1086
  1167.4000      8.0429      2.5770      0.0710      4.4213     92.0687     27.3263
  1167.5000      8.0209      2.5488      0.1021      6.1328     91.0520     27.5821
  1167.6000      8.0209      2.5151      0.0180      8.1747     86.4138     27.6573
  1167.7000      8.0209      2.4980      0.0092      9.2147     82.2512     27.5266
  1167.8000      8.0118      2.5110      0.0123      8.4260     80.4793     27.2800
  1167.9000      8.0118      2.5429      0.0770      6.4911     82.5049     26.9918
  1168.0000      8.0178      2.5709      0.0759      4.7934     88.7758     26.6498
  1168.1000      8.0178      2.5775      0.1020      4.3927     94.1788     26.3968
  1168.2000      8.0178      2.5681      0.0089      4.9649     94.3545     26.3636
  1168.3000      7.9839      2.5673      0.0090      5.0111     90.1544     26.3690
  1168.4000      7.9839      2.5786      0.0742      4.3285     85.0462     26.2896
  1168.5000      7.9791      2.5827      0.0973      4.0792     82.6636     26.3447
  1168.6000      7.9791      2.5786      0.0319      4.3283     83.2973     26.5240
  1168.7000      7.9791      2.5757      0.0580      4.5030     84.8726     26.4738
  1168.8000      7.9604      2.5691      0.0784      4.9013     86.7942     26.0968
  1168.9000      7.9604      2.5586      0.0292      5.5415     88.3983     25.6864
  1169.0000      7.9665      2.5514      0.0452      5.9787     88.8414     25.5040
  1169.1000      7.9665      2.5402      0.0563      6.6551     87.7657     25.6687
  1169.2000      7.9665      2.5177      0.0223      8.0160     85.6587     26.1260
  1169.3000      7.9851      2.4985     -0.0300      9.1809     83.4657     26.5042
  1169.4000      7.9851      2.4977      0.0218      9.2300     83.4349     26.5110
  1169.5000      8.0033      2.5112      0.0366      8.4101     87.3286     26.2952
  1169.6000      8.0033      2.5334      0.0344      7.0649     92.7511     26.1375
  1169.7000      8.0033      2.5603      0.0510      5.4391     96.7343     26.0351
  1169.8000      8.0249      2.5805      0.0432      4.2128     97.3081     25.9884
  1169.9000      8.0249      2.5941      0.0807      3.3872     94.5917     25.9913
  1170.0000      8.0169      2.6062      0.0819      2.6535     93.1421     25.7702
  1170.1000      8.0169      2.6092      0.1024      2.4731     95.3408     25.0726
  1170.2000      8.0169      2.5977      0.0859      3.1727     98.1522     24.1615
  1170.3000      7.9363      2.5815      0.0935      4.1498     99.8710     23.5336
  1170.4000      7.9363      2.5767      0.0690      4.4438    102.1286     23.3063
  1170.5000      7.9243      2.5823      0.0816      4.1047    104.0043     23.3710
  1170.6000      7.9243      2.5827      0.0504      4.0801    103.7809     23.4984
  1170.7000      7.9243      2.5760      0.0170      4.4820    102.6241     23.6529
  1170.8000      7.9630      2.5737      0.0505      4.6265    101.2348     23.9848
  1170.9000      7.9630      2.5757      0.0559      4.5039     98.7515     24.3796
  1171.0000      7.9716      2.5781      0.0294      4.3560     95.6585     24.9081
  1171.1000      7.9716      2.5877      0.0463      3.7753     94.3834     25.6258
  1171.2000      7.9716      2.6076      0.0838      2.5721     94.5948     26.0768
  1171.3000      8.0050      2.6275      0.0886      1.3665     93.5981     25.9613
  1171.4000      8.0050      2.6345      0.0813      0.9385     91.9845     25.5215
  1171.5000      8.0136      2.6216      0.1356      1.7194     92.2378     25.1523
