~Version Information
VERS.                      2.0: CWLS Log ASCII Standard - VERSION 2.0
WRAP.                       NO: One line per depth step
~Well Information Block
STRT.FT               585.0000: 
STOP.FT              2277.5000: 
STEP.FT                 0.1000: 
NULL.                -999.2500: 
COMP.          Pioneer Natural Resources: COMPANY
WELL.          Interceptor 43-13 Tr: WELL
FLD.           Purgatoire River: FIELD
LOC.           2006' FSL & 438' FEL: LOCATION
PROV.                 Colorado: PROVINCE
CNTY.               Las Animas: COUNTRY
SRVC.                Patterson: SERVICE COMPANY
DATE.          Mon Oct 17 07:15:06 2005: LOG DATE
UWI.           05 071 08549 00: UNIQUE WELL ID
~Curve Information Block
DEPT.FT            0 000 00 00: Depth
DCAL.in                       : CDL Caliper
RHOB.g/cc                     : CDL Bulk Density
RHOC.g/cc                     : CDL Density Correction
DPOR.pu                       : CDL Density Porosity
GR.GAPI                       : Gamma Ray
NPOR.pu                       : Neutron Porosity
~Parameter Information Block
~A  Depth       DCAL        RHOB        RHOC        DPOR         GR         NPOR    
# ...
  1372.2000      7.8629      2.6402      0.0933      0.5955     98.6622     24.8805
  1372.3000      7.8713      2.6325      0.0715      1.0582     99.4873     24.5341
  1372.4000      7.8713      2.6268      0.0106      1.4048    102.0712     23.8299
  1372.5000      7.8899      2.6300      0.0785      1.2120    107.5371     23.3782
  1372.6000      7.8899      2.6262      0.0741      1.4448    113.7482     23.4139
  1372.7000      7.8899      2.6105      0.0376      2.3957    117.6681     23.7700
  1372.8000      7.8986      2.5982      0.0755      3.1408    115.9748     24.1374
  1372.9000      7.8986      2.5898      0.0634      3.6481    109.1855     24.0253
  1373.0000      7.9091      2.5761      0.0124      4.4786    105.5088     23.5481
  1373.1000      7.9091      2.5596      0.0015      5.4803    110.3190     23.3228
  1373.2000      7.9091      2.5455      0.0572      6.3320    119.7518     23.5505
  1373.3000      7.9084      2.5405     -0.0040      6.6342    126.0638     23.7593
  1373.4000      7.9084      2.5491      0.0594      6.1179    124.4837     23.5495
  1373.5000      7.9131      2.5548      0.0871      5.7673    119.9078     23.4274
  1373.6000      7.9131      2.5417      0.0253      6.5656    120.9177     23.9424
  1373.7000      7.9131      2.5188      0.0105      7.9525    130.1471     24.6699
  1373.8000      7.9424      2.5042     -0.0238      8.8343    143.4375     25.0817
  1373.9000      7.9424      2.4969      0.0193      9.2802    153.1193     25.4023
  1374.0000      7.9925      2.4843     -0.0108     10.0449    154.7819     25.7735
  1374.1000      7.9925      2.4655      0.0258     11.1798    151.1996     25.8581
  1374.2000      7.9925      2.4523     -0.0197     11.9838    146.9381     25.6691
  1374.3000      8.0243      2.4549     -0.0045     11.8268    145.5311     25.5819
  1374.4000      8.0243      2.4634      0.0342     11.3117    148.9196     25.8112
  1374.5000      8.0833      2.4713     -0.0371     10.8322    152.1335     26.1215
  1374.6000      8.0833      2.4887      0.0440      9.7745    148.1330     26.0891
  1374.7000      8.0833      2.5100      0.0127      8.4823    140.9395     25.8004
  1374.8000      8.0865      2.5184      0.0483      7.9760    138.7928     25.8575
  1374.9000      8.0865      2.5083      0.0226      8.5873    144.1418     26.5249
  1375.0000      8.1068      2.4973     -0.0132      9.2551    155.8339     27.2409
  1375.1000      8.1068      2.4941      0.0450      9.4489    167.9119     27.4262
  1375.2000      8.1068      2.4825     -0.0468     10.1505    173.1372     27.3385
  1375.3000      8.1369      2.4667     -0.0018     11.1094    169.8386     27.4570
  1375.4000      8.1369      2.4654     -0.0005     11.1906    162.8851     27.4700
  1375.5000      8.1107      2.4745     -0.0046     10.6380    156.2008     27.3427
  1375.6000      8.1107      2.4732      0.0189     10.7135    151.9156     27.4700
  1375.7000      8.1107      2.4523      0.0393     11.9794    152.8117     27.7443
  1375.8000      8.0694      2.4274      0.0101     13.4911    156.7480     28.1014
  1375.9000      8.0694      2.4190     -0.0240     13.9972    156.0991     28.5798
  1376.0000      8.0657      2.4354      0.0136     13.0090    150.1149     28.7759
  1376.1000      8.0657      2.4740      0.0237     10.6643    147.5603     28.5752
  1376.2000      8.0657      2.5301      0.0385      7.2686    150.9703     28.2707
  1376.3000      8.0663      2.5949      0.1056      3.3405    156.2291     27.9311
  1376.4000      8.0663      2.6505      0.1611     -0.0289    161.0790     27.6998
  1376.5000      8.0845      2.6788      0.2031     -1.7446    161.1751     27.6039
  1376.6000      8.0845      2.6680      0.2475     -1.0906    153.8012     27.1546
  1376.7000      8.0845      2.6192      0.1799      1.8672    143.6100     25.9798
  1376.8000      8.0385      2.5457      0.1344      6.3200    134.8662     24.5447
  1376.9000      8.0385      2.4558      0.0362     11.7689    128.5796     23.3714
  1377.0000      7.9477      2.3614     -0.1386     17.4934    127.3422     22.0226
  1377.1000      7.9477      2.2790     -0.1178     22.4840    131.2313     20.3194
  1377.2000      7.9477      2.2184     -0.1115     26.1600    136.5398     19.1301
  1377.3000      8.0405      2.1920     -0.0654     27.7573    139.5184     18.8465
  1377.4000      8.0405      2.2075      0.0309     26.8177    138.3120     18.9908
  1377.5000      8.1300      2.2487      0.1383     24.3209    136.3174     19.0708
  1377.6000      8.1300      2.2884      0.2843     21.9170    137.1908     18.9984
  1377.7000      8.1300      2.3098      0.3215     20.6176    138.9136     18.8299
  1377.8000      8.1262      2.3123      0.3228     20.4638    139.9306     18.7485
  1377.9000      8.1262      2.3013      0.3529     21.1306    141.0994     19.2911
  1378.0000      8.0745      2.2778      0.3359     22.5583    142.5095     20.7990
  1378.1000      8.0745      2.2470      0.2804     24.4250    141.8107     22.8769
  1378.2000      8.0745      2.2295      0.1865     25.4876    136.0451     24.7548
  1378.3000      8.0530      2.2483      0.1280     24.3472    128.5540     26.2057
  1378.4000      8.0530      2.3025      0.1586     21.0609    127.9814     27.5172
  1378.5000      8.0411      2.3657      0.2194     17.2310    135.3952     28.5786
  1378.6000      8.0411      2.4220      0.1835     13.8187    139.3061     28.9049
  1378.7000      8.0411      2.4779      0.1569     10.4312    131.8601     28.6655
  1378.8000      7.9972      2.5355      0.0708      6.9409    121.4398     28.5485
  1378.9000      7.9972      2.5824      0.1057      4.0964    120.3823     28.7359
  1379.0000      7.9823      2.6017      0.1241      2.9255    124.9845     28.9876
  1379.1000      7.9823      2.5943      0.0608      3.3733    125.6886     29.0694
  1379.2000      7.9823      2.5845      0.0851      3.9711    124.3914     28.7467
  1379.3000      7.9180      2.5840      0.1032      4.0027    128.7139     28.3169
  1379.4000      7.9180      2.5769      0.1003      4.4326    137.2118     27.8545
  1379.5000      7.9035      2.5572      0.0551      5.6228    137.5793     27.0280
  1379.6000      7.9035      2.5554      0.0037      5.7330    130.2387     26.4119
  1379.7000      7.9035      2.5934      0.0897      3.4310    130.5673     26.5955
  1379.8000      7.8740      2.6436      0.0997      0.3906    141.3770     27.2157
  1379.9000      7.8740      2.6788      0.1262     -1.7438    149.1245     27.6946
  1380.0000      7.8731      2.7049      0.1414     -3.3281    143.7608     27.8718
  1380.1000      7.8731      2.7302      0.1292     -4.8616    134.5826     27.9230
  1380.2000      7.8731      2.7439      0.1475     -5.6918    132.9532     27.9109
  1380.3000      7.8626      2.7289      0.1390     -4.7827    132.1448     27.5183
  1380.4000      7.8626      2.7015      0.0481     -3.1239    127.6274     26.7035
  1380.5000      7.8551      2.6970      0.0517     -2.8510    122.4830     25.9335
  1380.6000      7.8551      2.7160      0.0276     -3.9992    113.8408     25.5048
  1380.7000      7.8551      2.7333      0.0759     -5.0510    104.3221     25.5183
  1380.8000      7.8476      2.7366      0.0335     -5.2515    101.1279     25.8018
  1380.9000      7.8476      2.7325     -0.0036     -5.0002    101.4236     25.7090
  1381.0000      7.9268      2.7252      0.0183     -4.5564     98.1754     24.9602
  1381.1000      7.9268      2.7114     -0.0138     -3.7225     91.4043     24.1212
  1381.2000      7.9268      2.6910     -0.0158     -2.4823     86.4596     23.6453
  1381.3000      7.9471      2.6655     -0.0337     -0.9367     85.0056     23.5142
  1381.4000      7.9471      2.6384     -0.0658      0.7008     85.4721     23.6220
  1381.5000      7.9841      2.6195     -0.0901      1.8489     88.4980     23.6058
  1381.6000      7.9841      2.6128     -0.0388      2.2538     92.1679     23.1537
  1381.7000      7.9841      2.6066     -0.0335      2.6299     90.8518     22.5977
