~Version Information
 VERS.                                  2.0 : CWLS LAS VERSION
 WRAP.                                   NO : WRAPING MODE
 SWARE .                 MController 2.5.0N : SOFTWARE VERSION
~Well Information
 WELL.                LORENCITO 10-36-33-67 : WELL
 COMP.    PIONEER NATURAL RESOURCES USA INC : COMPANY
 FLD.                      PURGATIORE RIVER : FIELD
 LOC.                NW/SE SEC 36 T33S R67W : LOCATION
 DATE.                             08/27/05 : DATE(S) LOGGED
 SRVC.       BLANCO GEOLOGICAL SERVICES LLC : SERVICE COMPANY
 STAT.                             COLORADO : STATE
 CNTY.                           LAS ANIMAS : COUNTY
 CTRY.                                  USA : COUNTRY
 API.                       05-071-08501-00 : API NUMBER
 STRT.FT                             321.00 : START DEPTH
 STOP.FT                            1570.00 : STOP DEPTH
 STEP.FT                               1.00 : DEPTH INCREMENT
 NULL.                                -9999 : NULL VALUE
~Curve information
 DEPTH.FT                                   :
 ROP.MIN/FT                                 :
 GAS.UNITS                                  :
~ASCII Log data
# ...
       521.0         0.30         68.8 
       522.0         0.20         68.6 
       523.0         0.20         68.6 
       524.0         0.20         68.6 
       525.0         0.20         68.5 
       526.0         0.30         68.5 
       527.0         0.20         68.3 
       528.0         0.30         68.2 
       529.0         0.20         68.0 
       530.0         0.22         68.0 
       531.0         0.20         67.9 
       532.0         5.25         71.4 
       533.0         0.33         24.5 
       534.0         0.27         53.4 
       535.0         0.27        185.5 
       536.0         0.27        244.4 
       537.0         0.22        235.5 
       538.0         0.23        211.3 
       539.0         0.27        166.6 
       540.0         0.27        149.8 
       541.0         0.20        143.0 
       542.0         0.27        137.2 
       543.0         0.27        122.6 
       544.0         0.20        111.7 
       545.0         0.27        108.0 
       546.0         0.30        103.3 
       547.0         0.23         96.8 
       548.0         0.30         92.1 
       549.0         0.20         87.3 
       550.0         0.18         84.3 
       551.0         0.20         83.3 
       552.0         0.20         81.7 
       553.0         0.20         80.3 
       554.0         0.20         79.4 
       555.0         0.20         78.6 
       556.0         0.20         78.0 
       557.0         0.17         77.0 
       558.0         0.20         76.6 
       559.0         0.20         75.7 
       560.0         0.20         75.2 
       561.0         0.20         75.0 
       562.0         4.27         74.9 
       563.0         0.30         69.0 
       564.0         0.27        198.3 
       565.0         0.27        256.7 
       566.0         0.30        251.4 
       567.0         0.20        198.0 
       568.0         0.27        164.2 
       569.0         0.27        131.6 
       570.0         0.27        113.4 
       571.0         0.27         99.4 
       572.0         0.20         92.8 
       573.0         0.20         89.9 
       574.0         0.27         90.4 
       575.0         0.22         90.7 
       576.0         0.20         90.4 
       577.0         0.20         90.7 
       578.0         0.30         89.6 
       579.0         0.20         85.3 
       580.0         0.20         86.1 
       581.0         0.20         86.1 
       582.0         4.55         84.3 
       583.0         0.42         72.2 
       584.0         0.30         69.0 
       585.0         0.30         76.0 
       586.0         0.20         79.2 
       587.0         0.20         80.4 
       588.0         0.40         80.2 
       589.0         0.20         76.6 
       590.0         0.30         75.0 
       591.0         0.20         73.9 
       592.0         3.05         74.4 
       593.0         0.27        187.4 
       594.0         0.33        254.3 
       595.0         0.30        250.4 
       596.0         0.35        212.1 
       597.0         0.33        127.4 
       598.0         0.27        104.7 
       599.0         0.37         93.1 
       600.0         0.37         82.9 
       601.0         0.30         76.0 
       602.0         0.23         73.0 
       603.0         0.30         70.5 
       604.0         0.30         69.0 
       605.0         0.30         67.6 
       606.0         0.30         68.1 
       607.0         0.32         75.5 
       608.0         0.23         84.5 
       609.0         0.33         89.7 
       610.0         0.30         89.4 
       611.0         0.30         85.9 
       612.0         0.37         81.1 
       613.0         0.30         76.0 
       614.0         0.37         73.1 
       615.0         0.20         71.2 
       616.0         0.30         70.4 
       617.0         0.32         70.8 
       618.0         0.30         69.7 
       619.0         0.30         69.1 
       620.0         0.40         65.6 
       621.0         0.30         67.0 
       622.0         6.77        188.4 
       623.0         0.27        186.4 
       624.0         0.33        158.5 
       625.0         0.10        115.3 
       626.0         0.07        107.5 
       627.0         0.23        101.7 
       628.0         0.30         90.6 
       629.0         0.20         77.0 
       630.0         0.42         70.8 
       631.0         0.60         80.9 
       632.0         0.47         85.5 
       633.0         0.33         81.2 
       634.0         0.23         76.4 
       635.0         0.13         76.0 
       636.0         0.23         77.5 
       637.0         0.20         77.7 
       638.0         0.20         76.8 
       639.0         0.27         74.3 
       640.0         0.30         72.7 
       641.0         0.38         71.9 
       642.0         0.27         71.4 
       643.0         0.27         69.5 
       644.0         0.47         66.3 
       645.0         0.33         63.3 
       646.0         0.20         65.4 
       647.0         0.37         67.4 
       648.0         0.30         66.8 
       649.0         0.23         66.1 
       650.0         0.23         66.5 
       651.0         0.37         66.6 
       652.0         7.18        239.8 
       653.0         0.37         97.0 
       654.0         0.53         90.7 
       655.0         0.30         70.8 
       656.0         0.23         69.5 
       657.0         0.23         72.2 
       658.0         0.20         72.7 
       659.0         0.23         70.8 
       660.0         0.23         67.9 
       661.0         0.20         69.7 
       662.0         0.17         70.8 
       663.0         0.17         71.4 
       664.0         0.15         71.4 
       665.0         0.17         71.3 
       666.0         0.23         70.5 
       667.0         0.27         69.3 
       668.0         0.23         67.1 
       669.0         0.27         64.2 
       670.0         0.20         61.9 
       671.0         0.23         62.2 
       672.0         0.23         64.3 
       673.0         0.30         65.5 
       674.0         0.20         65.4 
       675.0         0.20         65.2 
       676.0         0.17         64.8 
       677.0         0.20         64.4 
       678.0         0.17         64.1 
       679.0         0.22         63.9 
       680.0         0.23         63.9 
       681.0         0.20         63.0 
       682.0         5.42       1159.3 
       683.0         0.23        617.0 
       684.0         0.17        511.9 
       685.0         0.25        474.2 
       686.0         0.27        442.9 
       687.0         0.27        440.0 
       688.0         0.23         87.3 
       689.0         0.27         82.9 
       690.0         0.30         79.1 
       691.0         0.23         78.5 
       692.0         0.20         76.6 
       693.0         0.23         74.5 
       694.0         0.23         71.2 
       695.0         0.23         68.2 
       696.0         0.23         65.7 
       697.0         0.23         62.4 
       698.0         0.23         60.6 
       699.0         0.25         59.9 
       700.0         0.23         59.7 
       701.0         0.30         60.3 
       702.0         0.30         60.3 
       703.0         0.30         60.1 
       704.0         0.27         60.3 
       705.0         0.23         61.1 
       706.0         0.27         62.5 
       707.0         0.27         62.8 
       708.0         0.27         61.9 
       709.0         0.23         60.7 
       710.0         0.23         59.4 
       711.0         0.27         58.6 
       712.0         3.53         62.9 
       713.0         0.30        108.2 
       714.0         0.20        121.4 
       715.0         0.23        120.1 
       716.0         0.17        109.5 
       717.0         0.27        100.7 
       718.0         0.27         86.5 
       719.0         0.37         90.8 
       720.0         0.23         90.5 
