~Version Information
VERS.                      2.0: CWLS Log ASCII Standard - VERSION 2.0
WRAP.                       NO: One line per depth step
~Well Information Block
STRT.FT               245.0000: 
STOP.FT              1217.7000: 
STEP.FT                 0.1000: 
NULL.                -999.2500: 
COMP.          Pioneer Natural Resources: COMPANY
WELL.          Lucky Lady 42-29: WELL
FLD.           Purgatoire River: FIELD
LOC.           2482' FNL & 662' FEL--: LOCATION
CNTY.               Las Animas: COUNTY
SRVC.                Patterson: SERVICE COMPANY
DATE.          Thu Mar 09 18:39:54 2006: LOG DATE
UWI.           05 071 08659 00: UNIQUE WELL ID
STAT.                 Colorado: STATE
~Curve Information Block
DEPT.FT            0 000 00 00: Depth
DCAL.in                       : CDL Caliper
RHOB.g/cc                     : CDL Bulk Density
RHOC.g/cc                     : CDL Density Correction
DPOR.pu                       : CDL Density Porosity
NPOR.pu                       : Neutron Porosity
GR.GAPI                       : Gamma Ray
~Parameter Information Block
~A  Depth       DCAL        RHOB        RHOC        DPOR        NPOR         GR     
   245.0000      8.2298      2.4653     -0.1723     11.1940     38.5059     85.2644
   245.1000      8.2298      2.4891     -0.2066      9.7501     38.2890     85.7162
   245.2000      8.2298      2.5036     -0.1610      8.8701     38.1795     86.5879
   245.3000      8.2274      2.5088     -0.1478      8.5546     38.3269     86.2319
   245.4000      8.2274      2.5044     -0.2177      8.8234     38.7194     85.8312
   245.5000      8.2273      2.4895     -0.1806      9.7287     39.0083     86.0919
   245.6000      8.2273      2.4738     -0.2427     10.6815     39.0130     84.3117
   245.7000      8.2273      2.4714     -0.1997     10.8243     38.8154     79.6756
   245.8000      8.2283      2.4757     -0.1811     10.5663     38.4740     77.3647
   245.9000      8.2283      2.4744     -0.2183     10.6395     38.1990     82.9441
   246.0000      8.2289      2.4727     -0.2093     10.7461     38.2171     92.6117
   246.1000      8.2289      2.4703     -0.1918     10.8895     38.5297     97.3318
   246.2000      8.2289      2.4699     -0.2505     10.9146     38.9937     95.6583
   246.3000      8.2304      2.4828     -0.1943     10.1312     39.3390     91.8585
   246.4000      8.2304      2.4944     -0.1536      9.4289     39.3989     88.2452
   246.5000      8.2319      2.4849     -0.2198     10.0038     39.3718     85.2316
   246.6000      8.2319      2.4616     -0.2015     11.4154     39.5393     82.7830
   246.7000      8.2319      2.4425     -0.2884     12.5770     39.8834     82.5557
   246.8000      8.2323      2.4297     -0.2426     13.3520     40.1102     86.3019
   246.9000      8.2323      2.4121     -0.2883     14.4205     40.0715     90.5741
   247.0000      8.2330      2.3989     -0.2995     15.2201     39.9610     89.0837
   247.1000      8.2330      2.4003     -0.2327     15.1310     40.0322     81.2615
   247.2000      8.2330      2.4067     -0.2412     14.7468     40.1937     74.5035
   247.3000      8.2356      2.4144     -0.2451     14.2780     40.1666     72.9923
   247.4000      8.2356      2.4244     -0.2238     13.6730     39.8155     74.0839
   247.5000      8.2369      2.4270     -0.1536     13.5173     39.3070     75.7139
   247.6000      8.2369      2.4143     -0.2223     14.2851     39.1523     77.7491
   247.7000      8.2369      2.3929     -0.1981     15.5824     39.5714     78.2187
   247.8000      8.2373      2.3731     -0.2583     16.7794     40.0396     75.6953
   247.9000      8.2373      2.3597     -0.2221     17.5931     39.9613     72.0569
   248.0000      8.2383      2.3546     -0.2420     17.9054     39.4969     71.8061
   248.1000      8.2383      2.3614     -0.2539     17.4903     39.2006     77.7687
   248.2000      8.2383      2.3707     -0.2209     16.9291     39.2031     84.6639
   248.3000      8.2373      2.3654     -0.2437     17.2511     39.2399     86.0608
   248.4000      8.2373      2.3485     -0.2278     18.2713     39.2100     85.0700
   248.5000      8.2338      2.3353     -0.2533     19.0758     39.2191     86.8310
   248.6000      8.2338      2.3358     -0.2411     19.0444     39.2628     89.1244
   248.7000      8.2338      2.3479     -0.2081     18.3113     39.2513     88.6638
   248.8000      8.2318      2.3600     -0.1849     17.5739     39.0773     85.8302
   248.9000      8.2318      2.3707     -0.2501     16.9292     38.8244     81.5787
   249.0000      8.2334      2.3880     -0.2151     15.8802     38.6476     77.2664
   249.1000      8.2334      2.4129     -0.1904     14.3675     38.5257     75.4213
   249.2000      8.2334      2.4350     -0.2161     13.0277     38.3518     74.9630
   249.3000      8.2365      2.4422     -0.1994     12.5963     38.0862     74.5967
   249.4000      8.2365      2.4406     -0.2758     12.6917     37.8976     75.5947
   249.5000      8.2377      2.4511     -0.2049     12.0523     37.7991     76.3140
   249.6000      8.2377      2.4726     -0.2302     10.7514     37.5454     76.0833
   249.7000      8.2377      2.4820     -0.1759     10.1789     37.2011     75.7528
   249.8000      8.2376      2.4702     -0.2284     10.8961     37.0677     74.3665
   249.9000      8.2376      2.4585     -0.2825     11.6063     37.1932     72.1003
   250.0000      8.2383      2.4692     -0.3017     10.9579     37.3608     70.5259
   250.1000      8.2383      2.4881     -0.1663      9.8125     37.4349     71.4797
   250.2000      8.2383      2.4982     -0.2824      9.1988     37.2434     73.7334
   250.3000      8.2377      2.5183     -0.2401      7.9810     36.6216     73.9294
   250.4000      8.2377      2.5580     -0.2004      5.5757     35.8163     72.3415
   250.5000      8.2353      2.6031     -0.1742      2.8420     35.3417     70.3999
   250.6000      8.2353      2.6451     -0.1798      0.2949     35.4841     66.8467
   250.7000      8.2353      2.6789     -0.2019     -1.7544     35.8767     62.8382
   250.8000      8.2343      2.6878     -0.1411     -2.2894     35.9456     60.3778
   250.9000      8.2343      2.6563     -0.1877     -0.3823     35.7171     58.8600
   251.0000      8.2346      2.6015     -0.2381      2.9374     35.5297     59.4948
   251.1000      8.2346      2.5637     -0.2572      5.2333     35.5804     63.5771
   251.2000      8.2346      2.5571     -0.2258      5.6315     35.8775     67.7811
   251.3000      8.2347      2.5623     -0.1821      5.3137     36.1101     68.4519
   251.4000      8.2347      2.5755     -0.2627      4.5179     36.0657     66.0118
   251.5000      8.2364      2.6187     -0.2357      1.8999     35.9140     62.3339
   251.6000      8.2364      2.6910     -0.1677     -2.4852     35.8154     57.4711
   251.7000      8.2364      2.7764     -0.2181     -7.6594     35.9130     51.6746
   251.8000      8.2400      2.8679     -0.1182    -13.2037     36.4450     46.7916
   251.9000      8.2400      2.9422     -0.0712    -17.7115     37.2185     45.0534
   252.0000      8.2412      2.9860     -0.1247    -20.3661     37.5874     47.9130
   252.1000      8.2412      3.0038     -0.0775    -21.4423     37.4383     54.8326
   252.2000      8.2412      2.9762     -0.1496    -19.7727     37.4302     61.2836
   252.3000      8.2379      2.8937     -0.2675    -14.7701     37.8072     63.9370
   252.4000      8.2379      2.7881     -0.3048     -8.3693     38.1490     65.7763
   252.5000      8.2337      2.7071     -0.3735     -3.4606     38.3187     68.5408
   252.6000      8.2337      2.6721     -0.3351     -1.3380     38.4406     68.3443
   252.7000      8.2337      2.6592     -0.3042     -0.5559     38.6482     65.9506
   252.8000      8.2324      2.6428     -0.3203      0.4389     38.8945     67.8965
   252.9000      8.2324      2.6195     -0.2773      1.8488     38.8029     75.7364
   253.0000      8.2339      2.5790     -0.2397      4.3025     38.3394     82.9165
   253.1000      8.2339      2.5076     -0.2700      8.6315     37.7915     84.3258
   253.2000      8.2339      2.4124     -0.3131     14.4002     37.0937     83.8228
   253.3000      8.2346      2.3102     -0.2585     20.5966     36.1144     87.6637
   253.4000      8.2346      2.2188     -0.3543     26.1338     34.8630     95.0227
   253.5000      8.2332      2.1613     -0.3779     29.6203     33.2362    102.7405
   253.6000      8.2332      2.1465     -0.3718     30.5153     31.3217    112.7062
   253.7000      8.2332      2.1619     -0.3431     29.5843     29.3045    122.2431
   253.8000      8.2317      2.1822     -0.2479     28.3513     27.2086    125.4434
   253.9000      8.2317      2.1842     -0.2085     28.2284     25.0584    122.2029
   254.0000      8.2389      2.1756     -0.1980     28.7504     22.9224    115.4543
   254.1000      8.2389      2.1970     -0.1230     27.4562     20.8579    108.5479
   254.2000      8.2389      2.2836     -0.0045     22.2045     19.0472    103.5553
   254.3000      8.2766      2.4183      0.2692     14.0398     17.8935    102.7660
   254.4000      8.2766      2.5297      0.4022      7.2928     17.7609    106.2181
   254.5000      8.3383      2.5671      0.3492      5.0231     18.3854    110.2558
