~Version Information
VERS.                      2.0: CWLS Log ASCII Standard - VERSION 2.0
WRAP.                       NO: One line per depth step
~Well Information Block
STRT.FT                -8.2500: 
STOP.FT              1439.2500: 
STEP.FT                 0.2500: 
NULL.                -999.2500: 
COMP.          Pioneer Natural Resources: COMPANY
WELL.          Old Faithful 21-2: WELL
FLD.           Purgatorie River: FIELD
LOC.           806' FNL & 2509' FWL--: LOCATION
PROV.                       CO: PROVINCE
CNTY.               Las Animas: COUNTRY
SRVC.          Patterson Wireline: SERVICE COMPANY
DATE.          Mon Dec 12 11:21:25 2005: LOG DATE
UWI.           08 071 08617 00: UNIQUE WELL ID
~Curve Information Block
DEPT.FT            0 000 00 00: Depth
CCL.                          : Casing Collar Locator
TT3.usec                      : CBL 3' Travel Time
AMP3.mV                       : CBL 3' Amplitude
GR.GAPI                       : Gamma Ray
~Parameter Information Block
~A  Depth       CCL         TT3         AMP3         GR     
# ...
   192.7500      0.0000    676.0767      8.0734     94.8563
   193.0000      0.0000    694.4998      7.8146     99.0229
   193.2500      0.0000    708.1365      7.4899     99.7232
   193.5000      0.0000    711.9476      7.1191     97.1562
   193.7500      0.0000    706.3463      6.7405     93.1801
   194.0000      0.0000    696.8449      6.3773     89.5894
   194.2500      0.0000    690.2462      6.0246     87.0041
   194.5000      0.0000    689.4493      5.6725     84.8771
   194.7500      0.0000    692.1981      5.3259     82.1227
   195.0000      0.0000    695.5684      4.9953     77.9565
   195.2500      0.0000    699.5465      4.6871     72.5250
   195.5000      0.0000    703.7899      4.4096     66.8418
   195.7500      0.0000    702.9481      4.1762     61.9982
   196.0000      0.0000    688.9379      3.9951     58.4321
   196.2500      0.0000    658.6653      3.8637     56.1012
   196.5000      0.0000    618.3046      3.7755     55.1136
   196.7500      0.0000    579.3937      3.7272     55.5685
   197.0000      0.0000    550.9211      3.7165     56.7248
   197.2500      0.0000    534.9047      3.7401     57.0881
   197.5000      0.0000    528.1282      3.7913     55.7574
   197.7500      0.0000    526.4109      3.8577     53.4439
   198.0000      0.0000    527.7023      3.9227     51.9652
   198.2500      0.0000    533.4692      3.9722     52.7457
   198.5000      0.0000    548.9395      4.0010     55.5826
   198.7500      0.0000    579.9282      4.0142     58.7860
   199.0000      0.0000    624.8810      4.0236     60.7975
   199.2500      0.0000    669.1790      4.0398     61.6101
   199.5000      0.0000    693.2303      4.0636     62.3538
   199.7500      0.0000    690.4297      4.0843     63.8613
   200.0000      0.0000    673.1597      4.0916     66.1124
   200.2500      0.0000    658.4803      4.0964     68.7187
   200.5000      0.0000    653.5601      4.1386     71.3816
   200.7500      0.0000    657.3223      4.2630     73.9197
   201.0000      0.0000    668.0620      4.4793     76.1328
   201.2500      0.0000    683.6961      4.7465     77.7593
   201.5000      0.0000    699.5270      5.0015     78.5592
   201.7500      0.0000    711.1133      5.2008     78.4906
   202.0000      0.0000    718.0511      5.3304     77.7333
   202.2500      0.0000    723.1943      5.3850     76.4789
   202.5000      0.0000    729.5498      5.3524     74.8818
   202.7500      0.0000    738.2816      5.2276     73.2963
   203.0000      0.0000    748.6393      5.0403     72.2039
   203.2500      0.0000    759.1786      4.8616     71.7900
   203.5000      0.0000    768.8989      4.7666     71.8863
   203.7500      0.0000    776.4791      4.7818     72.3366
   204.0000      0.0000    778.0880      4.8737     73.2482
   204.2500      0.0000    766.7324      4.9916     74.9650
   204.5000      0.0000    736.0134      5.1145     77.7811
   204.7500      0.0000    686.9449      5.2541     81.4375
   205.0000      0.0000    630.5424      5.4280     84.9932
   205.2500      0.0000    581.3212      5.6446     87.4351
   205.5000      0.0000    547.8930      5.8973     88.4096
   205.7500      0.0000    530.3417      6.1554     88.4914
   206.0000      0.0000    524.5974      6.3692     88.9653
   206.2500      0.0000    527.0446      6.5052     91.0578
   206.5000      0.0000    535.7100      6.5790     94.7192
   206.7500      0.0000    549.0989      6.6448     98.1601
   207.0000      0.0000    565.3099      6.7510     99.1365
   207.2500      0.0000    583.4894      6.9074     96.8699
   207.5000      0.0000    605.9551      7.0890     92.6497
   207.7500      0.0000    635.8043      7.2663     88.7644
   208.0000      0.0000    670.8235      7.4286     86.8751
   208.2500      0.0000    702.7820      7.5809     87.0864
   208.5000      0.0000    724.9459      7.7246     88.2806
   208.7500      0.0000    738.0961      7.8494     89.2520
   209.0000      0.0000    747.5847      7.9417     89.4956
   209.2500      0.0000    756.8058      7.9934     89.0990
   209.5000      0.0000    765.4227      8.0014     88.3017
   209.7500      0.0000    772.2568      7.9636     87.4108
   210.0000      0.0000    777.3875      7.8815     86.9039
   210.2500      0.0000    781.7249      7.7658     87.4434
   210.5000      0.0000    786.1044      7.6353     89.6735
   210.7500      0.0000    791.0679      7.5094     93.5732
   211.0000      0.0000    796.6115      7.3965     97.6419
   211.2500      0.0000    801.5611      7.2927     99.2027
   211.5000      0.0000    803.1947      7.1902     96.3257
   211.7500      0.0000    797.9005      7.0898     89.6423
   212.0000      0.0000    783.4365      7.0116     82.1103
   212.2500      0.0000    762.1255      6.9944     77.0456
   212.5000      0.0000    741.7661      7.0732     76.2193
   212.7500      0.0000    731.1860      7.2463     79.1784
   213.0000      0.0000    732.7405      7.4684     83.8733
   213.2500      0.0000    739.9005      7.6848     87.9946
   213.5000      0.0000    744.3351      7.8660     89.9773
   213.7500      0.0000    745.3152      8.0055     89.1412
   214.0000      0.0000    749.7745      8.0947     85.5857
   214.2500      0.0000    762.4182      8.1086     80.5106
   214.5000      0.0000    778.3985      8.0128     76.1637
   214.7500      0.0000    787.6456      7.7751     74.7425
   215.0000      0.0000    784.6650      7.3785     77.0309
   215.2500      0.0000    773.0812      6.8515     81.8728
   215.5000      0.0000    762.6983      6.2936     86.7175
   215.7500      0.0000    762.8076      5.8423     89.0715
   216.0000      0.0000    775.6224      5.5890     88.0749
   216.2500      0.0000    794.8501      5.5289     84.8557
   216.5000      0.0000    812.1402      5.5926     81.2672
   216.7500      0.0000    824.5776      5.7069     78.3093
   217.0000      0.0000    833.7669      5.8279     75.7338
   217.2500      0.0000    839.3373      5.9434     72.8679
   217.5000      2.0000    837.1837      6.0567     69.6355
   217.7500      0.0000    824.3914      6.1795     66.9629
   218.0000      0.0000    803.6917      6.3517     66.3744
   218.2500      0.0000    782.6593      6.6528     68.9902
   218.5000      0.0000    769.3073      7.1596     74.6354
   218.7500      0.0000    768.0333      7.8758     81.9221
   219.0000      0.0000    777.9370      8.7200     89.1412
   219.2500      0.0000    792.6797      9.5754     94.9130
   219.5000      0.0000    802.1600     10.3341     98.2289
   219.7500      0.0000    797.3163     10.9144     98.5792
   220.0000      0.0000    776.5931     11.2806     96.3626
   220.2500      0.0000    749.1304     11.4502     92.7667
   220.5000      0.0000    731.0087     11.4714     88.8728
   220.7500      0.0000    734.9988     11.3965     85.1327
   221.0000      0.0000    759.8210     11.2736     81.9008
   221.2500      0.0000    788.6319     11.1466     79.9417
   221.5000      0.0000    799.7339     11.0490     79.8849
   221.7500      0.0000    779.9110     10.9954     81.3665
   222.0000      0.0000    730.1093     10.9826     83.0838
   222.2500      0.0000    662.9338     11.0023     83.7732
   222.5000      0.0000    595.5806     11.0498     83.1493
   222.7500      0.0000    541.9184     11.1197     81.9746
   223.0000      0.0000    509.6764     11.1952     81.2634
   223.2500      0.0000    504.4638     11.2484     81.4674
   223.5000      0.0000    531.7684     11.2591     82.5641
   223.7500      0.0000    588.5756     11.2387     84.7052
   224.0000      0.0000    653.6342     11.2309     88.2121
   224.2500      0.0000    693.5402     11.2823     92.6842
   224.5000      0.0000    684.5912     11.4051     96.5904
   224.7500      0.0000    630.0991     11.5672     98.3125
   225.0000      0.0000    557.0674     11.7104     97.5103
   225.2500      0.0000    497.1159     11.7834     95.1024
   225.5000      0.0000    469.2480     11.7688     92.2894
   225.7500      0.0000    474.5265     11.6922     90.2001
   226.0000      0.0000    498.4646     11.6036     89.9278
