~Version Information
VERS.                      2.0: CWLS Log ASCII Standard - VERSION 2.0
WRAP.                       NO: One line per depth step
~Well Information Block
STRT.FT               645.0000: 
STOP.FT              2133.5000: 
STEP.FT                 0.2500: 
NULL.                -999.2500: 
COMP.          Pioneer Natural Resources: COMPANY
WELL.          Gunslinger 13-24: WELL
FLD.           Purgatoire River: FIELD
LOC.           1968' FSL & 633' FWL: LOCATION
PROV.                 Colorado: PROVINCE
CNTY.               Las Animas: COUNTRY
SRVC.                Patterson: SERVICE COMPANY
DATE.          Fri Jul 29 15:04:35 2005: LOG DATE
UWI.           05 071 08442 00: UNIQUE WELL ID
~Curve Information Block
DEPT.FT            0 000 00 00: Depth
SN.Ohm-m                      : IEL Short Normal
SP.mV                         : IEL Spontaneous Potential
DIR.Ohm-m                     : IEL Induction Resistivity
GR.GAPI                       : Gamma Ray
~Parameter Information Block
~A  Depth        SN          SP         DIR          GR     
# ...
  1114.0000   2000.0000   2000.0000      6.8870    125.9445
  1114.2500   2000.0000   2000.0000      6.3064    130.0360
  1114.5000   2000.0000   2000.0000      5.9034    134.5691
  1114.7500   2000.0000   2000.0000      5.6201    135.9239
  1115.0000   2000.0000   2000.0000      5.4218    135.2159
  1115.2500   2000.0000   2000.0000      5.2923    133.4427
  1115.5000   2000.0000   2000.0000      5.2274    130.4940
  1115.7500   2000.0000   2000.0000      5.2293    129.3100
  1116.0000   2000.0000   2000.0000      5.3010    129.5391
  1116.2500   2000.0000   2000.0000      5.4439    130.8533
  1116.5000   2000.0000   2000.0000      5.6545    133.5298
  1116.7500   2000.0000   2000.0000      5.9242    135.0824
  1117.0000   2000.0000   2000.0000      6.2393    136.0722
  1117.2500   2000.0000   2000.0000      6.5841    135.4854
  1117.5000   2000.0000   2000.0000      6.9450    132.7418
  1117.7500   2000.0000   2000.0000      7.3132    130.0607
  1118.0000   2000.0000   2000.0000      7.6855    125.6923
  1118.2500   2000.0000   2000.0000      8.0630    122.9418
  1118.5000   2000.0000   2000.0000      8.4487    119.3580
  1118.7500   2000.0000   2000.0000      8.8452    117.4548
  1119.0000   2000.0000   2000.0000      9.2535    115.8013
  1119.2500   2000.0000   2000.0000      9.6720    115.9479
  1119.5000   2000.0000   2000.0000     10.0961    118.6303
  1119.7500   2000.0000   2000.0000     10.5137    121.9013
  1120.0000   2000.0000   2000.0000     10.9005    127.7598
  1120.2500   2000.0000   2000.0000     11.2170    131.3427
  1120.5000   2000.0000   2000.0000     11.4143    134.8969
  1120.7500   2000.0000   2000.0000     11.4504    135.5423
  1121.0000   2000.0000   2000.0000     11.3081    133.5466
  1121.2500   2000.0000   2000.0000     11.0031    130.3958
  1121.5000   2000.0000   2000.0000     10.5778    124.0448
  1121.7500   2000.0000   2000.0000     10.0864    119.9028
  1122.0000   2000.0000   2000.0000      9.5808    116.3117
  1122.2500   2000.0000   2000.0000      9.1021    116.7377
  1122.5000   2000.0000   2000.0000      8.6762    121.6342
  1122.7500   2000.0000   2000.0000      8.3145    126.6661
  1123.0000   2000.0000   2000.0000      8.0160    134.1817
  1123.2500   2000.0000   2000.0000      7.7722    137.8313
  1123.5000   2000.0000   2000.0000      7.5724    140.3164
  1123.7500   2000.0000   2000.0000      7.4075    140.2600
  1124.0000   2000.0000   2000.0000      7.2715    138.7378
  1124.2500   2000.0000   2000.0000      7.1614    137.3518
  1124.5000   2000.0000   2000.0000      7.0765    135.2542
  1124.7500   2000.0000   2000.0000      7.0187    133.8787
  1125.0000   2000.0000   2000.0000      6.9929    131.6684
  1125.2500   2000.0000   2000.0000      7.0061    130.0821
  1125.5000   2000.0000   2000.0000      7.0652    127.7672
  1125.7500   2000.0000   2000.0000      7.1769    126.3507
  1126.0000   2000.0000   2000.0000      7.3496    124.1201
  1126.2500   2000.0000   2000.0000      7.5959    122.2263
  1126.5000   2000.0000   2000.0000      7.9321    118.4236
  1126.7500   2000.0000   2000.0000      8.3743    115.3222
  1127.0000   2000.0000   2000.0000      8.9322    109.9848
  1127.2500   2000.0000   2000.0000      9.6037    105.6704
  1127.5000   2000.0000   2000.0000     10.3725     97.1392
  1127.7500   2000.0000   2000.0000     11.2085     90.1286
  1128.0000   2000.0000   2000.0000     12.0700     79.8047
  1128.2500   2000.0000   2000.0000     12.9146     75.0530
  1128.5000   2000.0000   2000.0000     13.7161     73.7329
  1128.7500   2000.0000   2000.0000     14.4760     77.0643
  1129.0000   2000.0000   2000.0000     15.2211     87.2662
  1129.2500   2000.0000   2000.0000     15.9880     96.5184
  1129.5000   2000.0000   2000.0000     16.8049    112.3762
  1129.7500   2000.0000   2000.0000     17.6740    123.2086
  1130.0000   2000.0000   2000.0000     18.5581    137.5838
  1130.2500   2000.0000   2000.0000     19.3804    144.5250
  1130.5000   2000.0000   2000.0000     20.0483    149.5818
  1130.7500   2000.0000   2000.0000     20.4935    149.6735
  1131.0000   2000.0000   2000.0000     20.7029    147.1242
  1131.2500   2000.0000   2000.0000     20.7178    145.2614
  1131.5000   2000.0000   2000.0000     20.6101    144.0664
  1131.7500   2000.0000   2000.0000     20.4547    144.4741
  1132.0000   2000.0000   2000.0000     20.3134    145.9882
  1132.2500   2000.0000   2000.0000     20.2247    147.0766
  1132.5000   2000.0000   2000.0000     20.1992    148.6742
  1132.7500   2000.0000   2000.0000     20.2218    149.7536
  1133.0000   2000.0000   2000.0000     20.2616    150.7392
  1133.2500   2000.0000   2000.0000     20.2876    150.2868
  1133.5000   2000.0000   2000.0000     20.2791    147.5194
  1133.7500   2000.0000   2000.0000     20.2295    144.8452
  1134.0000   2000.0000   2000.0000     20.1427    141.2693
  1134.2500   2000.0000   2000.0000     20.0287    139.9580
  1134.5000   2000.0000   2000.0000     19.9011    139.9409
  1134.7500   2000.0000   2000.0000     19.7759    140.7906
  1135.0000   2000.0000   2000.0000     19.6683    142.0019
  1135.2500   2000.0000   2000.0000     19.5849    142.1477
  1135.5000   2000.0000   2000.0000     19.5176    141.2902
  1135.7500   2000.0000   2000.0000     19.4432    140.4314
  1136.0000   2000.0000   2000.0000     19.3332    139.6944
  1136.2500   2000.0000   2000.0000     19.1669    140.0370
  1136.5000   2000.0000   2000.0000     18.9378    142.0208
  1136.7500   2000.0000   2000.0000     18.6503    144.0017
  1137.0000   2000.0000   2000.0000     18.3095    147.0252
  1137.2500   2000.0000   2000.0000     17.9166    148.6858
  1137.5000   2000.0000   2000.0000     17.4728    150.3959
  1137.7500   2000.0000   2000.0000     16.9870    150.9719
  1138.0000   2000.0000   2000.0000     16.4765    151.2401
  1138.2500   2000.0000   2000.0000     15.9590    151.5774
  1138.5000   2000.0000   2000.0000     15.4429    153.4240
  1138.7500   2000.0000   2000.0000     14.9268    155.4230
  1139.0000   2000.0000   2000.0000     14.4060    157.3771
  1139.2500   2000.0000   2000.0000     13.8798    156.4713
  1139.5000   2000.0000   2000.0000     13.3532    151.4598
  1139.7500   2000.0000   2000.0000     12.8360    147.2329
  1140.0000   2000.0000   2000.0000     12.3399    143.2092
  1140.2500   2000.0000   2000.0000     11.8765    143.2212
  1140.5000   2000.0000   2000.0000     11.4548    146.3902
  1140.7500   2000.0000   2000.0000     11.0809    149.0429
  1141.0000   2000.0000   2000.0000     10.7583    151.3374
  1141.2500   2000.0000   2000.0000     10.4885    151.0066
  1141.5000   2000.0000   2000.0000     10.2699    147.7172
  1141.7500   2000.0000   2000.0000     10.0964    144.2175
  1142.0000   2000.0000   2000.0000      9.9608    138.5556
  1142.2500   2000.0000   2000.0000      9.8598    135.3410
  1142.5000   2000.0000   2000.0000      9.7986    131.7272
  1142.7500   2000.0000   2000.0000      9.7878    129.6512
  1143.0000   2000.0000   2000.0000      9.8348    126.1217
  1143.2500   2000.0000   2000.0000      9.9360    123.5245
  1143.5000   2000.0000   2000.0000     10.0766    120.1489
  1143.7500   2000.0000   2000.0000     10.2377    118.5610
  1144.0000   2000.0000   2000.0000     10.4062    116.5773
  1144.2500   2000.0000   2000.0000     10.5810    114.8783
  1144.5000   2000.0000   2000.0000     10.7717    111.5644
  1144.7500   2000.0000   2000.0000     10.9902    109.5675
  1145.0000   2000.0000   2000.0000     11.2386    108.7286
  1145.2500   2000.0000   2000.0000     11.5022    110.2384
  1145.5000   2000.0000   2000.0000     11.7558    115.0977
  1145.7500   2000.0000   2000.0000     11.9813    118.9910
  1146.0000   2000.0000   2000.0000     12.1817    123.6827
  1146.2500   2000.0000   2000.0000     12.3778    125.3073
  1146.5000   2000.0000   2000.0000     12.5933    125.6572
  1146.7500   2000.0000   2000.0000     12.8446    125.1286
  1147.0000   2000.0000   2000.0000     13.1414    124.1986
  1147.2500   2000.0000   2000.0000     13.4922    123.8142
