~Version Information
VERS.                      2.0: CWLS Log ASCII Standard - VERSION 2.0
WRAP.                       NO: One line per depth step
~Well Information Block
STRT.FT               440.0000: 
STOP.FT              1300.5000: 
STEP.FT                 0.1000: 
NULL.                -999.2500: 
COMP.          Pioneer Natural Resources: COMPANY
WELL.              Yoshi 14-30: WELL
FLD.           Purgatoire River: FIELD
LOC.           993' FSL & 823' FWL: LOCATION
CNTY.               Las Animas: COUNTY
SRVC.                Patterson: SERVICE COMPANY
DATE.          Fri Feb 17 14:59:28 2006: LOG DATE
UWI.           05 071 08699 00: UNIQUE WELL ID
STAT.                 Colorado: STATE
~Curve Information Block
DEPT.FT            0 000 00 00: Depth
DCAL.in                       : CDL Caliper
RHOB.g/cc                     : CDL Bulk Density
RHOC.g/cc                     : CDL Density Correction
DPOR.pu                       : CDL Density Porosity
GR.GAPI                       : Gamma Ray
NPOR.pu                       : Neutron Porosity
~Parameter Information Block
~A  Depth       DCAL        RHOB        RHOC        DPOR         GR         NPOR    
# ...
   833.6000      8.0415      2.5776      0.0057      4.3893    111.4165     22.1930
   833.7000      8.0415      2.5929      0.0392      3.4625    115.1773     22.1256
   833.8000      8.0408      2.5989      0.0166      3.0990    116.5680     22.3402
   833.9000      8.0408      2.5984      0.0072      3.1279    115.2232     22.6873
   834.0000      8.0395      2.5916      0.0435      3.5384    114.3284     22.8040
   834.1000      8.0395      2.5653      0.0455      5.1349    115.4137     22.8340
   834.2000      8.0395      2.5257     -0.0518      7.5364    127.4826     23.1042
   834.3000      8.0400      2.4974     -0.0545      9.2514    129.6727     23.4071
   834.4000      8.0400      2.4890     -0.0004      9.7589    137.6549     23.6313
   834.5000      8.0411      2.4921      0.0107      9.5714    151.0372     23.8708
   834.6000      8.0411      2.4986      0.0305      9.1745    164.1896     24.0934
   834.7000      8.0411      2.5018      0.0301      8.9826    170.7600     24.1351
   834.8000      8.0415      2.5036      0.0329      8.8756    165.4114     24.1306
   834.9000      8.0415      2.5171      0.0343      8.0526    155.1791     24.5938
   835.0000      8.0419      2.5422      0.0958      6.5334    150.1238     25.3300
   835.1000      8.0419      2.5603      0.1235      5.4360    149.0847     25.5370
   835.2000      8.0419      2.5667      0.0668      5.0463    146.5282     25.1860
   835.3000      8.0424      2.5732      0.0786      4.6527    140.8480     24.6970
   835.4000      8.0424      2.5826      0.0927      4.0863    131.0493     24.4473
   835.5000      8.0421      2.5826      0.1214      4.0853    121.6451     24.7560
   835.6000      8.0421      2.5618      0.0861      5.3469    119.8828     24.9043
   835.7000      8.0421      2.5311      0.0270      7.2054    123.8289     24.1288
   835.8000      8.0416      2.5177      0.0137      8.0163    127.7168     23.1462
   835.9000      8.0416      2.5258      0.0459      7.5244    128.6550     22.5932
   836.0000      8.0422      2.5292      0.0608      7.3210    124.8595     22.3229
   836.1000      8.0422      2.5171     -0.0549      8.0562    119.6330     22.6190
   836.2000      8.0422      2.5126     -0.0246      8.3299    118.8010     23.4395
   836.3000      8.0424      2.5281      0.0577      7.3853    120.2464     23.8037
   836.4000      8.0424      2.5517      0.0468      5.9598    120.3796     23.5406
   836.5000      8.0423      2.5702      0.0862      4.8361    120.5250     23.5873
   836.6000      8.0423      2.5707      0.1322      4.8086    121.1483     24.4811
   836.7000      8.0423      2.5505      0.0933      6.0327    122.2814     25.6529
   836.8000      8.0421      2.5280      0.0178      7.3946    126.6465     26.3388
   836.9000      8.0421      2.5221     -0.0155      7.7538    135.9888     26.5917
   837.0000      8.0399      2.5312      0.0332      7.1994    142.8925     26.7687
   837.1000      8.0399      2.5438      0.0580      6.4340    141.6344     26.7205
   837.2000      8.0399      2.5645      0.0442      5.1843    137.9157     26.1511
   837.3000      8.0384      2.5945      0.1163      3.3612    134.7754     25.3994
   837.4000      8.0384      2.6088      0.1264      2.4986    130.1145     25.1453
   837.5000      8.0397      2.5972      0.0930      3.1998    126.2676     25.3220
   837.6000      8.0397      2.5809      0.0867      4.1870    125.4515     25.4026
   837.7000      8.0397      2.5743      0.0784      4.5896    124.6466     25.3360
   837.8000      8.0410      2.5736      0.0671      4.6295    123.7947     25.4073
   837.9000      8.0410      2.5755      0.0147      4.5122    127.5159     25.6726
   838.0000      8.0409      2.5704      0.0644      4.8252    135.7861     25.8107
   838.1000      8.0409      2.5450      0.0098      6.3616    143.6019     25.7910
   838.2000      8.0409      2.5204     -0.0456      7.8557    144.5912     25.7892
   838.3000      8.0404      2.5215      0.0373      7.7899    135.0174     25.5495
   838.4000      8.0404      2.5399      0.0269      6.6723    124.2780     25.0246
   838.5000      8.0407      2.5613      0.0763      5.3775    125.5509     24.4521
   838.6000      8.0407      2.5758      0.0768      4.4973    135.7166     23.9823
   838.7000      8.0407      2.5727      0.0833      4.6853    141.3912     23.9553
   838.8000      8.0413      2.5546      0.0778      5.7789    138.3167     24.4214
   838.9000      8.0413      2.5401      0.0349      6.6627    133.8667     24.8312
   839.0000      8.0412      2.5429      0.0768      6.4918    131.8263     24.9002
   839.1000      8.0412      2.5607      0.0727      5.4095    128.9125     25.1468
   839.2000      8.0412      2.5853      0.0672      3.9224    124.7686     25.9525
   839.3000      8.0409      2.6022      0.1064      2.8942    123.1298     26.7610
   839.4000      8.0409      2.5961      0.0872      3.2656    124.1787     26.9200
   839.5000      8.0410      2.5768      0.0251      4.4334    124.3235     26.3415
   839.6000      8.0410      2.5705      0.0269      4.8156    124.9547     25.5806
   839.7000      8.0410      2.5817      0.0311      4.1423    130.1969     25.3359
   839.8000      8.0406      2.5875      0.0657      3.7874    135.9461     25.4621
   839.9000      8.0406      2.5735      0.0433      4.6388    136.5076     25.3968
   840.0000      8.0381      2.5548      0.0265      5.7680    132.7661     25.2268
   840.1000      8.0381      2.5434      0.0238      6.4616    128.7363     25.4289
   840.2000      8.0381      2.5277      0.0178      7.4116    125.5138     25.9965
   840.3000      8.0365      2.5060     -0.0209      8.7279    122.4613     26.5212
   840.4000      8.0365      2.4939      0.0004      9.4620    120.2347     26.7306
   840.5000      8.0387      2.5005     -0.0426      9.0601    120.6695     26.8917
   840.6000      8.0387      2.5170      0.0110      8.0591    122.8901     27.4021
   840.7000      8.0387      2.5245      0.0124      7.6033    123.0147     27.9733
   840.8000      8.0402      2.5306     -0.0430      7.2382    119.0275     28.2698
   840.9000      8.0402      2.5572     -0.0145      5.6243    116.7532     28.2829
   841.0000      8.0387      2.5842      0.0764      3.9883    124.5332     27.9444
   841.1000      8.0387      2.5810     -0.0032      4.1838    139.4017     27.3502
   841.2000      8.0387      2.5642      0.0010      5.2007    146.8485     26.8322
   841.3000      8.0369      2.5517      0.0172      5.9552    141.7426     26.2919
   841.4000      8.0369      2.5365      0.0131      6.8814    136.3902     25.5288
   841.5000      8.0380      2.5195      0.0137      7.9068    140.2686     24.9274
   841.6000      8.0380      2.5088     -0.0019      8.5601    148.5434     24.8632
   841.7000      8.0380      2.5036     -0.0193      8.8713    154.1536     25.2553
   841.8000      8.0398      2.5060     -0.0391      8.7278    156.4698     25.6057
   841.9000      8.0398      2.5194     -0.0061      7.9158    155.2873     25.4649
   842.0000      8.0401      2.5327      0.0127      7.1102    149.2397     25.0439
   842.1000      8.0401      2.5314      0.0113      7.1905    142.1325     24.7727
   842.2000      8.0401      2.5189     -0.0067      7.9455    137.2265     24.7818
   842.3000      8.0395      2.5053      0.0286      8.7676    134.1563     25.1890
   842.4000      8.0395      2.4920     -0.0182      9.5760    134.3170     25.8387
   842.5000      8.0386      2.4811     -0.0049     10.2393    136.6779     26.0556
   842.6000      8.0386      2.4752     -0.0041     10.5954    137.4945     25.6022
   842.7000      8.0386      2.4725     -0.0094     10.7581    136.3657     25.0723
   842.8000      8.0382      2.4724     -0.0043     10.7625    135.0860     24.8849
   842.9000      8.0382      2.4761      0.0103     10.5420    138.9680     24.8114
   843.0000      8.0390      2.4807      0.0018     10.2623    149.2062     24.6510
   843.1000      8.0390      2.4885     -0.0262      9.7867    156.8540     24.7022
