~Version Information
VERS.                      2.0: CWLS Log ASCII Standard - VERSION 2.0
WRAP.                       NO: One line per depth step
~Well Information Block
STRT.FT                -9.5000: 
STOP.FT              1401.5000: 
STEP.FT                 0.2500: 
NULL.                -999.2500: 
COMP.          Pioneer Natural Resources: COMPANY
WELL.             John K 12-28: WELL
FLD.           Purgatorie River: FIELD
LOC.           1476' FNL & 465' FWL--: LOCATION
CNTY.               Las Animas: COUNTY
SRVC.          Patterson Wireline: SERVICE COMPANY
DATE.          Fri Apr 28 08:36:46 2006: LOG DATE
UWI.           05 071 08723 00: UNIQUE WELL ID
STAT.                       CO: STATE
~Curve Information Block
DEPT.FT            0 000 00 00: Depth
CCL.                          : Casing Collar Locator
TT3.usec                      : CBL 3' Travel Time
AMP3.mV                       : CBL 3' Amplitude
GR.GAPI                       : Gamma Ray
~Parameter Information Block
~A  Depth       CCL         TT3         AMP3         GR     
# ...
   828.0000      0.0000    584.9309      4.8315    169.2243
   828.2500      0.0000    566.4870      4.8292    163.4787
   828.5000      0.0000    567.9433      4.8422    159.3170
   828.7500      0.0000    586.5166      4.8685    156.1632
   829.0000      0.0000    612.1821      4.8993    151.2156
   829.2500      0.0000    636.2636      4.9214    141.9455
   829.5000      0.0000    657.7375      4.9263    128.2252
   829.7500      0.0000    679.3560      4.9183    112.3637
   830.0000      0.0000    700.2328      4.9126     97.4001
   830.2500      0.0000    715.6183      4.9253     85.4757
   830.5000      0.0000    722.4371      4.9626     77.5207
   830.7500      0.0000    722.2909      5.0111     73.7378
   831.0000      0.0000    719.5264      5.0410     73.9078
   831.2500      0.0000    717.8586      5.0261     77.6159
   831.5000      0.0000    718.6594      4.9645     84.7917
   831.7500      0.0000    721.3314      4.8796     95.9656
   832.0000      0.0000    724.8247      4.8023    111.4546
   832.2500      0.0000    728.8464      4.7542    129.9811
   832.5000      0.0000    733.5234      4.7461    148.2278
   832.7500      0.0000    737.9603      4.7817    162.1350
   833.0000      0.0000    739.6946      4.8544    169.2004
   833.2500      0.0000    736.0739      4.9416    169.8818
   833.5000      0.0000    725.9971      5.0123    166.8418
   833.7500      0.0000    710.0331      5.0473    162.8784
   834.0000      0.0000    689.4491      5.0488    159.4022
   834.2500      0.0000    666.0215      5.0321    156.3750
   834.5000      0.0000    642.2679      5.0108    153.2699
   834.7500      0.0000    620.3496      4.9897    149.9845
   835.0000      0.0000    601.1824      4.9668    147.0478
   835.2500      0.0000    586.7249      4.9391    145.2017
   835.5000      0.0000    582.4627      4.9071    144.8128
   835.7500      0.0000    594.0992      4.8741    145.3633
   836.0000      0.0000    620.0295      4.8427    145.3250
   836.2500      0.0000    648.6269      4.8119    142.9112
   836.5000      0.0000    665.2637      4.7777    137.6649
   836.7500      0.0000    663.0430      4.7399    131.4485
   837.0000      0.0000    647.6306      4.7085    127.3206
   837.2500      0.0000    633.0137      4.6996    127.0023
   837.5000      0.0000    631.9321      4.7203    129.4450
   837.7500      0.0000    646.8555      4.7585    131.7089
   838.0000      0.0000    667.8010      4.7940    130.9596
   838.2500      0.0000    680.5015      4.8192    126.0461
   838.5000      0.0000    679.4096      4.8469    117.9067
   838.7500      0.0000    672.4076      4.8959    108.4894
   839.0000      0.0000    671.2852      4.9720     99.2132
   839.2500      0.0000    678.8126      5.0624     91.0836
   839.5000      0.0000    687.1650      5.1454     86.1424
   839.7500      0.0000    687.6112      5.2034     87.3001
   840.0000      0.0000    679.2186      5.2286     95.9372
   840.2500      0.0000    668.0417      5.2221    110.0808
   840.5000      0.0000    659.1240      5.1926    125.2533
   840.7500      0.0000    651.1263      5.1519    137.0138
   841.0000      0.0000    640.6655      5.1110    142.8928
   841.2500      0.0000    630.2440      5.0761    142.6288
   841.5000      0.0000    627.6819      5.0476    137.3103
   841.7500      0.0000    636.3973      5.0205    128.6143
   842.0000      0.0000    649.0545      4.9896    118.6646
   842.2500      0.0000    653.3802      4.9560    109.9668
   842.5000      0.0000    644.1566      4.9296    104.7214
   842.7500      0.0000    628.5801      4.9231    103.8048
   843.0000      0.0000    619.8668      4.9424    106.3095
   843.2500      0.0000    625.6630      4.9813    110.0036
   843.5000      0.0000    642.1214      5.0215    112.4211
   843.7500      0.0000    658.8058      5.0427    112.0771
   844.0000      0.0000    669.4695      5.0359    109.1514
   844.2500      0.0000    677.4072      5.0093    105.1287
   844.5000      0.0000    689.3242      4.9799    101.7342
   844.7500      0.0000    705.3561      4.9587    100.1156
   845.0000      0.0000    717.9833      4.9432    100.8015
   845.2500      0.0000    720.0156      4.9240    104.1998
   845.5000      0.0000    710.1371      4.8971    110.7946
   845.7500      0.0000    690.9767      4.8685    120.5476
   846.0000      0.0000    666.3942      4.8477    132.2713
   846.2500      0.0000    642.4274      4.8356    143.9210
   846.5000      0.0000    627.3979      4.8239    153.5025
   846.7500      0.0000    627.1353      4.8056    159.9013
   847.0000      0.0000    639.9760      4.7888    163.3190
   847.2500      0.0000    658.0347      4.7925    164.8536
   847.5000      0.0000    673.5394      4.8283    165.2366
   847.7500      0.0000    683.7421      4.8858    164.2281
   848.0000      0.0000    691.1512      4.9384    161.7501
   848.2500      0.0000    700.0058      4.9643    159.1098
   848.5000      0.0000    711.4048      4.9595    158.2272
   848.7500      0.0000    720.8311      4.9364    159.7971
   849.0000      0.0000    721.0463      4.9121    162.8246
   849.2500      0.0000    708.2869      4.8973    165.7681
   849.5000      0.0000    685.9983      4.8930    167.5968
   849.7500      0.0000    662.0109      4.8937    167.8809
   850.0000      0.0000    641.3572      4.8950    166.5045
   850.2500      0.0000    622.8248      4.8966    163.6159
   850.5000      0.0000    603.5604      4.8982    159.8304
   850.7500      0.0000    585.5869      4.8947    156.3681
   851.0000      0.0000    576.2166      4.8765    154.6620
   851.2500      0.0000    582.2568      4.8382    155.3688
   851.5000      0.0000    603.7554      4.7882    157.8134
   851.7500      0.0000    632.8568      4.7524    160.7800
   852.0000      0.0000    659.3441      4.7633    163.7336
   852.2500      0.0000    677.5456      4.8341    166.9135
   852.5000      0.0000    687.6362      4.9425    170.5005
   852.7500      0.0000    691.6568      5.0422    174.2413
   853.0000      0.0000    690.5613      5.0926    177.7036
   853.2500      0.0000    685.1425      5.0728    180.0157
   853.5000      0.0000    677.9158      4.9837    179.3031
   853.7500      0.0000    672.4943      4.8516    173.4527
   854.0000      0.0000    670.2792      4.7273    162.1664
   854.2500      0.0000    667.6888      4.6632    147.8867
   854.5000      0.0000    658.1735      4.6766    134.4082
   854.7500      0.0000    638.8228      4.7387    124.7404
   855.0000      2.0000    614.2684      4.8030    120.0251
   855.2500      0.0000    592.5292      4.8409    119.7254
   855.5000      0.0000    579.1049      4.8554    122.3604
   855.7500      0.0000    577.2841      4.8655    126.2173
   856.0000      0.0000    589.6473      4.8765    130.0015
   856.2500      0.0000    614.2343      4.8569    133.2672
   856.5000      0.0000    642.0657      4.7574    136.0349
   856.7500      0.0000    662.4260      4.5742    137.7779
   857.0000      0.0000    669.7139      4.3832    137.3895
   857.2500      0.0000    665.1793      4.2859    134.5495
   857.5000      0.0000    655.0373      4.3231    130.6337
   857.7500      0.0000    647.2660      4.4522    127.5661
   858.0000      0.0000    646.4509      4.6006    126.0579
   858.2500      0.0000    649.2585      4.7205    125.6323
   858.5000      0.0000    646.4978      4.8011    126.0147
   858.7500      0.0000    631.6708      4.8499    127.2603
   859.0000      0.0000    607.2490      4.8766    128.4014
   859.2500      0.0000    581.9313      4.8881    127.5135
   859.5000      0.0000    562.7728      4.8896    124.1040
   859.7500      0.0000    550.6793      4.8835    120.5132
   860.0000      0.0000    541.6567      4.8671    119.7402
   860.2500      0.0000    530.1863      4.8349    122.0878
   860.5000      0.0000    512.0993      4.7850    124.7165
   860.7500      0.0000    486.9192      4.7230    124.3544
   861.0000      0.0000    458.6950      4.6596    120.0093
   861.2500      0.0000    433.6129      4.6060    113.3307
