~Version Information
VERS.                      2.0: CWLS Log ASCII Standard - VERSION 2.0
WRAP.                       NO: One line per depth step
~Well Information Block
STRT.FT                65.0000: 
STOP.FT               998.0000: 
STEP.FT                 0.2500: 
NULL.                -999.2500: 
COMP.          Pioneer Natural Resources: COMPANY
WELL.              Gough 14-29: WELL
FLD.           Purgatorie River: FIELD
LOC.           1199' FSL & 676' FWL: LOCATION
PROV.                 Colorado: PROVINCE
CNTY.               Las Animas: COUNTRY
SRVC.                Patterson: SERVICE COMPANY
DATE.          Wed Dec 28 08:38:26 2005: LOG DATE
UWI.                          : UNIQUE WELL ID
~Curve Information Block
DEPT.FT            0 000 00 00: Depth
CCL.                          : Casing Collar Locator
TT3.usec                      : CBL 3' Travel Time
AMP3.mV                       : CBL 3' Amplitude
GR.GAPI                       : Gamma Ray
~Parameter Information Block
~A  Depth       CCL         TT3         AMP3         GR     
# ...
   534.0000      0.0000    713.3800     12.5088    113.5616
   534.2500      0.0000    722.6105     12.5441    108.5520
   534.5000      0.0000    729.9139     12.5777    104.5563
   534.7500      0.0000    732.7723     12.5732    101.6199
   535.0000      0.0000    728.7607     12.5274    100.5684
   535.2500      0.0000    717.0595     12.4908    101.6161
   535.5000      0.0000    693.9000     12.5080    103.4058
   535.7500      0.0000    662.5888     12.5520    103.9692
   536.0000      0.0000    649.4581     12.5663    102.3789
   536.2500      0.0000    676.5095     12.5346     99.0634
   536.5000      0.0000    724.5629     12.4825     94.8697
   536.7500      0.0000    759.5696     12.4429     90.6029
   537.0000      0.0000    771.4536     12.4260     87.4531
   537.2500      0.0000    768.3282     12.4045     86.8334
   537.5000      0.0000    760.2082     12.3377     89.0878
   537.7500      0.0000    754.3756     12.2142     92.7487
   538.0000      0.0000    752.3056     12.0592     95.5887
   538.2500      0.0000    750.3907     11.9100     96.4477
   538.5000      0.0000    746.9696     11.8049     96.0949
   538.7500      0.0000    743.5143     11.7453     96.4282
   539.0000      0.0000    739.0707     11.5986     98.5021
   539.2500      0.0000    729.1703     11.1032    101.2342
   539.5000      0.0000    712.6678     10.2005    102.4755
   539.7500      0.0000    701.2402      9.4308    101.2616
   540.0000      0.0000    714.6882      9.4137     98.2560
   540.2500      0.0000    759.1744      9.7889     94.1306
   540.5000      0.0000    815.9354      9.7461     88.7236
   540.7500      0.0000    853.9450      9.3225     82.2412
   541.0000      0.0000    855.8887      9.0141     76.4179
   541.2500      0.0000    836.9598      8.9238     73.8181
   541.5000     -2.0000    826.3458      8.9023     76.0323
   541.7500     -2.0000    834.7039      8.8424     82.4877
   542.0000      0.0000    853.8052      8.7171     90.8230
   542.2500      0.0000    861.5135      8.6655     98.4836
   542.5000      0.0000    821.6710      9.0781    104.1472
   542.7500      0.0000    729.1520     10.1526    107.9790
   543.0000      0.0000    644.5797     11.2606    111.0561
   543.2500      0.0000    626.3688     11.6358    114.6280
   543.5000      0.0000    659.6104     11.4353    119.3301
   543.7500      0.0000    695.4453     11.1804    124.8459
   544.0000      0.0000    712.7177     11.0140    130.4498
   544.2500      0.0000    716.1711     10.9060    135.6674
   544.5000      0.0000    712.1558     10.8522    140.2441
   544.7500      0.0000    702.6664     10.8382    143.7451
   545.0000      0.0000    690.3906     10.8500    145.3922
   545.2500      0.0000    679.1138     10.9080    144.3225
   545.5000      0.0000    669.0023     11.0534    140.3615
   545.7500      0.0000    657.3286     11.3066    134.7945
   546.0000      0.0000    644.9314     11.6393    130.0714
   546.2500      0.0000    637.7809     11.9887    128.1504
   546.5000      0.0000    641.9645     12.3041    128.8083
   546.7500      0.0000    658.2176     12.5812    129.6823
   547.0000      0.0000    678.9406     12.8465    128.3498
   547.2500      0.0000    694.0554     13.1030    124.4386
   547.5000      0.0000    702.0370     13.3110    119.5680
   547.7500      0.0000    707.9305     13.4370    115.5260
   548.0000      0.0000    713.4697     13.4845    112.8848
   548.2500      0.0000    717.1429     13.4550    111.1206
   548.5000      0.0000    718.7355     13.3333    109.6002
   548.7500      0.0000    719.2232     13.1309    108.3726
   549.0000      0.0000    719.2965     12.9019    108.0834
   549.2500      0.0000    719.2363     12.7026    109.1390
   549.5000      0.0000    719.1719     12.5344    111.1476
   549.7500      0.0000    719.1445     12.3343    113.2498
   550.0000      0.0000    719.1224     12.0573    114.7721
   550.2500      0.0000    719.0648     11.7377    115.4182
   550.5000      0.0000    718.9716     11.4471    115.2379
   550.7500      0.0000    718.8931     11.2585    114.6773
   551.0000      0.0000    718.8611     11.2203    114.3139
   551.2500      0.0000    718.8366     11.2987    114.2925
   551.5000      0.0000    718.7897     11.3766    114.2693
   551.7500      0.0000    718.7404     11.3763    113.8751
   552.0000      0.0000    718.7064     11.3339    112.9659
   552.2500      0.0000    718.7218     11.2991    111.5094
   552.5000      0.0000    718.8069     11.2521    109.5127
   552.7500      0.0000    718.8863     11.1572    107.0567
   553.0000      0.0000    718.8854     11.0200    104.2966
   553.2500      0.0000    718.8088     10.8786    101.4353
   553.5000      0.0000    718.4855     10.8013     98.6109
   553.7500      0.0000    716.9902     10.8632     95.6993
   554.0000      0.0000    712.3030     11.0709     92.3473
   554.2500      0.0000    703.1187     11.3734     88.3641
   554.5000      0.0000    692.5224     11.7538     84.1187
   554.7500      0.0000    687.3806     12.2252     80.5217
   555.0000      0.0000    691.5482     12.7554     78.6026
   555.2500      0.0000    701.5317     13.2706     79.0229
   555.5000      0.0000    710.5836     13.7110     81.7657
   555.7500      0.0000    715.3879     14.0724     86.0449
   556.0000      0.0000    716.6196     14.4096     90.6340
   556.2500      0.0000    713.8090     14.7968     94.6775
   556.5000      0.0000    698.8834     15.2983     98.5325
   556.7500      0.0000    653.6471     15.9612    103.6168
   557.0000      0.0000    565.7173     16.7664    110.7295
   557.2500      0.0000    455.9617     17.5381    118.4067
   557.5000      0.0000    368.1599     18.0131    123.7890
   557.7500      0.0000    323.5844     18.0998    125.4685
   558.0000      0.0000    312.0195     17.9497    124.5512
   558.2500      0.0000    323.8913     17.7187    122.6025
   558.5000      0.0000    368.7506     17.4234    119.7324
   558.7500      0.0000    456.7341     17.0592    115.3910
   559.0000      0.0000    566.5725     16.6908    110.1666
   559.2500      0.0000    654.5226     16.3872    106.0470
   559.5000      0.0000    699.6823     16.1634    105.1736
   559.7500      0.0000    714.4929     16.0077    108.3854
   560.0000      0.0000    717.5211     15.8962    114.3875
   560.2500      0.0000    717.8556     15.7534    120.2915
   560.5000      0.0000    717.8857     15.4882    123.5874
   560.7500      0.0000    718.0047     15.1083    123.8771
   561.0000      0.0000    718.2404     14.7194    122.6536
   561.2500      0.0000    718.4852     14.3907    121.5104
   561.5000      0.0000    718.6204     14.0926    120.6929
   561.7500      0.0000    718.6047     13.7693    119.3061
   562.0000      0.0000    718.4417     13.4190    116.5067
   562.2500      0.0000    718.1845     13.0809    111.9710
   562.5000      0.0000    717.9756     12.8009    105.2321
   562.7500      0.0000    717.9583     12.6579     95.3924
   563.0000      0.0000    718.1166     12.7338     82.1395
   563.2500      0.0000    718.2228     13.0277     66.9044
   563.5000      0.0000    717.7410     13.4949     52.5896
   563.7500      0.0000    714.3552     14.1498     41.9694
   564.0000      0.0000    699.2573     15.0414     36.1131
   564.2500      0.0000    654.0899     16.1516     34.0376
   564.5000      0.0000    566.2882     17.3535     33.8805
   564.7500      0.0000    456.4849     18.4520     34.5791
   565.0000      0.0000    368.3051     19.3014     36.4521
   565.2500      0.0000    322.7405     19.9256     40.3097
   565.5000      0.0000    307.4261     20.4589     46.3575
   565.7500      0.0000    303.8918     20.9636     53.9338
   566.0000      0.0000    303.1634     21.3987     61.8376
   566.2500      0.0000    302.9138     21.7228     68.7347
   566.5000      0.0000    302.7855     21.9278     73.5479
   566.7500      0.0000    302.7529     22.0118     75.6925
   567.0000      0.0000    302.8295     21.9752     75.1105
   567.2500      0.0000    303.0023     21.8306     72.4131
