~Version Information
VERS.                      2.0: CWLS Log ASCII Standard - VERSION 2.0
WRAP.                       NO: One line per depth step
~Well Information Block
STRT.FT                -8.2500: 
STOP.FT              1653.2500: 
STEP.FT                 0.2500: 
NULL.                -999.2500: 
COMP.          Pioneer Natural Resources: COMPANY
WELL.            Relay 12-7 Tr: WELL
FLD.           Purgatorie River: FIELD
LOC.           2025' FNL & 790' FWL--: LOCATION
PROV.                       CO: PROVINCE
CNTY.               Las Animas: COUNTRY
SRVC.          Patterson Wireline: SERVICE COMPANY
DATE.          Tue Jan 24 10:25:08 2006: LOG DATE
UWI.           05 071 08603 00: UNIQUE WELL ID
~Curve Information Block
DEPT.FT            0 000 00 00: Depth
CCL.                          : Casing Collar Locator
TT3.usec                      : CBL 3' Travel Time
AMP3.mV                       : CBL 3' Amplitude
GR.GAPI                       : Gamma Ray
~Parameter Information Block
~A  Depth       CCL         TT3         AMP3         GR     
# ...
    92.2500      0.0000    771.5710      6.4080     95.4590
    92.5000      0.0000    770.6226      6.3588     91.0000
    92.7500      0.0000    765.4563      6.3349     87.5338
    93.0000      0.0000    756.1196      6.3355     85.0445
    93.2500      0.0000    744.8428      6.3505     82.7945
    93.5000      0.0000    734.8024      6.3697     80.0487
    93.7500      0.0000    728.8383      6.3893     76.9521
    94.0000      0.0000    728.6514      6.4126     74.4589
    94.2500      0.0000    734.5476      6.4422     73.1266
    94.5000      0.0000    745.1859      6.4730     72.5262
    94.7500      0.0000    757.3359      6.4940     72.1923
    95.0000      0.0000    766.5726      6.4972     72.4266
    95.2500      0.0000    769.0928      6.4824     73.4508
    95.5000      0.0000    763.6449      6.4556     74.1973
    95.7500      0.0000    752.6502      6.4240     72.8483
    96.0000      0.0000    741.5198      6.3953     68.8102
    96.2500      0.0000    735.4001      6.3777     63.9355
    96.5000      0.0000    735.5524      6.3762     61.4920
    96.7500      0.0000    739.3035      6.3888     63.5205
    97.0000      0.0000    743.3823      6.4059     68.9908
    97.2500      0.0000    746.1119      6.4152     74.5953
    97.5000      0.0000    746.8160      6.4078     77.2723
    97.7500      0.0000    745.2940      6.3805     75.9696
    98.0000      0.0000    742.4578      6.3365     71.6080
    98.2500      0.0000    740.1036      6.2853     66.0646
    98.5000      0.0000    739.4086      6.2395     61.1353
    98.7500      0.0000    740.1245      6.2077     57.8449
    99.0000      0.0000    741.2724      6.1900     56.1682
    99.2500      0.0000    742.1478      6.1821     55.1491
    99.5000      0.0000    742.5875      6.1839     53.5116
    99.7500      0.0000    742.7224      6.1992     50.6288
   100.0000      0.0000    742.7283      6.2271     47.1043
   100.2500      0.0000    742.7283      6.2550     44.3232
   100.5000      0.0000    742.7612      6.2641     43.3204
   100.7500      0.0000    742.7986      6.2432     44.1247
   101.0000      0.0000    742.8207      6.1981     46.2712
   101.2500      0.0000    742.8564      6.1479     49.7587
   101.5000      0.0000    742.9420      6.1120     55.1042
   101.7500      0.0000    743.0588      6.0968     62.3045
   102.0000      0.0000    743.1388      6.0953     70.0516
   102.2500      0.0000    743.1308      6.0981     76.4053
   102.5000      0.0000    743.0593      6.1036     80.2536
   102.7500      0.0000    743.0580      6.1185     81.8827
   103.0000      0.0000    743.4091      6.1467     82.1774
   103.2500      0.0000    744.6138      6.1801     81.7228
   103.5000      0.0000    747.3865      6.2021     80.9175
   103.7500      0.0000    752.2792      6.2026     80.5956
   104.0000      0.0000    758.8823      6.1872     81.8924
   104.2500      0.0000    765.2831      6.1715     85.1666
   104.5000      0.0000    768.7734      6.1680     89.3119
   104.7500      0.0000    767.7917      6.1786     92.4826
   105.0000      0.0000    763.5578      6.1956     93.5003
   105.2500      0.0000    759.3785      6.2084     92.5893
   105.5000      0.0000    757.4613      6.2122     91.0226
   105.7500      0.0000    756.3707      6.2106     89.9503
   106.0000      0.0000    752.5859      6.2105     89.2471
   106.2500      0.0000    744.6918      6.2148     87.5626
   106.5000      0.0000    735.0013      6.2205     83.7124
   106.7500      0.0000    727.0561      6.2224     77.9517
   107.0000      0.0000    722.7950      6.2183     71.7236
   107.2500      0.0000    722.4745      6.2095     66.3347
   107.5000      0.0000    726.1757      6.1974     62.2103
   107.7500      0.0000    734.3887      6.1795     59.2409
   108.0000      0.0000    747.1345      6.1494     57.2758
   108.2500      0.0000    763.0242      6.1013     56.1438
   108.5000      0.0000    779.3826      6.0344     55.5547
   108.7500      0.0000    792.7428      5.9535     55.1468
   109.0000      0.0000    798.9252      5.8670     54.6467
   109.2500      0.0000    793.8959      5.7821     54.0656
   109.5000      0.0000    776.2948      5.7056     53.6388
   109.7500      0.0000    749.5109      5.6549     53.3889
   110.0000      0.0000    720.9914      5.6627     52.9197
   110.2500      0.0000    699.9254      5.7425     51.7985
   110.5000      0.0000    695.1708      5.8352     50.0392
   110.7500      0.0000    712.7704      5.8267     48.1659
   111.0000      0.0000    752.7958      5.6571     46.8607
   111.2500      0.0000    807.9368      5.3881     46.3962
   111.5000      0.0000    865.2453      5.1381     46.3596
   111.7500      0.0000    910.2902      4.9802     46.1762
   112.0000     -2.0000    932.6638      4.9216     45.9522
   112.2500      0.0000    930.0223      4.9540     46.5239
   112.5000      0.0000    906.5399      5.0977     48.6127
   112.7500      0.0000    868.6125      5.3940     52.0713
   113.0000      0.0000    824.9794      5.8424     55.8507
   113.2500      0.0000    788.1976      6.3355     58.4534
   113.5000      0.0000    769.5365      6.6905     58.5416
   113.7500      0.0000    771.2119      6.7911     55.6829
   114.0000      0.0000    785.5168      6.6838     50.8486
   114.2500      0.0000    801.0358      6.5110     46.0399
   114.5000      0.0000    809.6833      6.3790     43.1755
   114.7500      0.0000    810.0706      6.3138     43.1834
   115.0000      0.0000    805.5600      6.3005     45.7702
   115.2500      0.0000    799.5040      6.3204     49.5968
   115.5000      0.0000    793.0229      6.3565     52.8238
   115.7500      0.0000    786.6199      6.3910     54.1907
   116.0000      0.0000    781.5340      6.4123     53.9181
   116.2500      0.0000    778.6662      6.4184     53.2884
   116.5000      0.0000    777.2074      6.4132     53.3229
   116.7500      0.0000    775.3002      6.3999     54.3022
   117.0000      0.0000    772.0167      6.3790     56.4439
   117.2500      0.0000    768.0850      6.3502     60.1949
   117.5000      0.0000    764.5796      6.3157     65.5438
   117.7500      0.0000    761.6359      6.2809     71.5799
   118.0000      0.0000    759.0214      6.2538     77.0708
   118.2500      0.0000    757.2703      6.2405     81.2699
   118.5000      0.0000    757.3604      6.2429     84.1094
   118.7500      0.0000    759.4014      6.2598     85.9584
   119.0000      0.0000    762.2977      6.2886     87.4202
   119.2500      0.0000    764.7443      6.3252     89.2405
   119.5000      0.0000    766.1404      6.3607     91.8918
   119.7500      0.0000    766.5523      6.3825     94.7154
   120.0000      0.0000    766.1414      6.3816     95.7706
   120.2500      0.0000    764.7736      6.3579     93.5023
   120.5000      0.0000    762.0261      6.3193     88.7345
   120.7500      0.0000    757.4395      6.2763     84.2850
   121.0000      0.0000    750.8368      6.2389     82.5032
   121.2500      0.0000    742.6419      6.2155     83.5594
   121.5000      0.0000    734.0401      6.2131     85.8372
   121.7500      0.0000    726.6048      6.2341     87.4518
   122.0000      0.0000    721.4353      6.2728     87.5754
   122.2500      0.0000    718.6036      6.3146     86.7293
   122.5000      0.0000    717.4289      6.3428     86.0164
   122.7500      0.0000    717.1172      6.3495     86.1112
   123.0000      0.0000    717.1270      6.3414     86.8129
   123.2500      0.0000    717.1827      6.3353     87.3167
   123.5000      0.0000    717.1729      6.3476     86.9275
   123.7500      0.0000    717.0736      6.3866     85.6187
   124.0000      0.0000    716.9039      6.4492     83.7850
   124.2500      0.0000    716.7103      6.5232     81.5418
   124.5000      0.0000    716.5491      6.5909     78.6338
   124.7500      0.0000    716.4592      6.6357     74.9212
   125.0000      0.0000    716.4380      6.6497     70.6086
   125.2500      0.0000    716.4454      6.6403     66.2450
   125.5000      0.0000    716.4438      6.6271     62.8172
