~Version Information
VERS.                      2.0: CWLS Log ASCII Standard - VERSION 2.0
WRAP.                       NO: One line per depth step
~Well Information Block
STRT.FT               595.0000: 
STOP.FT              1693.0000: 
STEP.FT                 0.1000: 
NULL.                -999.2500: 
COMP.          Pioneer Natural Resources: COMPANY
WELL.          Rollerball 34-30: WELL
FLD.           Purgatoire River: FIELD
LOC.           893' FSL & 2408' FEL: LOCATION
CNTY.               Las Animas: COUNTY
SRVC.                Patterson: SERVICE COMPANY
DATE.          Tue Feb 14 15:43:01 2006: LOG DATE
UWI.           05 071 08581 00: UNIQUE WELL ID
STAT.                 Colorado: STATE
~Curve Information Block
DEPT.FT            0 000 00 00: Depth
DCAL.in                       : CDL Caliper
RHOB.g/cc                     : CDL Bulk Density
RHOC.g/cc                     : CDL Density Correction
DPOR.pu                       : CDL Density Porosity
GR.GAPI                       : Gamma Ray
NPOR.pu                       : Neutron Porosity
~Parameter Information Block
~A  Depth       DCAL        RHOB        RHOC        DPOR         GR         NPOR    
# ...
  1027.0000      8.0474      2.6233     -0.0162      1.6173     97.0658     20.9264
  1027.1000      8.0474      2.6196      0.0094      1.8431    105.8459     21.1667
  1027.2000      8.0474      2.6177     -0.0130      1.9578    113.7732     21.2311
  1027.3000      8.0396      2.6128      0.0111      2.2564    115.6633     21.0019
  1027.4000      8.0396      2.6031      0.0027      2.8426    112.1984     20.4916
  1027.5000      8.0387      2.5909      0.0272      3.5818    108.6414     20.3286
  1027.6000      8.0387      2.5752     -0.0208      4.5337    108.6108     21.2600
  1027.7000      8.0387      2.5542     -0.0131      5.8067    111.0021     22.8120
  1027.8000      8.0417      2.5279      0.0040      7.4030    116.7742     24.1064
  1027.9000      8.0417      2.5011     -0.0121      9.0234    131.3880     24.8599
  1028.0000      8.0605      2.4823     -0.0056     10.1655    151.2841     24.8684
  1028.1000      8.0605      2.4771      0.0048     10.4776    164.1151     24.4394
  1028.2000      8.0605      2.4834      0.0087     10.0980    165.3153     24.3477
  1028.3000      8.0750      2.4899      0.0438      9.7030    160.6301     24.7965
  1028.4000      8.0750      2.4914      0.0311      9.6133    158.2016     25.4941
  1028.5000      8.0768      2.4981      0.0234      9.2089    162.1882     25.8684
  1028.6000      8.0768      2.5151      0.0696      8.1762    167.2146     25.7978
  1028.7000      8.0768      2.5364      0.0729      6.8861    164.1292     25.7210
  1028.8000      8.0736      2.5608      0.0567      5.4053    154.3875     25.5766
  1028.9000      8.0736      2.5847      0.0586      3.9575    148.2730     24.8875
  1029.0000      8.0735      2.6006      0.0462      2.9911    145.1683     24.0978
  1029.1000      8.0735      2.6093      0.0603      2.4657    136.5538     23.7491
  1029.2000      8.0735      2.6153      0.0480      2.1012    123.3933     23.4181
  1029.3000      8.0661      2.6205      0.0451      1.7862    112.0713     22.9601
  1029.4000      8.0661      2.6146      0.0814      2.1440    104.7099     22.6298
  1029.5000      8.0574      2.5910      0.0308      3.5745    100.4719     22.5597
  1029.6000      8.0574      2.5684     -0.0361      4.9425     96.5734     22.4233
  1029.7000      8.0574      2.5612      0.0134      5.3818     91.1379     21.9083
  1029.8000      8.0564      2.5485      0.0490      6.1507     87.5701     21.5249
  1029.9000      8.0564      2.5122     -0.0355      8.3491     88.1924     21.7216
  1030.0000      8.0582      2.4761     -0.0804     10.5406     91.3819     21.9408
  1030.1000      8.0582      2.4726     -0.0665     10.7504     95.1844     21.5467
  1030.2000      8.0582      2.5019     -0.0138      8.9757     97.0519     20.9531
  1030.3000      8.0538      2.5335      0.0290      7.0601     95.4302     20.7949
  1030.4000      8.0538      2.5454      0.0187      6.3404     91.2444     20.7324
  1030.5000      8.0501      2.5456      0.0283      6.3244     86.6312     20.3936
  1030.6000      8.0501      2.5506      0.0382      6.0271     83.0556     20.0564
  1030.7000      8.0501      2.5634      0.0406      5.2463     80.1343     20.0701
  1030.8000      8.0323      2.5761      0.0589      4.4792     79.6447     20.3858
  1030.9000      8.0323      2.5831      0.0478      4.0558     81.8830     20.7752
  1031.0000      8.0292      2.5881      0.0515      3.7519     84.2252     20.8636
  1031.1000      8.0292      2.5976      0.0602      3.1781     87.7979     20.3615
  1031.2000      8.0292      2.6135      0.0539      2.2120     92.6170     19.6614
  1031.3000      8.0291      2.6278      0.0940      1.3453     95.1454     19.8600
  1031.4000      8.0291      2.6333      0.0699      1.0117     94.5934     21.0774
  1031.5000      8.0334      2.6344      0.0772      0.9434     91.2554     21.9376
  1031.6000      8.0334      2.6372      0.0611      0.7728     87.1514     21.7063
  1031.7000      8.0334      2.6393      0.0784      0.6488     87.4632     21.1026
  1031.8000      8.0362      2.6292      0.0424      1.2626     92.0905     20.7663
  1031.9000      8.0362      2.6052      0.0282      2.7156     94.8960     20.7219
  1032.0000      8.0498      2.5856     -0.0102      3.9028     92.0940     21.1521
  1032.1000      8.0498      2.5854      0.0205      3.9138     86.5804     22.1396
  1032.2000      8.0498      2.5948      0.0356      3.3441     86.5339     22.9646
  1032.3000      8.0644      2.5999      0.0417      3.0359     93.4190     23.1660
  1032.4000      8.0644      2.5994      0.0431      3.0671     99.0154     22.8911
  1032.5000      8.0524      2.5936      0.0236      3.4205     99.0061     22.3073
  1032.6000      8.0524      2.5859      0.0241      3.8859     95.9157     21.6975
  1032.7000      8.0524      2.5911     -0.0034      3.5710     90.8290     21.3851
  1032.8000      8.0423      2.6132      0.0540      2.2301     83.4899     21.5516
  1032.9000      8.0423      2.6249      0.0663      1.5206     76.9598     22.0822
  1033.0000      8.0378      2.6062      0.0300      2.6558     77.1351     22.3078
  1033.1000      8.0378      2.5766      0.0070      4.4482     85.3363     22.0960
  1033.2000      8.0378      2.5611      0.0179      5.3879     94.2918     21.9633
  1033.3000      8.0436      2.5636     -0.0028      5.2376     96.2366     21.9523
  1033.4000      8.0436      2.5700      0.0208      4.8507     94.5152     21.7915
  1033.5000      8.0443      2.5655      0.0158      5.1219     99.0484     21.6346
  1033.6000      8.0443      2.5605     -0.0345      5.4227    110.0524     22.0119
  1033.7000      8.0443      2.5637      0.0264      5.2300    118.6534     22.8848
  1033.8000      8.0516      2.5624     -0.0088      5.3119    121.1176     23.6565
  1033.9000      8.0516      2.5546      0.0319      5.7818    119.3757     23.9362
  1034.0000      8.0649      2.5515      0.0079      5.9674    115.5283     23.7351
  1034.1000      8.0649      2.5660     -0.0374      5.0896    115.1325     23.4030
  1034.2000      8.0649      2.5969      0.0249      3.2175    123.3183     23.5533
  1034.3000      8.0776      2.6162      0.0932      2.0480    134.4555     24.4217
  1034.4000      8.0776      2.6065      0.0159      2.6355    141.9697     25.4533
  1034.5000      8.1089      2.5898     -0.0190      3.6482    144.0277     25.8968
  1034.6000      8.1089      2.5935      0.0097      3.4229    143.0564     25.8451
  1034.7000      8.1089      2.6185      0.0347      1.9072    142.0798     25.9791
  1034.8000      8.1166      2.6499     -0.0046      0.0085    138.6134     26.4462
  1034.9000      8.1166      2.6682      0.0574     -1.1015    132.4779     26.7996
  1035.0000      8.1184      2.6579      0.0225     -0.4789    128.4603     26.6675
  1035.1000      8.1184      2.6291      0.0022      1.2660    130.8411     25.9347
  1035.2000      8.1184      2.6072     -0.0312      2.5955    138.2847     24.7630
  1035.3000      8.1317      2.5997     -0.0369      3.0472    144.6061     23.7588
  1035.4000      8.1317      2.5964     -0.0117      3.2473    147.2061     23.4480
  1035.5000      8.1271      2.5873      0.0179      3.7975    149.4490     23.9069
  1035.6000      8.1271      2.5730     -0.0196      4.6696    152.7098     24.5732
  1035.7000      8.1271      2.5517      0.0190      5.9589    154.3793     24.5165
  1035.8000      8.1283      2.5216     -0.0050      7.7814    154.3268     23.9229
  1035.9000      8.1283      2.5040     -0.0424      8.8495    155.8011     23.7841
  1036.0000      8.1281      2.5111     -0.0089      8.4152    158.6039     23.8618
  1036.1000      8.1281      2.5157      0.0023      8.1405    158.1545     22.9733
  1036.2000      8.1281      2.4915      0.0117      9.6042    154.4631     21.0089
  1036.3000      8.1257      2.4476     -0.0365     12.2652    153.6561     18.7977
  1036.4000      8.1257      2.4016     -0.0274     15.0529    154.8451     16.8105
  1036.5000      8.1199      2.3516     -0.0148     18.0823    150.0187     15.3945
