~Version Information
VERS.                      2.0: CWLS Log ASCII Standard - VERSION 2.0
WRAP.                       NO: One line per depth step
~Well Information Block
STRT.FT                -5.5000: 
STOP.FT               791.0000: 
STEP.FT                 0.2500: 
NULL.                -999.2500: 
COMP.          Pioneer Natural Resources: COMPANY
WELL.           Beringer 33-18: WELL
FLD.           Purgatoire River: FIELD
LOC.           2356' FSL & 2338' FEL--: LOCATION
CNTY.               Las Animas: COUNTY
SRVC.                Patterson: SERVICE COMPANY
DATE.          Mon Apr 03 11:39:01 2006: LOG DATE
UWI.           05 071 08725 00: UNIQUE WELL ID
STAT.                 Colorado: STATE
~Curve Information Block
DEPT.FT            0 000 00 00: Depth
CCL.                          : Casing Collar Locator
TT3.usec                      : CBL 3' Travel Time
AMP3.mV                       : CBL 3' Amplitude
GR.GAPI                       : Gamma Ray
~Parameter Information Block
~A  Depth       CCL         TT3         AMP3         GR     
    -5.5000   -999.2500   -999.2500   -999.2500    102.1861
    -5.2500   -999.2500   -999.2500   -999.2500     97.6409
    -5.0000   -999.2500   -999.2500   -999.2500     94.1191
    -4.7500   -999.2500   -999.2500   -999.2500     89.8468
    -4.5000   -999.2500   -999.2500   -999.2500     88.1913
    -4.2500   -999.2500   -999.2500   -999.2500     87.7091
    -4.0000   -999.2500   -999.2500   -999.2500     88.5512
    -3.7500   -999.2500   -999.2500   -999.2500     90.8868
    -3.5000   -999.2500   -999.2500   -999.2500     92.7440
    -3.2500   -999.2500   -999.2500   -999.2500     95.8117
    -3.0000   -999.2500   -999.2500   -999.2500     98.2099
    -2.7500   -999.2500   -999.2500   -999.2500    102.2729
    -2.5000   -999.2500   -999.2500   -999.2500    104.9024
    -2.2500   -999.2500   -999.2500   -999.2500    108.2179
    -2.0000   -999.2500   -999.2500   -999.2500    110.2050
    -1.7500   -999.2500   -999.2500   -999.2500    113.7999
    -1.5000   -999.2500   -999.2500   -999.2500    116.9722
    -1.2500   -999.2500   -999.2500   -999.2500    122.2860
    -1.0000   -999.2500   -999.2500   -999.2500    125.1567
    -0.7500   -999.2500   -999.2500   -999.2500    126.6874
    -0.5000   -999.2500   -999.2500   -999.2500    125.4806
    -0.2500   -999.2500   1497.0000      1.1921    120.7985
     0.0000   -999.2500   1497.0000      1.1947    116.0906
     0.2500   -999.2500   1497.0000      1.2107    106.4113
     0.5000   -999.2500   1497.0000      1.2356     93.0839
     0.7500   -999.2500   1497.0000      1.2514     82.7325
     1.0000   -999.2500   1497.0000      1.2684     67.3743
     1.2500   -999.2500   1497.0000      1.2759     58.4605
     1.5000   -999.2500   1497.0000      1.2837     47.5891
     1.7500   -999.2500   1497.0000      1.2853     41.8002
     2.0000   -999.2500   1497.0000      1.2774     35.4985
     2.2500   -999.2500   1497.0000      1.2652     33.4088
     2.5000   -999.2500   1497.0000      1.2435     34.3274
     2.7500   -999.2500   1497.0000      1.2315     38.0350
     3.0000   -999.2500   1497.0000      1.2204     48.7307
     3.2500   -999.2500   1497.0000      1.2166     58.9896
     3.5000   -999.2500   1497.0000      1.2154     76.5848
     3.7500   -999.2500   1497.0000      1.2180     87.5479
     4.0000   -999.2500   1497.0000      1.2263     99.9986
     4.2500   -999.2500   1497.0000      1.2325    105.6876
     4.5000   -999.2500   1497.0000      1.2366    112.9694
     4.7500   -999.2500   1497.0000      1.2335    118.3709
     5.0000   -999.2500   1497.0000      1.2213    126.4190
     5.2500      0.0000   1497.0000      1.2129    129.5714
     5.5000      0.0000   1497.0000      1.2085    127.6437
     5.7500      0.0000   1497.0000      1.2133    121.7231
     6.0000      0.0000   1497.0000      1.2276    108.7911
     6.2500      0.0000   1496.9454      1.2370     99.9736
     6.5000      0.0000   1496.4125      1.2499     89.5404
     6.7500      0.0000   1494.8580      1.2683     84.8559
     7.0000      0.0000   1485.8887      1.3783     80.1077
     7.2500      0.0000   1469.2681      1.5990     77.5147
     7.5000      0.0000   1412.7920      2.4084     73.5309
     7.7500      0.0000   1347.3416      3.4025     70.6897
     8.0000      0.0000   1214.5227      5.4986     66.0233
     8.2500      0.0000   1119.9658      6.9828     62.5574
     8.5000      0.0000   1003.4609      8.5944     57.5457
     8.7500      0.0000    952.6577      9.0025     55.3715
     9.0000      0.0000    909.0460      8.7554     55.2843
     9.2500      0.0000    888.8892      8.3109     57.2036
     9.5000      0.0000    852.1103      7.6751     61.6257
     9.7500      0.0000    819.0944      7.3911     64.9843
    10.0000      0.0000    765.5919      7.1781     70.6374
    10.2500      0.0000    737.1365      7.1330     74.8004
    10.5000      0.0000    716.3044      7.1355     80.2211
    10.7500      0.0000    716.3105      7.1531     82.0054
    11.0000      0.0000    727.6895      7.1695     81.5232
    11.2500      0.0000    736.3021      7.1669     80.6662
    11.5000      0.0000    742.6675      7.1496     82.4428
    11.7500      0.0000    741.1969      7.1365     86.7418
    12.0000      0.0000    734.4324      7.1227     96.3008
    12.2500      0.0000    731.9841      7.1191    102.7338
    12.5000      0.0000    741.3987      7.1217    109.4248
    12.7500      0.0000    759.6208      7.1251    111.0667
    13.0000      0.0000    799.9522      7.1230    109.9003
    13.2500      0.0000    827.2448      7.1139    108.0881
    13.5000      0.0000    854.9834      7.0927    106.3354
    13.7500      0.0000    862.1356      7.0740    106.1794
    14.0000      0.0000    862.0383      7.0202    105.7357
    14.2500      0.0000    860.3505      6.9470    103.9946
    14.5000      0.0000    861.6690      6.7617     98.7167
    14.7500      0.0000    867.7534      6.5984     94.3224
    15.0000      0.0000    891.0231      6.3419     88.8163
    15.2500      0.0000    917.8696      6.1920     86.9728
    15.5000      0.0000    965.9287      6.0309     87.2275
    15.7500      0.0000    991.4650      5.9696     88.6265
    16.0000      0.0000   1004.7421      5.9290     90.8064
    16.2500      2.0000    998.3370      5.9204     91.7334
    16.5000      2.0000    983.4255      5.9190     92.4208
    16.7500      0.0000    980.4424      5.9250     92.9457
    17.0000      0.0000    989.9433      5.9631     95.1355
    17.2500      0.0000    997.8608      6.0324     98.0062
    17.5000      0.0000    993.5958      6.2325    103.5545
    17.7500      0.0000    975.3215      6.4091    106.4777
    18.0000      0.0000    934.0744      6.6443    106.7604
    18.2500      0.0000    907.8405      6.7401    103.7913
    18.5000      0.0000    882.5233      6.8034     96.9757
    18.7500      0.0000    875.4643      6.8235     92.9884
    19.0000      0.0000    873.4855      6.8514     90.0302
    19.2500      0.0000    874.1923      6.8705     90.0508
    19.5000      0.0000    875.1889      6.9031     92.0644
    19.7500      0.0000    875.4160      6.9356     94.1866
    20.0000      0.0000    874.1608      7.0094     97.8726
    20.2500      0.0000    870.6802      7.0703    100.3282
    20.5000      0.0000    858.1375      7.1575    103.2978
    20.7500      0.0000    844.3936      7.2023    104.2581
    21.0000      0.0000    819.5626      7.2425    103.5121
    21.2500      0.0000    804.0158      7.2522    101.7951
    21.5000      0.0000    786.5451      7.2478     98.9474
    21.7500      0.0000    778.7178      7.2403     97.8250
    22.0000      0.0000    769.9801      7.2418     97.5568
    22.2500      0.0000    764.8427      7.2602     97.5224
    22.5000      0.0000    757.8812      7.3091     96.1366
    22.7500      0.0000    754.3455      7.3418     94.2790
    23.0000      0.0000    751.6895      7.3662     91.7177
    23.2500      0.0000    751.6785      7.3611     91.3288
    23.5000      0.0000    753.0151      7.3300     93.3283
    23.7500      0.0000    753.6062      7.3026     95.5872
    24.0000      0.0000    752.4635      7.2663     98.0911
    24.2500      0.0000    750.3151      7.2522     98.3097
    24.5000      0.0000    746.3339      7.2525     96.3463
    24.7500      0.0000    744.0422      7.2665     93.6918
    25.0000      0.0000    741.7535      7.3017     87.9605
    25.2500      0.0000    740.8436      7.3298     83.8174
    25.5000      0.0000    739.8979      7.3722     80.5759
    25.7500      0.0000    739.3491      7.3982     82.4181
    26.0000      0.0000    738.5677      7.4301     91.2107
    26.2500      0.0000    738.1261      7.4448     98.6217
    26.5000      0.0000    737.6742      7.4562    106.5094
    26.7500      0.0000    737.5142      7.4575    107.7203
    27.0000      0.0000    737.4026      7.4485    103.9037
    27.2500      0.0000    737.3693      7.4326     99.0282
    27.5000      0.0000    737.4037      7.3906     90.6661
    27.7500      0.0000    737.5444      7.3501     85.6745
