~Version Information
VERS.                      2.0: CWLS Log ASCII Standard - VERSION 2.0
WRAP.                       NO: One line per depth step
~Well Information Block
STRT.FT               233.8000: 
STOP.FT              1692.5000: 
STEP.FT                 0.1000: 
NULL.                -999.2500: 
COMP.          Pioneer Natural Resources: COMPANY
WELL.            Relay 12-7 Tr: WELL
FLD.           Purgatoire River: FIELD
LOC.           2025' FNL & 790' FWL: LOCATION
PROV.                 Colorado: PROVINCE
CNTY.               Las Animas: COUNTRY
SRVC.                Patterson: SERVICE COMPANY
DATE.          Mon Jan 16 13:23:17 2006: LOG DATE
UWI.           05 071 08603 00: UNIQUE WELL ID
~Curve Information Block
DEPT.FT            0 000 00 00: Depth
DCAL.in                       : CDL Caliper
RHOB.g/cc                     : CDL Bulk Density
RHOC.g/cc                     : CDL Density Correction
DPOR.pu                       : CDL Density Porosity
GR.GAPI                       : Gamma Ray
~Parameter Information Block
~A  Depth       DCAL        RHOB        RHOC        DPOR         GR     
# ...
  1208.2000      7.8475      2.5661     -0.0311      5.0824     68.9184
  1208.3000      7.8561      2.5608      0.0044      5.4073     67.4597
  1208.4000      7.8561      2.5518      0.0207      5.9530     68.5860
  1208.5000      7.8351      2.5387      0.0308      6.7484     76.2616
  1208.6000      7.8351      2.5289      0.1411      7.3413     87.7584
  1208.7000      7.8351      2.5254      0.1499      7.5515     98.6101
  1208.8000      7.7724      2.5310      0.1869      7.2108    108.7254
  1208.9000      7.7724      2.5487      0.2297      6.1407    117.7985
  1209.0000      7.6805      2.5765      0.2226      4.4536    124.5681
  1209.1000      7.6805      2.6061      0.2549      2.6599    129.1722
  1209.2000      7.6805      2.6243      0.2236      1.5587    127.8457
  1209.3000      7.6563      2.6249      0.2069      1.5212    121.0602
  1209.4000      7.6563      2.6012      0.1979      2.9548    121.2599
  1209.5000      7.7666      2.5451      0.1355      6.3562    133.2697
  1209.6000      7.7666      2.4604      0.0510     11.4889    144.5768
  1209.7000      7.7666      2.3562      0.0214     17.8086    145.6163
  1209.8000      7.8336      2.2341      0.0132     25.2040    138.4579
  1209.9000      7.8336      2.0890     -0.0419     34.0005    127.7906
  1210.0000      7.8597      1.9307     -0.1062     43.5962    121.2171
  1210.1000      7.8597      1.7889     -0.1345     52.1895    123.9405
  1210.2000      7.8597      1.6811     -0.0976     58.7215    128.7609
  1210.3000      7.9083      1.5982     -0.0799     63.7461    125.7327
  1210.4000      7.9083      1.5248     -0.0399     68.1916    114.3633
  1210.5000      7.9996      1.4615     -0.0808     72.0278    101.7188
  1210.6000      7.9996      1.4250     -0.0169     74.2451     92.0448
  1210.7000      7.9996      1.4196      0.0651     74.5704     83.4741
  1210.8000      8.0805      1.4397      0.0347     73.3540     73.7474
  1210.9000      8.0805      1.4926      0.0329     70.1450     63.6041
  1211.0000      7.8619      1.5737      0.0684     65.2292     56.6503
  1211.1000      7.8619      1.6474      0.1235     60.7609     53.3890
  1211.2000      7.8619      1.6901      0.0760     58.1749     49.9309
  1211.3000      7.7094      1.7090      0.1299     57.0318     46.1958
  1211.4000      7.7094      1.7119      0.1131     56.8538     44.8528
  1211.5000      7.7487      1.7030      0.0564     57.3955     44.7601
  1211.6000      7.7487      1.6860      0.0551     58.4226     44.3027
  1211.7000      7.7487      1.6613     -0.0180     59.9234     44.1523
  1211.8000      7.7660      1.6268     -0.0436     62.0104     46.0130
  1211.9000      7.7660      1.5808     -0.1236     64.7987     49.8473
  1212.0000      7.7428      1.5391     -0.1847     67.3250     54.3217
  1212.1000      7.7428      1.5259     -0.1565     68.1298     59.1733
  1212.2000      7.7428      1.5404     -0.0505     67.2478     62.1386
  1212.3000      7.7896      1.5725     -0.0757     65.3014     59.9448
  1212.4000      7.7896      1.6280     -0.0339     61.9371     54.1980
  1212.5000      7.9257      1.7190      0.0072     56.4216     48.9270
  1212.6000      7.9257      1.8512      0.1405     48.4140     45.6614
  1212.7000      7.9257      2.0066      0.1951     38.9925     45.3209
  1212.8000      7.9070      2.1521      0.2059     30.1758     48.9024
  1212.9000      7.9070      2.2707      0.2486     22.9899     54.7009
  1213.0000      7.8728      2.3632      0.2302     17.3800     58.0595
  1213.1000      7.8728      2.4247      0.2270     13.6547     56.6925
  1213.2000      7.8728      2.4440      0.1817     12.4827     55.1599
  1213.3000      7.8354      2.4400      0.0161     12.7253     58.4466
  1213.4000      7.8354      2.4504      0.0432     12.0948     61.7865
  1213.5000      7.8710      2.4784      0.0270     10.4003     59.3124
  1213.6000      7.8710      2.5051      0.0599      8.7832     57.2879
  1213.7000      7.8710      2.5256      0.0808      7.5367     60.7403
  1213.8000      7.8491      2.5419      0.1576      6.5505     65.0396
  1213.9000      7.8491      2.5550      0.1416      5.7582     65.8709
  1214.0000      7.8200      2.5707      0.1702      4.8060     64.8632
  1214.1000      7.8200      2.5844      0.2096      3.9757     64.9586
  1214.2000      7.8200      2.5843      0.1703      3.9825     65.0375
  1214.3000      7.8290      2.5718      0.1408      4.7394     62.3882
  1214.4000      7.8290      2.5546      0.0563      5.7801     59.9213
  1214.5000      7.8844      2.5383      0.0615      6.7710     62.0298
  1214.6000      7.8844      2.5339      0.0550      7.0356     66.0445
  1214.7000      7.8844      2.5478      0.0762      6.1944     66.0041
  1214.8000      7.9438      2.5650      0.0783      5.1490     63.2086
  1214.9000      7.9438      2.5698      0.1090      4.8616     65.5740
  1215.0000      7.9387      2.5600      0.1056      5.4526     75.0636
  1215.1000      7.9387      2.5443      0.0724      6.4044     83.2727
  1215.2000      7.9387      2.5357      0.0493      6.9290     83.0082
  1215.3000      7.9430      2.5444      0.0309      6.3979     77.1485
  1215.4000      7.9430      2.5674      0.0556      5.0071     72.9754
  1215.5000      7.9444      2.5801      0.1145      4.2338     72.6947
  1215.6000      7.9444      2.5689      0.0529      4.9162     74.7453
  1215.7000      7.9444      2.5526      0.0528      5.9033     77.5814
  1215.8000      7.9510      2.5486      0.0761      6.1433     79.0256
  1215.9000      7.9510      2.5585      0.0632      5.5456     77.9939
  1216.0000      7.9447      2.5755      0.0871      4.5149     75.5343
  1216.1000      7.9447      2.5793      0.1318      4.2845     73.2481
  1216.2000      7.9447      2.5618      0.0694      5.3479     72.4144
  1216.3000      7.9463      2.5381      0.0278      6.7796     72.5195
  1216.4000      7.9463      2.5257      0.0064      7.5355     71.9692
  1216.5000      7.9807      2.5331      0.0554      7.0833     71.4139
  1216.6000      7.9807      2.5489      0.0626      6.1254     71.5964
  1216.7000      7.9807      2.5450      0.0658      6.3638     70.9667
  1216.8000      8.0211      2.5155      0.0207      8.1523     68.2868
  1216.9000      8.0211      2.4921      0.0249      9.5694     65.9843
  1217.0000      8.0182      2.4998     -0.0221      9.1018     66.6046
  1217.1000      8.0182      2.5292      0.0626      7.3209     67.9173
  1217.2000      8.0182      2.5564      0.0786      5.6726     68.2598
  1217.3000      8.0029      2.5694      0.0619      4.8831     70.2410
  1217.4000      8.0029      2.5650      0.0751      5.1495     73.3196
  1217.5000      8.0150      2.5405      0.0549      6.6344     74.5781
  1217.6000      8.0150      2.5129      0.0379      8.3093     76.3725
  1217.7000      8.0150      2.5077      0.0292      8.6219     79.9035
  1217.8000      8.0047      2.5206      0.0526      7.8449     81.0622
  1217.9000      8.0047      2.5219      0.0432      7.7649     78.2528
  1218.0000      7.9788      2.4974      0.0213      9.2507     72.6619
  1218.1000      7.9788      2.4581     -0.0026     11.6292     67.8090
  1218.2000      7.9788      2.4205     -0.0232     13.9090     69.6874
  1218.3000      7.9564      2.4022     -0.0465     15.0175     77.9008
  1218.4000      7.9564      2.4142     -0.0086     14.2927     85.8484
  1218.5000      7.9893      2.4456      0.0329     12.3863     90.8979
  1218.6000      7.9893      2.4803      0.0545     10.2855     93.8603
  1218.7000      7.9893      2.5105      0.0991      8.4556     91.9083
  1218.8000      8.0193      2.5236      0.1295      7.6596     87.3688
  1218.9000      8.0193      2.5100      0.1075      8.4878     86.9817
  1219.0000      8.0129      2.4882      0.0295      9.8070     89.8395
  1219.1000      8.0129      2.4911      0.0520      9.6294     92.9202
  1219.2000      8.0129      2.5191      0.1354      7.9339     93.9949
  1219.3000      8.0264      2.5447      0.1072      6.3826     91.7251
