~Version Information
VERS.                      2.0: CWLS Log ASCII Standard - VERSION 2.0
WRAP.                       NO: One line per depth step
~Well Information Block
STRT.FT                 0.0000: 
STOP.FT              1193.0000: 
STEP.FT                 0.1000: 
NULL.                -999.2500: 
COMP.          Pioneer Natural Resources: COMPANY
WELL.          Big Pine 32-15 Tr: WELL
FLD.           Purgatorie River: FIELD
LOC.           2546' FNL & 1451' FEL: LOCATION
STAT.                 Colorado: State
CNTY.               Las Animas: COUNTY
CTRY. USA : Country
SECT. 15 : Section
TOWN. 33S : Township
RANG. 67W : Range
SRVC.                Patterson: SERVICE COMPANY
DATE.          Tue Nov 08 07:11:35 2005: LOG DATE
API. 05-071-08604                         : UNIQUE WELL ID
~Curve Information Block
DEPT.FT            0 000 00 00: Depth
DCAL.in                       : CDL Caliper
RHOB.g/cc                     : CDL Bulk Density
RHOC.g/cc                     : CDL Density Correction
DPOR.pu                       : CDL Density Porosity
GR.GAPI                       : Gamma Ray
NPOR.pu                       : Neutron Porosity
~Parameter Information Block
~A  Depth       DCAL        RHOB        RHOC        DPOR         GR         NPOR    
# ...
   316.8000     -2.8029      0.0008      2.0000     -0.0530    173.8723     24.3014
   316.9000     -2.8029      0.0000      2.0000     -0.0530    177.8548     24.1597
   317.0000     -2.8029      0.0000      2.0000     -0.0530    177.9106     24.1187
   317.1000     -2.8029      0.0000      2.0000     -0.0530    177.6609     24.3327
   317.2000     -2.8029      0.0000      2.0000     -0.0530    177.2217     24.4773
   317.3000     -2.8029      0.0000      2.0000     -0.0530    172.9399     24.5334
   317.4000     -2.8029      0.0000      2.0000     -0.0530    164.3770     24.7128
   317.5000     -2.8029      0.0008      2.0000     -0.0530    159.1118     25.1133
   317.6000     -2.8029      0.0148      2.0000     -0.0527    162.1796     25.9360
   317.7000     -2.8029      0.1451      2.0000     -0.0501    166.8929     27.2290
   317.8000     -2.8029      0.7757      2.0000     -0.0375    167.5038     28.7360
   317.9000     -2.8029      2.3484      2.0000     -0.0060    165.3974     30.2551
   318.0000     -2.8029      4.3003      2.0000      0.0330    161.6486     31.7664
   318.1000     -2.8029      5.3577      2.0000      0.0542    157.9184     33.0246
   318.2000     -2.8029      5.3887      2.0000      0.0548    157.8642     33.6691
   318.3000     -2.8029      5.1883      2.0000      0.0508    161.5974     33.8229
   318.4000     -2.8029      5.1902      2.0000      0.0508    163.3439     33.5771
   318.5000     -2.8029      5.2755      2.0000      0.0525    161.8433     32.7681
   318.6000     -2.8029      5.3027      2.0000      0.0531    163.0806     31.5913
   318.7000     -2.8029      5.1218      2.0000      0.0495    168.6896     30.3144
   318.8000     -2.8029      4.1138      2.0000      0.0293    175.0478     28.9409
   318.9000     -2.8029      2.2683      2.0000     -0.0076    178.9054     27.5485
   319.0000     -2.8029      0.7547      2.0000     -0.0379    179.3340     26.4877
   319.1000     -2.8029      0.1417      2.0000     -0.0502    178.3072     25.9797
   319.2000     -2.8029      0.0145      2.0000     -0.0527    179.9105     25.6309
   319.3000     -2.8029      0.0008      2.0000     -0.0530    186.5259     25.1723
   319.4000     -2.8029      0.0000      2.0000     -0.0530    194.7283     24.9037
   319.5000     -2.8029      0.0000      2.0000     -0.0530    198.5170     24.9161
   319.6000     -2.8029      0.0000      2.0000     -0.0530    195.8808     24.9502
   319.7000     -2.8029      0.0005      2.0000     -0.0530    188.3397     24.8387
   319.8000     -2.8029      0.0083      2.0000     -0.0529    180.8103     24.6990
   319.9000     -2.8029      0.0811      2.0000     -0.0514    178.3005     24.8064
   320.0000     -2.8029      0.4284      2.0000     -0.0445    178.0902     25.2358
   320.1000     -2.8029      1.2786      2.0000     -0.0274    176.9021     25.6872
   320.2000     -2.8029      2.3074      2.0000     -0.0069    176.2839     25.8663
   320.3000     -2.8029      2.7670      2.0000      0.0023    177.3160     25.8857
   320.4000     -2.8029      2.3185      2.0000     -0.0066    179.3194     25.9070
   320.5000     -2.8029      1.2889      2.0000     -0.0272    178.1843     25.7689
   320.6000     -2.8029      0.4326      2.0000     -0.0444    172.6947     25.4252
   320.7000     -2.8029      0.0819      2.0000     -0.0514    168.6131     25.1593
   320.8000     -2.8029      0.0084      2.0000     -0.0529    169.4480     24.8883
   320.9000     -2.8029      0.0005      2.0000     -0.0530    171.9486     24.4388
   321.0000     -2.8029      0.0000      2.0000     -0.0530    171.6278     24.2257
   321.1000     -2.8029      0.0000      2.0000     -0.0530    167.2270     24.5045
   321.2000     -2.8029      0.0000      2.0000     -0.0530    159.1579     25.3063
   321.3000     -2.8029      0.0000      2.0000     -0.0530    150.7185     26.3913
   321.4000     -2.8029      0.0000      2.0000     -0.0530    147.4786     26.9717
   321.5000     -2.8029      0.0000      2.0000     -0.0530    151.3580     27.0561
   321.6000     -2.8029      0.0000      2.0000     -0.0530    158.9138     27.1231
   321.7000     -2.8029      0.0000      2.0000     -0.0530    165.9226     26.9852
   321.8000     -2.8029      0.0000      2.0000     -0.0530    169.1167     26.4385
   321.9000     -2.8029      0.0000      2.0000     -0.0530    168.1730     26.0983
   322.0000     -2.8029      0.0000      2.0000     -0.0530    166.9584     26.5825
   322.1000     -2.8029      0.0000      2.0000     -0.0530    167.7788     27.3204
   322.2000     -2.8029      0.0000      2.0000     -0.0530    169.7467     27.7076
   322.3000     -2.8029      0.0000      2.0000     -0.0530    172.1004     27.8780
   322.4000     -2.8029      0.0000      2.0000     -0.0530    173.7087     27.9198
   322.5000     -2.8029      0.0000      2.0000     -0.0530    171.0736     27.8582
   322.6000     -2.8029      0.0000      2.0000     -0.0530    164.5755     27.8365
   322.7000     -2.8029      0.0000      2.0000     -0.0530    163.3821     27.9987
   322.8000     -2.8029      0.0000      2.0000     -0.0530    170.7041     28.2374
   322.9000     -2.8029      0.0000      2.0000     -0.0530    178.5432     28.2926
   323.0000     -2.8029      0.0000      2.0000     -0.0530    182.2096     28.3214
   323.1000     -2.8029      0.0000      2.0000     -0.0530    180.8870     28.2936
   323.2000     -2.8029      0.0000      2.0000     -0.0530    176.0743     27.8626
   323.3000     -2.8029      0.0000      2.0000     -0.0530    174.1948     27.2667
   323.4000     -2.8029      0.0000      2.0000     -0.0530    179.2096     26.9589
   323.5000     -2.8029      0.0000      2.0000     -0.0530    185.2928     27.1306
   323.6000     -2.8029      0.0000      2.0000     -0.0530    187.1910     27.5528
   323.7000     -2.8029      0.0000      2.0000     -0.0530    187.3779     27.6129
   323.8000     -2.8029      0.0000      2.0000     -0.0530    186.9361     27.2027
   323.9000     -2.8029      0.0000      2.0000     -0.0530    183.2864     26.8235
   324.0000     -2.8029      0.0000      2.0000     -0.0530    176.7725     26.7034
   324.1000     -2.8029      0.0000      2.0000     -0.0530    172.1712     26.8404
   324.2000     -2.8029      0.0000      2.0000     -0.0530    170.8593     27.3065
   324.3000     -2.8029      0.0000      2.0000     -0.0530    171.0023     27.6414
   324.4000     -2.8029      0.0000      2.0000     -0.0530    174.6300     27.3153
   324.5000     -2.8029      0.0000      2.0000     -0.0530    180.0808     26.7095
   324.6000     -2.8029      0.0000      2.0000     -0.0530    180.3300     26.3484
   324.7000     -2.8029      0.0000      2.0000     -0.0530    177.5362     26.4903
   324.8000     -2.8029      0.0000      2.0000     -0.0530    178.5093     27.1155
   324.9000     -2.8029      0.0000      2.0000     -0.0530    181.1855     27.8653
   325.0000     -2.8029      0.0000      2.0000     -0.0530    179.1230     28.3191
   325.1000     -2.8029      0.0000      2.0000     -0.0530    171.9224     28.3263
   325.2000     -2.8029      0.0000      2.0000     -0.0530    164.9880     27.9444
   325.3000     -2.8029      0.0000      2.0000     -0.0530    162.4548     27.5705
   325.4000     -2.8029      0.0000      2.0000     -0.0530    164.9464     27.6584
   325.5000     -2.8029      0.0000      2.0000     -0.0530    170.3052     27.7958
   325.6000     -2.8029      0.0000      2.0000     -0.0530    176.0968     27.5997
   325.7000     -2.8029      0.0000      2.0000     -0.0530    180.5930     27.5764
   325.8000     -2.8029      0.0000      2.0000     -0.0530    181.2510     27.9832
   325.9000     -2.8029      0.0000      2.0000     -0.0530    178.7851     28.3980
   326.0000     -2.8029      0.0000      2.0000     -0.0530    176.5707     28.4932
   326.1000     -2.8029      0.0000      2.0000     -0.0530    174.8569     28.4435
   326.2000     -2.8029      0.0000      2.0000     -0.0530    170.5453     28.5286
   326.3000     -2.8029      0.0008      2.0000     -0.0530    164.3213     28.7146
