~Version Information
VERS.                      2.0: CWLS Log ASCII Standard - VERSION 2.0
WRAP.                       NO: One line per depth step
~Well Information Block
STRT.FT               650.0000: 
STOP.FT              2053.7000: 
STEP.FT                 0.1000: 
NULL.                -999.2500: 
COMP.          Pioneer Natural Resources: COMPANY
WELL.           Alabaster 11-8: WELL
FLD.           Purgatoire River: FIELD
LOC.           1249' FNL & 215' FWL--: LOCATION
PROV.                 Colorado: PROVINCE
CNTY.               Las Animas: COUNTRY
SRVC.                Patterson: SERVICE COMPANY
DATE.          Thu Jan 19 09:16:54 2006: LOG DATE
UWI.           05 071 08642 00: UNIQUE WELL ID
~Curve Information Block
DEPT.FT            0 000 00 00: Depth
DCAL.in                       : CDL Caliper
RHOB.g/cc                     : CDL Bulk Density
RHOC.g/cc                     : CDL Density Correction
DPOR.pu                       : CDL Density Porosity
NPOR.pu                       : Neutron Porosity
GR.GAPI                       : Gamma Ray
~Parameter Information Block
~A  Depth       DCAL        RHOB        RHOC        DPOR        NPOR         GR     
# ...
  1475.6000      8.0742      2.4878      0.1424      9.8331     16.6522     99.1590
  1475.7000      8.0742      2.4774      0.0602     10.4634     17.3986    104.0743
  1475.8000      8.0719      2.4727      0.0797     10.7465     18.4584    110.6447
  1475.9000      8.0719      2.4824      0.0461     10.1565     19.5261    112.7279
  1476.0000      8.0731      2.4988      0.0934      9.1667     20.4268    112.6608
  1476.1000      8.0731      2.5114      0.1000      8.4010     21.5335    113.5098
  1476.2000      8.0731      2.5263      0.0542      7.4940     22.5284    114.0231
  1476.3000      8.0775      2.5474      0.1005      6.2183     22.7455    112.3086
  1476.4000      8.0775      2.5569      0.0959      5.6405     22.2293    110.0762
  1476.5000      8.0770      2.5548      0.0494      5.7697     21.5881    109.8217
  1476.6000      8.0770      2.5605      0.0653      5.4261     21.4441    111.7974
  1476.7000      8.0770      2.5687      0.0866      4.9290     21.7276    115.0765
  1476.8000      8.0723      2.5609      0.0566      5.4004     22.0557    117.8282
  1476.9000      8.0723      2.5420     -0.0110      6.5435     22.1678    118.2226
  1477.0000      8.0699      2.5299      0.0080      7.2802     22.2091    115.7534
  1477.1000      8.0699      2.5291     -0.0329      7.3271     22.6221    111.9427
  1477.2000      8.0699      2.5326      0.0118      7.1135     23.0920    107.7042
  1477.3000      8.0715      2.5360     -0.0280      6.9117     22.9388    102.8365
  1477.4000      8.0715      2.5397      0.0061      6.6850     22.5775     99.7919
  1477.5000      8.0756      2.5357      0.0110      6.9269     22.7814     99.3893
  1477.6000      8.0756      2.5222     -0.0331      7.7432     23.4410     98.4153
  1477.7000      8.0756      2.5195     -0.0392      7.9116     23.9723     94.8495
  1477.8000      8.0799      2.5379      0.0165      6.7910     24.2060     91.2076
  1477.9000      8.0799      2.5554      0.0434      5.7323     24.4738     90.7023
  1478.0000      8.0817      2.5586     -0.0512      5.5372     24.9121     94.3950
  1478.1000      8.0817      2.5627      0.0236      5.2930     25.1973    101.0060
  1478.2000      8.0817      2.5713      0.0210      4.7702     25.1659    104.0180
  1478.3000      8.0784      2.5777      0.0448      4.3817     25.2314    100.2069
  1478.4000      8.0784      2.5781      0.0371      4.3578     25.4929     96.6010
  1478.5000      8.0750      2.5715      0.0487      4.7593     25.3971     97.9125
  1478.6000      8.0750      2.5674      0.0414      5.0069     24.9062     99.7922
  1478.7000      8.0750      2.5784      0.0328      4.3396     24.6301     98.4339
  1478.8000      8.0773      2.5990      0.0720      3.0925     24.7763     94.8546
  1478.9000      8.0773      2.6058      0.0959      2.6795     25.1183     92.1536
  1479.0000      8.0796      2.5894      0.0409      3.6753     25.2674     93.3393
  1479.1000      8.0796      2.5680      0.0539      4.9696     25.0612     97.5675
  1479.2000      8.0796      2.5554      0.0603      5.7354     24.7437    101.2928
  1479.3000      8.0808      2.5528      0.0129      5.8904     24.4155    102.9719
  1479.4000      8.0808      2.5586      0.0309      5.5374     24.0391    101.0073
  1479.5000      8.0818      2.5601      0.0524      5.4476     23.7817     95.6081
  1479.6000      8.0818      2.5513      0.0397      5.9793     23.8199     91.6692
  1479.7000      8.0818      2.5478      0.0566      6.1926     24.0078     92.7083
  1479.8000      8.0797      2.5606      0.0663      5.4193     24.0849     97.5050
  1479.9000      8.0797      2.5752      0.1050      4.5315     24.1012    101.9573
  1480.0000      8.0747      2.5750      0.0542      4.5455     23.9422    102.4856
  1480.1000      8.0747      2.5709      0.0458      4.7965     23.2496    100.4982
  1480.2000      8.0747      2.5823      0.0402      4.1041     22.3909    100.4342
  1480.3000      8.0701      2.6034      0.0842      2.8223     22.0443    101.4232
  1480.4000      8.0701      2.6118      0.0943      2.3182     22.2413     99.8932
  1480.5000      8.0656      2.6059      0.0204      2.6752     22.6260     96.5422
  1480.6000      8.0656      2.5993      0.0836      3.0742     22.8724     94.6690
  1480.7000      8.0656      2.5875      0.0338      3.7851     22.8753     94.2238
  1480.8000      8.0643      2.5717      0.0090      4.7445     22.6488     91.1931
  1480.9000      8.0643      2.5742     -0.0132      4.5950     22.3967     83.3979
  1481.0000      8.0653      2.5965      0.0453      3.2426     22.7141     76.5063
  1481.1000      8.0653      2.6116      0.0314      2.3290     23.7075     75.8073
  1481.2000      8.0653      2.6090      0.0348      2.4862     24.6835     77.2326
  1481.3000      8.0670      2.6025      0.0188      2.8784     25.1879     76.3907
  1481.4000      8.0670      2.6051      0.0059      2.7224     25.2318     75.8286
  1481.5000      8.0700      2.6127      0.0378      2.2583     25.0435     75.9531
  1481.6000      8.0700      2.6141      0.0439      2.1728     24.7694     73.8609
  1481.7000      8.0700      2.6136      0.0456      2.2040     24.3366     71.3625
  1481.8000      8.0700      2.6187      0.0524      1.8947     23.9135     72.5581
  1481.9000      8.0700      2.6227      0.0464      1.6516     24.0267     75.4364
  1482.0000      8.0646      2.6255      0.0641      1.4833     24.7744     76.0231
  1482.1000      8.0646      2.6465      0.0565      0.2144     25.6520     75.5082
  1482.2000      8.0646      2.6977      0.0744     -2.8886     26.4359     74.8044
  1482.3000      8.0633      2.7649      0.1320     -6.9615     27.1043     72.8265
  1482.4000      8.0633      2.8222      0.1289    -10.4371     27.4303     72.1257
  1482.5000      8.0669      2.8570      0.1417    -12.5452     27.7816     73.3335
  1482.6000      8.0669      2.8773      0.0937    -13.7752     28.8010     72.3624
  1482.7000      8.0669      2.8926      0.1523    -14.7009     30.3743     70.7700
  1482.8000      8.0695      2.8908      0.1684    -14.5944     31.9099     72.7570
  1482.9000      8.0695      2.8607      0.0957    -12.7726     32.8694     74.9314
  1483.0000      8.0723      2.8110      0.0574     -9.7555     32.6529     73.9681
  1483.1000      8.0723      2.7528      0.0223     -6.2317     31.3006     74.4585
  1483.2000      8.0723      2.7056     -0.0600     -3.3671     29.5607     77.4354
  1483.3000      8.0761      2.6779     -0.0189     -1.6924     27.7949     79.3358
  1483.4000      8.0761      2.6493     -0.0133      0.0396     26.0606     79.4584
  1483.5000      8.0792      2.6188     -0.0290      1.8910     24.4063     76.4955
  1483.6000      8.0792      2.6047      0.0516      2.7456     22.7737     71.5225
  1483.7000      8.0792      2.5985      0.0439      3.1183     21.2461     70.0718
  1483.8000      8.0818      2.5787      0.0412      4.3201     19.7629     72.7964
  1483.9000      8.0818      2.5435      0.0269      6.4531     18.3702     72.3582
  1484.0000      8.0828      2.5045      0.0373      8.8200     17.4122     66.9974
  1484.1000      8.0828      2.4762     -0.0329     10.5305     16.8990     63.8374
  1484.2000      8.0828      2.4780     -0.0279     10.4272     16.5536     64.4876
  1484.3000      8.0807      2.5091      0.0258      8.5417     16.1529     62.5398
  1484.4000      8.0807      2.5415      0.0701      6.5735     15.9222     56.4179
  1484.5000      8.0801      2.5569      0.0758      5.6437     16.1053     49.7225
  1484.6000      8.0801      2.5667      0.0231      5.0462     16.3227     43.8803
  1484.7000      8.0801      2.5873      0.0526      3.8023     16.3631     40.2858
  1484.8000      8.0820      2.6107      0.0682      2.3840     16.4021     40.1138
  1484.9000      8.0820      2.6149      0.1304      2.1301     16.3911     41.3695
  1485.0000      8.0833      2.5961      0.0602      3.2642     16.4162     43.5072
  1485.1000      8.0833      2.5791      0.0490      4.2979     16.8072     46.9687
