~Version Information
VERS.                      2.0: CWLS Log ASCII Standard - VERSION 2.0
WRAP.                       NO: One line per depth step
~Well Information Block
STRT.FT                -6.7500: 
STOP.FT              1121.2500: 
STEP.FT                 0.2500: 
NULL.                -999.2500: 
COMP.          Pioneer Natural Resources: COMPANY
WELL.              Draco 31-21: WELL
FLD.           Purgatorie River: FIELD
LOC.           491' FNL & 2446' FEL--: LOCATION
CNTY.               Las Animas: COUNTY
SRVC.          Patterson Wireline: SERVICE COMPANY
DATE.          Mon Feb 06 09:50:04 2006: LOG DATE
UWI.           05 071 08672 00: UNIQUE WELL ID
STAT.                       CO: STATE
~Curve Information Block
DEPT.FT            0 000 00 00: Depth
CCL.                          : Casing Collar Locator
TT3.usec                      : CBL 3' Travel Time
AMP3.mV                       : CBL 3' Amplitude
GR.GAPI                       : Gamma Ray
~Parameter Information Block
~A  Depth       CCL         TT3         AMP3         GR     
# ...
   730.2500      0.0000    593.8165      6.2529    123.1466
   730.5000      0.0000    595.3482      6.2945    121.3431
   730.7500      0.0000    609.1461      6.2804    116.9663
   731.0000      0.0000    628.8249      6.2299    112.4170
   731.2500      0.0000    648.1584      6.1474    108.8933
   731.5000      0.0000    663.1367      6.0167    105.6602
   731.7500      0.0000    672.8742      5.8282    101.0884
   732.0000      0.0000    678.7725      5.6104     94.2226
   732.2500      0.0000    682.4633      5.4364     85.4616
   732.5000      0.0000    684.6615      5.3958     76.1267
   732.7500      0.0000    685.5940      5.5443     67.6394
   733.0000      0.0000    685.5990      5.8661     60.9315
   733.2500      0.0000    685.2017      6.2904     56.2146
   733.5000      0.0000    685.3700      6.7482     53.1974
   733.7500      0.0000    687.5635      7.2072     51.7242
   734.0000      0.0000    692.6533      7.6537     52.2351
   734.2500      0.0000    699.4434      8.0661     55.3952
   734.5000      0.0000    704.4626      8.4192     61.2628
   734.7500      0.0000    702.6557      8.7060     68.9504
   735.0000      0.0000    687.8560      8.9449     76.9129
   735.2500      0.0000    654.3730      9.1692     83.5064
   735.5000      0.0000    601.4146      9.4027     87.7462
   735.7500      0.0000    537.0867      9.6294     89.8591
   736.0000      0.0000    475.8686      9.7902     90.9102
   736.2500      0.0000    429.9802      9.8288     91.8676
   736.5000      0.0000    402.8420      9.7409     93.2140
   736.7500      0.0000    390.0837      9.5711     95.0263
   737.0000      0.0000    384.8067      9.3703     96.9054
   737.2500      0.0000    381.4473      9.1691     98.1778
   737.5000      0.0000    376.8427      8.9825     98.7045
   737.7500      0.0000    370.1285      8.8214     99.2811
   738.0000      0.0000    362.3187      8.6962    100.9445
   738.2500      0.0000    355.2421      8.6154    104.0409
   738.5000      0.0000    350.1670      8.5836    107.9968
   738.7500      0.0000    347.1761      8.5972    111.6594
   739.0000      0.0000    345.6237      8.6412    113.7288
   739.2500      0.0000    344.8582      8.6924    113.3490
   739.5000      0.0000    344.5043      8.7302    110.6675
   739.7500      0.0000    344.3766      8.7444    106.6181
   740.0000      0.0000    344.3580      8.7352    102.0145
   740.2500      0.0000    344.3527      8.7138     97.1186
   740.5000      0.0000    344.2719      8.7030     91.9925
   740.7500      0.0000    344.0432      8.7284     86.8092
   741.0000      0.0000    343.6419      8.7992     81.8115
   741.2500      0.0000    343.1173      8.8973     77.3083
   741.5000      0.0000    342.5771      8.9859     73.7778
   741.7500      0.0000    342.1272      9.0313     71.7058
   742.0000      0.0000    341.8161      9.0221     71.1565
   742.2500      0.0000    341.6335      8.9701     71.5896
   742.5000      0.0000    341.5538      8.8958     72.1585
   742.7500      0.0000    341.5681      8.8130     72.0864
   743.0000      0.0000    341.6681      8.7233     70.8766
   743.2500      0.0000    341.8119      8.6223     68.7400
   743.5000      0.0000    341.9287      8.5086     66.9889
   743.7500      0.0000    341.9663      8.3879     67.3100
   744.0000      0.0000    341.9312      8.2676     70.0406
   744.2500      0.0000    341.9091      8.1492     73.5146
   744.5000      0.0000    342.1331      8.0252     75.6111
   744.7500      0.0000    343.1401      7.8838     75.6442
   745.0000      0.0000    346.1074      7.7210     74.3729
   745.2500      0.0000    353.1195      7.5533     72.7339
   745.5000      0.0000    367.2952      7.4093     71.1024
   745.7500      0.0000    392.3069      7.2827     69.4383
   746.0000      0.0000    430.6975      7.0904     67.6834
   746.2500      0.0000    481.4593      6.7295     66.0031
   746.5000      0.0000    539.1563      6.2146     64.5741
   746.7500      0.0000    595.7055      5.7218     63.0893
   747.0000      0.0000    643.0175      5.4475     60.8432
   747.2500      0.0000    675.3994      5.4359     57.6142
   747.5000      0.0000    691.3412      5.5698     54.1721
   747.7500      2.0000    693.3128      5.6935     51.5721
   748.0000      0.0000    686.2307      5.7168     50.2296
   748.2500      0.0000    676.5952      5.6392     50.2032
   748.5000      0.0000    669.5495      5.5320     52.0307
   748.7500      0.0000    662.6505      5.4920     56.2281
   749.0000      0.0000    645.7643      5.5816     61.8532
   749.2500      0.0000    612.3450      5.8063     66.6127
   749.5000      0.0000    568.4758      6.1362     68.8741
   749.7500      0.0000    525.9315      6.5281     69.0130
   750.0000      0.0000    489.6573      6.9294     68.4870
   750.2500      0.0000    457.4149      7.2847     68.1501
   750.5000      0.0000    428.3795      7.5547     67.9989
   750.7500      0.0000    405.7020      7.7243     68.2936
   751.0000      0.0000    391.7514      7.7943     70.1293
   751.2500      0.0000    385.2918      7.7743     74.4300
   751.5000      0.0000    383.2301      7.6915     80.6735
   751.7500      0.0000    383.0071      7.5924     87.0587
   752.0000      0.0000    383.2519      7.5243     92.0275
   752.2500      0.0000    383.4677      7.5144     95.5313
   752.5000      0.0000    383.6155      7.5663     98.7418
   752.7500      0.0000    383.7786      7.6681    102.6066
   753.0000      0.0000    384.0771      7.7989    106.9619
   753.2500      0.0000    384.8310      7.9314    110.9560
   753.5000      0.0000    386.8611      8.0347    113.7429
   753.7500      0.0000    391.3223      8.0812    114.6121
   754.0000      0.0000    398.5382      8.0576    113.1174
   754.2500      0.0000    406.5436      7.9754    109.5147
   754.5000      0.0000    411.4151      7.8686    104.7936
   754.7500      0.0000    410.1803      7.7775     99.9584
   755.0000      0.0000    403.5231      7.7299     95.3440
   755.2500      0.0000    395.0464      7.7336     90.7177
   755.5000      0.0000    388.0880      7.7776     85.9741
   755.7500      0.0000    383.7550      7.8401     81.5926
   756.0000      0.0000    381.4520      7.8998     78.3291
   756.2500      0.0000    380.2062      7.9462     76.4857
   756.5000      0.0000    379.2486      7.9817     75.7296
   756.7500      0.0000    377.9129      8.0160     75.7646
   757.0000      0.0000    375.5635      8.0592     76.8299
   757.2500      0.0000    372.1698      8.1160     79.2009
   757.5000      0.0000    369.5211      8.1805     82.5800
   757.7500      0.0000    372.2463      8.2383     86.1672
   758.0000      0.0000    386.9272      8.2761     88.8666
   758.2500      0.0000    417.9883      8.2848     89.3315
   758.5000      0.0000    461.6032      8.2549     86.5363
   758.7500      0.0000    503.4577      8.1760     80.6775
   759.0000      0.0000    526.5141      8.0452     73.1796
   759.2500      0.0000    525.3851      7.8700     65.6274
   759.5000      0.0000    513.1917      7.6625     59.0655
   759.7500      0.0000    511.5906      7.4428     54.4343
   760.0000      0.0000    532.6005      7.2469     53.0368
   760.2500      0.0000    569.8451      7.1232     55.9607
   760.5000      0.0000    605.1063      7.1120     63.0663
   760.7500      0.0000    620.1640      7.2232     72.6888
   761.0000      0.0000    604.3134      7.4341     82.3470
   761.2500      0.0000    558.1977      7.7041     89.9028
   761.5000      0.0000    494.9801      7.9932     94.4495
   761.7500      0.0000    434.6671      8.2678     96.4336
   762.0000      0.0000    392.9004      8.4952     97.0287
   762.2500      0.0000    374.5397      8.6404     97.1921
   762.5000      0.0000    377.2275      8.6766     97.2177
   762.7500      0.0000    397.6499      8.6027     97.2419
   763.0000      0.0000    431.6116      8.4510     97.8529
   763.2500      0.0000    469.9099      8.2757     99.5015
   763.5000      0.0000    499.3796      8.1272    101.3651
