~Version Information
 VERS.                                  2.0 : CWLS LAS VERSION
 WRAP.                                   NO : WRAPING MODE
 SWARE .                 MController 2.5.0N : SOFTWARE VERSION
~Well Information
 WELL.                        Cayenne 23-23 : WELL
 COMP.    Pioneer Natural Resources USA Inc : COMPANY
 FLD.                      Purgatoire River : FIELD
 LOC.                 NE/SW SEC23 T32S R66W : LOCATION
 DATE.                          08/16-17/05 : DATE(S) LOGGED
 SRVC.       Blanco Geological Services LLC : SERVICE COMPANY
 STAT.                             Colorado : STATE
 CNTY.                           Las Animas : COUNTY
 CTRY.                                  USA : COUNTRY
 API.                       05-071-08476-00 : API NUMBER
 STRT.FT                             901.00 : START DEPTH
 STOP.FT                            2365.00 : STOP DEPTH
 STEP.FT                               1.00 : DEPTH INCREMENT
 NULL.                                -9999 : NULL VALUE
~Curve information
 DEPTH.FT                                   :
 ROP.MIN/FT                                 :
 GAS.UNITS                                  :
~ASCII Log data
# ...
      1301.0         0.32        563.5 
      1302.0         0.27        558.6 
      1303.0         0.27        554.1 
      1304.0         0.27        545.4 
      1305.0         0.27        534.8 
      1306.0         0.27        530.0 
      1307.0         0.23        529.0 
      1308.0         0.17        523.5 
      1309.0         0.10        522.9 
      1310.0         0.13        525.8 
      1311.0         0.17        528.7 
      1312.0         0.17        528.0 
      1313.0         0.30        533.2 
      1314.0         0.33        533.5 
      1315.0         1.45        555.7 
      1316.0         1.50        591.8 
      1317.0         1.55       1263.1 
      1318.0         0.70       2183.8 
      1319.0         0.33       2792.6 
      1320.0         0.27       2646.3 
      1321.0         0.27       1720.7 
      1322.0         0.20       1116.2 
      1323.0         0.20        862.9 
      1324.0         0.17        724.9 
      1325.0         0.20        614.7 
      1326.0         0.32        560.6 
      1327.0         0.23        529.6 
      1328.0         0.27        541.2 
      1329.0         0.23        552.8 
      1330.0         0.17        554.5 
      1331.0         0.20        558.3 
      1332.0         0.30        563.5 
      1333.0         0.37        562.8 
      1334.0         0.20        560.3 
      1335.0         0.20        555.4 
      1336.0         0.20        552.5 
      1337.0         0.23        552.8 
      1338.0         0.27        551.6 
      1339.0         0.35        552.8 
      1340.0         0.23        552.2 
      1341.0         0.17        553.2 
      1342.0         0.23        556.4 
      1343.0         0.20        556.7 
      1344.0         0.23        559.6 
      1345.0         0.30        557.7 
      1346.0         2.58        598.6 
      1347.0         1.27       1185.4 
      1348.0         0.30       1311.8 
      1349.0         0.37       1479.0 
      1350.0         0.33       1850.3 
      1351.0         0.33       2648.2 
      1352.0         0.28       2745.5 
      1353.0         0.20       2499.0 
      1354.0         0.33       2018.2 
      1355.0         0.30       1146.1 
      1356.0         0.27        794.9 
      1357.0         0.27        660.5 
      1358.0         0.27        606.0 
      1359.0         0.23        597.3 
      1360.0         0.23        608.9 
      1361.0         0.20        609.9 
      1362.0         0.20        606.0 
      1363.0         0.23        603.1 
      1364.0         0.13        589.9 
      1365.0         0.13        586.7 
      1366.0         0.15        581.2 
      1367.0         0.23        583.1 
      1368.0         0.27        581.8 
      1369.0         0.30        578.0 
      1370.0         0.17        573.8 
      1371.0         0.13        572.5 
      1372.0         0.43        580.9 
      1373.0         0.53        583.1 
      1374.0         0.33        576.7 
      1375.0         0.30        578.6 
      1376.0         6.40       2954.0 
      1377.0         0.57       4598.2 
      1378.0         0.42       3947.9 
      1379.0         0.43       2175.4 
      1380.0         0.27        995.3 
      1381.0         0.37        731.4 
      1382.0         0.37        623.4 
      1383.0         0.17        608.3 
      1384.0         0.40        573.5 
      1385.0         0.43        513.8 
      1386.0         0.43        561.9 
      1387.0         0.42        628.3 
      1388.0         0.33        650.8 
      1389.0         0.20        648.9 
      1390.0         0.17        646.0 
      1391.0         0.23        643.1 
      1392.0         0.27        628.3 
      1393.0         0.30        607.9 
      1394.0         0.33        588.0 
      1395.0         0.47        565.4 
      1396.0         0.33        554.8 
      1397.0         0.33        560.6 
      1398.0         0.38        570.9 
      1399.0         0.33        577.7 
      1400.0         0.37        580.9 
      1401.0         0.33        582.2 
      1402.0         0.40        587.0 
      1403.0         0.27        587.3 
      1404.0         0.33        589.3 
      1405.0         0.33        587.6 
      1406.0         2.95        602.8 
      1407.0         0.20        548.3 
      1408.0         0.40        615.4 
      1409.0         0.43        744.6 
      1410.0         0.35        850.0 
      1411.0         0.30        880.9 
      1412.0         0.27        868.3 
      1413.0         0.27        792.3 
      1414.0         0.27        716.9 
      1415.0         0.27        663.7 
      1416.0         0.30        618.9 
      1417.0         0.23        594.4 
      1418.0         0.27        586.0 
      1419.0         0.23        579.6 
      1420.0         0.27        582.2 
      1421.0         0.23        585.4 
      1422.0         0.32        588.9 
      1423.0         0.20        584.4 
      1424.0         0.20        580.9 
      1425.0         0.23        580.9 
      1426.0         0.20        578.9 
      1427.0         0.17        578.3 
      1428.0         0.10        574.8 
      1429.0         0.13        575.1 
      1430.0         0.13        580.2 
      1431.0         0.20        582.2 
      1432.0         0.27        584.1 
      1433.0         0.20        578.6 
      1434.0         0.13        572.5 
      1435.0         0.13        564.8 
      1436.0         0.43        572.8 
      1437.0         2.65        646.9 
      1438.0         0.13        676.6 
      1439.0         0.80        931.8 
      1440.0         0.13        990.5 
      1441.0         0.35       1160.0 
      1442.0         0.37       1364.0 
      1443.0         0.37       1525.8 
      1444.0         0.30       1547.7 
      1445.0         0.13       1433.6 
      1446.0         0.23       1298.6 
      1447.0         0.27       1085.2 
      1448.0         0.23        865.1 
      1449.0         0.20        715.3 
      1450.0         0.20        640.8 
      1451.0         0.23        602.5 
      1452.0         0.23        577.3 
      1453.0         0.20        566.7 
      1454.0         0.25        569.0 
      1455.0         0.20        568.6 
      1456.0         0.17        570.9 
      1457.0         0.20        575.1 
      1458.0         0.20        578.3 
      1459.0         0.23        585.4 
      1460.0         0.20        584.4 
      1461.0         0.20        584.4 
      1462.0         0.27        586.0 
      1463.0         0.23        585.4 
      1464.0         0.27        585.7 
      1465.0         0.23        585.1 
      1466.0         0.23        583.1 
      1467.0         4.97       1318.2 
      1468.0         0.50       1824.8 
      1469.0         0.43       2112.6 
      1470.0         0.30       2109.1 
      1471.0         0.30       1901.2 
      1472.0         0.27       1330.1 
      1473.0         0.30        990.8 
      1474.0         0.25        752.3 
      1475.0         0.23        627.9 
      1476.0         0.27        553.5 
      1477.0         0.27        521.6 
      1478.0         0.27        528.0 
      1479.0         0.27        541.9 
      1480.0         0.27        554.8 
      1481.0         0.23        563.8 
      1482.0         0.30        569.0 
      1483.0         0.20        570.2 
      1484.0         0.20        573.8 
      1485.0         0.17        571.9 
      1486.0         0.13        572.8 
      1487.0         0.13        572.5 
      1488.0         0.20        571.2 
      1489.0         0.15        565.7 
      1490.0         0.20        559.3 
      1491.0         0.53        585.4 
      1492.0         0.40        647.6 
      1493.0         0.07        650.5 
      1494.0         0.53        647.6 
      1495.0         0.07        540.3 
      1496.0         3.92       1853.8 
      1497.0         2.52       4737.8 
      1498.0         0.43       1457.1 
      1499.0         0.30        849.0 
      1500.0         0.27        663.4 
