~Version Information
VERS.                      2.0: CWLS Log ASCII Standard - VERSION 2.0
WRAP.                       NO: One line per depth step
~Well Information Block
STRT.FT                -8.7500: 
STOP.FT              1525.0000: 
STEP.FT                 0.2500: 
NULL.                -999.2500: 
COMP.          Pioneer Natural Resources: COMPANY
WELL.          Grand Prix 13-12 Tr: WELL
FLD.           Purgatorie River: FIELD
LOC.           2595' FSL & 1277' FWL--: LOCATION
CNTY.               Las Animas: COUNTY
SRVC.          Patterson Wireline: SERVICE COMPANY
DATE.          Thu Apr 13 10:28:30 2006: LOG DATE
UWI.           05 071 08711 00: UNIQUE WELL ID
STAT.                       CO: STATE
~Curve Information Block
DEPT.FT            0 000 00 00: Depth
CCL.                          : Casing Collar Locator
TT3.usec                      : CBL 3' Travel Time
AMP3.mV                       : CBL 3' Amplitude
GR.GAPI                       : Gamma Ray
~Parameter Information Block
~A  Depth       CCL         TT3         AMP3         GR     
# ...
    91.7500      0.0000    697.5904      5.1915     74.4450
    92.0000      0.0000    697.5523      5.1865     80.4575
    92.2500      0.0000    697.4787      5.1806     86.7942
    92.5000      0.0000    697.3859      5.1705     91.8213
    92.7500      0.0000    697.2982      5.1552     94.4315
    93.0000      0.0000    697.2264      5.1363     94.4471
    93.2500      0.0000    697.1661      5.1179     92.7008
    93.5000      0.0000    697.1128      5.1049     90.6671
    93.7500      0.0000    697.0744      5.1010     89.3969
    94.0000      0.0000    697.0628      5.1084     88.6916
    94.2500      0.0000    697.0739      5.1275     87.7449
    94.5000      0.0000    697.0826      5.1566     86.4957
    94.7500      0.0000    697.0628      5.1909     85.8547
    95.0000      0.0000    697.0127      5.2236     86.7104
    95.2500      0.0000    696.9581      5.2475     89.1226
    95.5000      0.0000    696.9390      5.2578     92.3625
    95.7500      0.0000    696.9909      5.2556     95.4295
    96.0000      0.0000    697.1235      5.2496     97.5615
    96.2500      0.0000    697.2990      5.2503     98.3430
    96.5000      0.0000    697.4332      5.2607     97.6203
    96.7500      0.0000    697.4369      5.2752     95.8180
    97.0000      0.0000    697.2789      5.2877     94.2338
    97.2500      0.0000    697.0236      5.2984     94.2637
    97.5000      0.0000    696.8000      5.3127     96.0719
    97.7500      0.0000    696.7183      5.3318     98.3813
    98.0000      0.0000    696.7995      5.3448     99.6714
    98.2500      0.0000    696.9827      5.3331     99.2989
    98.5000      0.0000    697.1906      5.2885     97.5707
    98.7500      0.0000    697.3788      5.2232     95.2113
    99.0000      0.0000    697.5316      5.1590     92.7468
    99.2500      0.0000    697.6443      5.1063     90.0919
    99.5000      0.0000    697.7258      5.0611     86.9866
    99.7500      0.0000    697.8026      5.0170     83.9451
   100.0000      0.0000    697.9054      4.9762     82.0889
   100.2500      0.0000    698.0529      4.9461     81.6946
   100.5000      0.0000    698.2490      4.9317     81.5693
   100.7500      0.0000    698.4857      4.9305     80.2317
   101.0000      0.0000    698.7308      4.9344     77.2303
   101.2500      0.0000    698.9095      4.9348     73.1181
   101.5000      0.0000    698.9244      4.9276     68.6013
   101.7500      0.0000    698.7278      4.9150     64.1091
   102.0000      0.0000    698.3795      4.9025     60.0650
   102.2500      0.0000    698.0153      4.8939     57.0680
   102.5000      0.0000    697.7542      4.8888     55.4561
   102.7500      0.0000    697.6362      4.8844     54.9834
   103.0000      0.0000    697.6339      4.8806     55.2793
   103.2500      0.0000    697.7012      4.8821     56.3606
   103.5000      0.0000    697.7979      4.8961     58.2517
   103.7500      0.0000    697.8828      4.9276     60.2632
   104.0000      0.0000    697.9141      4.9755     61.2430
   104.2500      0.0000    697.8769      5.0308     60.6079
   104.5000      0.0000    697.8024      5.0792     58.7195
   104.7500      0.0000    697.7491      5.1091     56.1535
   105.0000      0.0000    697.7606      5.1187     53.0397
   105.2500      0.0000    697.8406      5.1148     49.3809
   105.5000      0.0000    697.9592      5.1064     45.7376
   105.7500      0.0000    698.0720      5.0998     43.3020
   106.0000      0.0000    698.1367      5.0979     43.3323
   106.2500      0.0000    698.1307      5.1014     46.4625
   106.5000      0.0000    698.0637      5.1107     52.1415
   106.7500      0.0000    697.9782      5.1272     58.5070
   107.0000      0.0000    697.9291      5.1516     63.2945
   107.2500      0.0000    697.9553      5.1829     65.4962
   107.5000      0.0000    698.0607      5.2179     65.9837
   107.7500      0.0000    698.2179      5.2528     66.0959
   108.0000      0.0000    698.3843      5.2874     65.8543
   108.2500      0.0000    698.5199      5.3250     64.0761
   108.5000      0.0000    698.5991      5.3681     60.1246
   108.7500      0.0000    698.6214      5.4121     55.0439
   109.0000      0.0000    698.6132      5.4462     50.9201
   109.2500      0.0000    698.6269      5.4604     49.3762
   109.5000      0.0000    698.7180      5.4498     50.5747
   109.7500      0.0000    698.8851      5.4100     53.3977
   110.0000      0.0000    698.9319      5.3323     56.4181
   110.2500      0.0000    698.3651      5.2191     58.6194
   110.5000      0.0000    696.6250      5.1092     59.4186
   110.7500      0.0000    693.7057      5.0660     58.6091
   111.0000      0.0000    690.4834      5.1105     56.6174
   111.2500      0.0000    688.2176      5.1783     54.5088
   111.5000      0.0000    688.1069      5.1778     53.3407
   111.7500      0.0000    691.8896      5.0870     53.4131
   112.0000      0.0000    702.8370      4.9597     54.2247
   112.2500      0.0000    725.1208      4.8549     55.2673
   112.5000     -2.0000    760.8422      4.7957     56.7808
   112.7500      0.0000    806.3225      4.7855     59.5672
   113.0000      0.0000    850.5867      4.8384     64.0664
   113.2500      0.0000    878.2452      4.9849     69.8123
   113.5000      0.0000    876.9991      5.2375     75.7639
   113.7500      0.0000    846.4227      5.5412     80.7816
   114.0000      0.0000    800.2512      5.7805     83.7327
   114.2500      0.0000    757.7858      5.8698     83.7864
   114.5000      0.0000    731.7570      5.8222     81.1859
   114.7500      0.0000    723.4456      5.7139     77.6826
   115.0000      0.0000    726.0428      5.6038     75.8074
   115.2500      0.0000    730.4549      5.5078     77.2240
   115.5000      0.0000    730.1954      5.4212     81.4793
   115.7500      0.0000    724.1124      5.3401     86.3466
   116.0000      0.0000    715.4340      5.2669     89.3852
   116.2500      0.0000    707.9726      5.2081     89.2182
   116.5000      0.0000    703.3422      5.1703     85.8309
   116.7500      0.0000    701.0663      5.1564     80.2549
   117.0000      0.0000    700.0720      5.1657     73.9762
   117.2500      0.0000    699.6343      5.1952     68.3262
   117.5000      0.0000    699.4589      5.2378     64.2529
   117.7500      0.0000    699.4573      5.2814     62.3473
   118.0000      0.0000    699.5864      5.3119     62.5864
   118.2500      0.0000    699.8118      5.3203     63.9997
   118.5000      0.0000    700.1113      5.3072     65.0820
   118.7500      0.0000    700.4402      5.2809     64.8561
   119.0000      0.0000    700.6913      5.2525     63.4128
   119.2500      0.0000    700.7224      5.2316     61.3985
   119.5000      0.0000    700.4575      5.2239     59.3317
   119.7500      0.0000    699.9656      5.2288     57.5579
   120.0000      0.0000    699.4305      5.2397     56.4819
   120.2500      0.0000    699.0390      5.2474     56.3890
   120.5000      0.0000    698.8911      5.2448     57.1343
   120.7500      0.0000    698.9832      5.2284     58.2475
   121.0000      0.0000    699.2406      5.1969     59.2569
   121.2500      0.0000    699.5637      5.1510     59.7728
   121.5000      0.0000    699.8728      5.0956     59.4430
   121.7500      0.0000    700.1351      5.0397     58.0877
   122.0000      0.0000    700.3477      4.9944     55.9489
   122.2500      0.0000    700.4968      4.9685     53.7462
   122.5000      0.0000    700.5460      4.9646     52.4683
   122.7500      0.0000    700.4708      4.9789     52.9073
   123.0000      0.0000    700.3021      5.0040     55.0259
   123.2500      0.0000    700.1284      5.0311     57.8302
   123.5000      0.0000    700.0425      5.0537     60.2638
   123.7500      0.0000    700.0729      5.0674     62.1573
   124.0000      0.0000    700.1624      5.0689     63.8933
   124.2500      0.0000    700.2253      5.0565     65.3520
   124.5000      0.0000    700.2362      5.0347     65.8816
   124.7500      0.0000    700.2479      5.0166     65.3368
   125.0000      0.0000    700.3088      5.0187     64.5206
