~Version Information
VERS.                      2.0: CWLS Log ASCII Standard - VERSION 2.0
WRAP.                       NO: One line per depth step
~Well Information Block
STRT.FT                -6.5000: 
STOP.FT              1467.0000: 
STEP.FT                 0.2500: 
NULL.                -999.2500: 
COMP.          Pioneer Natural Resources: COMPANY
WELL.          Surtees 23-34 Tr: WELL
FLD.           Purgatorie River: FIELD
LOC.           1559' FSL & 1997' FWL--: LOCATION
PROV.                       CO: PROVINCE
CNTY.               Las Animas: COUNTRY
SRVC.          Patterson Wireline: SERVICE COMPANY
DATE.          Tue Aug 02 13:04:45 2005: LOG DATE
UWI.           05 071 08449 00: UNIQUE WELL ID
~Curve Information Block
DEPT.FT            0 000 00 00: Depth
CCL.                          : Casing Collar Locator
TT3.usec                      : CBL 3' Travel Time
AMP3.mV                       : CBL 3' Amplitude
GR.GAPI                       : Gamma Ray
~Parameter Information Block
~A  Depth       CCL         TT3         AMP3         GR     
# ...
   864.5000      0.0000    853.4861      9.0280    101.9688
   864.7500      0.0000    841.7578      9.0653     96.6542
   865.0000      0.0000    831.6825      9.0948     92.6465
   865.2500      0.0000    827.1058      9.1154     91.0149
   865.5000      0.0000    828.2610      9.1257     91.2893
   865.7500      0.0000    831.6280      9.1230     92.5190
   866.0000      0.0000    833.4644      9.1024     94.2814
   866.2500      0.0000    833.2336      9.0604     96.8392
   866.5000      0.0000    833.2505      9.0017    100.8402
   866.7500      0.0000    835.5012      8.9430    106.6930
   867.0000      0.0000    839.5850      8.9072    113.7624
   867.2500      0.0000    843.6400      8.9091    120.4129
   867.5000      0.0000    846.3524      8.9438    125.2762
   867.7500      0.0000    847.6638      8.9914    128.3203
   868.0000      0.0000    848.1480      9.0318    130.5036
   868.2500      0.0000    848.3209      9.0532    132.7072
   868.5000      0.0000    848.4392      9.0497    135.0958
   868.7500      0.0000    848.5756      9.0155    136.9717
   869.0000      0.0000    848.7167      8.9468    137.0573
   869.2500      0.0000    848.8263      8.8475    134.5130
   869.5000      0.0000    848.8685      8.7320    130.0441
   869.7500      0.0000    848.8309      8.6210    125.6321
   870.0000      0.0000    848.7350      8.5342    122.9844
   870.2500      0.0000    848.6248      8.4851    122.4723
   870.5000      0.0000    848.5433      8.4793    123.6579
   870.7500      0.0000    848.5139      8.5146    126.4012
   871.0000      0.0000    848.5320      8.5792    130.7450
   871.2500      0.0000    848.5712      8.6525    135.6677
   871.5000      0.0000    848.6059      8.7145    138.8329
   871.7500      0.0000    848.6286      8.7557    138.3043
   872.0000      0.0000    848.6478      8.7802    134.4264
   872.2500      0.0000    848.6784      8.8005    129.6926
   872.5000      0.0000    848.7455      8.8304    126.5777
   872.7500      0.0000    848.8900      8.8782    125.3016
   873.0000      0.0000    849.1496      8.9461    123.7524
   873.2500      0.0000    849.5191      9.0354    119.7533
   873.5000      0.0000    849.9328      9.1463    113.3335
   873.7500      0.0000    850.3036      9.2707    106.7106
   874.0000      0.0000    850.5780      9.3882    102.3927
   874.2500      0.0000    850.7408      9.4759    101.4964
   874.5000      0.0000    850.7712      9.5240    103.4658
   874.7500      0.0000    850.6261      9.5405    106.7640
   875.0000      0.0000    850.2859      9.5424    109.9296
   875.2500      0.0000    849.8087      9.5422    112.4715
   875.5000      0.0000    849.3151      9.5427    114.9037
   875.7500      0.0000    848.9157      9.5401    117.7756
   876.0000      0.0000    848.6597      9.5294    120.8193
   876.2500      0.0000    848.5464      9.5082    123.3027
   876.5000      0.0000    848.5649      9.4740    125.0565
   876.7500      0.0000    848.7028      9.4241    126.7085
   877.0000      0.0000    848.9122      9.3581    128.7999
   877.2500      0.0000    849.0981      9.2821    130.9428
   877.5000      0.0000    849.1764      9.2084    132.0820
   877.7500      0.0000    849.1372      9.1523    131.6111
   878.0000      0.0000    849.0235      9.1273    130.0721
   878.2500      0.0000    848.8187      9.1390    128.5414
   878.5000      0.0000    848.2753      9.1826    127.3150
   878.7500      0.0000    846.6749      9.2447    125.4070
   879.0000      0.0000    842.7091      9.3066    121.4913
   879.2500      0.0000    835.0010      9.3511    115.3641
   879.5000      0.0000    823.6132      9.3694    108.5629
   879.7500      0.0000    811.4611      9.3648    103.3633
   880.0000      0.0000    803.4488      9.3472    100.8574
   880.2500      0.0000    803.0092      9.3252    100.2476
   880.5000      0.0000    809.2307      9.3059    100.3354
   880.7500      0.0000    817.7025      9.2987    101.1549
   881.0000      0.0000    824.1177      9.3106    103.4976
   881.2500      0.0000    827.1842      9.3376    107.1052
   881.5000      0.0000    828.7572      9.3634    109.9869
   881.7500      0.0000    831.5079      9.3695    109.7044
   882.0000      0.0000    836.2523      9.3448    105.2612
   882.2500      0.0000    841.3918      9.2904     97.8642
   882.5000      0.0000    844.5560      9.2195     89.9496
   882.7500      0.0000    844.3907      9.1535     83.3608
   883.0000      0.0000    841.3038      9.1136     78.3409
   883.2500      0.0000    837.3777      9.1103     74.2185
   883.5000      0.0000    835.3264      9.1398     70.8375
   883.7500      0.0000    836.5575      9.1869     68.8812
   884.0000      0.0000    840.1090      9.2316     68.7296
   884.2500      0.0000    843.8021      9.2544     69.5642
   884.5000      0.0000    846.1918      9.2433     70.1128
   884.7500      0.0000    847.2133      9.1971     70.1987
   885.0000      0.0000    847.4953      9.1241     71.1661
   885.2500      0.0000    847.5717      9.0349     74.5435
   885.5000      0.0000    847.6614      8.9348     80.4954
   885.7500      0.0000    847.7874      8.8217     87.8451
   886.0000      0.0000    847.7271      8.6839     95.3087
   886.2500      0.0000    846.5511      8.4974    102.2220
   886.5000      0.0000    842.1470      8.2290    108.1888
   886.7500      0.0000    832.3748      7.8645    112.6215
   887.0000      0.0000    818.4158      7.4550    114.9180
   887.2500      0.0000    807.0527      7.1155    114.9995
   887.5000      0.0000    807.4150      6.9340    113.6565
   887.7500      0.0000    823.7302      6.8859    112.1604
   888.0000      0.0000    851.2521      6.8805    111.1508
   888.2500      0.0000    879.6484      6.8699    110.0005
   888.5000      0.0000    901.3018      6.8685    107.7823
   888.7500     -2.0000    917.1844      6.8940    104.8942
   889.0000      2.0000    934.0294      6.9459    103.2117
   889.2500      0.0000    955.2313      7.0366    104.3938
   889.5000      0.0000    975.5863      7.2177    108.2200
   889.7500      0.0000    984.8581      7.5618    112.6602
   890.0000      0.0000    975.6500      8.0910    115.5222
   890.2500      0.0000    948.8698      8.7028    116.1757
   890.5000      0.0000    913.4042      9.2034    115.6998
   890.7500      0.0000    880.7566      9.4579    115.5163
   891.0000      0.0000    858.5112      9.4916    116.4198
   891.2500      0.0000    847.2443      9.4289    119.0074
   891.5000      0.0000    842.4039      9.3716    124.0137
   891.7500      0.0000    838.7084      9.3537    131.1941
   892.0000      0.0000    833.4487      9.3655    138.0345
   892.2500      0.0000    827.0840      9.3836    140.6705
   892.5000      0.0000    821.4239      9.3902    136.9504
   892.7500      0.0000    816.9842      9.3838    128.4475
   893.0000      0.0000    812.3171      9.3788    118.8864
   893.2500      0.0000    805.5633      9.3885    110.7026
   893.5000      0.0000    795.8740      9.4102    103.6480
   893.7500      0.0000    784.1501      9.4252     96.4966
   894.0000      0.0000    774.3774      9.4150     89.1640
   894.2500      0.0000    772.6028      9.3774     82.9383
   894.5000      0.0000    781.0494      9.3245     79.4228
   894.7500      0.0000    793.9166      9.2650     79.7052
   895.0000      0.0000    802.0368      9.1963     84.1451
   895.2500      0.0000    801.3822      9.1158     92.3977
   895.5000      0.0000    795.4958      9.0349    103.3419
   895.7500      0.0000    790.7015      8.9780    115.0484
   896.0000      0.0000    790.4243      8.9650    125.2784
   896.2500      0.0000    793.7021      8.9964    132.5005
   896.5000      0.0000    797.7172      9.0538    136.5441
   896.7500      0.0000    800.7466      9.1145    138.1936
   897.0000      0.0000    802.9816      9.1653    138.1537
   897.2500      0.0000    805.5551      9.2022    136.5362
   897.5000      0.0000    809.4029      9.2205    133.4401
   897.7500      0.0000    814.6833      9.2141    129.6821
