~Version Information
VERS.                      2.0: CWLS Log ASCII Standard - VERSION 2.0
WRAP.                       NO: One line per depth step
~Well Information Block
STRT.FT                 0.0000: 
STOP.FT               816.5000: 
STEP.FT                 0.1000: 
NULL.                -999.2500: 
COMP.          Pioneer Natural Resources: COMPANY
WELL.           Weissach 32-32: WELL
FLD.           Purgatorie River: FIELD
LOC.           2193' FNL & 2256' FEL: LOCATION
STAT.                 Colorado: State
CNTY.               Las Animas: COUNTY
CTRY. USA : Country
SECT. 32 : Section
TOWN. 33S : Township
RANG. 66W : Range
SRVC.                Patterson: SERVICE COMPANY
DATE.          Mon Sep 26 09:15:29 2005: LOG DATE
API. 05-071-08523                         : UNIQUE WELL ID
~Curve Information Block
DEPT.FT            0 000 00 00: Depth
DCAL.in                       : CDL Caliper
RHOB.g/cc                     : CDL Bulk Density
RHOC.g/cc                     : CDL Density Correction
DPOR.pu                       : CDL Density Porosity
GR.GAPI                       : Gamma Ray
NPOR.pu                       : Neutron Porosity
~Parameter Information Block
~A  Depth       DCAL        RHOB        RHOC        DPOR         GR         NPOR    
# ...
   528.0000      7.9508      2.4878      0.1135      9.8316    170.7889     29.3319
   528.1000      7.9508      2.4980      0.0997      9.2128    177.0569     29.5970
   528.2000      7.9508      2.5255      0.1328      7.5432    178.3478     29.4354
   528.3000      7.9861      2.5406      0.1329      6.6279    171.9236     29.0993
   528.4000      7.9861      2.5253      0.1005      7.5558    159.5821     28.8280
   528.5000      7.9798      2.4931      0.0836      9.5106    150.3408     28.6793
   528.6000      7.9798      2.4632      0.0311     11.3221    145.5422     28.6269
   528.7000      7.9798      2.4475      0.0462     12.2720    138.5372     28.5590
   528.8000      7.9928      2.4505      0.0084     12.0899    126.6339     28.4188
   528.9000      7.9928      2.4688      0.1040     10.9816    114.2746     28.4118
   529.0000      7.9235      2.4898      0.0848      9.7095    107.2780     28.5769
   529.1000      7.9235      2.5048      0.0812      8.7976    105.0549     28.6178
   529.2000      7.9235      2.5105      0.1150      8.4547    103.3245     28.3988
   529.3000      7.8632      2.5053      0.0803      8.7716    102.6863     28.0977
   529.4000      7.8632      2.4925      0.0701      9.5473    103.9603     27.8644
   529.5000      7.8807      2.4798      0.0624     10.3124    105.0837     27.6890
   529.6000      7.8807      2.4779      0.0375     10.4283    107.0655     27.5413
   529.7000      7.8807      2.4872      0.0657      9.8654    111.0095     27.4956
   529.8000      7.8835      2.4988      0.0838      9.1633    114.2588     27.5227
   529.9000      7.8835      2.5096      0.0800      8.5099    115.8542     27.2645
   530.0000      7.8750      2.5179      0.1051      8.0041    115.5756     26.8713
   530.1000      7.8750      2.5192      0.1171      7.9286    110.7686     27.0087
   530.2000      7.8750      2.5149      0.0794      8.1858    101.6626     27.4636
   530.3000      7.8900      2.5069      0.1021      8.6720     93.7521     27.6415
   530.4000      7.8900      2.4972      0.0455      9.2605     90.6843     27.6991
   530.5000      7.8737      2.4970      0.0835      9.2721     91.1252     27.7536
   530.6000      7.8737      2.5074      0.0915      8.6453     91.1983     27.8314
   530.7000      7.8737      2.5148      0.0762      8.1930     88.3357     28.1372
   530.8000      7.9025      2.5138      0.0402      8.2551     84.7752     28.2981
   530.9000      7.9025      2.5083      0.0804      8.5886     85.0350     27.9623
   531.0000      7.9327      2.5039      0.0628      8.8535     88.5023     27.5744
   531.1000      7.9327      2.5024      0.0580      8.9483     89.8043     27.5521
   531.2000      7.9327      2.4952      0.0805      9.3792     87.7431     27.5983
   531.3000      7.9184      2.4837      0.0272     10.0781     86.1486     27.2803
   531.4000      7.9184      2.4770      0.0636     10.4854     86.8340     26.8083
   531.5000      7.9177      2.4710      0.0541     10.8464     88.2632     26.7413
   531.6000      7.9177      2.4654      0.0606     11.1859     88.7298     26.9347
   531.7000      7.9177      2.4661      0.0550     11.1435     88.6748     26.8288
   531.8000      7.9083      2.4693      0.0717     10.9541     89.1664     26.5159
   531.9000      7.9083      2.4652      0.0675     11.2012     89.5270     26.4476
   532.0000      7.8931      2.4556      0.0801     11.7830     88.5882     26.7102
   532.1000      7.8931      2.4541      0.0778     11.8742     86.6491     27.1148
   532.2000      7.8931      2.4681      0.0961     11.0230     87.2115     27.3712
   532.3000      7.8160      2.4920      0.1210      9.5773     92.2342     27.2733
   532.4000      7.8160      2.5158      0.1351      8.1362     97.4864     26.9692
   532.5000      7.7775      2.5348      0.1503      6.9799     98.5425     26.6620
   532.6000      7.7775      2.5494      0.1475      6.0976     96.8247     26.5267
   532.7000      7.7775      2.5570      0.1465      5.6356     97.5770     26.6656
   532.8000      7.7864      2.5503      0.1409      6.0450    100.8352     26.8909
   532.9000      7.7864      2.5314      0.0907      7.1849    101.3868     27.0909
   533.0000      7.8132      2.5176      0.0766      8.0247     99.9384     27.2598
   533.1000      7.8132      2.5169      0.0968      8.0673     99.0574     27.2311
   533.2000      7.8132      2.5204      0.1128      7.8548     98.7842     26.9976
   533.3000      7.8094      2.5170      0.1093      8.0597    100.7484     26.6463
   533.4000      7.8094      2.5063      0.0878      8.7071    103.2882     26.3130
   533.5000      7.8216      2.4966      0.0757      9.2973    101.5391     26.4277
   533.6000      7.8216      2.4867      0.1071      9.8973     98.6819     27.1054
   533.7000      7.8216      2.4678      0.0630     11.0451    102.3137     27.8208
   533.8000      7.8335      2.4447      0.0616     12.4402    109.9587     28.2267
   533.9000      7.8335      2.4298      0.0576     13.3438    113.2996     28.3446
   534.0000      7.9066      2.4252      0.0730     13.6215    109.9578     28.1849
   534.1000      7.9066      2.4259      0.0588     13.5835    103.0021     28.0424
   534.2000      7.9066      2.4294      0.1099     13.3707     98.6075     28.2457
   534.3000      7.9069      2.4370      0.0779     12.9093    100.2840     28.5623
   534.4000      7.9069      2.4438      0.1207     12.4990    103.6895     28.6384
   534.5000      7.9077      2.4381      0.0552     12.8397    104.7087     28.5740
   534.6000      7.9077      2.4229      0.0394     13.7614    104.8682     28.4625
   534.7000      7.9077      2.4174      0.0277     14.0961    106.3898     28.2533
   534.8000      7.8942      2.4340      0.0469     13.0900    108.0383     27.9896
   534.9000      7.8942      2.4610      0.0776     11.4574    106.8019     27.8488
   535.0000      7.8943      2.4809      0.0690     10.2509    105.4240     28.0079
   535.1000      7.8943      2.4940      0.0702      9.4570    108.5605     28.3057
   535.2000      7.8943      2.5070      0.0938      8.6657    112.8224     28.4326
   535.3000      7.8863      2.5179      0.1134      8.0068    113.3496     28.2872
   535.4000      7.8863      2.5247      0.0892      7.5938    111.6924     27.9433
   535.5000      7.8781      2.5363      0.0596      6.8939    110.5351     27.5846
   535.6000      7.8781      2.5537      0.0953      5.8341    110.3148     27.3443
   535.7000      7.8781      2.5574      0.0951      5.6125    109.3539     27.0657
   535.8000      7.8944      2.5382      0.0438      6.7786    106.7528     26.5338
   535.9000      7.8944      2.5182      0.0199      7.9855    105.3751     25.8548
   536.0000      7.9122      2.5176      0.0223      8.0213    105.3958     25.3334
   536.1000      7.9122      2.5307      0.0396      7.2313    102.9026     25.2269
   536.2000      7.9122      2.5398      0.0605      6.6776     99.0754     25.2158
   536.3000      7.9134      2.5400      0.0096      6.6649     99.5543     24.8508
   536.4000      7.9134      2.5398      0.0259      6.6770    104.1457     24.3376
   536.5000      7.8980      2.5406      0.0243      6.6307    106.2756     24.1721
   536.6000      7.8980      2.5352      0.0208      6.9546    103.1648     24.4880
   536.7000      7.8980      2.5270      0.0183      7.4563     98.6634     25.0555
   536.8000      7.8886      2.5304      0.0035      7.2507     95.2447     25.3260
   536.9000      7.8886      2.5469      0.0461      6.2484     91.7737     24.9012
   537.0000      7.8861      2.5572      0.0613      5.6213     89.5232     24.0187
   537.1000      7.8861      2.5546      0.0006      5.7807     90.7891     23.1925
   537.2000      7.8861      2.5555      0.0444      5.7273     92.5718     22.6866
   537.3000      7.8915      2.5707      0.0026      4.8040     90.9463     22.6459
   537.4000      7.8915      2.5908      0.0525      3.5903     87.4014     22.9565
   537.5000      7.8992      2.5938      0.0499      3.4043     85.7634     23.1382
