~Version Information
VERS.                      2.0: CWLS Log ASCII Standard - VERSION 2.0
WRAP.                       NO: One line per depth step
~Well Information Block
STRT.FT               -15.7500: 
STOP.FT              1862.5000: 
STEP.FT                 0.2500: 
NULL.                -999.2500: 
COMP.          XTO Energy Inc.: COMPANY
WELL.          Golden Eagle 19-11: WELL
FLD.           Purgatorie River: FIELD
LOC.           2351' FSL &1926' WL--: LOCATION
CNTY.               Las Animas: COUNTY
SRVC.          Patterson Wireline: SERVICE COMPANY
DATE.          Fri Mar 24 16:29:29 2006: LOG DATE
UWI.           05 071 08696 00: UNIQUE WELL ID
STAT.                       CO: STATE
~Curve Information Block
DEPT.FT            0 000 00 00: Depth
CCL.                          : Casing Collar Locator
TT3.usec                      : CBL 3' Travel Time
AMP3.mV                       : CBL 3' Amplitude
GR.GAPI                       : Gamma Ray
~Parameter Information Block
~A  Depth       CCL         TT3         AMP3         GR     
# ...
   352.7500      0.0000    679.0367      6.1697    134.6122
   353.0000      0.0000    677.7893      6.1357    138.3219
   353.2500      0.0000    684.0008      6.0876    141.8151
   353.5000      0.0000    695.1185      6.0147    144.8688
   353.7500      0.0000    706.3138      5.9113    147.0242
   354.0000      0.0000    713.3583      5.7787    146.8433
   354.2500      0.0000    715.3292      5.6247    142.1283
   354.5000      0.0000    714.7007      5.4620    131.5913
   354.7500      0.0000    714.8269      5.3067    116.0936
   355.0000      0.0000    717.6629      5.1763     98.0540
   355.2500      0.0000    724.0278      5.0889     80.1004
   355.5000      0.0000    735.2151      5.0619     64.3134
   355.7500      0.0000    753.0518      5.1068     52.0638
   356.0000      0.0000    777.8795      5.2215     43.8985
   356.2500      0.0000    807.2707      5.3891     39.3629
   356.5000      0.0000    837.5453      5.5868     37.1252
   356.7500      0.0000    866.0109      5.7958     35.7454
   357.0000      0.0000    891.0082      5.9992     34.5565
   357.2500      0.0000    909.8441      6.1734     33.6728
   357.5000      0.0000    916.9182      6.2906     33.1712
   357.7500      0.0000    904.9145      6.3349     32.6726
   358.0000      0.0000    871.0414      6.3242     31.9108
   358.2500      0.0000    824.5762      6.3159     31.3108
   358.5000      0.0000    786.4366      6.3653     31.6297
   358.7500      0.0000    777.3889      6.4521     33.2457
   359.0000      0.0000    803.5632      6.4697     36.1247
   359.2500      0.0000    851.2863      6.3283     40.4198
   359.5000      0.0000    895.6898      6.0574     46.8351
   359.7500      0.0000    917.0933      5.7745     56.1707
   360.0000      0.0000    911.9659      5.5740     68.3151
   360.2500      0.0000    889.7202      5.4765     81.6473
   360.5000      2.0000    861.5288      5.4628     93.4826
   360.7500      0.0000    834.2882      5.5277    101.2492
   361.0000      0.0000    813.0212      5.6993    103.6178
   361.2500      0.0000    803.2263      6.0021    101.0265
   361.5000      0.0000    807.5209      6.3884     95.3914
   361.7500      0.0000    821.2485      6.7286     89.3259
   362.0000      0.0000    834.2527      6.9065     85.2216
   362.2500      0.0000    838.4683      6.9124     84.1869
   362.5000      0.0000    833.6865      6.8210     85.4023
   362.7500      0.0000    825.1346      6.7030     86.8730
   363.0000      0.0000    815.9740      6.5846     87.1572
   363.2500      0.0000    804.5144      6.4695     86.2671
   363.5000      0.0000    789.4072      6.3653     84.9390
   363.7500      0.0000    774.5785      6.2826     83.4862
   364.0000      0.0000    766.1689      6.2271     81.7391
   364.2500      0.0000    765.4836      6.1981     79.8861
   364.5000      0.0000    767.6087      6.1934     78.8619
   364.7500      0.0000    767.7797      6.2109     79.7689
   365.0000      0.0000    767.4452      6.2457     83.0170
   365.2500      0.0000    772.2472      6.2871     87.9529
   365.5000      0.0000    785.0924      6.3191     93.2279
   365.7500      0.0000    803.6889      6.3260     97.6999
   366.0000      0.0000    824.4833      6.3011    100.9629
   366.2500      0.0000    845.1731      6.2532    102.7429
   366.5000      0.0000    862.5844      6.2026    101.9594
   366.7500      0.0000    872.6141      6.1690     97.1297
   367.0000      0.0000    874.4648      6.1618     88.1569
   367.2500      0.0000    871.1773      6.1799     77.3269
   367.5000      0.0000    864.0507      6.2171     67.9783
   367.7500      0.0000    850.0048      6.2639     62.1387
   368.0000      0.0000    826.4814      6.3056     59.4888
   368.2500      0.0000    796.5040      6.3245     58.2946
   368.5000      0.0000    767.2329      6.3121     57.0651
   368.7500      0.0000    744.7745      6.2808     55.4806
   369.0000      0.0000    731.0234      6.2554     54.1269
   369.2500      0.0000    724.2841      6.2519     53.6256
   369.5000      0.0000    721.6779      6.2675     54.0806
   369.7500      0.0000    720.9207      6.2908     55.1068
   370.0000      0.0000    720.8024      6.3156     56.1074
   370.2500      0.0000    720.8633      6.3421     56.5912
   370.5000      0.0000    720.9741      6.3693     56.3577
   370.7500      0.0000    721.0690      6.3899     55.3597
   371.0000      0.0000    721.0947      6.3936     53.4968
   371.2500      0.0000    721.0708      6.3740     50.8240
   371.5000      0.0000    721.1533      6.3358     48.0907
   371.7500      0.0000    721.6440      6.2909     46.8544
   372.0000      0.0000    722.9341      6.2490     48.5090
   372.2500      0.0000    725.1971      6.2098     52.7470
   372.5000      0.0000    727.7366      6.1675     57.1159
   372.7500      0.0000    728.6013      6.1207     58.6752
   373.0000      0.0000    725.5737      6.0760     56.3616
   373.2500      0.0000    718.1632      6.0415     51.5728
   373.5000      0.0000    708.4102      6.0169     46.6257
   373.7500      0.0000    699.4948      5.9918     42.9897
   374.0000      0.0000    693.9109      5.9546     40.7292
   374.2500      0.0000    692.7757      5.9035     39.0553
   374.5000      0.0000    695.8801      5.8512     37.3415
   374.7500      0.0000    701.9061      5.8165     35.8558
   375.0000      0.0000    708.9067      5.8069     35.5647
   375.2500      0.0000    715.0513      5.8120     37.2028
   375.5000      0.0000    719.3335      5.8152     40.6512
   375.7500      0.0000    721.8105      5.8103     45.3847
   376.0000      0.0000    723.3289      5.8054     51.5223
   376.2500      0.0000    725.1342      5.8098     60.2912
   376.5000      0.0000    728.7821      5.8218     73.1129
   376.7500      0.0000    735.6988      5.8284     89.8202
   377.0000      0.0000    745.5160      5.8205    107.7622
   377.2500      0.0000    754.3087      5.8069    123.1454
   377.5000      0.0000    756.0286      5.8112    133.6286
   377.7500      0.0000    747.4821      5.8529    139.5983
   378.0000      0.0000    731.5605      5.9300    143.0403
   378.2500      0.0000    714.6093      6.0206    145.6233
   378.5000      0.0000    701.4744      6.0968    147.9223
   378.7500      0.0000    693.7087      6.1392    149.7054
   379.0000      0.0000    690.5703      6.1450    150.4243
   379.2500      0.0000    689.5698      6.1251    149.7638
   379.5000      0.0000    686.7870      6.0928    148.1113
   379.7500      0.0000    679.0264      6.0557    146.4247
   380.0000      0.0000    666.7025      6.0174    145.5916
   380.2500      0.0000    654.2073      5.9874    145.8956
   380.5000      0.0000    647.3334      5.9858    146.9889
   380.7500      0.0000    650.0439      6.0388    148.4614
   381.0000      0.0000    662.3959      6.1641    150.5111
   381.2500      0.0000    680.3784      6.3570    153.7920
   381.5000      0.0000    698.0763      6.5938    158.4864
   381.7500      0.0000    710.9061      6.8497    163.8317
   382.0000      0.0000    717.3420      7.1099    168.6274
   382.2500      0.0000    718.3707      7.3667    171.9811
   382.5000      0.0000    716.2879      7.6135    173.7079
   382.7500      0.0000    713.8666      7.8503    174.3414
   383.0000      0.0000    713.2180      8.0897    174.5471
   383.2500      0.0000    714.5578      8.3491    174.0882
   383.5000      0.0000    716.5922      8.6352    171.7595
   383.7500      0.0000    718.3284      8.9367    166.8837
   384.0000      0.0000    719.8358      9.2291    160.5249
   384.2500      0.0000    721.3578      9.4831    154.7772
   384.5000      0.0000    722.6124      9.6781    151.0903
   384.7500      0.0000    723.0571      9.8176    149.4227
   385.0000      0.0000    722.2024      9.9262    148.4270
   385.2500      0.0000    719.6006     10.0231    146.2688
   385.5000      0.0000    715.0359     10.0970    142.0354
   385.7500      0.0000    709.0173     10.1118    136.8330
   386.0000      0.0000    703.0024     10.0342    132.9613
