~Version Information
VERS.                      2.0: CWLS Log ASCII Standard - VERSION 2.0
WRAP.                       NO: One line per depth step
~Well Information Block
STRT.FT                 0.0000: 
STOP.FT              1147.5000: 
STEP.FT                 0.2500: 
NULL.                -999.2500: 
COMP.          Pioneer Natural Resources: COMPANY
WELL.          Tin Barn 14-20 TR: WELL
FLD.           Purgatorie River: FIELD
LOC.           925 FSL & 1151 FWL: LOCATION
PROV.                 Colorado: PROVINCE
CNTY.               Las Animas: COUNTRY
SRVC.                Patterson: SERVICE COMPANY
DATE.          Wed Jan 18 12:02:25 2006: LOG DATE
UWI.                          : UNIQUE WELL ID
~Curve Information Block
DEPT.FT            0 000 00 00: Depth
CCL.                          : Casing Collar Locator
TT3.usec                      : CBL 3' Travel Time
AMP3.mV                       : CBL 3' Amplitude
GR.GAPI                       : Gamma Ray
~Parameter Information Block
~A  Depth       CCL         TT3         AMP3         GR     
# ...
   804.0000      0.0000    303.1137     18.0274    100.5862
   804.2500      0.0000    302.8819     18.1632    103.7605
   804.5000      0.0000    302.5593     18.3110    108.0805
   804.7500      0.0000    302.2812     18.4209    110.4984
   805.0000      0.0000    302.1358     18.4238    109.3050
   805.2500      0.0000    302.1465     18.2942    105.0670
   805.5000      0.0000    302.2933     18.0703     99.5989
   805.7500      0.0000    302.5477     17.8057     94.3245
   806.0000      0.0000    302.8703     17.5305     89.7042
   806.2500      0.0000    303.2341     17.2603     85.8829
   806.5000      0.0000    303.6770     17.0066     83.1989
   806.7500      0.0000    304.2549     16.7734     81.6717
   807.0000      0.0000    304.9301     16.5702     80.3879
   807.2500      0.0000    305.7368     16.4101     78.0637
   807.5000      0.0000    307.3893     16.2803     74.3909
   807.7500      0.0000    311.6361     16.1419     70.6089
   808.0000      0.0000    319.7977     15.9732     68.5366
   808.2500      0.0000    330.3381     15.7966     68.8951
   808.5000      0.0000    340.9761     15.6476     70.6272
   808.7500      0.0000    355.7841     15.5202     72.0344
   809.0000      0.0000    385.0274     15.3582     72.3977
   809.2500      0.0000    427.7395     15.1102     72.2037
   809.5000      0.0000    463.9543     14.7741     72.0575
   809.7500      0.0000    490.6932     14.3192     71.8524
   810.0000      0.0000    538.6141     13.5245     70.9822
   810.2500      0.0000    615.5422     12.1893     69.0072
   810.5000      0.0000    678.8206     10.6668     66.0368
   810.7500      0.0000    683.6526      9.6382     62.6087
   811.0000      0.0000    623.8250      9.2444     59.1986
   811.2500     -2.0000    533.3282      9.0763     55.8662
   811.5000     -2.0000    459.4245      8.8681     52.5048
   811.7500     -2.0000    428.7680      8.6330     49.3135
   812.0000      0.0000    445.0495      8.3915     46.7836
   812.2500      0.0000    494.4173      8.2530     45.2190
   812.5000      0.0000    541.9588      8.6667     44.3664
   812.7500      0.0000    566.5845      9.9352     43.5418
   813.0000      0.0000    592.2007     11.3731     42.1752
   813.2500      0.0000    639.1521     11.9676     40.3314
   813.5000      0.0000    686.4165     11.7497     38.8037
   813.7500      0.0000    711.5387     11.4847     38.7297
   814.0000      0.0000    717.4455     11.5759     40.8967
   814.2500      0.0000    713.8882     11.8591     45.1975
   814.5000      0.0000    704.9968     12.0589     50.8089
   814.7500      0.0000    693.8210     12.1131     56.9040
   815.0000      0.0000    685.0090     12.1094     62.8771
   815.2500      0.0000    681.7914     12.1159     67.7518
   815.5000      0.0000    684.6912     12.1318     69.8955
   815.7500      0.0000    690.9625     12.1366     67.9730
   816.0000      0.0000    689.8721     12.1415     62.2155
   816.2500      0.0000    661.4582     12.1802     54.4693
   816.5000      0.0000    593.2847     12.2645     47.0566
   816.7500      0.0000    503.8444     12.3687     41.6986
   817.0000      0.0000    431.2747     12.4669     39.1277
   817.2500      0.0000    393.8960     12.5535     39.1906
   817.5000      0.0000    381.5575     12.6234     41.2150
   817.7500      0.0000    378.8105     12.6681     44.4414
   818.0000      0.0000    378.0605     12.6912     48.2964
   818.2500      0.0000    376.9267     12.7008     52.4849
   818.5000      0.0000    374.3632     12.6965     56.9091
   818.7500      0.0000    370.8122     12.6716     61.3899
   819.0000      0.0000    369.0311     12.6171     65.6443
   819.2500      0.0000    371.0966     12.5268     69.8138
   819.5000      0.0000    376.0915     12.4128     74.7378
   819.7500      0.0000    384.9049     12.3085     81.3128
   820.0000      0.0000    406.2228     12.2457     89.7681
   820.2500      0.0000    452.0081     12.2265     99.6442
   820.5000      0.0000    516.6352     12.2301    109.9220
   820.7500      0.0000    560.8699     12.2616    118.8588
   821.0000      0.0000    542.8225     12.3586    124.2483
   821.2500      0.0000    472.3654     12.5234    124.6976
   821.5000      0.0000    402.8003     12.6926    120.8422
   821.7500      0.0000    372.1145     12.8014    114.8365
   822.0000      0.0000    385.3053     12.8311    108.4971
   822.2500      0.0000    429.6724     12.7922    102.3826
   822.5000      0.0000    472.8757     12.7066     96.7058
   822.7500      0.0000    476.8391     12.5997     92.2301
   823.0000      0.0000    441.1926     12.4814     89.7272
   823.2500      0.0000    403.0401     12.3441     89.1190
   823.5000      0.0000    387.3503     12.1875     89.7645
   823.7500      0.0000    391.4185     12.0164     91.3761
   824.0000      0.0000    412.7977     11.7946     94.2758
   824.2500      0.0000    462.1216     11.4623     98.8878
   824.5000      0.0000    541.5111     11.0672    105.0800
   824.7500      0.0000    624.3800     10.7642    111.7020
   825.0000      0.0000    679.3439     10.5043    116.7377
   825.2500      0.0000    706.6043      9.9242    118.5111
   825.5000      0.0000    721.6865      8.9032    117.0273
   825.7500      0.0000    726.5557      7.9343    113.8075
   826.0000      0.0000    723.2820      7.5513    110.3662
   826.2500      0.0000    721.5729      7.7546    107.1930
   826.5000      2.0000    722.2607      8.2029    104.2629
   826.7500      2.0000    719.8618      8.6321    102.1172
   827.0000      0.0000    713.2087      8.9247    102.0494
   827.2500      0.0000    698.2360      9.0390    105.0678
   827.5000      0.0000    668.6794      9.1585    110.6399
   827.7500      0.0000    635.4568      9.5554    116.4968
   828.0000      0.0000    625.0707     10.0533    119.9563
   828.2500      0.0000    644.5661     10.4010    119.9006
   828.5000      0.0000    667.6569     10.9826    117.6556
   828.7500      0.0000    670.5771     12.1020    115.8842
   829.0000      0.0000    659.6614     13.3240    116.5397
   829.2500      0.0000    652.7532     14.1064    119.5478
   829.5000      0.0000    650.8986     14.3422    122.8732
   829.7500      0.0000    638.3123     14.2666    123.8908
   830.0000      0.0000    605.8682     14.1477    121.3426
   830.2500      0.0000    568.2711     14.0514    116.2939
   830.5000      0.0000    552.6212     13.9123    111.1514
   830.7500      0.0000    570.2959     13.7240    107.7448
   831.0000      0.0000    605.7583     13.5432    106.3087
   831.2500      0.0000    636.1438     13.3982    105.9402
   831.5000      0.0000    653.8582     13.2868    105.7280
   831.7500      0.0000    663.4543     13.2217    105.4551
   832.0000      0.0000    668.7375     13.2162    105.4013
   832.2500      0.0000    671.0139     13.2511    105.6336
   832.5000      0.0000    671.3975     13.2997    105.6296
   832.7500      0.0000    670.0159     13.3568    104.5362
   833.0000      0.0000    665.4071     13.4152    101.7239
   833.2500      0.0000    657.1669     13.4601     97.3153
   833.5000      0.0000    649.6179     13.4996     92.3422
   833.7500      0.0000    648.8809     13.5582     88.1605
   834.0000      0.0000    653.8183     13.6330     85.5592
   834.2500      0.0000    653.6671     13.6877     84.6496
   834.5000      0.0000    637.2748     13.6962     85.4728
   834.7500      0.0000    609.1619     13.6617     88.1829
   835.0000      0.0000    594.5743     13.5933     92.6204
   835.2500      0.0000    610.4485     13.5054     98.0175
   835.5000      0.0000    640.8492     13.4250    103.1099
   835.7500      0.0000    662.3184     13.3650    106.5189
   836.0000      0.0000    670.5680     13.3075    107.4811
   836.2500      0.0000    672.3685     13.2330    106.4365
   836.5000      0.0000    672.9026     13.1517    104.6447
   836.7500      0.0000    674.4594     13.0795    103.1715
   837.0000      0.0000    678.2700     12.9988    102.4287
   837.2500      0.0000    684.1899     12.8816    102.4478
