~Version Information
VERS.                      2.0: CWLS Log ASCII Standard - VERSION 2.0
WRAP.                       NO: One line per depth step
~Well Information Block
STRT.FT                -8.7500: 
STOP.FT              1525.0000: 
STEP.FT                 0.2500: 
NULL.                -999.2500: 
COMP.          Pioneer Natural Resources: COMPANY
WELL.          Grand Prix 13-12 Tr: WELL
FLD.           Purgatorie River: FIELD
LOC.           2595' FSL & 1277' FWL--: LOCATION
CNTY.               Las Animas: COUNTY
SRVC.          Patterson Wireline: SERVICE COMPANY
DATE.          Thu Apr 13 10:28:30 2006: LOG DATE
UWI.           05 071 08711 00: UNIQUE WELL ID
STAT.                       CO: STATE
~Curve Information Block
DEPT.FT            0 000 00 00: Depth
CCL.                          : Casing Collar Locator
TT3.usec                      : CBL 3' Travel Time
AMP3.mV                       : CBL 3' Amplitude
GR.GAPI                       : Gamma Ray
~Parameter Information Block
~A  Depth       CCL         TT3         AMP3         GR     
# ...
  1398.2500      0.0000    351.7628      2.9187    103.8515
  1398.5000      0.0000    354.6375      2.8580    108.7648
  1398.7500      0.0000    360.0051      2.7983    116.4501
  1399.0000      0.0000    369.6707      2.7587    126.9429
  1399.2500      0.0000    386.3148      2.7473    139.2172
  1399.5000      0.0000    413.0466      2.7577    150.9714
  1399.7500      0.0000    451.7171      2.7736    159.8108
  1400.0000      0.0000    500.1018      2.7781    164.7287
  1400.2500      0.0000    550.5155      2.7627    166.5579
  1400.5000      0.0000    592.4323      2.7311    167.3373
  1400.7500      0.0000    617.1794      2.6968    168.8135
  1401.0000      0.0000    620.9001      2.6738    170.6331
  1401.2500      0.0000    605.4951      2.6676    170.1618
  1401.5000      0.0000    578.2332      2.6743    165.1170
  1401.7500      0.0000    548.1760      2.6883    156.4302
  1402.0000      0.0000    520.1802      2.7074    147.7090
  1402.2500      0.0000    492.8098      2.7277    141.8866
  1402.5000      0.0000    463.1179      2.7397    139.1587
  1402.7500      0.0000    432.0756      2.7324    138.0108
  1403.0000      0.0000    404.1784      2.7029    137.2722
  1403.2500      0.0000    383.1977      2.6614    136.7925
  1403.5000      0.0000    369.6311      2.6263    136.6408
  1403.7500      0.0000    361.5643      2.6149    136.3570
  1404.0000      0.0000    356.7321      2.6337    135.3824
  1404.2500      0.0000    353.6621      2.6746    133.9824
  1404.5000      0.0000    351.6674      2.7216    133.1418
  1404.7500      0.0000    350.4125      2.7621    133.3793
  1405.0000      0.0000    349.6465      2.7938    134.0897
  1405.2500      0.0000    349.1761      2.8221    134.2118
  1405.5000      0.0000    348.9713      2.8512    133.2379
  1405.7500      0.0000    349.3108      2.8765    131.6006
  1406.0000      0.0000    350.8817      2.8876    130.4306
  1406.2500      0.0000    354.7068      2.8782    130.8548
  1406.5000      0.0000    361.7083      2.8519    133.2232
  1406.7500      0.0000    371.9491      2.8188    137.0670
  1407.0000      0.0000    384.1251      2.7880    141.7714
  1407.2500      0.0000    395.9472      2.7657    146.9203
  1407.5000      0.0000    405.1514      2.7566    152.0055
  1407.7500      0.0000    410.2407      2.7644    156.3886
  1408.0000      0.0000    410.7035      2.7899    159.8060
  1408.2500      0.0000    407.1430      2.8294    162.4120
  1408.5000      0.0000    401.2855      2.8769    163.9691
  1408.7500      0.0000    395.3416      2.9256    163.4807
  1409.0000      0.0000    390.9002      2.9696    160.2934
  1409.2500      0.0000    388.3475      3.0053    155.5449
  1409.5000      0.0000    387.2907      3.0308    151.9724
  1409.7500      0.0000    387.4398      3.0445    151.9316
  1410.0000      0.0000    389.1358      3.0427    155.5396
  1410.2500      0.0000    393.0531      3.0202    160.5808
  1410.5000      0.0000    399.2462      2.9746    163.9053
  1410.7500      0.0000    406.4471      2.9119    163.3349
  1411.0000      0.0000    412.6141      2.8484    159.2023
  1411.2500      0.0000    416.5230      2.8040    154.3333
  1411.5000      0.0000    418.8487      2.7921    151.9372
  1411.7500      0.0000    421.6844      2.8109    153.2491
  1412.0000      0.0000    427.3100      2.8451    157.2649
  1412.2500      0.0000    438.0617      2.8752    162.3897
  1412.5000      0.0000    457.2379      2.8882    167.8719
  1412.7500      0.0000    488.2591      2.8815    173.6111
  1413.0000      0.0000    530.7889      2.8601    179.1414
  1413.2500      0.0000    577.8776      2.8335    183.4456
  1413.5000      0.0000    619.0573      2.8131    185.6642
  1413.7500      0.0000    647.2656      2.8088    185.4999
  1414.0000      0.0000    662.3549      2.8248    183.0078
  1414.2500      0.0000    668.6281      2.8562    178.4985
  1414.5000      0.0000    670.6031      2.8897    172.6678
  1414.7500      0.0000    671.0071      2.9098    166.5828
  1415.0000      0.0000    671.0081      2.9073    161.5543
  1415.2500      0.0000    670.9983      2.8850    158.9999
  1415.5000      0.0000    671.0702      2.8547    159.9098
  1415.7500      0.0000    671.2101      2.8286    164.0607
  1416.0000      0.0000    671.3944      2.8109    169.8173
  1416.2500      0.0000    671.6860      2.7962    174.9757
  1416.5000      0.0000    672.2753      2.7754    178.0097
  1416.7500      0.0000    673.3886      2.7474    178.5837
  1417.0000      0.0000    675.0065      2.7266    176.9684
  1417.2500      0.0000    676.5836      2.7324    173.2837
  1417.5000      0.0000    677.2424      2.7687    167.5042
  1417.7500      0.0000    676.5069      2.8163    159.8521
  1418.0000      0.0000    674.7836      2.8503    150.8671
  1418.2500      0.0000    672.9233      2.8594    141.2782
  1418.5000      0.0000    671.3758      2.8450    131.7787
  1418.7500      0.0000    669.7790      2.8048    122.6372
  1419.0000      0.0000    667.1886      2.7284    113.7376
  1419.2500      0.0000    662.5828      2.6144    105.4044
  1419.5000      0.0000    655.3143      2.4930     98.8239
  1419.7500      0.0000    645.1985      2.4180     95.1210
  1420.0000      0.0000    632.8381      2.4245     94.3429
  1420.2500      0.0000    620.9936      2.4995     95.9361
  1420.5000      0.0000    615.1777      2.6043     99.9241
  1420.7500      0.0000    620.2648      2.7153    107.1025
  1421.0000      0.0000    635.2927      2.8308    118.1446
  1421.2500      2.0000    653.5762      2.9493    132.6466
  1421.5000     -2.0000    668.8030      3.0578    148.6488
  1421.7500      0.0000    678.9830      3.1401    162.8427
  1422.0000      0.0000    684.4703      3.1901    171.8676
  1422.2500      0.0000    685.4188      3.2129    174.4697
  1422.5000      0.0000    682.5999      3.2073    172.8769
  1422.7500      0.0000    678.5121      3.1511    171.4714
  1423.0000      0.0000    675.9073      3.0243    173.1892
  1423.2500      0.0000    675.8610      2.8568    176.9166
  1423.5000      0.0000    677.9707      2.7265    178.8009
  1423.7500      0.0000    681.5287      2.6952    176.4547
  1424.0000      0.0000    685.9879      2.7585    171.5962
  1424.2500      0.0000    690.8341      2.8649    168.2439
  1424.5000      0.0000    695.4617      2.9639    168.6334
  1424.7500      0.0000    699.2205      3.0297    171.3191
  1425.0000      0.0000    701.6767      3.0579    173.0195
  1425.2500      0.0000    702.8815      3.0539    171.6531
  1425.5000      0.0000    703.2628      3.0261    167.2568
  1425.7500      0.0000    703.2218      2.9836    160.6278
  1426.0000      0.0000    702.6688      2.9342    152.2889
  1426.2500      0.0000    700.4161      2.8824    143.0415
  1426.5000      0.0000    693.3149      2.8308    134.6027
  1426.7500      0.0000    676.2152      2.7870    128.8464
  1427.0000      0.0000    644.7341      2.7659    126.4426
  1427.2500      0.0000    600.6392      2.7816    126.4729
  1427.5000      0.0000    554.2069      2.8338    127.4292
  1427.7500      0.0000    517.7968      2.9029    128.6876
  1428.0000      0.0000    495.2472      2.9595    130.8403
  1428.2500      0.0000    479.5365      2.9794    134.2715
  1428.5000      0.0000    461.7409      2.9554    137.7433
  1428.7500      0.0000    439.6790      2.8994    139.1133
  1429.0000      0.0000    417.0129      2.8316    137.4310
  1429.2500      0.0000    397.5374      2.7696    133.6868
  1429.5000      0.0000    382.7654      2.7254    129.3936
  1429.7500      0.0000    373.0700      2.7099    125.1459
  1430.0000      0.0000    368.6763      2.7301    120.8946
  1430.2500      0.0000    369.4382      2.7808    116.8740
  1430.5000      0.0000    374.3126      2.8442    113.6471
  1430.7500      0.0000    381.3245      2.9024    111.6564
  1431.0000      0.0000    388.1961      2.9467    111.1540
  1431.2500      0.0000    393.3055      2.9767    112.0281
  1431.5000      0.0000    396.0887      2.9921    113.3202
