~Version Information
 VERS.                                  2.0 : CWLS LAS VERSION
 WRAP.                                   NO : WRAPING MODE
 SWARE .                 MController 2.5.0N : SOFTWARE VERSION
~Well Information
 WELL.                         Mahalo 12-20 : WELL
 COMP.    Pioneer Natural Resources USA Inc : COMPANY
 FLD.                      Purgatoire River : FIELD
 LOC.                  SWNW Sec20 T33S R65W : LOCATION
 DATE.                             02/23/06 : DATE(S) LOGGED
 SRVC.       Blanco Geological Services LLC : SERVICE COMPANY
 STAT.                             Colorado : STATE
 CNTY.                           Las Animas : COUNTY
 CTRY.                                  USA : COUNTRY
 API.                       05-071-08700-00 : API NUMBER
 STRT.FT                             198.00 : START DEPTH
 STOP.FT                            1220.00 : STOP DEPTH
 STEP.FT                               1.00 : DEPTH INCREMENT
 NULL.                                -9999 : NULL VALUE
~Curve information
 DEPTH.FT                                   :
 ROP.MIN/FT                                 :
 GAS.UNITS                                  :
~ASCII Log data
# ...
       998.0         0.17         65.3 
       999.0         0.20         65.3 
      1000.0         0.27         65.2 
      1001.0         0.28         64.8 
      1002.0         0.30         65.1 
      1003.0         0.23         62.3 
      1004.0         0.27         62.5 
      1005.0         0.20         62.5 
      1006.0         0.23         60.6 
      1007.0         0.20         63.2 
      1008.0         0.20         62.1 
      1009.0         0.23         63.6 
      1010.0         0.23         59.9 
      1011.0         5.07       1634.5 
      1012.0         0.60        151.0 
      1013.0         0.40        128.1 
      1014.0         0.33        131.3 
      1015.0         0.23        117.3 
      1016.0         0.23        103.7 
      1017.0         0.27         97.7 
      1018.0         0.27         97.9 
      1019.0         0.30         96.3 
      1020.0         0.22         93.5 
      1021.0         0.17         87.4 
      1022.0         0.20         82.0 
      1023.0         0.23         78.7 
      1024.0         0.17         81.2 
      1025.0         0.17         80.4 
      1026.0         0.17         74.3 
      1027.0         0.17         73.3 
      1028.0         0.20         83.1 
      1029.0         0.20        101.1 
      1030.0         0.17        123.0 
      1031.0         0.23        128.9 
      1032.0         0.20        133.9 
      1033.0         0.20        142.6 
      1034.0         0.23        150.7 
      1035.0         0.23        154.0 
      1036.0         0.27        145.1 
      1037.0         0.22        134.8 
      1038.0         0.20        130.3 
      1039.0         0.17        126.5 
      1040.0         0.27        115.3 
      1041.0         4.65       1276.1 
      1042.0         0.47        146.9 
      1043.0         0.47        144.1 
      1044.0         0.27        128.1 
      1045.0         0.28        121.4 
      1046.0         0.37        114.7 
      1047.0         0.27        102.5 
      1048.0         0.13        100.1 
      1049.0         0.13        100.1 
      1050.0         0.17        101.9 
      1051.0         0.23        106.0 
      1052.0         0.23        106.3 
      1053.0         0.20        104.1 
      1054.0         0.23        102.0 
      1055.0         0.23         96.6 
      1056.0         0.23         91.9 
      1057.0         0.27         82.1 
      1058.0         0.13         75.8 
      1059.0         0.17         73.2 
      1060.0         0.22         73.5 
      1061.0         0.27         77.8 
      1062.0         0.27         79.2 
      1063.0         0.23         78.0 
      1064.0         0.23         73.4 
      1065.0         0.23         72.0 
      1066.0         0.27         67.8 
      1067.0         0.23         68.9 
      1068.0         0.27         69.5 
      1069.0         0.23         69.5 
      1070.0         0.27         68.8 
      1071.0         4.33        855.9 
      1072.0         0.57        208.4 
      1073.0         0.53        194.0 
      1074.0         0.53        202.4 
      1075.0         0.57        154.5 
      1076.0         0.40        128.2 
      1077.0         0.40        112.2 
      1078.0         0.55        102.7 
      1079.0         0.63         89.8 
      1080.0         0.60         82.7 
      1081.0         0.60         83.5 
      1082.0         0.50         78.7 
      1083.0         0.37         80.0 
      1084.0         0.25         82.8 
      1085.0         0.30         81.0 
      1086.0         0.30         78.5 
      1087.0         0.37         77.3 
      1088.0         0.40         75.9 
      1089.0         0.40         77.3 
      1090.0         0.37         88.9 
      1091.0         0.37        141.5 
      1092.0         0.40        172.2 
      1093.0         0.37        154.2 
      1094.0         0.42        137.4 
      1095.0         0.43        127.0 
      1096.0         0.43        123.6 
      1097.0         0.53        119.2 
      1098.0         0.50        121.9 
      1099.0         0.30         94.4 
      1100.0         0.37         83.4 
      1101.0         4.13       1018.3 
      1102.0         0.23        488.7 
      1103.0         0.27        567.5 
      1104.0         0.30       1399.7 
      1105.0         0.30       1541.9 
      1106.0         0.23       1583.7 
      1107.0         0.23       1518.0 
      1108.0         0.23       1452.9 
      1109.0         0.30       1422.9 
      1110.0         0.43       1701.2 
      1111.0         0.42       1808.0 
      1112.0         0.33       1942.1 
      1113.0         0.23       1942.1 
      1114.0         0.40       1968.1 
      1115.0         0.50       1832.0 
      1116.0         0.40       1701.9 
      1117.0         0.43       1670.9 
      1118.0         0.43       1517.6 
      1119.0         0.43       1356.9 
      1120.0         0.45       1232.3 
      1121.0         0.27       1215.7 
      1122.0         0.27       1098.5 
      1123.0         0.40       1129.8 
      1124.0         0.43        974.5 
      1125.0         0.47        876.8 
      1126.0         0.47        824.6 
      1127.0         0.47        799.0 
      1128.0         0.55        792.6 
      1129.0         0.60        770.7 
      1130.0         0.57        703.0 
      1131.0         6.37       4624.6 
      1132.0         0.63        558.4 
      1133.0         0.63        510.2 
      1134.0         0.53        476.2 
      1135.0         0.55        466.5 
      1136.0         0.53        459.4 
      1137.0         0.40        449.6 
      1138.0         0.50        457.4 
      1139.0         0.53        459.4 
      1140.0         0.60        206.5 
      1141.0         0.57        195.4 
      1142.0         0.52        201.2 
      1143.0         0.50        204.1 
      1144.0         0.50        185.5 
      1145.0         0.53        166.2 
      1146.0         0.50        167.1 
      1147.0         0.50        161.6 
      1148.0         0.48        159.4 
      1149.0         0.47        173.4 
      1150.0         0.47        177.9 
      1151.0         0.43        178.4 
      1152.0         0.47        183.7 
      1153.0         0.43        177.8 
      1154.0         0.43        174.9 
      1155.0         0.43        172.5 
      1156.0         0.45        172.4 
      1157.0         0.43        167.7 
      1158.0         0.43        162.6 
      1159.0         0.50        169.5 
      1160.0         0.47        162.1 
      1161.0         5.63       1171.3 
      1162.0         0.17        145.9 
      1163.0         0.20        142.7 
      1164.0         0.20        142.1 
      1165.0         0.37        143.0 
      1166.0         0.33        149.4 
      1167.0         0.30        152.8 
      1168.0         0.30        152.6 
      1169.0         0.32        148.1 
      1170.0         0.30        145.6 
      1171.0         0.23        145.7 
      1172.0         0.13        145.7 
      1173.0         0.13        141.9 
      1174.0         0.23        141.9 
      1175.0         0.27        141.3 
      1176.0         0.27        146.9 
      1177.0         0.30        149.7 
      1178.0         0.30        149.6 
      1179.0         0.27        148.8 
      1180.0         0.30        152.4 
      1181.0         0.33        131.7 
      1182.0         0.45        129.5 
      1183.0         0.67        142.6 
      1184.0         0.63        127.8 
      1185.0         1.73        176.6 
      1186.0         0.72        175.0 
      1187.0         0.90        175.7 
      1188.0         1.37        196.2 
      1189.0         1.02        130.1 
      1190.0         0.90        149.6 
      1191.0         9.18       2056.7 
      1192.0         1.00        177.9 
      1193.0         1.27        128.6 
      1194.0         0.68        157.7 
      1195.0         0.67        136.1 
      1196.0         0.67        139.7 
      1197.0         1.50        225.3 
