~Version Information
VERS.                      2.0: CWLS Log ASCII Standard - VERSION 2.0
WRAP.                       NO: One line per depth step
~Well Information Block
STRT.FT                65.0000: 
STOP.FT               998.0000: 
STEP.FT                 0.2500: 
NULL.                -999.2500: 
COMP.          Pioneer Natural Resources: COMPANY
WELL.              Gough 14-29: WELL
FLD.           Purgatorie River: FIELD
LOC.           1199' FSL & 676' FWL: LOCATION
PROV.                 Colorado: PROVINCE
CNTY.               Las Animas: COUNTRY
SRVC.                Patterson: SERVICE COMPANY
DATE.          Wed Dec 28 08:38:26 2005: LOG DATE
UWI.                          : UNIQUE WELL ID
~Curve Information Block
DEPT.FT            0 000 00 00: Depth
CCL.                          : Casing Collar Locator
TT3.usec                      : CBL 3' Travel Time
AMP3.mV                       : CBL 3' Amplitude
GR.GAPI                       : Gamma Ray
~Parameter Information Block
~A  Depth       CCL         TT3         AMP3         GR     
# ...
   299.5000      0.0000    267.2090     52.6203    117.0143
   299.7500      0.0000    267.4298     52.5046    109.2566
   300.0000     -2.0000    267.5011     52.7959    103.7961
   300.2500      2.0000    267.7273     52.9517    101.2720
   300.5000      0.0000    268.7807     52.7531    101.0937
   300.7500      0.0000    271.5792     52.0845    102.3927
   301.0000      0.0000    275.4705     52.1782    104.7006
   301.2500      0.0000    277.0694     55.6857    107.7765
   301.5000      0.0000    274.0154     62.9622    111.1204
   301.7500      0.0000    268.5374     70.3281    114.0815
   302.0000      0.0000    264.0846     74.6974    116.3569
   302.2500      0.0000    261.5759     76.4263    117.9379
   302.5000      0.0000    260.3779     76.9198    118.6046
   302.7500      0.0000    259.8807     76.9129    117.8559
   303.0000      0.0000    259.7059     76.7696    115.3012
   303.2500      0.0000    259.6451     76.6855    110.9219
   303.5000      0.0000    259.6206     76.6622    105.2456
   303.7500      0.0000    259.6111     76.6452     99.5126
   304.0000      0.0000    259.6081     76.6384     95.3492
   304.2500      0.0000    259.6071     76.6615     93.8533
   304.5000      0.0000    259.6089     76.6963     94.8286
   304.7500      0.0000    259.6150     76.7156     96.6169
   305.0000      0.0000    259.6183     76.7148     96.6804
   305.2500      0.0000    259.6077     76.7152     93.1043
   305.5000      0.0000    259.5821     76.7572     86.1836
   305.7500      0.0000    259.5618     76.8280     78.4795
   306.0000      0.0000    259.5735     76.8437     73.0937
   306.2500      0.0000    259.6176     76.7778     71.8632
   306.5000      0.0000    259.6648     76.7104     75.0159
   306.7500      0.0000    259.6876     76.7129     81.9326
   307.0000      0.0000    259.6793     76.7661     91.7546
   307.2500      0.0000    259.6516     76.8033    103.2290
   307.5000      0.0000    259.6249     76.7994    114.2186
   307.7500      0.0000    259.6130     76.7868    121.8504
   308.0000      0.0000    259.6161     76.7831    123.9730
   308.2500      0.0000    259.6259     76.7560    120.8857
   308.5000      0.0000    259.6337     76.6906    115.3213
   308.7500      0.0000    259.6385     76.6275    110.5228
   309.0000      0.0000    259.6426     76.5905    108.4714
   309.2500      0.0000    259.6474     76.5569    109.5509
   309.5000      0.0000    259.6530     76.5296    113.0896
   309.7500      0.0000    259.6559     76.5433    117.8253
   310.0000      0.0000    259.6546     76.5930    122.0428
   310.2500      0.0000    259.6554     76.6492    123.8606
   310.5000      0.0000    259.6635     76.7170    121.9419
   310.7500      0.0000    259.6727     76.7960    115.9741
   311.0000      0.0000    259.6729     76.8368    106.4615
   311.2500      0.0000    259.6658     76.8069     94.3850
   311.5000      0.0000    259.6621     76.7482     81.1620
   311.7500      0.0000    259.6636     76.7252     68.5583
   312.0000      0.0000    259.6650     76.7488     58.1442
   312.2500      0.0000    259.6684     76.7763     50.6565
   312.5000      0.0000    259.6749     76.7644     46.0078
   312.7500      0.0000    259.6742     76.7195     44.0336
   313.0000      0.0000    259.6615     76.6825     45.0789
   313.2500      0.0000    259.6487     76.6650     49.7627
   313.5000      0.0000    259.6436     76.6569     58.4931
   313.7500      0.0000    259.6379     76.6706     71.2820
   314.0000      0.0000    259.6266     76.7080     87.5263
   314.2500      0.0000    259.6231     76.7268    105.6895
   314.5000      0.0000    259.6414     76.7045    123.6641
   314.7500      0.0000    259.6739     76.6789    139.5297
   315.0000      0.0000    259.7023     76.6764    151.3958
   315.2500      0.0000    259.7208     76.6745    156.7403
   315.5000      0.0000    259.7351     76.6700    153.3162
   315.7500      0.0000    259.7471     76.6935    141.4324
   316.0000      0.0000    259.7523     76.7397    124.5089
   316.2500      0.0000    259.7497     76.7817    106.8850
   316.5000      0.0000    259.7458     76.8418     91.7180
   316.7500      0.0000    259.7453     76.9499     80.9662
   317.0000      0.0000    259.7430     77.0488     76.0754
   317.2500      0.0000    259.7339     77.0335     77.9266
   317.5000      0.0000    259.7256     76.8861     86.4256
   317.7500      0.0000    259.7288     76.6977    100.1862
   318.0000      0.0000    259.7393     76.5688    116.4550
   318.2500      0.0000    259.7469     76.5391    131.7114
   318.5000      0.0000    259.7523     76.5870    143.0477
   318.7500      0.0000    259.7606     76.6697    149.3363
   319.0000      0.0000    259.7676     76.7687    151.2117
   319.2500      0.0000    259.7640     76.8792    149.8772
   319.5000      0.0000    259.7494     76.9624    145.8340
   319.7500      0.0000    259.7309     76.9772    138.9697
   320.0000      0.0000    259.7155     76.9541    130.1008
   320.2500      0.0000    259.7111     76.9501    121.8178
   320.5000      0.0000    259.7209     76.9472    116.8985
   320.7500      0.0000    259.7356     76.9031    115.9266
   321.0000      0.0000    259.7446     76.8630    117.1066
   321.2500      0.0000    259.7412     76.8799    118.3978
   321.5000      0.0000    259.7229     76.8835    119.2654
   321.7500      0.0000    259.7014     76.7982    120.4033
   322.0000      0.0000    259.6916     76.6923    122.4563
   322.2500      0.0000    259.6883     76.6576    125.3482
   322.5000      0.0000    259.6779     76.6614    128.5270
   322.7500      0.0000    259.6586     76.6295    131.4108
   323.0000      0.0000    259.6342     76.5727    133.6489
   323.2500      0.0000    259.6095     76.5518    135.2370
   323.5000      0.0000    259.5961     76.5812    136.3152
   323.7500      0.0000    259.6022     76.6180    136.7086
   324.0000      0.0000    259.6200     76.6108    135.9492
   324.2500      0.0000    259.6403     76.5495    133.9254
   324.5000      0.0000    259.6653     76.4940    131.3071
   324.7500      0.0000    259.6926     76.5230    129.1995
   325.0000      0.0000    259.7064     76.6324    128.4750
   325.2500      0.0000    259.6941     76.7398    129.4115
   325.5000      0.0000    259.6616     76.7923    131.7236
   325.7500      0.0000    259.6277     76.8065    134.7071
   326.0000      0.0000    259.6033     76.8133    137.3042
   326.2500      0.0000    259.5854     76.8075    138.5718
   326.5000      0.0000    259.5750     76.7582    138.6452
   326.7500      0.0000    259.5774     76.6634    139.0264
   327.0000      0.0000    259.5874     76.5686    141.3684
   327.2500      0.0000    259.5953     76.5093    145.8502
   327.5000      0.0000    259.6029     76.4637    150.9305
   327.7500      0.0000    259.6165     76.4033    154.7557
   328.0000      0.0000    259.6315     76.3566    156.7479
   328.2500      0.0000    259.6381     76.3660    157.6975
   328.5000      0.0000    259.6316     76.4226    158.4574
   328.7500      0.0000    259.6143     76.4831    158.9861
   329.0000      0.0000    259.6011     76.5168    158.7740
   329.2500      0.0000    259.6057     76.5269    157.7252
   329.5000      0.0000    259.6183     76.5354    156.2072
   329.7500      0.0000    259.6205     76.5511    154.3730
   330.0000      0.0000    259.6145     76.5531    151.6191
   330.2500      0.0000    259.6163     76.4958    146.6889
   330.5000      0.0000    259.6299     76.3613    138.5266
   330.7500      0.0000    259.6471     76.2071    127.7286
   331.0000      0.0000    259.6593     76.1272    117.4039
   331.2500      0.0000    259.6588     76.1623    111.8952
   331.5000      0.0000    259.6402     76.2591    113.7218
   331.7500      0.0000    259.6066     76.3241    121.3728
   332.0000      0.0000    259.5726     76.3161    130.2872
   332.2500      0.0000    259.5469     76.2844    136.3579
   332.5000      0.0000    259.5209     76.2959    138.7067
   332.7500      0.0000    259.4970     76.3104    139.2105
