~Version Information
VERS.                      2.0: CWLS Log ASCII Standard - VERSION 2.0
WRAP.                       NO: One line per depth step
~Well Information Block
STRT.FT               294.3000: 
STOP.FT              1461.0000: 
STEP.FT                 0.1000: 
NULL.                -999.2500: 
COMP.          Pioneer Natural Resources: COMPANY
WELL.              Lucky 21-36: WELL
FLD.           Purgatoire River: FIELD
CDN. :
PROV. :
UWI. :
STAT. :
CNTY. :
CTRY. :
API. :
COMP. :
WELL. :
FLD. :
LOC. :
DATE. :
SRVC. :
LOC.           799' FNL & 1578' FWL--: LOCATION
CNTY.               Las Animas: COUNTY
SRVC.          Superior Well Services: SERVICE COMPANY
DATE.          Tue Jul 08 08-29-33 2008: LOG DATE
UWI.           05 071 08456 00: UNIQUE WELL ID
STAT.                 Colorado: STATE
~Curve Information Block
DEPT.FT            0 000 00 00: Depth
DCAL.in                       : CDL Caliper
RHOB.g/cc                     : CDL Bulk Density
RHOC.g/cc                     : CDL Density Correction
DPOR.pu                       : CDL Density Porosity
NPOR.pu                       : Neutron Porosity
GR.GAPI                       : Gamma Ray
~Parameter Information Block
~A  Depth       DCAL        RHOB        RHOC        DPOR        NPOR         GR     
# ...
   303.9000   -999.2500   -999.2500   -999.2500   -999.2500     38.9049     77.2572
   304.0000   -999.2500   -999.2500   -999.2500   -999.2500     38.4776     75.1083
   304.1000   -999.2500   -999.2500   -999.2500   -999.2500     38.4745     72.6314
   304.2000   -999.2500   -999.2500   -999.2500   -999.2500     38.9095     72.8057
   304.3000   -999.2500   -999.2500   -999.2500   -999.2500     39.4937     72.1033
   304.4000   -999.2500   -999.2500   -999.2500   -999.2500     39.7414     71.6822
   304.5000   -999.2500   -999.2500   -999.2500   -999.2500     39.6890     73.1319
   304.6000   -999.2500   -999.2500   -999.2500   -999.2500     39.8305     72.5240
   304.7000   -999.2500   -999.2500   -999.2500   -999.2500     40.1453     68.2626
   304.8000   -999.2500   -999.2500   -999.2500   -999.2500     40.2783     65.5761
   304.9000   -999.2500   -999.2500   -999.2500   -999.2500     40.0578     68.1958
   305.0000   -999.2500   -999.2500   -999.2500   -999.2500     39.5213     73.9648
   305.1000   -999.2500   -999.2500   -999.2500   -999.2500     38.9013     77.9320
   305.2000   -999.2500   -999.2500   -999.2500   -999.2500     38.4732     75.8126
   305.3000   -999.2500   -999.2500   -999.2500   -999.2500     38.3412     70.2965
   305.4000   -999.2500   -999.2500   -999.2500   -999.2500     38.3150     67.8443
   305.5000   -999.2500   -999.2500   -999.2500   -999.2500     38.1212     69.8897
   305.6000   -999.2500   -999.2500   -999.2500   -999.2500     37.9449     73.3682
   305.7000   -999.2500   -999.2500   -999.2500   -999.2500     38.1562     74.6208
   305.8000   -999.2500   -999.2500   -999.2500   -999.2500     38.5479     74.4860
   305.9000   -999.2500   -999.2500   -999.2500   -999.2500     38.8115     76.7369
   306.0000   -999.2500   -999.2500   -999.2500   -999.2500     39.0307     79.7851
   306.1000   -999.2500   -999.2500   -999.2500   -999.2500     39.3055     81.4133
   306.2000   -999.2500   -999.2500   -999.2500   -999.2500     39.4992     83.0296
   306.3000   -999.2500   -999.2500   -999.2500   -999.2500     39.5452     82.9360
   306.4000   -999.2500   -999.2500   -999.2500   -999.2500     39.6293     80.7322
   306.5000   -999.2500   -999.2500   -999.2500   -999.2500     39.8374     78.1106
   306.6000   -999.2500   -999.2500   -999.2500   -999.2500     40.0924     75.6941
   306.7000   -999.2500   -999.2500   -999.2500   -999.2500     40.3270     75.0153
   306.8000   -999.2500   -999.2500   -999.2500   -999.2500     40.5514     74.9817
   306.9000   -999.2500   -999.2500   -999.2500   -999.2500     40.7697     73.6786
   307.0000   -999.2500   -999.2500   -999.2500   -999.2500     40.9396     73.0399
   307.1000   -999.2500   -999.2500   -999.2500   -999.2500     41.0440     76.1452
   307.2000   -999.2500   -999.2500   -999.2500   -999.2500     40.9497     82.2584
   307.3000   -999.2500   -999.2500   -999.2500   -999.2500     40.5256     85.2761
   307.4000   -999.2500   -999.2500   -999.2500   -999.2500     39.9582     83.9599
   307.5000   -999.2500   -999.2500   -999.2500   -999.2500     39.7213     82.7832
   307.6000   -999.2500   -999.2500   -999.2500   -999.2500     40.0239     82.1079
   307.7000   -999.2500   -999.2500   -999.2500   -999.2500     40.3719     80.8522
   307.8000   -999.2500   -999.2500   -999.2500   -999.2500     40.2653     79.1765
   307.9000   -999.2500   -999.2500     -0.2911   -999.2500     40.0034     76.5210
   308.0000   -999.2500   -999.2500     -0.2591   -999.2500     40.0291     74.8162
   308.1000   -999.2500   -999.2500     -0.2132   -999.2500     40.1545     77.9079
   308.2000   -999.2500   -999.2500     -0.2912   -999.2500     40.0063     83.4498
   308.3000   -999.2500   -999.2500     -0.2853   -999.2500     39.4689     84.5837
   308.4000      8.0984      2.3286     -0.2286     19.4788     38.7289     81.5015
   308.5000      8.0978      2.3288     -0.2994     19.4669     38.3313     79.5976
   308.6000      8.0975      2.3428     -0.2937     18.6186     38.5109     81.3273
   308.7000      8.0973      2.3862     -0.2362     15.9855     38.7876     84.2437
   308.8000      8.0974      2.4332     -0.1859     13.1367     38.7239     83.3501
   308.9000      8.0977      2.4485     -0.1479     12.2099     38.3932     79.6745
   309.0000      8.0981      2.4435     -0.2862     12.5155     38.0832     77.2788
   309.1000      8.0986      2.4585     -0.2369     11.6043     38.0859     74.4780
   309.2000      8.0991      2.4955     -0.2132      9.3633     38.3577     69.7218
   309.3000      8.0993      2.5313     -0.2337      7.1957     38.5366     64.9985
   309.4000      8.0992      2.5753     -0.2400      4.5273     38.6495     61.7991
   309.5000      8.0987      2.6465     -0.1310      0.2098     38.9516     59.7712
   309.6000      8.0975      2.7184     -0.1195     -4.1471     39.2840     59.7096
   309.7000      8.0959      2.7589     -0.1576     -6.6013     39.5141     63.6765
   309.8000      8.0939      2.7623     -0.0885     -6.8057     39.7832     70.6897
   309.9000      8.0921      2.7274     -0.1710     -4.6899     39.9736     74.1843
   310.0000      8.0906      2.6715     -0.1900     -1.3003     39.8371     70.9914
   310.1000      8.0895      2.6219     -0.2678      1.7025     39.5229     67.1262
   310.2000      8.0889      2.5860     -0.2394      3.8805     39.3912     65.9547
   310.3000      8.0888      2.5469     -0.2314      6.2470     39.5012     66.8932
   310.4000      8.0891      2.4960     -0.2316      9.3332     39.5614     70.3975
   310.5000      8.0896      2.4484     -0.2700     12.2176     39.3949     73.6152
   310.6000      8.0905      2.4263     -0.2887     13.5550     39.1229     73.3413
   310.7000      8.0918      2.4323     -0.2286     13.1964     39.0489     73.0049
   310.8000      8.0934      2.4436     -0.2031     12.5074     39.3423     76.0718
   310.9000      8.0953      2.4431     -0.1970     12.5373     39.7286     79.8592
   311.0000      8.0971      2.4327     -0.2291     13.1688     39.8759     80.7641
   311.1000      8.0985      2.4229     -0.2563     13.7610     39.8554     79.9217
   311.2000      8.0994      2.4181     -0.2393     14.0527     39.7495     80.6267
   311.3000      8.0999      2.4121     -0.2127     14.4212     39.4978     82.5626
   311.4000      8.1005      2.4021     -0.2413     15.0215     39.3024     84.3678
   311.5000      8.1013      2.3905     -0.2535     15.7279     39.3570     85.4186
   311.6000      8.1022      2.3760     -0.2209     16.6066     39.4235     84.1422
   311.7000      8.1028      2.3669     -0.2941     17.1565     39.2985     80.4765
   311.8000      8.1026      2.3847     -0.2891     16.0801     39.1497     76.2415
   311.9000      8.1014      2.4257     -0.2035     13.5914     39.2367     72.3431
   312.0000      8.0995      2.4514     -0.1771     12.0342     39.4854     68.5623
   312.1000      8.0975      2.4408     -0.2057     12.6801     39.5291     66.2860
   312.2000      8.0962      2.4137     -0.2566     14.3215     39.2895     67.3205
   312.3000      8.0962      2.3926     -0.2337     15.6006     39.1500     68.8855
   312.4000      8.0974      2.3793     -0.2527     16.4079     39.3555     68.1317
   312.5000      8.0992      2.3729     -0.2542     16.7939     39.7284     67.9750
   312.6000      8.1011      2.3748     -0.2674     16.6790     40.0524     70.7225
   312.7000      8.1025      2.3747     -0.2053     16.6858     40.3178     74.6816
   312.8000      8.1030      2.3660     -0.2745     17.2109     40.5746     77.0452
   312.9000      8.1029      2.3648     -0.2946     17.2873     40.7565     74.9153
   313.0000      8.1023      2.3704     -0.1720     16.9431     40.8759     69.5334
   313.1000      8.1017      2.3646     -0.2281     17.2990     41.1285     67.1619
   313.2000      8.1011      2.3490     -0.2190     18.2401     41.4410     69.3670
   313.3000      8.1006      2.3262     -0.2070     19.6219     41.4745     72.0752
   313.4000      8.1000      2.2945     -0.2500     21.5433     41.1578     74.0790
