~Version Information
VERS.                      2.0: CWLS Log ASCII Standard - VERSION 2.0
WRAP.                       NO: One line per depth step
~Well Information Block
STRT.FT               330.0000: 
STOP.FT              1876.2000: 
STEP.FT                 0.1000: 
NULL.                -999.2500: 
COMP.          Pioneer Natural Resources: COMPANY
WELL.          Cooper 11-13 Tr: WELL
FLD.           Purgatoire River: FIELD
LOC.           476' FNL & 738' FWL: LOCATION
STAT.                 Colorado: State
CNTY.               Las Animas: COUNTY
CTRY. USA : Country
SECT. 13 : Section
TOWN. 32S : Township
RANG. 67W : Range 
SRVC.                Patterson: SERVICE COMPANY
DATE.          Mon Sep 26 10:28:17 2005: LOG DATE
API.           05 071 08525 00: UNIQUE WELL ID
~Curve Information Block
DEPT.FT            0 000 00 00: Depth
DCAL.in                       : CDL Caliper
RHOB.g/cc                     : CDL Bulk Density
RHOC.g/cc                     : CDL Density Correction
DPOR.pu                       : CDL Density Porosity
NPOR.pu                       : Neutron Porosity
GR.GAPI                       : Gamma Ray
~Parameter Information Block
~A  Depth       DCAL        RHOB        RHOC        DPOR        NPOR         GR     
# ...
  1645.2000      7.8586      2.4892      0.0603      9.7466     20.0997     46.6900
  1645.3000      7.8619      2.4788      0.0134     10.3747     20.2034     43.4902
  1645.4000      7.8619      2.4735      0.0223     10.6943     19.9739     39.8075
  1645.5000      7.8615      2.4806      0.0335     10.2687     19.5592     36.8879
  1645.6000      7.8615      2.4874      0.0658      9.8553     19.4530     35.1120
  1645.7000      7.8615      2.4834      0.0411     10.0946     19.2429     33.4124
  1645.8000      7.8589      2.4733      0.0359     10.7071     18.7908     31.1441
  1645.9000      7.8589      2.4676      0.0390     11.0562     18.9188     29.0403
  1646.0000      7.8591      2.4712      0.0292     10.8382     19.8203     28.0496
  1646.1000      7.8591      2.4794      0.0228     10.3406     20.7634     27.5884
  1646.2000      7.8591      2.4848      0.0501     10.0118     21.2516     27.5223
  1646.3000      7.8627      2.4873      0.0555      9.8584     21.3361     28.4734
  1646.4000      7.8627      2.4895      0.0502      9.7292     21.1179     29.7477
  1646.5000      7.8651      2.4900      0.0377      9.6953     20.7484     30.0079
  1646.6000      7.8651      2.4858      0.0487      9.9495     20.4010     28.7867
  1646.7000      7.8651      2.4771      0.0273     10.4767     20.3022     26.6561
  1646.8000      7.8637      2.4677      0.0659     11.0457     20.6250     25.7988
  1646.9000      7.8637      2.4592      0.0369     11.5648     21.2596     27.6947
  1647.0000      7.8619      2.4556     -0.0026     11.7834     21.8594     30.2977
  1647.1000      7.8619      2.4576      0.0552     11.6601     21.9955     30.8956
  1647.2000      7.8619      2.4597      0.0273     11.5324     21.6590     29.7887
  1647.3000      7.8604      2.4599      0.0525     11.5202     21.4356     29.2286
  1647.4000      7.8604      2.4566      0.0110     11.7226     21.3611     29.4842
  1647.5000      7.8585      2.4546      0.0082     11.8439     21.1102     29.1046
  1647.6000      7.8585      2.4596      0.0377     11.5396     20.7859     28.4414
  1647.7000      7.8585      2.4650      0.0366     11.2103     20.7271     28.7083
  1647.8000      7.8559      2.4640      0.0469     11.2742     21.0736     29.9253
  1647.9000      7.8559      2.4585      0.0218     11.6084     21.3749     30.4897
  1648.0000      7.8540      2.4539      0.0427     11.8846     21.1626     28.9933
  1648.1000      7.8540      2.4538      0.0459     11.8893     20.4507     27.3409
  1648.2000      7.8540      2.4580      0.0508     11.6387     19.6641     28.0000
  1648.3000      7.8543      2.4620      0.0452     11.3934     19.2718     29.7122
  1648.4000      7.8543      2.4663      0.0319     11.1358     19.5938     31.0839
  1648.5000      7.8492      2.4761      0.0417     10.5367     20.4195     31.9344
  1648.6000      7.8492      2.4842      0.0551     10.0468     20.6851     31.3961
  1648.7000      7.8492      2.4811      0.0652     10.2334     19.9997     29.2686
  1648.8000      7.8376      2.4720      0.0545     10.7896     19.0726     26.7579
  1648.9000      7.8376      2.4656      0.0285     11.1733     18.5436     26.3254
  1649.0000      7.8260      2.4698      0.0507     10.9213     18.6427     28.6705
  1649.1000      7.8260      2.4874      0.0597      9.8529     19.0969     31.7252
  1649.2000      7.8260      2.5062      0.0938      8.7177     19.4225     33.7704
  1649.3000      7.8174      2.5101      0.1010      8.4771     19.5813     34.5249
  1649.4000      7.8174      2.5089      0.0715      8.5540     20.0010     34.6920
  1649.5000      7.8182      2.5190      0.0765      7.9395     21.0376     35.3824
  1649.6000      7.8182      2.5222      0.1255      7.7455     22.3594     37.9092
  1649.7000      7.8182      2.4912      0.0691      9.6226     23.4573     41.3151
  1649.8000      7.8298      2.4406      0.0109     12.6916     24.3083     44.0784
  1649.9000      7.8298      2.4022      0.0087     15.0206     25.1114     47.0844
  1650.0000      7.8417      2.3792      0.0340     16.4136     26.0182     51.7728
  1650.1000      7.8417      2.3599      0.0102     17.5830     26.9293     58.4867
  1650.2000      7.8417      2.3461     -0.0101     18.4172     27.7976     65.3345
  1650.3000      7.8477      2.3410      0.0224     18.7276     28.5680     71.4862
  1650.4000      7.8477      2.3346      0.0343     19.1163     29.0275     78.2678
  1650.5000      7.8496      2.3234      0.0390     19.7950     29.4292     86.1936
  1650.6000      7.8496      2.3177      0.0309     20.1375     30.0931     96.2344
  1650.7000      7.8496      2.3265      0.0528     19.6074     30.8221    106.4358
  1650.8000      7.8589      2.3507      0.0681     18.1379     31.2966    113.9816
  1650.9000      7.8589      2.3801      0.1177     16.3594     31.6056    120.4197
  1651.0000      7.8756      2.3967      0.0899     15.3510     31.9149    124.4776
  1651.1000      7.8756      2.3962      0.0608     15.3805     31.8534    123.3299
  1651.2000      7.8756      2.3918      0.0681     15.6467     31.0387    119.0420
  1651.3000      7.8808      2.3970      0.0828     15.3324     30.0046    116.2720
  1651.4000      7.8808      2.4130      0.0862     14.3634     29.6836    116.4566
  1651.5000      7.8768      2.4337      0.0780     13.1097     29.9403    114.8017
  1651.6000      7.8768      2.4522      0.0727     11.9856     30.0960    110.0701
  1651.7000      7.8768      2.4644      0.0756     11.2507     30.0256    111.1459
  1651.8000      7.8803      2.4718      0.0684     10.7992     29.6847    120.1208
  1651.9000      7.8803      2.4826      0.0619     10.1448     29.1145    125.6416
  1652.0000      7.8858      2.5040      0.0720      8.8488     28.7037    125.0268
  1652.1000      7.8858      2.5307      0.1082      7.2308     28.5248    127.4055
  1652.2000      7.8858      2.5536      0.1147      5.8426     28.3179    133.5230
  1652.3000      7.8856      2.5740      0.0897      4.6078     28.0414    134.5009
  1652.4000      7.8856      2.5933      0.0892      3.4388     28.0320    128.8643
  1652.5000      7.8764      2.6064      0.0636      2.6415     28.3373    123.1530
  1652.6000      7.8764      2.6099      0.0634      2.4289     28.4046    123.1796
  1652.7000      7.8764      2.6057      0.0511      2.6854     27.9277    128.0849
  1652.8000      7.8652      2.5951      0.0192      3.3286     27.2976    131.5380
  1652.9000      7.8652      2.5777     -0.0044      4.3822     26.8758    129.3766
  1653.0000      7.8609      2.5630     -0.0034      5.2756     26.3563    120.8916
  1653.1000      7.8609      2.5659     -0.0068      5.0940     25.5025    109.4918
  1653.2000      7.8609      2.5824      0.0765      4.0950     24.6827    102.1830
  1653.3000      7.8604      2.6021      0.0230      2.9030     24.1404    101.4455
  1653.4000      7.8604      2.6243      0.0778      1.5561     23.8698    105.5375
  1653.5000      7.8596      2.6380      0.0709      0.7267     23.8580    109.3553
  1653.6000      7.8596      2.6374      0.0748      0.7645     23.7972    107.7311
  1653.7000      7.8596      2.6334      0.0424      1.0044     23.4001    101.9218
  1653.8000      7.8560      2.6328      0.0435      1.0421     22.9911     96.1225
  1653.9000      7.8560      2.6328      0.0464      1.0401     23.0790     91.3883
  1654.0000      7.8463      2.6356      0.0354      0.8703     23.6980     88.0506
  1654.1000      7.8463      2.6457      0.0755      0.2586     24.5650     88.5975
  1654.2000      7.8463      2.6574      0.0402     -0.4501     25.1273     92.7642
  1654.3000      7.8351      2.6587      0.0688     -0.5261     25.0246     96.4050
  1654.4000      7.8351      2.6450      0.0229      0.3060     24.8885     98.1380
  1654.5000      7.8213      2.6348      0.0044      0.9214     25.5728     99.6104
  1654.6000      7.8213      2.6407      0.0723      0.5655     26.6912    100.4128
  1654.7000      7.8213      2.6387      0.0891      0.6840     27.1819     99.8544
