~Version Information
VERS.                      2.0: CWLS Log ASCII Standard - VERSION 2.0
WRAP.                       NO: One line per depth step
~Well Information Block
STRT.FT                -4.2500: 
STOP.FT               745.0000: 
STEP.FT                 0.2500: 
NULL.                -999.2500: 
COMP.          Pioneer Natural Resources: COMPANY
WELL.                Zed 11-23: WELL
FLD.           Purgatoire River: FIELD
LOC.           641' FNL & 952' FWL: LOCATION
CNTY.               Las Animas: COUNTY
SRVC.                         : SERVICE COMPANY
DATE.          Fri Mar 03 16:43:06 2006: LOG DATE
UWI.           05 071 08702 00: UNIQUE WELL ID
STAT.                       CO: STATE
~Curve Information Block
DEPT.FT            0 000 00 00: Depth
GR.GAPI                       : Gamma Ray
CCL.                          : Casing Collar Locator
TT3.usec                      : CBL 3' Travel Time
AMP3.mV                       : CBL 3' Amplitude
~Parameter Information Block
~A  Depth        GR         CCL         TT3         AMP3    
# ...
    29.2500    107.7687      0.0000    426.5781      9.5828
    29.5000    109.5789      0.0000    426.8146      9.5762
    29.7500    109.8809      0.0000    422.0676      9.5721
    30.0000    108.5651      0.0000    414.5382      9.5621
    30.2500    105.6910      0.0000    407.1341      9.5422
    30.5000    100.9277      0.0000    401.8404      9.5225
    30.7500     94.2422      0.0000    399.1964      9.5216
    31.0000     86.4776      0.0000    399.0985      9.5485
    31.2500     78.8480      0.0000    401.8604      9.5924
    31.5000     72.2031      0.0000    408.5536      9.6326
    31.7500     67.0072      0.0000    420.6223      9.6581
    32.0000     63.7673      0.0000    439.5808      9.6770
    32.2500     63.0765      0.0000    467.0279      9.7078
    32.5000     64.9930      0.0000    503.8390      9.7629
    32.7500     68.4893      0.0000    547.8535      9.8376
    33.0000     71.9120      0.0000    592.3172      9.9121
    33.2500     74.1699      0.0000    628.2278      9.9659
    33.5000     75.2634      0.0000    648.9393      9.9941
    33.7500     75.7007      0.0000    651.8427     10.0078
    34.0000     75.7573      0.0000    636.7753     10.0164
    34.2500     75.2498      0.0000    606.4714     10.0153
    34.5000     73.5992      0.0000    570.0374      9.9943
    34.7500     70.2276      0.0000    542.8113      9.9564
    35.0000     65.3269      0.0000    538.4923      9.9221
    35.2500     60.2026      0.0000    559.3720      9.9146
    35.5000     56.4884      0.0000    594.1816      9.9418
    35.7500     54.9258      0.0000    626.3776      9.9889
    36.0000     55.0195      0.0000    645.5511     10.0224
    36.2500     55.7547      0.0000    652.1259     10.0054
    36.5000     56.4211      0.0000    653.4685      9.9204
    36.7500     56.8989      0.0000    656.9040      9.7873
    37.0000     57.6103      0.0000    664.9285      9.6568
    37.2500     59.3476      0.0000    675.0081      9.5791
    37.5000     62.7333      0.0000    683.2949      9.5691
    37.7500     67.4638      0.0000    688.4933      9.5964
    38.0000     72.1793      0.0000    692.3337      9.6093
    38.2500     75.3667      0.0000    697.1442      9.5743
    38.5000     76.5215      0.0000    703.4504      9.5006
    38.7500     76.4389      0.0000    709.5040      9.4296
    39.0000     76.3005      0.0000    712.7947      9.3995
    39.2500     76.5116      0.0000    712.3508      9.4156
    39.5000     76.5876      0.0000    709.7418      9.4511
    39.7500     76.0567      0.0000    707.8078      9.4736
    40.0000     75.1128      0.0000    708.4631      9.4682
    40.2500     74.4635      0.0000    711.7971      9.4389
    40.5000     74.8548      0.0000    716.7960      9.3930
    40.7500     76.6038      0.0000    722.2601      9.3337
    41.0000     79.2912      0.0000    727.1233      9.2662
    41.2500     82.0069      0.0000    730.6331      9.2036
    41.5000     84.0232      0.0000    732.5891      9.1611
    41.7500     85.0575      0.0000    733.2925      9.1435
    42.0000     84.8535      0.0000    733.2203      9.1417
    42.2500     82.9642      0.0000    732.8019      9.1400
    42.5000     79.2959      0.0000    732.4548      9.1281
    42.7500     74.6526      0.0000    732.7741      9.1072
    43.0000     70.4096      0.0000    734.7567      9.0864
    43.2500     67.5384      0.0000    739.7682      9.0734
    43.5000     65.9845      0.0000    748.7115      9.0651
    43.7500     64.8745      0.0000    760.4952      9.0475
    44.0000     63.1287      0.0000    771.3769      9.0093
    44.2500     60.1267      0.0000    776.9594      8.9555
    44.5000     56.2794      0.0000    775.7514      8.9005
    44.7500     52.9424      0.0000    770.5157      8.8529
    45.0000     51.4342      0.0000    765.9035      8.8121
    45.2500     52.0788      0.0000    765.4838      8.7761
    45.5000     54.1661      0.0000    771.0570      8.7463
    45.7500     56.6449      0.0000    782.4322      8.7270
    46.0000     58.7771      0.0000    795.7375      8.7231
    46.2500     60.3259      0.0000    803.4255      8.7339
    46.5000     61.3603      0.0000    799.1617      8.7442
    46.7500     62.0159      0.0000    783.5746      8.7293
    47.0000     62.4803      0.0000    763.9235      8.6763
    47.2500     63.0281      0.0000    747.8623      8.5988
    47.5000     63.8323      0.0000    738.4178      8.5222
    47.7500     64.7691      0.0000    734.3733      8.4614
    48.0000     65.5634      0.0000    733.4105      8.4161
    48.2500     66.1300      0.0000    734.1426      8.3817
    48.5000     66.6456      0.0000    736.1594      8.3576
    48.7500     67.2456      0.0000    739.1123      8.3463
    49.0000     67.7370      0.0000    741.9694      8.3481
    49.2500     67.6501      0.0000    743.2670      8.3572
    49.5000     66.5663      0.0000    742.2851      8.3635
    49.7500     64.4339      0.0000    739.7250      8.3589
    50.0000     61.6343      0.0000    736.9985      8.3411
    50.2500     58.8276      0.0000    735.0503      8.3131
    50.5000     56.7627      0.0000    734.0414      8.2799
    50.7500     56.2186      0.0000    733.8428      8.2460
    51.0000     57.9796      0.0000    734.5460      8.2135
    51.2500     62.3437      0.0000    736.4969      8.1826
    51.5000     68.2974      0.0000    739.8760      8.1561
    51.7500     73.6756      0.0000    744.2180      8.1407
    52.0000     76.8722      0.0000    748.4894      8.1407
    52.2500     78.2964      0.0000    751.8193      8.1516
    52.5000     79.6326      0.0000    754.0192      8.1630
    52.7500     81.8960      0.0000    755.3022      8.1658
    53.0000     84.7114      0.0000    755.9421      8.1564
    53.2500     87.0672      0.0000    756.9262      8.1355
    53.5000     87.9656      0.0000    760.7899      8.1058
    53.7500     86.4626      0.0000    770.7013      8.0663
    54.0000     82.1040      0.0000    787.6743      8.0110
    54.2500     75.9699      0.0000    808.3687      7.9397
    54.5000     70.7592      0.0000    825.8506      7.8745
    54.7500     68.9950      0.0000    833.4929      7.8529
    55.0000     71.1234      0.0000    829.8444      7.8752
    55.2500     75.5194      0.0000    820.0095      7.8603
    55.5000     79.9582      0.0000    810.8922      7.6991
    55.7500     82.8713      0.0000    804.3864      7.3784
    56.0000     83.7016      0.0000    796.5774      7.0159
    56.2500     82.7479      0.0000    784.5823      6.7527
    56.5000     80.8472      1.9269    772.7375      6.6428
    56.7500     78.8588      1.9116    770.6983      6.6539
    57.0000     77.1177      0.0000    785.3355      6.7380
    57.2500     75.3804      0.0000    813.3697      6.8891
    57.5000     73.3712      0.0000    840.4626      7.1439
    57.7500     71.1896      0.0000    849.7042      7.5091
    58.0000     69.1135      0.0000    834.6407      7.8797
    58.2500     67.3288      0.0000    804.2133      8.0801
    58.5000     66.0397      0.0000    773.9897      8.0335
    58.7500     65.5832      0.0000    753.9244      7.8488
    59.0000     66.1749      0.0000    744.5775      7.7071
    59.2500     67.4727      0.0000    741.5594      7.7000
    59.5000     68.4879      0.0000    740.9632      7.7975
    59.7500     68.2073      0.0000    741.1666      7.9199
    60.0000     66.5668      0.0000    741.6018      8.0083
    60.2500     64.7572      0.0000    741.5433      8.0439
    60.5000     64.3561      0.0000    740.5424      8.0306
    60.7500     66.0308      0.0000    739.3123      7.9729
    61.0000     68.9869      0.0000    739.2830      7.8751
    61.2500     71.6411      0.0000    741.2963      7.7545
    61.5000     72.8762      0.0000    744.8862      7.6427
    61.7500     72.7071      0.0000    748.7539      7.5721
    62.0000     71.9691      0.0000    751.8279      7.5589
    62.2500     71.5509      0.0000    753.8424      7.5965
    62.5000     71.7782      0.0000    754.9667      7.6620
