~Version Information
VERS.                      2.0: CWLS Log ASCII Standard - VERSION 2.0
WRAP.                       NO: One line per depth step
~Well Information Block
STRT.FT               550.0000: 
STOP.FT              1498.5000: 
STEP.FT                 0.1000: 
NULL.                -999.2500: 
COMP.          Pioneer Natural Resources: COMPANY
WELL.          Surtees 23-34 Tr: WELL
FLD.           Purgatoire River: FIELD
LOC.           1559' FSL & 1997' FWL: LOCATION
PROV.                 Colorado: PROVINCE
CNTY.               Las Animas: COUNTRY
SRVC.                Patterson: SERVICE COMPANY
DATE.          Wed Jul 27 09:35:51 2005: LOG DATE
UWI.           05 071 08449 00: UNIQUE WELL ID
~Curve Information Block
DEPT.FT            0 000 00 00: Depth
DCAL.in                       : CDL Caliper
RHOB.g/cc                     : CDL Bulk Density
RHOC.g/cc                     : CDL Density Correction
DPOR.pu                       : CDL Density Porosity
GR.GAPI                       : Gamma Ray
NPOR.pu                       : Neutron Porosity
~Parameter Information Block
~A  Depth       DCAL        RHOB        RHOC        DPOR         GR         NPOR    
# ...
   674.8000      8.2895      2.4303      0.0641     13.3169    139.0688     22.9841
   674.9000      8.2895      2.4513      0.0979     12.0419    142.3540     23.1104
   675.0000      8.2956      2.4771      0.0901     10.4798    143.2084     23.2537
   675.1000      8.2956      2.5001      0.1596      9.0824    143.7413     23.0704
   675.2000      8.2956      2.5047      0.1075      8.8059    146.7371     22.2721
   675.3000      8.3386      2.4865      0.0745      9.9068    148.8498     21.4663
   675.4000      8.3386      2.4611      0.0695     11.4495    147.4532     21.2464
   675.5000      8.3687      2.4421      0.0811     12.5997    145.4097     21.3884
   675.6000      8.3687      2.4297      0.0555     13.3529    143.7491     21.5973
   675.7000      8.3687      2.4172      0.0788     14.1102    141.7361     21.9303
   675.8000      8.3459      2.3937      0.0756     15.5318    141.2565     22.1062
   675.9000      8.3459      2.3642      0.0165     17.3237    141.8807     21.6506
   676.0000      8.2894      2.3498      0.0512     18.1947    140.7022     20.9533
   676.1000      8.2894      2.3492      0.0463     18.2327    138.7238     20.6731
   676.2000      8.2894      2.3505      0.0088     18.1497    138.4009     20.7456
   676.3000      8.3121      2.3628      0.0285     17.4077    138.5417     20.9813
   676.4000      8.3121      2.3946      0.0927     15.4815    137.8236     21.2429
   676.5000      8.3576      2.4364      0.1085     12.9438    139.6597     21.4817
   676.6000      8.3576      2.4726      0.1412     10.7541    148.3787     21.7129
   676.7000      8.3576      2.4854      0.1450      9.9769    160.2023     21.8542
   676.8000      8.3453      2.4643      0.1605     11.2554    165.1585     21.9537
   676.9000      8.3453      2.4220      0.1561     13.8189    161.0583     22.0047
   677.0000      8.3282      2.3872      0.1112     15.9288    157.4625     21.9237
   677.1000      8.3282      2.3779      0.0990     16.4900    160.6202     21.6855
   677.2000      8.3282      2.3902      0.1109     15.7449    165.6844     21.4605
   677.3000      8.2712      2.4090      0.0914     14.6040    164.3101     21.6021
   677.4000      8.2712      2.4212      0.1553     13.8661    157.6407     22.0613
   677.5000      8.2663      2.4259      0.1613     13.5814    152.7418     22.1157
   677.6000      8.2663      2.4367      0.1173     12.9283    150.7411     21.5326
   677.7000      8.2663      2.4556      0.2004     11.7798    150.1801     21.1951
   677.8000      8.2495      2.4637      0.1765     11.2909    151.1901     21.7527
   677.9000      8.2495      2.4621      0.1346     11.3873    152.6795     22.7902
   678.0000      8.2472      2.4695      0.1543     10.9396    152.8900     23.4006
   678.1000      8.2472      2.4755      0.2224     10.5735    150.3026     23.2360
   678.2000      8.2472      2.4678      0.0965     11.0425    145.2987     22.7904
   678.3000      8.2590      2.4632      0.1785     11.3210    143.8193     22.3389
   678.4000      8.2590      2.4702      0.1781     10.8983    148.2859     21.7619
   678.5000      8.2706      2.4767      0.1687     10.5004    153.5196     21.3701
   678.6000      8.2706      2.4715      0.1580     10.8160    157.4321     21.5442
   678.7000      8.2706      2.4590      0.1512     11.5770    156.8182     21.8991
   678.8000      8.2838      2.4590      0.1127     11.5784    148.2786     22.1207
   678.9000      8.2838      2.4801      0.1343     10.2997    140.6911     22.3616
   679.0000      8.3005      2.5076      0.1463      8.6280    142.0489     22.5713
   679.1000      8.3005      2.5197      0.1778      7.8978    147.2074     22.6439
   679.2000      8.3005      2.5017      0.1251      8.9909    151.4980     22.6416
   679.3000      8.2745      2.4637      0.0975     11.2891    154.9535     22.5402
   679.4000      8.2745      2.4334      0.0916     13.1281    155.1549     22.3880
   679.5000      8.2708      2.4266      0.0595     13.5382    151.4494     22.3195
   679.6000      8.2708      2.4352      0.0667     13.0183    146.7377     22.4023
   679.7000      8.2708      2.4428      0.0893     12.5574    142.5119     22.7732
   679.8000      8.2971      2.4448      0.1224     12.4356    139.4822     23.4655
   679.9000      8.2971      2.4491      0.0680     12.1766    139.0775     23.9481
   680.0000      8.2862      2.4604      0.1113     11.4911    143.1797     23.8536
   680.1000      8.2862      2.4599      0.1972     11.5201    150.1658     23.4790
   680.2000      8.2862      2.4360      0.0662     12.9697    154.1180     22.8837
   680.3000      8.2720      2.4134      0.0587     14.3414    152.8035     21.9180
   680.4000      8.2720      2.4038      0.0771     14.9224    150.0585     20.8928
   680.5000      8.2648      2.3861      0.0652     15.9933    150.3345     20.1807
   680.6000      8.2648      2.3446      0.0916     18.5086    153.6541     19.8067
   680.7000      8.2648      2.2845      0.0653     22.1508    154.8859     19.5128
   680.8000      8.2644      2.2276      0.0549     25.5991    148.9821     19.1670
   680.9000      8.2644      2.1873      0.0464     28.0434    138.5608     18.8422
   681.0000      8.2679      2.1563      0.0643     29.9205    133.0145     18.6045
   681.1000      8.2679      2.1361      0.0914     31.1448    136.5781     18.6772
   681.2000      8.2679      2.1469      0.1170     30.4921    143.3251     19.0934
   681.3000      8.2752      2.2007      0.1799     27.2293    145.7686     19.5020
   681.4000      8.2752      2.2961      0.2667     21.4489    144.1939     19.5423
   681.5000      8.2989      2.4217      0.4118     13.8365    142.8232     19.3783
   681.6000      8.2989      2.5375      0.5547      6.8155    142.4279     19.5925
   681.7000      8.2989      2.5958      0.5375      3.2836    144.6337     20.2557
   681.8000      8.3958      2.5940      0.4360      3.3941    148.5041     20.9724
   681.9000      8.3958      2.5691      0.3533      4.9042    147.5393     21.5725
   682.0000      8.5119      2.5424      0.3520      6.5199    143.8510     22.1649
   682.1000      8.5119      2.5002      0.2906      9.0792    143.7170     22.7561
   682.2000      8.5119      2.4349      0.1958     13.0341    142.8451     23.0307
   682.3000      8.2884      2.3724      0.1504     16.8234    138.4169     22.7888
   682.4000      8.2884      2.3401      0.0414     18.7830    134.0929     22.2736
   682.5000      8.2503      2.3428      0.0411     18.6172    130.4429     21.7782
   682.6000      8.2503      2.3716      0.0551     16.8731    130.6016     21.6995
   682.7000      8.2503      2.4115      0.1010     14.4550    136.5901     22.3766
   682.8000      8.2447      2.4432      0.1179     12.5338    141.1715     23.0652
   682.9000      8.2447      2.4508      0.1515     12.0753    140.2338     22.7100
   683.0000      8.2789      2.4232      0.2113     13.7483    136.8789     21.6170
   683.1000      8.2789      2.3661      0.1925     17.2053    133.6790     20.6672
   683.2000      8.2789      2.3042      0.1440     20.9575    134.5563     19.7342
   683.3000      8.3283      2.2501      0.1082     24.2343    142.3864     18.3680
   683.4000      8.3283      2.1997      0.0726     27.2899    149.4974     17.0409
   683.5000      8.3327      2.1652      0.0131     29.3817    148.2463     16.3282
   683.6000      8.3327      2.1712      0.1108     29.0169    143.7838     16.2265
   683.7000      8.3327      2.2191      0.2279     26.1144    143.2528     16.5673
   683.8000      8.3910      2.2988      0.2144     21.2828    147.5420     17.2569
   683.9000      8.3910      2.3978      0.3618     15.2827    152.6442     17.9172
   684.0000      8.5236      2.4795      0.4547     10.3330    153.8226     18.1081
   684.1000      8.5236      2.5075      0.4237      8.6334    151.1923     18.2737
   684.2000      8.5236      2.4885      0.3349      9.7888    146.7523     18.9699
   684.3000      8.4777      2.4543      0.3532     11.8583    142.4046     19.6792
