~Version Information
VERS.                      2.0: CWLS Log ASCII Standard - VERSION 2.0
WRAP.                       NO: One line per depth step
~Well Information Block
STRT.FT                -5.5000: 
STOP.FT               791.0000: 
STEP.FT                 0.2500: 
NULL.                -999.2500: 
COMP.          Pioneer Natural Resources: COMPANY
WELL.           Beringer 33-18: WELL
FLD.           Purgatoire River: FIELD
LOC.           2356' FSL & 2338' FEL--: LOCATION
CNTY.               Las Animas: COUNTY
SRVC.                Patterson: SERVICE COMPANY
DATE.          Mon Apr 03 11:39:01 2006: LOG DATE
UWI.           05 071 08725 00: UNIQUE WELL ID
STAT.                 Colorado: STATE
~Curve Information Block
DEPT.FT            0 000 00 00: Depth
CCL.                          : Casing Collar Locator
TT3.usec                      : CBL 3' Travel Time
AMP3.mV                       : CBL 3' Amplitude
GR.GAPI                       : Gamma Ray
~Parameter Information Block
~A  Depth       CCL         TT3         AMP3         GR     
# ...
   463.5000      0.0000    750.9395      5.2109    129.2663
   463.7500      0.0000    752.8240      5.2706    126.9074
   464.0000      0.0000    755.0519      5.3250    123.9115
   464.2500      0.0000    754.9017      5.3291    122.1942
   464.5000      0.0000    751.2339      5.3012    119.4273
   464.7500      0.0000    747.4641      5.2732    117.5392
   465.0000      0.0000    742.7436      5.2269    115.3180
   465.2500      0.0000    741.1528      5.1928    114.4388
   465.5000      0.0000    740.1828      5.1441    114.1089
   465.7500      0.0000    739.0873      5.1251    114.7826
   466.0000      0.0000    735.1964      5.1336    117.9600
   466.2500      0.0000    731.5392      5.1608    121.9452
   466.5000      0.0000    727.0876      5.2100    130.3136
   466.7500      0.0000    726.2477      5.2345    136.3705
   467.0000      0.0000    728.5563      5.2527    144.0704
   467.2500      0.0000    731.5497      5.2588    147.9615
   467.5000      0.0000    736.5279      5.2758    152.8268
   467.7500      0.0000    739.9557      5.2977    155.7735
   468.0000      0.0000    745.9649      5.3390    159.0119
   468.2500      0.0000    750.7568      5.3618    159.5934
   468.5000      0.0000    757.9705      5.3794    157.6674
   468.7500      0.0000    761.4149      5.3848    155.1148
   469.0000      0.0000    762.4435      5.3988    151.0795
   469.2500      0.0000    760.1119      5.4155    149.0625
   469.5000      0.0000    753.8125      5.4488    147.5726
   469.7500      0.0000    749.6108      5.4744    147.2144
   470.0000      0.0000    746.3882      5.5145    146.0300
   470.2500      0.0000    747.2642      5.5373    144.1444
   470.5000      0.0000    752.8674      5.5544    140.4572
   470.7500      0.0000    758.2542      5.5519    138.5347
   471.0000      0.0000    765.3197      5.5329    137.1426
   471.2500      0.0000    767.2499      5.5142    136.5551
   471.5000      0.0000    764.5414      5.4754    135.3842
   471.7500      0.0000    760.0588      5.4376    135.0524
   472.0000      0.0000    752.8549      5.3594    136.6840
   472.2500      0.0000    749.3239      5.3004    138.7603
   472.5000      0.0000    746.5126      5.2244    140.5650
   472.7500      0.0000    745.7299      5.1933    139.7244
   473.0000      0.0000    745.0839      5.1812    136.3649
   473.2500      0.0000    744.7451      5.1951    134.5867
   473.5000      0.0000    744.4773      5.2508    135.2926
   473.7500      0.0000    744.3384      5.3155    138.0369
   474.0000      0.0000    743.2126      5.4523    142.8042
   474.2500      0.0000    741.4207      5.5554    144.3283
   474.5000      0.0000    738.0465      5.6871    142.5696
   474.7500      0.0000    736.2804      5.7465    139.5362
   475.0000      0.0000    734.2762      5.8116    135.0751
   475.2500      0.0000    732.3684      5.8573    133.3334
   475.5000      0.0000    728.2928      5.9312    132.3447
   475.7500      0.0000    726.0630      5.9656    131.5672
   476.0000      0.0000    725.7405      5.9658    127.9994
   476.2500      0.0000    727.4488      5.9325    123.4335
   476.5000      0.0000    730.8214      5.8648    113.5742
   476.7500      0.0000    732.5391      5.8310    105.4552
   477.0000      0.0000    733.8387      5.8205     92.1489
   477.2500      0.0000    734.1033      5.8398     83.8080
   477.5000      0.0000    734.1003      5.8923     75.2310
   477.7500      0.0000    734.0053      5.9312     73.6424
   478.0000      0.0000    733.8513      5.9737     77.2765
   478.2500      0.0000    733.7774      5.9812     81.7058
   478.5000      0.0000    733.7345      5.9548     87.0891
   478.7500      0.0000    733.7368      5.9123     88.6912
   479.0000      0.0000    733.7535      5.8024     89.3513
   479.2500      0.0000    733.8115      5.6878     90.0429
   479.5000      0.0000    734.3172      5.4553     92.6160
   479.7500      0.0000    735.4592      5.2857     94.8958
   480.0000      0.0000    740.0729      5.0665     97.1203
   480.2500      0.0000    746.3184      4.9477     96.5799
   480.5000      0.0000    761.4151      4.7619     91.9294
   480.7500      0.0000    774.1089      4.6192     86.7940
   481.0000      0.0000    792.0566      4.4365     77.8037
   481.2500      0.0000    800.4927      4.3840     71.9384
   481.5000      0.0000    807.5941      4.4138     64.6292
   481.7500      0.0000    811.2148      4.4598     61.2078
   482.0000      2.0000    819.2349      4.4908     58.1888
   482.2500      0.0000    825.9924      4.4805     57.0900
   482.5000      0.0000    832.8671      4.4780     56.1178
   482.7500      0.0000    831.8239      4.5309     56.0309
   483.0000      0.0000    819.8208      4.7192     57.3093
   483.2500      0.0000    806.1652      4.8837     58.9680
   483.5000      0.0000    780.8949      5.1006     61.2485
   483.7500      0.0000    762.7834      5.2052     61.6867
   484.0000      0.0000    736.8426      5.3357     60.3340
   484.2500      0.0000    722.1920      5.4245     58.7250
   484.5000      0.0000    706.3096      5.5457     56.4009
   484.7500      0.0000    699.8937      5.5998     54.8098
   485.0000      0.0000    695.0142      5.6336     51.3692
   485.2500      0.0000    693.7023      5.6335     48.3627
   485.5000      0.0000    692.9949      5.6093     44.3954
   485.7500      0.0000    692.8496      5.5789     43.2025
   486.0000      0.0000    692.7874      5.5250     44.3239
   486.2500      0.0000    692.8063      5.4969     46.7821
   486.5000      0.0000    692.9273      5.4750     51.9521
   486.7500      0.0000    693.0679      5.4638     55.4601
   487.0000      0.0000    693.3549      5.4269     59.2322
   487.2500      0.0000    693.5844      5.3831     60.2544
   487.5000      0.0000    693.9799      5.3005     59.6711
   487.7500      0.0000    694.3348      5.2493     58.4186
   488.0000      0.0000    695.3926      5.2023     56.6992
   488.2500      0.0000    696.9209      5.1957     56.4030
   488.5000      0.0000    701.3970      5.2096     57.5688
   488.7500      0.0000    705.9802      5.2182     59.2342
   489.0000      0.0000    713.8713      5.2041     63.0632
   489.2500      0.0000    718.1792      5.1719     66.8984
   489.5000      0.0000    720.7238      5.1032     75.3901
   489.7500      0.0000    719.6519      5.0606     82.8917
   490.0000      0.0000    716.6083      5.0330     95.3435
   490.2500      0.0000    716.3781      5.0528    102.9694
   490.5000      0.0000    722.9495      5.1456    112.0101
   490.7500      0.0000    732.5000      5.2372    116.9483
   491.0000      0.0000    750.5179      5.3762    124.4012
   491.2500      0.0000    760.4281      5.4453    129.5823
   491.5000      0.0000    765.3279      5.4956    136.2984
   491.7500      0.0000    761.2339      5.4981    139.1964
   492.0000      0.0000    748.9295      5.4730    140.9694
   492.2500      0.0000    740.6538      5.4448    140.9721
   492.5000      0.0000    732.3612      5.3925    140.1409
   492.7500      0.0000    729.7996      5.3530    139.2029
   493.0000      0.0000    728.5381      5.2880    137.2142
   493.2500      0.0000    728.0347      5.2431    135.6851
   493.5000      0.0000    725.8632      5.1859    133.7649
   493.7500      0.0000    722.8024      5.1643    133.1492
   494.0000      0.0000    715.7854      5.1553    133.5924
   494.2500      0.0000    710.3979      5.1443    134.5425
   494.5000      0.0000    704.4695      5.0625    135.8966
   494.7500      0.0000    704.5528      4.9429    136.3522
   495.0000      0.0000    715.1688      4.6855    136.1916
   495.2500      0.0000    730.6605      4.4940    135.0840
   495.5000      0.0000    764.6756      4.2172    130.6806
   495.7500      0.0000    790.7018      4.0536    125.9163
   496.0000      0.0000    826.0889      3.8770    118.1114
   496.2500      0.0000    843.3858      3.8244    114.2073
   496.5000      0.0000    858.3997      3.8273    112.6576
   496.7500     -2.0000    862.9146      3.8487    114.9978
