~Version Information
 VERS.                                  2.0 : CWLS LAS VERSION
 WRAP.                                   NO : WRAPING MODE
 SWARE .                 MController 2.5.0J : SOFTWARE VERSION
~Well Information
 WELL.                         Kraft 17-23R : WELL
 COMP.                Petrogulf Corporation : COMPANY
 FLD.                      Purgatoire River : FIELD
 LOC.                NE/SW Sec 17 T33S R67W : LOCATION
 DATE.                          10/10-11/05 : DATE(S) LOGGED
 SRVC.       BLANCO Geological Services LLC : SERVICE COMPANY
 STAT.                                   CO : STATE
 CNTY.                           Las Animas : COUNTY
 CTRY.                                  USA : COUNTRY
 API.                       05-071-08560-00 : API NUMBER
 STRT.FT                             101.00 : START DEPTH
 STOP.FT                            1920.00 : STOP DEPTH
 STEP.FT                               1.00 : DEPTH INCREMENT
 NULL.                                -9999 : NULL VALUE
~Curve information
 DEPTH.FT                                   :
 ROP.MIN/FT                                 :
 GAS.UNITS                                  :
~ASCII Log data
# ...
       701.0         0.17         12.6 
       702.0         0.17         12.4 
       703.0         0.23         13.3 
       704.0         0.20         13.2 
       705.0         0.30         12.8 
       706.0         0.20         13.4 
       707.0         0.13         14.1 
       708.0         0.18         15.3 
       709.0         0.10         14.8 
       710.0         0.13         15.7 
       711.0         0.13         15.3 
       712.0         0.13         15.3 
       713.0         0.07         14.7 
       714.0         0.13         14.4 
       715.0         0.17         12.6 
       716.0         1.93         56.1 
       717.0         0.28         31.7 
       718.0         0.23         18.6 
       719.0         0.17         13.8 
       720.0         0.37         10.5 
       721.0         0.43          7.6 
       722.0         0.40          6.3 
       723.0         0.30          6.0 
       724.0         0.33          5.6 
       725.0         0.37          5.5 
       726.0         0.53          6.0 
       727.0         0.28          5.7 
       728.0         0.17          6.1 
       729.0         0.27          6.9 
       730.0         0.30          7.9 
       731.0         0.30          9.3 
       732.0         0.17         10.6 
       733.0         0.23         13.2 
       734.0         0.13         13.8 
       735.0         0.17         14.2 
       736.0         0.10         14.9 
       737.0         0.17         15.9 
       738.0         0.17         15.3 
       739.0         0.13         15.1 
       740.0         0.27         14.7 
       741.0         0.35         12.8 
       742.0         0.23         11.7 
       743.0         0.30         12.5 
       744.0         0.23         12.6 
       745.0         0.37         11.9 
       746.0       138.78       6652.8 
       747.0         0.70        588.3 
       748.0         0.37        589.2 
       749.0         0.40        590.2 
       750.0         0.50        440.0 
       751.0         0.52          6.1 
       752.0         0.43          4.2 
       753.0         0.27          5.1 
       754.0         0.27          5.7 
       755.0         0.30          5.7 
       756.0         0.37          5.9 
       757.0         0.30          5.5 
       758.0         0.40          5.1 
       759.0         0.50          5.0 
       760.0         0.45          4.7 
       761.0         0.33          4.2 
       762.0         0.27          4.1 
       763.0         0.27          4.3 
       764.0         0.40          4.4 
       765.0         0.73          4.2 
       766.0         0.30          3.9 
       767.0         0.43          5.1 
       768.0         0.17          5.2 
       769.0         0.10          4.8 
       770.0         0.18          5.0 
       771.0         0.23          4.3 
       772.0         0.20          4.5 
       773.0         0.23          6.2 
       774.0         0.17          7.0 
       775.0         0.17          7.1 
       776.0         1.63         13.8 
       777.0         0.23         13.0 
       778.0         0.20         11.4 
       779.0         0.18          9.4 
       780.0         0.23          8.2 
       781.0         0.17          7.4 
       782.0         0.13          7.5 
       783.0         0.17          7.5 
       784.0         0.13          6.5 
       785.0         0.27          6.2 
       786.0         0.30          5.6 
       787.0         0.33          5.0 
       788.0         0.33          4.2 
       789.0         0.30          3.9 
       790.0         0.30          3.5 
       791.0         0.30          3.6 
       792.0         0.45          3.3 
       793.0         0.43          2.7 
       794.0         0.40          2.7 
       795.0         0.23          2.6 
       796.0         0.33          2.6 
       797.0         0.40          2.6 
       798.0         0.27          2.8 
       799.0         0.37          2.7 
       800.0         0.30          2.7 
       801.0         0.30          2.8 
       802.0         0.25          3.1 
       803.0         0.20          3.0 
       804.0         0.17          3.2 
       805.0         0.20          3.0 
       806.0         2.23         10.1 
       807.0         0.25          4.8 
       808.0         0.23          4.1 
       809.0         0.23          5.6 
       810.0         0.17          7.6 
       811.0         0.17          8.2 
       812.0         0.13          8.8 
       813.0         0.13          8.2 
       814.0         0.10          7.9 
       815.0         0.17          7.5 
       816.0         0.20          7.6 
       817.0         0.20          7.3 
       818.0         0.23          6.8 
       819.0         0.27          6.3 
       820.0         0.23          7.0 
       821.0         0.20          9.2 
       822.0         0.13          9.1 
       823.0         0.10          9.4 
       824.0         0.10          9.6 
       825.0         0.10          9.0 
       826.0         0.15          9.0 
       827.0         0.23          8.1 
       828.0         0.30          7.7 
       829.0         0.30          7.2 
       830.0         0.30          6.2 
       831.0         0.30          5.7 
       832.0         0.30          4.3 
       833.0         0.30          3.8 
       834.0         0.30          3.7 
       835.0         0.30          3.0 
       836.0         2.05          9.1 
       837.0         0.37          4.6 
       838.0         0.30          3.2 
       839.0         0.30          2.7 
       840.0         0.30          3.0 
       841.0         0.43          2.9 
       842.0         0.18          3.1 
       843.0         0.23          3.3 
       844.0         0.27          3.2 
       845.0         0.20          2.8 
       846.0         0.30          2.8 
       847.0         0.27          2.7 
       848.0         0.33          2.5 
       849.0         0.27          2.2 
       850.0         0.37          2.5 
       851.0         0.40          2.2 
       852.0         0.30          2.6 
       853.0         0.23          2.6 
       854.0         0.28          2.4 
       855.0         0.30          2.7 
       856.0         0.30          2.4 
       857.0         0.27          2.3 
       858.0         0.33          2.3 
       859.0         0.27          2.2 
       860.0         0.23          2.2 
       861.0         0.30          2.2 
       862.0         0.30          2.2 
       863.0         0.47          2.1 
       864.0         0.45          2.1 
       865.0         0.37          2.0 
       866.0         1.90          7.7 
       867.0         0.30          4.4 
       868.0         0.33          3.3 
       869.0       729.25          2.9 
       870.0         0.47         -0.5 
       871.0         0.43         -0.7 
       872.0         0.28         -0.8 
       873.0         0.23         -0.8 
       874.0         0.30         -0.9 
       875.0         0.23         -0.8 
       876.0         0.17         -0.7 
       877.0         0.20         -0.5 
       878.0         0.20         -0.4 
       879.0         0.20         -0.2 
       880.0         0.23          0.4 
       881.0         0.17          1.2 
       882.0         0.17          2.7 
       883.0         0.20          4.6 
       884.0         0.20          4.8 
       885.0         0.20          4.8 
       886.0         0.17          5.1 
       887.0         0.18          4.9 
       888.0         0.20          4.9 
       889.0         0.17          5.3 
       890.0         0.17          5.3 
       891.0         0.17          5.1 
       892.0         0.17          5.3 
       893.0         0.17          5.1 
       894.0         0.17          4.8 
       895.0         0.17          5.0 
       896.0         1.75         29.4 
       897.0         0.37         63.8 
       898.0         0.40         62.2 
       899.0         0.27         32.7 
       900.0         0.32         18.5 
