~Version Information
VERS.                      2.0: CWLS Log ASCII Standard - VERSION 2.0
WRAP.                       NO: One line per depth step
~Well Information Block
STRT.FT                -8.2500: 
STOP.FT              1439.2500: 
STEP.FT                 0.2500: 
NULL.                -999.2500: 
COMP.          Pioneer Natural Resources: COMPANY
WELL.          Old Faithful 21-2: WELL
FLD.           Purgatorie River: FIELD
LOC.           806' FNL & 2509' FWL--: LOCATION
PROV.                       CO: PROVINCE
CNTY.               Las Animas: COUNTRY
SRVC.          Patterson Wireline: SERVICE COMPANY
DATE.          Mon Dec 12 11:21:25 2005: LOG DATE
UWI.           08 071 08617 00: UNIQUE WELL ID
~Curve Information Block
DEPT.FT            0 000 00 00: Depth
CCL.                          : Casing Collar Locator
TT3.usec                      : CBL 3' Travel Time
AMP3.mV                       : CBL 3' Amplitude
GR.GAPI                       : Gamma Ray
~Parameter Information Block
~A  Depth       CCL         TT3         AMP3         GR     
# ...
   259.7500      0.0000    737.0845      9.3906     81.2335
   260.0000      0.0000    735.3645      9.0091     82.4480
   260.2500      0.0000    728.9372      8.7772     82.0985
   260.5000      0.0000    720.2858      8.6504     79.9199
   260.7500      0.0000    712.1769      8.5819     77.0871
   261.0000      0.0000    706.3441      8.5591     75.2500
   261.2500      0.0000    703.0032      8.5887     75.2786
   261.5000      0.0000    701.4079      8.6714     76.6351
   261.7500      0.0000    700.7086      8.7957     77.8034
   262.0000      0.0000    700.3972      8.9501     77.6476
   262.2500      0.0000    700.3044      9.1351     76.5269
   262.5000      0.0000    700.5485      9.3619     75.9256
   262.7500      0.0000    701.6586      9.6355     76.9998
   263.0000      0.0000    704.7833      9.9344     79.5697
   263.2500      0.0000    711.2671     10.2090     82.3161
   263.5000      0.0000    720.9391     10.4077     83.7648
   263.7500      0.0000    730.3907     10.5085     83.2136
   264.0000      0.0000    734.3040     10.5250     81.1375
   264.2500      0.0000    729.9993     10.4893     79.1700
   264.5000      0.0000    720.1732     10.4322     79.6632
   264.7500      0.0000    710.2421     10.3753     84.5122
   265.0000      0.0000    703.7877     10.3259     93.7150
   265.2500      0.0000    701.2031     10.2743    104.9584
   265.5000      0.0000    701.5010     10.2029    114.8825
   265.7500      0.0000    704.1100     10.1072    121.1995
   266.0000      0.0000    708.9491     10.0064    124.0938
   266.2500      0.0000    715.4478      9.9308    125.7558
   266.5000      0.0000    722.1900      9.8986    128.2176
   266.7500      0.0000    727.8981      9.9065    131.3190
   267.0000      0.0000    732.4871      9.9407    133.1136
   267.2500      0.0000    736.6030      9.9940    132.3985
   267.5000      0.0000    740.4305     10.0666    130.0517
   267.7500      0.0000    743.5047     10.1442    127.4708
   268.0000      0.0000    745.4154     10.1813    124.8757
   268.2500      0.0000    746.1429     10.1201    122.1621
   268.5000      0.0000    745.7585      9.9293    120.6087
   268.7500      0.0000    744.2337      9.6232    122.2730
   269.0000      0.0000    741.8012      9.2501    127.4641
   269.2500      0.0000    739.4106      8.8745    133.5438
   269.5000      0.0000    738.4182      8.5758    136.7796
   269.7500      0.0000    739.4880      8.4413    135.3132
   270.0000      0.0000    741.9478      8.5333    130.1062
   270.2500      0.0000    744.4724      8.8464    123.2976
   270.5000      0.0000    746.2183      9.2983    116.2259
   270.7500      0.0000    747.2009      9.7688    108.9783
   271.0000      0.0000    747.9265     10.1574    101.4152
   271.2500      0.0000    748.9971     10.4183     94.4695
   271.5000      0.0000    750.8793     10.5551     90.3210
   271.7500      0.0000    753.5621     10.5911     90.9983
   272.0000      0.0000    756.2579     10.5495     96.7899
   272.2500      0.0000    757.8613     10.4583    106.0200
   272.5000      0.0000    758.2004     10.3624    116.1855
   272.7500      0.0000    758.7312     10.3103    125.1728
   273.0000      0.0000    761.5234     10.3197    131.5673
   273.2500      0.0000    767.3893     10.3578    134.4350
   273.5000      0.0000    775.0912     10.3649    133.7223
   273.7500      0.0000    782.3589     10.3008    131.0883
   274.0000      0.0000    787.5673     10.1724    129.2110
   274.2500      0.0000    790.5256     10.0191    129.5020
   274.5000      0.0000    792.1068      9.8777    131.1857
   274.7500      0.0000    793.5698      9.7604    132.9279
   275.0000      0.0000    796.0953      9.6633    134.3824
   275.2500      0.0000    800.2405      9.5858    135.9109
   275.5000      0.0000    805.2115      9.5377    137.7888
   275.7500      0.0000    808.8610      9.5309    139.8294
   276.0000      0.0000    809.1537      9.5690    141.0620
   276.2500      0.0000    805.9540      9.6430    139.9031
   276.5000      0.0000    801.1079      9.7373    135.3382
   276.7500      0.0000    796.7703      9.8373    128.0652
   277.0000      0.0000    793.9634      9.9301    120.5345
   277.2500      0.0000    792.5538     10.0032    115.8787
   277.5000      0.0000    791.9945     10.0527    116.2477
   277.7500      0.0000    791.8594     10.0943    121.5318
   278.0000      0.0000    791.9922     10.1591    129.4755
   278.2500      0.0000    792.5399     10.2719    137.1037
   278.5000      0.0000    794.1009     10.4330    142.2544
   278.7500      0.0000    797.9575     10.6168    144.0497
   279.0000      0.0000    806.0471     10.7836    142.4532
   279.2500      0.0000    820.2664     10.8985    138.0538
   279.5000      0.0000    841.1337     10.9465    132.3589
   279.7500      0.0000    866.5392     10.9342    127.4012
   280.0000      0.0000    891.7905     10.8780    124.4026
   280.2500      0.0000    911.5979     10.7923    123.0426
   280.5000      0.0000    922.6013     10.6858    122.1360
   280.7500      0.0000    924.1984     10.5655    120.6456
   281.0000      0.0000    917.7757     10.4377    118.1174
   281.2500      0.0000    906.2568     10.3064    114.7552
   281.5000      0.0000    893.5200     10.1725    111.3699
   281.7500      0.0000    882.1130     10.0359    109.0855
   282.0000      0.0000    871.1978      9.8967    108.8740
   282.2500      0.0000    857.9802      9.7590    111.0991
   282.5000      0.0000    841.1678      9.6346    115.1797
   282.7500      0.0000    822.0913      9.5347    119.7757
   283.0000      0.0000    803.0218      9.4557    123.8326
   283.2500      0.0000    785.8223      9.3784    127.3728
   283.5000      0.0000    772.0977      9.2858    130.8046
   283.7500      0.0000    763.1862      9.1763    133.6459
   284.0000      0.0000    759.2094      9.0601    134.6202
   284.2500      0.0000    758.4550      8.9452    133.0964
   284.5000      0.0000    758.2843      8.8334    129.9734
   284.7500      0.0000    756.9576      8.7297    126.9344
   285.0000      0.0000    754.5296      8.6481    125.2238
   285.2500      0.0000    752.0676      8.6024    125.3406
   285.5000      0.0000    750.3578      8.5912    127.2972
   285.7500      0.0000    749.5193      8.5941    130.5657
   286.0000      0.0000    749.4644      8.5912    133.9081
   286.2500      0.0000    750.4344      8.5925    135.5509
   286.5000      0.0000    753.1189      8.6439    133.6765
   286.7500      0.0000    758.1778      8.7901    127.1906
   287.0000      0.0000    765.3041      9.0265    116.7071
   287.2500      0.0000    772.6036      9.2951    104.9599
   287.5000      0.0000    777.1863      9.5281     95.8474
   287.7500      0.0000    776.7418      9.6846     92.5952
   288.0000      0.0000    770.8175      9.7538     96.2000
   288.2500      0.0000    760.8602      9.7459    104.9234
   288.5000      0.0000    749.3737      9.6874    115.3276
   288.7500      0.0000    739.1544      9.6057    124.4329
   289.0000      0.0000    732.7591      9.5089    130.9982
   289.2500      0.0000    731.5540      9.3918    134.7538
   289.5000      0.0000    734.7192      9.2647    135.3621
   289.7500      0.0000    739.6779      9.1615    132.8181
   290.0000      0.0000    743.9404      9.1115    128.2050
   290.2500      0.0000    746.4873      9.1134    123.2522
   290.5000      0.0000    747.6078      9.1427    119.3100
   290.7500      0.0000    747.9869      9.1663    117.0355
   291.0000      0.0000    748.1011      9.1485    116.8392
   291.2500      0.0000    748.1284      9.0601    119.2476
   291.5000      0.0000    748.0926      8.8924    124.4956
   291.7500      0.0000    747.9977      8.6569    131.5695
   292.0000      0.0000    747.8734      8.3743    137.8430
   292.2500      0.0000    747.7654      8.0713    140.3553
   292.5000      0.0000    747.7178      7.7807    138.0030
   292.7500      0.0000    747.7461      7.5298    132.6441
   293.0000      0.0000    747.8231      7.3292    127.8780
