~Version Information
VERS.                      2.0: CWLS Log ASCII Standard - VERSION 2.0
WRAP.                       NO: One line per depth step
~Well Information Block
STRT.FT                -7.5000: 
STOP.FT               988.5000: 
STEP.FT                 0.2500: 
NULL.                -999.2500: 
COMP.          Pioneer Natural Resources: COMPANY
WELL.          Stags Leap 13-30: WELL
FLD.           Purgatorie River: FIELD
LOC.           1813' FSL & 117' FWL--: LOCATION
PROV.                       CO: PROVINCE
CNTY.               Las Animas: COUNTRY
SRVC.          Patterson Wireline: SERVICE COMPANY
DATE.          Tue Dec 13 11:29:26 2005: LOG DATE
UWI.           05 071 08595 00: UNIQUE WELL ID
~Curve Information Block
DEPT.FT            0 000 00 00: Depth
CCL.                          : Casing Collar Locator
TT3.usec                      : CBL 3' Travel Time
AMP3.mV                       : CBL 3' Amplitude
GR.GAPI                       : Gamma Ray
~Parameter Information Block
~A  Depth       CCL         TT3         AMP3         GR     
# ...
   260.5000      0.0000    814.7227      7.7584    106.3025
   260.7500      0.0000    820.5543      7.8393    108.2535
   261.0000      0.0000    827.5169      7.9346    113.7146
   261.2500      0.0000    835.5670      8.0146    120.9858
   261.5000      0.0000    844.3827      8.0466    127.0794
   261.7500      0.0000    852.6591      8.0143    130.1718
   262.0000      0.0000    858.3968      7.9313    130.4676
   262.2500      0.0000    860.4910      7.8344    128.9171
   262.5000      0.0000    860.2377      7.7580    125.9477
   262.7500      0.0000    860.9796      7.7109    121.8472
   263.0000      0.0000    865.4944      7.6787    117.4713
   263.2500      0.0000    873.1195      7.6506    113.4907
   263.5000      0.0000    879.6019      7.6365    109.2249
   263.7500      0.0000    880.4927      7.6542    103.1625
   264.0000      0.0000    875.0684      7.7066     94.7583
   264.2500      0.0000    866.6110      7.7785     85.3183
   264.5000      0.0000    858.3434      7.8570     76.9807
   264.7500      0.0000    849.7580      7.9486     71.1189
   265.0000      0.0000    838.7095      8.0726     67.8676
   265.2500      0.0000    827.5027      8.2393     66.7878
   265.5000      0.0000    824.5114      8.4343     67.5353
   265.7500      0.0000    837.1188      8.6253     69.8436
   266.0000      0.0000    862.6307      8.7852     73.0910
   266.2500      0.0000    887.4954      8.9039     75.9421
   266.5000      0.0000    897.3700      8.9796     76.6327
   266.7500      0.0000    888.7449      9.0073     74.2450
   267.0000      0.0000    870.5507      8.9833     69.9288
   267.2500      0.0000    855.0641      8.9206     66.2724
   267.5000      0.0000    848.1160      8.8500     65.2107
   267.7500      0.0000    847.2784      8.8016     66.9222
   268.0000      0.0000    847.0314      8.7835     70.6902
   268.2500      0.0000    844.0247      8.7764     76.0761
   268.5000      0.0000    838.3742      8.7495     82.8145
   268.7500      0.0000    831.9028      8.6879     89.9567
   269.0000      0.0000    825.9225      8.6048     95.7902
   269.2500      0.0000    820.6369      8.5252     98.9908
   269.5000      0.0000    816.0856      8.4568     99.8460
   269.7500      0.0000    812.6586      8.3826    100.1740
   270.0000      0.0000    810.5336      8.2798    101.9588
   270.2500      0.0000    809.0900      8.1378    105.8736
   270.5000      0.0000    807.0927      7.9571    110.9392
   270.7500      0.0000    803.5550      7.7447    115.5911
   271.0000      0.0000    799.4312      7.5269    119.0834
   271.2500      0.0000    798.5089      7.3637    121.8946
   271.5000      0.0000    805.0310      7.3278    125.0975
   271.7500      0.0000    819.2980      7.4525    129.3691
   272.0000      0.0000    836.2419      7.7036    134.0845
   272.2500      0.0000    849.2590      8.0131    137.2474
   272.5000      0.0000    855.3610      8.3308    136.9555
   272.7500      0.0000    856.4558      8.6405    133.4130
   273.0000      0.0000    856.8785      8.9435    129.1910
   273.2500      0.0000    860.5518      9.2445    127.0692
   273.5000      0.0000    869.0393      9.5469    127.6991
   273.7500      0.0000    880.3646      9.8506    129.5811
   274.0000      0.0000    889.9470     10.1479    131.1819
   274.2500      0.0000    893.9030     10.4216    132.4777
   274.5000      0.0000    891.7779     10.6473    134.1845
   274.7500      0.0000    885.9846     10.7987    136.2157
   275.0000      0.0000    879.1972     10.8576    137.7413
   275.2500      0.0000    872.3267     10.8272    138.3566
   275.5000      0.0000    864.6437     10.7329    138.2761
   275.7500      0.0000    855.8053     10.6059    137.4748
   276.0000      0.0000    847.8239     10.4670    135.3613
   276.2500      0.0000    843.9642     10.3308    131.3856
   276.5000      0.0000    844.8860     10.2164    125.8023
   276.7500      0.0000    847.0116     10.1438    120.0137
   277.0000      0.0000    845.9182     10.1176    115.8737
   277.2500      0.0000    840.1395     10.1167    114.0039
   277.5000      0.0000    830.6260     10.0964    113.0721
   277.7500      0.0000    818.3492      9.9974    111.3792
   278.0000      0.0000    804.1857      9.7585    108.8064
   278.2500      0.0000    790.4678      9.3487    106.7462
   278.5000      0.0000    781.3382      8.8116    106.8722
   278.7500      0.0000    780.9843      8.2653    110.2608
   279.0000      0.0000    791.2471      7.8202    116.5368
   279.2500      0.0000    811.3773      7.5020    123.2633
   279.5000      0.0000    840.1483      7.2874    127.3087
   279.7500      0.0000    875.8124      7.1845    127.6801
   280.0000      0.0000    912.2867      7.2170    126.3020
   280.2500     -2.0000    937.8129      7.3546    125.4284
   280.5000      0.0000    941.5679      7.5140    125.0014
   280.7500      2.0000    922.3503      7.6196    123.0823
   281.0000      0.0000    888.7576      7.6465    118.2024
   281.2500      0.0000    851.0704      7.6309    110.6768
   281.5000      0.0000    815.6671      7.6515    102.0407
   281.7500      0.0000    787.0017      7.7735     93.9627
   282.0000      0.0000    770.0510      7.9963     87.9240
   282.2500      0.0000    767.4011      8.2768     85.4591
   282.5000      0.0000    775.6416      8.5828     87.7543
   282.7500      0.0000    788.4827      8.8924     94.4066
   283.0000      0.0000    804.2347      9.1676    103.0303
   283.2500      0.0000    827.4600      9.3700    110.7776
   283.5000      0.0000    861.4996      9.4866    116.1322
   283.7500      0.0000    901.5554      9.5241    118.7965
   284.0000      0.0000    937.2195      9.4965    118.3399
   284.2500      0.0000    960.7625      9.4352    114.1031
   284.5000      0.0000    971.7939      9.3925    106.5731
   284.7500      0.0000    974.9733      9.4139     97.7956
   285.0000      0.0000    974.7598      9.5023     89.8552
   285.2500      0.0000    972.4725      9.6151     83.4793
   285.5000      0.0000    967.2458      9.7033     78.5575
   285.7500      0.0000    958.9534      9.7542     75.3914
   286.0000      0.0000    950.1203      9.7979     74.5820
   286.2500      0.0000    944.6477      9.8720     75.8633
   286.5000      0.0000    944.0544      9.9842     77.9565
   286.7500      0.0000    945.5671     10.1077     79.8685
   287.0000      0.0000    944.5526     10.2042     81.8321
   287.2500      0.0000    938.2361     10.2497     84.8110
   287.5000      0.0000    926.6848     10.2487     89.4965
   287.7500      0.0000    911.2247     10.2311     95.9109
   288.0000      0.0000    893.1301     10.2330    103.5419
   288.2500      0.0000    873.9988     10.2747    111.4285
   288.5000      0.0000    856.2993     10.3553    118.1046
   288.7500      0.0000    842.5245     10.4682    121.7826
   289.0000      0.0000    833.7012     10.6116    121.0728
   289.2500      0.0000    829.1270     10.7827    115.7579
   289.5000      0.0000    827.4894     10.9666    106.8075
   289.7500      0.0000    828.0883     11.1371     95.7453
   290.0000      0.0000    831.2667     11.2670     84.2044
   290.2500      0.0000    837.9898     11.3413     73.7820
   290.5000      0.0000    848.8466     11.3696     65.6813
   290.7500      0.0000    863.0547     11.3855     60.2277
   291.0000      0.0000    878.2108     11.4270     56.9361
   291.2500      0.0000    890.9924     11.5095     55.1048
   291.5000      0.0000    898.3404     11.6181     54.0452
   291.7500      0.0000    898.4904     11.7211     52.8486
   292.0000      0.0000    891.4939     11.7902     50.7811
   292.2500      0.0000    879.1566     11.8144     48.2929
   292.5000      0.0000    864.4562     11.8050     46.8802
   292.7500      0.0000    850.5701     11.7842     47.4872
   293.0000      0.0000    839.7880     11.7651     49.6194
   293.2500      0.0000    832.8362     11.7404     52.3067
   293.5000      0.0000    829.0297     11.6963     55.2847
   293.7500      0.0000    827.0191     11.6351     58.7627
