~Version Information
 VERS.                                  2.0 : CWLS LAS VERSION
 WRAP.                                   NO : WRAPING MODE
 SWARE .                 MController 2.5.0J : SOFTWARE VERSION
~Well Information
 WELL.                         Norton 9-14R : WELL
 COMP.                Petrogulf Corporation : COMPANY
 FLD.                       Purgatoire River: FIELD
 LOC.                SW/SW Sec 9 T33S R67W  : LOCATION
 DATE.                            10/5-6/05 : DATE(S) LOGGED
 SRVC.       BLANCO Geological Services LLC : SERVICE COMPANY
 STAT.                                   CO : STATE
 CNTY.                           Las Animas : COUNTY
 CTRY.                                  USA : COUNTRY
 API.                       05-071-08444-00 : API NUMBER
 STRT.FT                              56.00 : START DEPTH
 STOP.FT                            1880.00 : STOP DEPTH
 STEP.FT                               1.00 : DEPTH INCREMENT
 NULL.                                -9999 : NULL VALUE
~Curve information
 DEPTH.FT                                   :
 ROP.MIN/FT                                 :
 GAS.UNITS                                  :
~ASCII Log data
# ...
      1656.0         0.27         15.6 
      1657.0         0.27         15.1 
      1658.0         0.33         13.3 
      1659.0         0.37         11.3 
      1660.0         0.30          9.0 
      1661.0         0.30          8.6 
      1662.0         0.27          8.2 
      1663.0         0.33          8.6 
      1664.0         0.35          8.2 
      1665.0         0.43          8.6 
      1666.0         0.27          8.4 
      1667.0         0.27          8.4 
      1668.0         0.27          8.5 
      1669.0         0.20          8.6 
      1670.0         0.40          9.9 
      1671.0         0.43          9.8 
      1672.0         0.27          9.7 
      1673.0         0.30          9.3 
      1674.0         0.28          9.3 
      1675.0         0.23          9.4 
      1676.0         2.33         20.5 
      1677.0         0.33         20.8 
      1678.0         0.27         21.1 
      1679.0         0.28         19.6 
      1680.0         0.27         18.9 
      1681.0         0.27         16.4 
      1682.0         0.27         14.4 
      1683.0         0.30         13.5 
      1684.0         0.33         13.3 
      1685.0         0.33         12.5 
      1686.0         0.33         12.3 
      1687.0         0.27         12.3 
      1688.0         0.30         11.9 
      1689.0         0.27         11.2 
      1690.0         0.28         10.2 
      1691.0         0.27         10.1 
      1692.0         0.27         10.6 
      1693.0         0.30         10.2 
      1694.0         0.30         10.2 
      1695.0         0.33          9.9 
      1696.0         0.27          9.5 
      1697.0         0.30          9.6 
      1698.0         0.27          9.6 
      1699.0         0.23         10.0 
      1700.0         0.23          9.8 
      1701.0         0.20         10.7 
      1702.0         0.22         11.1 
      1703.0         0.20         12.0 
      1704.0         0.30         11.5 
      1705.0         0.30         11.3 
      1706.0         3.28         24.3 
      1707.0         0.20         15.4 
      1708.0         0.23         15.2 
      1709.0         0.20         14.6 
      1710.0         0.30         14.8 
      1711.0         0.30         15.7 
      1712.0         0.33         15.2 
      1713.0         0.23         14.4 
      1714.0         0.23         13.5 
      1715.0         0.25         13.5 
      1716.0         0.33         13.4 
      1717.0         0.30         12.3 
      1718.0         0.23         11.8 
      1719.0         0.33         11.1 
      1720.0         0.43         10.9 
      1721.0         0.30         14.3 
      1722.0         0.10         18.6 
      1723.0         0.23         25.3 
      1724.0         0.23         29.1 
      1725.0         0.23         29.2 
      1726.0         0.27         29.0 
      1727.0         0.18         28.4 
      1728.0         0.23         27.8 
      1729.0         0.33         26.8 
      1730.0         0.33         25.1 
      1731.0         0.27         23.7 
      1732.0         0.27         22.7 
      1733.0         0.23         21.9 
      1734.0         0.20         19.4 
      1735.0         0.23         16.8 
      1736.0         2.52         35.7 
      1737.0         0.37         27.0 
      1738.0         0.37         27.6 
      1739.0         0.37         26.5 
      1740.0         0.50         24.5 
      1741.0         0.42         23.7 
      1742.0         0.37         22.2 
      1743.0         0.33         20.8 
      1744.0         0.33         20.1 
      1745.0         0.33         19.1 
      1746.0         0.30         18.8 
      1747.0         0.30         18.2 
      1748.0         0.27         17.2 
      1749.0         0.33         16.8 
      1750.0         0.30         16.7 
      1751.0         0.32         16.0 
      1752.0         0.30         16.3 
      1753.0         0.27         16.0 
      1754.0         0.30         15.9 
      1755.0         0.30         15.5 
      1756.0         0.27         15.0 
      1757.0         0.27         14.2 
      1758.0         0.30         14.6 
      1759.0         0.23         14.5 
      1760.0         0.17         17.0 
      1761.0         0.20         21.7 
      1762.0         0.27         25.1 
      1763.0         0.27         25.0 
      1764.0         0.28         23.9 
      1765.0         0.27         22.6 
      1766.0         2.88         35.2 
      1767.0         0.27         26.8 
      1768.0         0.23         29.2 
      1769.0         0.23         30.9 
      1770.0         0.27         30.8 
      1771.0         0.20         29.2 
      1772.0         0.13         31.1 
      1773.0         0.23         45.1 
      1774.0         0.40         51.2 
      1775.0         0.33         50.7 
      1776.0         0.33         45.5 
      1777.0         0.33         38.6 
      1778.0         0.32         33.2 
      1779.0         0.33         29.1 
      1780.0         0.30         25.5 
      1781.0         0.40         23.3 
      1782.0         0.27         20.6 
      1783.0         0.30         19.9 
      1784.0         0.27         19.4 
      1785.0         0.30         19.5 
      1786.0         0.27         19.8 
      1787.0         0.17         19.8 
      1788.0         0.17         21.9 
      1789.0         0.25         23.6 
      1790.0         0.27         24.2 
      1791.0         0.23         24.2 
      1792.0         0.27         23.8 
      1793.0         0.20         23.9 
      1794.0         0.23         23.8 
      1795.0         0.20         23.4 
      1796.0         2.98         42.8 
      1797.0         0.37         29.8 
      1798.0         0.27         30.9 
      1799.0         0.27         31.0 
      1800.0         0.32         29.8 
      1801.0         0.33         27.7 
      1802.0         0.33         26.9 
      1803.0         0.33         26.3 
      1804.0         0.30         24.9 
      1805.0         0.23         23.1 
      1806.0         0.30         21.9 
      1807.0         0.33         20.7 
      1808.0         0.30         19.2 
      1809.0         0.35         18.5 
      1810.0         0.33         17.8 
      1811.0         0.27         17.1 
      1812.0         0.30         16.7 
      1813.0         0.27         16.5 
      1814.0         0.20         16.4 
      1815.0         0.27         16.3 
      1816.0         0.27         15.6 
      1817.0         0.30         15.1 
      1818.0         0.30         15.0 
      1819.0         0.30         15.1 
      1820.0         0.28         15.5 
      1821.0         0.27         15.3 
      1822.0         0.27         16.2 
      1823.0         0.23         16.5 
      1824.0         0.33         16.3 
      1825.0         0.37         16.3 
      1826.0         3.18         38.2 
      1827.0         0.43         30.4 
      1828.0         0.40         31.8 
      1829.0         0.37         31.7 
      1830.0         0.32         31.8 
      1831.0         0.30         33.3 
      1832.0         0.27         32.6 
      1833.0         0.27         29.2 
      1834.0         0.30         25.7 
      1835.0         0.27         23.4 
      1836.0         0.27         20.9 
      1837.0         0.23         18.6 
      1838.0         0.30         17.9 
      1839.0         0.30         17.6 
      1840.0         0.30         16.6 
      1841.0         0.35         16.2 
      1842.0         0.33         15.4 
      1843.0         0.27         14.9 
      1844.0         0.33         14.7 
      1845.0         0.30         14.2 
      1846.0         0.27         15.1 
      1847.0         0.23         15.8 
      1848.0         0.23         17.0 
      1849.0         0.20         17.3 
      1850.0         0.23         17.7 
      1851.0         0.27         17.9 
      1852.0         0.23         16.7 
      1853.0         0.23         17.0 
      1854.0         0.28         16.5 
      1855.0         0.20         16.0 
