~Version Information
VERS.                      2.0: CWLS Log ASCII Standard - VERSION 2.0
WRAP.                       NO: One line per depth step
~Well Information Block
STRT.FT               830.0000: 
STOP.FT              1782.5000: 
STEP.FT                 0.1000: 
NULL.                -999.2500: 
COMP.          Pioneer Natural Resources: COMPANY
WELL.          Manville 42-14 Tr: WELL
FLD.           Purgatoire River: FIELD
LOC.           2018 FNL & 562' FEL: LOCATION
STAT.                 Colorado: State
CNTY.               Las Animas: COUNTY
CTRY. USA : Country
SECT. 14 : Section
TOWN. 32S : Township
RANG. 66W : Range
SRVC.                Patterson: SERVICE COMPANY
DATE.          Mon Sep 19 09:44:06 2005: LOG DATE
API.           05 071 08522 00: UNIQUE WELL ID
~Curve Information Block
DEPT.FT            0 000 00 00: Depth
DCAL.in                       : CDL Caliper
RHOB.g/cc                     : CDL Bulk Density
RHOC.g/cc                     : CDL Density Correction
DPOR.pu                       : CDL Density Porosity
GR.GAPI                       : Gamma Ray
NPOR.pu                       : Neutron Porosity
~Parameter Information Block
~A  Depth       DCAL        RHOB        RHOC        DPOR         GR         NPOR    
# ...
   897.2000      8.2816      2.5306      0.0359      7.2360    109.9846     28.7110
   897.3000      8.1454      2.5200      0.0410      7.8763    110.0339     27.9520
   897.4000      8.1454      2.5170      0.0538      8.0586    114.2838     27.1957
   897.5000      8.1010      2.5139      0.0563      8.2481    117.2347     26.6951
   897.6000      8.1010      2.5069      0.0239      8.6744    114.8541     26.3496
   897.7000      8.1010      2.5126     -0.0082      8.3267    107.8710     25.7318
   897.8000      8.0699      2.5370      0.1427      6.8506     98.0934     24.7337
   897.9000      8.0699      2.5571      0.1471      5.6304     89.1759     23.7597
   898.0000      8.0285      2.5662      0.1144      5.0803     86.5684     23.2795
   898.1000      8.0285      2.5815      0.0909      4.1497     89.2967     23.3492
   898.2000      8.0285      2.6115      0.1249      2.3339     90.2377     23.5117
   898.3000      7.9912      2.6447      0.1863      0.3232     88.3795     23.4033
   898.4000      7.9912      2.6612      0.1514     -0.6761     88.2561     23.1296
   898.5000      7.9940      2.6498      0.1857      0.0134     89.8314     22.7778
   898.6000      7.9940      2.6164      0.1446      2.0346     89.9142     22.4118
   898.7000      7.9940      2.5810      0.1027      4.1833     88.8344     22.3407
   898.8000      8.0188      2.5607      0.0692      5.4145     89.1158     22.5626
   898.9000      8.0188      2.5577      0.0542      5.5945     89.8179     22.7240
   899.0000      8.0555      2.5655      0.0194      5.1211     86.3897     22.7931
   899.1000      8.0555      2.5826      0.0312      4.0841     81.3640     22.9609
   899.2000      8.0555      2.6008      0.1023      2.9798     83.6593     23.2181
   899.3000      8.0445      2.6005      0.0761      3.0007     89.7183     23.5280
   899.4000      8.0445      2.5836      0.0282      4.0225     91.8876     23.9218
   899.5000      8.0600      2.5743      0.0715      4.5866     92.6234     24.2814
   899.6000      8.0600      2.5822      0.0403      4.1096     96.0912     24.3929
   899.7000      8.0600      2.6016      0.0374      2.9344    101.9315     24.1517
   899.8000      8.0671      2.6255      0.0498      1.4871    106.9892     23.8008
   899.9000      8.0671      2.6427      0.0718      0.4399    108.4929     23.6148
   900.0000      8.0425      2.6373      0.0878      0.7676    108.1220     23.5902
   900.1000      8.0425      2.6100      0.0200      2.4214    107.5599     23.5557
   900.2000      8.0425      2.5841      0.0414      3.9940    105.3215     23.3153
   900.3000      8.0486      2.5719      0.0669      4.7363    103.4974     23.1349
   900.4000      8.0486      2.5661      0.0255      5.0834    105.8231     23.3399
   900.5000      8.0790      2.5559      0.0265      5.7016    109.8479     23.7064
   900.6000      8.0790      2.5437     -0.0340      6.4449    111.2289     23.9059
   900.7000      8.0790      2.5432      0.0443      6.4753    110.3809     23.8332
   900.8000      8.1465      2.5541      0.0123      5.8143    109.8754     23.6643
   900.9000      8.1465      2.5690      0.0229      4.9114    111.4739     23.7425
   901.0000      8.1028      2.5814      0.0470      4.1576    114.4709     24.0731
   901.1000      8.1028      2.5869      0.0389      3.8215    114.8563     24.3216
   901.2000      8.1028      2.5908      0.0013      3.5882    110.6059     24.2333
   901.3000      8.1088      2.6028      0.0402      2.8635    104.4277     23.9866
   901.4000      8.1088      2.6206      0.0869      1.7846    100.8443     23.8393
   901.5000      8.1024      2.6259      0.0539      1.4611    101.2519     23.7877
   901.6000      8.1024      2.6066      0.0227      2.6274    102.8103     23.7789
   901.7000      8.1024      2.5750     -0.0285      4.5433    105.0920     23.7036
   901.8000      8.0725      2.5509     -0.0200      6.0042    107.4557     23.5510
   901.9000      8.0725      2.5469     -0.0659      6.2491    103.8270     23.4708
   902.0000      8.0811      2.5631      0.0531      5.2697     95.1769     23.4459
   902.1000      8.0811      2.5804      0.0222      4.2170     90.4388     23.4163
   902.2000      8.0811      2.5843      0.0756      3.9835     90.8813     23.5139
   902.3000      8.1108      2.5705      0.0850      4.8176     90.8101     23.7882
   902.4000      8.1108      2.5516      0.0103      5.9630     87.4838     24.0419
   902.5000      8.1174      2.5470      0.0571      6.2431     83.3881     24.1832
   902.6000      8.1174      2.5454      0.0677      6.3411     82.5776     24.4252
   902.7000      8.1174      2.5349      0.0136      6.9747     84.9514     24.7985
   902.8000      8.1114      2.5346      0.0287      6.9911     86.9916     25.2240
   902.9000      8.1114      2.5611      0.0194      5.3857     89.3254     25.7643
   903.0000      8.0624      2.6163      0.0616      2.0409     93.7227     26.4410
   903.1000      8.0624      2.6828      0.1269     -1.9905     98.4412     27.0495
   903.2000      8.0624      2.7268      0.1251     -4.6560    100.2776     27.1978
   903.3000      8.0518      2.7343      0.0824     -5.1107     97.1550     26.9381
   903.4000      8.0518      2.7228      0.0836     -4.4106     90.3671     26.6581
   903.5000      8.0784      2.7068      0.1276     -3.4424     81.8479     26.3959
   903.6000      8.0784      2.6803      0.1376     -1.8343     73.6758     25.9872
   903.7000      8.0784      2.6405      0.0437      0.5783     68.8650     25.6036
   903.8000      8.0481      2.5966      0.0307      3.2370     67.7899     25.4451
   903.9000      8.0481      2.5492      0.0314      6.1120     68.1765     25.1697
   904.0000      8.0136      2.5062     -0.0402      8.7160     69.6190     24.5289
   904.1000      8.0136      2.4891      0.0024      9.7497     72.5910     23.9779
   904.2000      8.0136      2.4978      0.0774      9.2271     77.0495     23.7105
   904.3000      8.0077      2.5178      0.1133      8.0111     79.8213     23.5188
   904.4000      8.0077      2.5453      0.1016      6.3433     77.3688     23.2058
   904.5000      8.0145      2.5791      0.0547      4.2947     73.8566     22.7500
   904.6000      8.0145      2.6161      0.1507      2.0554     74.4148     22.6203
   904.7000      8.0145      2.6487      0.1773      0.0813     77.8714     23.1668
   904.8000      8.0137      2.6639      0.1939     -0.8421     80.3806     23.9724
   904.9000      8.0137      2.6506      0.1759     -0.0355     78.8530     24.2553
   905.0000      8.0194      2.6215      0.0652      1.7269     75.4510     23.8972
   905.1000      8.0194      2.6064      0.0853      2.6435     74.7083     23.5039
   905.2000      8.0194      2.6016      0.1002      2.9349     75.8807     23.3221
   905.3000      8.0354      2.5784      0.0865      4.3389     79.0912     23.2700
   905.4000      8.0354      2.5315      0.0292      7.1827     86.8301     23.2886
   905.5000      8.0293      2.4762      0.0228     10.5353     97.6508     23.1724
   905.6000      8.0293      2.4286     -0.0359     13.4177    107.2927     22.9102
   905.7000      8.0293      2.4026     -0.0535     14.9967    111.1576     22.7192
   905.8000      8.0484      2.4038     -0.0624     14.9235    108.6506     22.7279
   905.9000      8.0484      2.4340     -0.0205     13.0906    104.7250     22.9288
   906.0000      8.0658      2.4855      0.0053      9.9703    102.5745     23.2265
   906.1000      8.0658      2.5290      0.0908      7.3348    101.8210     23.4359
   906.2000      8.0658      2.5384      0.1094      6.7630    103.0698     23.5266
   906.3000      8.0592      2.5212      0.0918      7.8038    105.4438     23.6084
   906.4000      8.0592      2.4955      0.1601      9.3620    107.2343     23.7904
   906.5000      8.0718      2.4658      0.1364     11.1644    109.2437     24.1163
   906.6000      8.0718      2.4467      0.0634     12.3209    111.9816     24.6380
   906.7000      8.0718      2.4630      0.0975     11.3324    116.2285     25.3744
