~Version Information
VERS.                      2.0: CWLS Log ASCII Standard - VERSION 2.0
WRAP.                       NO: One line per depth step
~Well Information Block
STRT.FT                -7.5000: 
STOP.FT              1310.7500: 
STEP.FT                 0.2500: 
NULL.                -999.2500: 
COMP.          Pioneer Natural Resources: COMPANY
WELL.          Challenger 31-29: WELL
FLD.           Purgatorie River: FIELD
LOC.           51' FNL & 1923' FEL------: LOCATION
STAT.                       CO: State
CNTY.               Las Animas: COUNTY
CTRY. USA : Country
SECT. 29 : Section
TOWN. 33S : Township
RANG. 65W : Range
SRVC.          Patterson Wireline: SERVICE COMPANY
DATE.          Wed Sep 21 12:11:38 2005: LOG DATE
API.           05 071 08514 00: UNIQUE WELL ID
~Curve Information Block
DEPT.FT            0 000 00 00: Depth
CCL.                          : Casing Collar Locator
TT3.usec                      : CBL 3' Travel Time
AMP3.mV                       : CBL 3' Amplitude
GR.GAPI                       : Gamma Ray
~Parameter Information Block
~A  Depth       CCL         TT3         AMP3         GR     
# ...
   595.5000      0.0000    304.5451     22.2726    123.8166
   595.7500      0.0000    304.5050     22.1936    122.2648
   596.0000      0.0000    304.4671     22.1613    123.7686
   596.2500      0.0000    304.4312     22.1756    129.1886
   596.5000      0.0000    304.3977     22.2231    137.5403
   596.7500      0.0000    304.3818     22.2802    146.9938
   597.0000      0.0000    304.4073     22.3268    155.8899
   597.2500      0.0000    304.4839     22.3591    162.9461
   597.5000      0.0000    304.5941     22.3886    167.1965
   597.7500      0.0000    304.7020     22.4290    168.0500
   598.0000      0.0000    304.7730     22.4880    165.5004
   598.2500      0.0000    304.7802     22.5717    160.4602
   598.5000      0.0000    304.6990     22.6909    154.7322
   598.7500      0.0000    304.5172     22.8529    150.2277
   599.0000      0.0000    304.2621     23.0483    148.1467
   599.2500      0.0000    303.9968     23.2540    148.7814
   599.5000      0.0000    303.7717     23.4561    151.3504
   599.7500      0.0000    303.5911     23.6568    153.8196
   600.0000      0.0000    303.4419     23.8522    153.9655
   600.2500      0.0000    303.3281     24.0211    151.5502
   600.5000      0.0000    303.2524     24.1535    148.9823
   600.7500      0.0000    303.1884     24.2726    149.0307
   601.0000      0.0000    303.0987     24.4122    151.9354
   601.2500      0.0000    302.9760     24.5798    155.1618
   601.5000      0.0000    302.8479     24.7478    155.8037
   601.7500      0.0000    302.7484     24.8720    152.9618
   602.0000      0.0000    302.6924     24.9219    148.0011
   602.2500      0.0000    302.6721     24.9062    142.8462
   602.5000      0.0000    302.6695     24.8683    138.1739
   602.7500      0.0000    302.6754     24.8437    133.4206
   603.0000      0.0000    302.6982     24.8232    128.3889
   603.2500      0.0000    302.7503     24.7709    124.0542
   603.5000      0.0000    302.8309     24.6670    121.2994
   603.7500      0.0000    302.9251     24.5246    119.4260
   604.0000      0.0000    303.0114     24.3735    116.6803
   604.2500      0.0000    303.0655     24.2403    112.2187
   604.5000      0.0000    303.0673     24.1380    107.0982
   604.7500      0.0000    303.0175     24.0602    103.3319
   605.0000      0.0000    302.9462     23.9853    102.1484
   605.2500      0.0000    302.8936     23.8983    102.9957
   605.5000      0.0000    302.8762     23.8154    104.0501
   605.7500      0.0000    302.8922     23.7854    103.5410
   606.0000      0.0000    302.9798     23.8592    100.4106
   606.2500      0.0000    303.4810     24.0430     94.1912
   606.5000      0.0000    305.5871     24.2582     85.3228
   606.7500      0.0000    312.0616     24.3260     75.8440
   607.0000      0.0000    326.9844     24.0114     68.7594
   607.2500      0.0000    352.9243     23.1456     65.9310
   607.5000      0.0000    386.4910     21.7554     66.6471
   607.7500      0.0000    417.4059     20.0818     68.3911
   608.0000      0.0000    434.6008     18.4722     68.9204
   608.2500      0.0000    434.4076     17.2352     67.7176
   608.5000      0.0000    422.3555     16.5215     65.7900
   608.7500      0.0000    407.7722     16.2752     64.5140
   609.0000      0.0000    397.7693     16.3033     64.8411
   609.2500     -2.0000    395.6776     16.4112     67.0738
   609.5000      0.0000    402.1482     16.4943     70.6907
   609.7500      0.0000    414.4447     16.5632     74.4383
   610.0000      0.0000    424.4017     16.7428     77.0096
   610.2500      0.0000    421.2819     17.2334     77.6388
   610.5000      0.0000    400.6597     18.1987     76.1871
   610.7500      0.0000    369.4676     19.6296     73.2075
   611.0000      0.0000    339.8918     21.2890     70.0011
   611.2500      0.0000    319.6073     22.8075     68.0578
   611.5000      0.0000    308.8930     23.8878     68.0955
   611.7500      0.0000    304.3358     24.4513     69.6594
   612.0000      0.0000    302.7213     24.6079     71.6725
   612.2500      0.0000    302.2467     24.5268     73.5010
   612.5000      0.0000    302.1461     24.3472     75.6893
   612.7500      0.0000    302.1608     24.1554     79.6148
   613.0000      0.0000    302.2018     23.9895     86.1203
   613.2500      0.0000    302.2546     23.8554     94.4095
   613.5000      0.0000    302.3131     23.7531    102.2873
   613.7500      0.0000    302.3701     23.6878    107.3802
   614.0000      0.0000    302.4157     23.6614    108.3119
   614.2500      0.0000    302.4428     23.6615    105.2662
   614.5000      0.0000    302.4512     23.6628     99.6083
   614.7500      0.0000    302.4478     23.6363     92.7829
   615.0000      0.0000    302.4409     23.5607     85.5674
   615.2500      0.0000    302.4365     23.4309     78.3286
   615.5000      0.0000    302.4396     23.2580     71.5842
   615.7500      0.0000    302.4557     23.0664     65.9882
   616.0000      0.0000    302.4836     22.8952     61.8956
   616.2500      0.0000    302.5107     22.7921     59.1795
   616.5000      0.0000    302.5182     22.7912     57.5400
   616.7500      0.0000    302.4962     22.8943     56.9985
   617.0000      0.0000    302.4527     23.0764     58.2024
   617.2500      0.0000    302.4098     23.3059     62.3030
   617.5000      0.0000    302.3878     23.5529     70.3124
   617.7500      0.0000    302.3874     23.7888     82.2085
   618.0000      0.0000    302.3855     23.9912     96.3890
   618.2500      0.0000    302.3568     24.1555    110.0328
   618.5000      0.0000    302.3000     24.3001    120.1713
   618.7500      0.0000    302.2361     24.4587    124.7644
   619.0000      0.0000    302.1836     24.6584    123.3826
   619.2500      0.0000    302.1420     24.9010    117.4160
   619.5000      0.0000    302.0974     25.1673    109.4053
   619.7500      0.0000    302.0346     25.4413    101.5877
   620.0000      0.0000    301.9552     25.7168     94.9895
   620.2500      0.0000    301.9000     25.9720     90.0375
   620.5000      0.0000    302.0130     26.1407     87.7648
   620.7500      0.0000    302.6916     26.1150     89.8315
   621.0000      0.0000    304.8228     25.7787     96.9442
   621.2500      0.0000    309.8251     25.0619    107.5609
   621.5000      0.0000    318.9867     23.9937    118.7646
   621.7500      0.0000    332.1348     22.7178    128.0747
   622.0000      0.0000    346.8977     21.4502    133.7357
   622.2500      0.0000    359.8402     20.3939    134.1017
   622.5000      0.0000    368.6729     19.6608    128.4419
   622.7500      0.0000    373.2842     19.2510    118.4620
   623.0000      0.0000    374.8342     19.0970    107.7589
   623.2500      0.0000    374.2551     19.1319     99.4108
   623.5000      0.0000    371.5616     19.3380     94.4465
   623.7500      0.0000    366.2208     19.7498     92.2270
   624.0000      0.0000    358.0338     20.4235     91.6107
   624.2500      0.0000    347.6902     21.4038     91.8711
   624.5000      0.0000    336.5020     22.7127     93.0978
   624.7500      0.0000    325.7725     24.3488     96.0183
   625.0000      0.0000    316.5284     26.2566    101.3141
   625.2500      0.0000    309.4910     28.2769    109.1105
   625.5000      0.0000    304.8930     30.1452    118.9962
   625.7500      0.0000    302.3633     31.5839    130.0925
   626.0000      0.0000    301.1917     32.4284    140.9453
   626.2500      0.0000    300.7316     32.6886    149.7762
   626.5000      0.0000    300.5848     32.5158    155.4266
   626.7500      0.0000    300.5621     32.1166    158.2186
   627.0000      0.0000    300.5905     31.6698    159.5508
   627.2500      0.0000    300.6456     31.2839    160.4623
   627.5000      0.0000    300.7179     30.9981    160.8644
   627.7500      0.0000    300.8025     30.8055    160.2407
   628.0000      0.0000    300.8967     30.6773    158.4592
   628.2500      0.0000    300.9964     30.5801    155.5326
   628.5000      0.0000    301.0916     30.4873    151.2477
   628.7500      0.0000    301.1677     30.3806    145.5355
