~Version Information
VERS.                      2.0: CWLS Log ASCII Standard - VERSION 2.0
WRAP.                       NO: One line per depth step
~Well Information Block
STRT.FT                -7.7500: 
STOP.FT              1793.5000: 
STEP.FT                 0.2500: 
NULL.                -999.2500: 
COMP.          Pioneer Natural Resources: COMPANY
WELL.           Loews 41-32 Tr: WELL
FLD.           Purgatorie River: FIELD
LOC.           706' FNL & 224' FEL--: LOCATION
CNTY.               Las Animas: COUNTY
SRVC.          Patterson Wireline: SERVICE COMPANY
DATE.          Fri Feb 24 11:31:48 2006: LOG DATE
UWI.           05 071 08690 00: UNIQUE WELL ID
STAT.                       CO: STATE
~Curve Information Block
DEPT.FT            0 000 00 00: Depth
CCL.                          : Casing Collar Locator
TT3.usec                      : CBL 3' Travel Time
AMP3.mV                       : CBL 3' Amplitude
GR.GAPI                       : Gamma Ray
~Parameter Information Block
~A  Depth       CCL         TT3         AMP3         GR     
# ...
  1633.7500      0.0000    451.7544     12.7697    116.5564
  1634.0000      0.0000    465.9128     12.1151    120.9401
  1634.2500      0.0000    478.9912     11.2565    124.9084
  1634.5000      0.0000    492.3875     10.3552    126.0108
  1634.7500      0.0000    507.0229      9.6411    123.2808
  1635.0000      0.0000    519.8146      9.2431    117.5398
  1635.2500      0.0000    521.8763      9.1215    110.1568
  1635.5000     -2.0000    504.6536      9.1512    101.9454
  1635.7500      2.0000    469.7799      9.2298     93.4947
  1636.0000      0.0000    430.3490      9.3107     86.0801
  1636.2500      0.0000    401.4502      9.3815     81.4393
  1636.5000      0.0000    390.4398      9.4489     80.5531
  1636.7500      0.0000    394.6529      9.5441     82.9640
  1637.0000      0.0000    405.4108      9.7222     87.2247
  1637.2500      0.0000    414.4195     10.0390     91.7185
  1637.5000      0.0000    418.9333     10.5015     95.2361
  1637.7500      0.0000    421.9121     11.0305     97.2484
  1638.0000      0.0000    426.9456     11.4958     97.7917
  1638.2500      0.0000    433.1389     11.8027     97.1453
  1638.5000      0.0000    435.1927     11.9381     95.7052
  1638.7500      0.0000    428.2942     11.9426     94.0378
  1639.0000      0.0000    412.5624     11.8674     92.7578
  1639.2500      0.0000    392.8517     11.7554     92.1260
  1639.5000      0.0000    374.9225     11.6391     91.7680
  1639.7500      0.0000    362.0714     11.5379     91.0090
  1640.0000      0.0000    354.5286     11.4534     89.5830
  1640.2500      0.0000    350.8114     11.3709     87.8024
  1640.5000      0.0000    349.2299     11.2728     85.9776
  1640.7500      0.0000    348.6073     11.1571     84.0297
  1641.0000      0.0000    348.3031     11.0425     81.8806
  1641.2500      0.0000    348.0383     10.9501     79.7631
  1641.5000      0.0000    347.8095     10.8864     78.0273
  1641.7500      0.0000    347.9098     10.8431     76.9959
  1642.0000      0.0000    349.0091     10.8103     76.9953
  1642.2500      0.0000    352.4090     10.7851     78.1073
  1642.5000      0.0000    360.4305     10.7716     79.7523
  1642.7500      0.0000    376.8543     10.7753     80.7103
  1643.0000      0.0000    406.7479     10.7948     79.7225
  1643.2500      0.0000    454.0644     10.8195     76.2396
  1643.5000      0.0000    516.6362     10.8390     70.8677
  1643.7500      0.0000    582.8290     10.8562     65.1836
  1644.0000      0.0000    635.1767     10.8857     60.8606
  1644.2500      0.0000    658.9240     10.9387     58.7597
  1644.5000      0.0000    648.0440     11.0139     58.6776
  1644.7500      0.0000    606.3213     11.1034     59.6841
  1645.0000      0.0000    545.8870     11.1989     60.7162
  1645.2500      0.0000    483.0369     11.2893     61.2085
  1645.5000      0.0000    431.1247     11.3571     61.4174
  1645.7500      0.0000    395.4657     11.3825     62.0961
  1646.0000      0.0000    374.5768     11.3518     63.7643
  1646.2500      0.0000    364.9058     11.2657     66.1895
  1646.5000      0.0000    363.5260     11.1396     68.3953
  1646.7500      0.0000    367.7164     10.9946     69.2692
  1647.0000      0.0000    373.9710     10.8461     68.5338
  1647.2500      0.0000    378.4480     10.6980     67.1342
  1647.5000      0.0000    378.5780     10.5486     66.3613
  1647.7500      0.0000    374.3846     10.3982     66.6289
  1648.0000      0.0000    368.4273     10.2514     67.4353
  1648.2500      0.0000    364.3480     10.1115     68.4083
  1648.5000      0.0000    364.9292      9.9754     69.9666
  1648.7500      0.0000    370.9135      9.8343     72.9007
  1649.0000      0.0000    381.2641      9.6786     77.5638
  1649.2500      0.0000    394.5527      9.4977     83.6162
  1649.5000      0.0000    410.5384      9.2713     90.4064
  1649.7500      0.0000    431.2977      8.9630     97.2520
  1650.0000      0.0000    461.2261      8.5280    103.2507
  1650.2500      0.0000    504.4155      7.9323    107.3032
  1650.5000      0.0000    559.5606      7.1757    108.8589
  1650.7500      0.0000    617.3220      6.3008    108.5538
  1651.0000      0.0000    664.9933      5.3774    107.7459
  1651.2500      0.0000    694.8937      4.4759    107.4052
  1651.5000      0.0000    707.7993      3.6532    107.4107
  1651.7500      0.0000    709.4848      2.9512    106.6939
  1652.0000      0.0000    706.3000      2.3975    104.0795
  1652.2500      0.0000    703.6600      2.0028     99.2832
  1652.5000      0.0000    705.7548      1.7626     93.2327
  1652.7500      0.0000    714.3577      1.6606     87.3432
  1653.0000      0.0000    727.5089      1.6737     82.5465
  1653.2500      0.0000    740.4791      1.7846     79.1982
  1653.5000      0.0000    749.2963      1.9990     77.7504
  1653.7500      0.0000    753.2661      2.3481     79.0439
  1654.0000      0.0000    753.4532      2.8752     83.6623
  1654.2500      0.0000    750.0207      3.6217     91.0674
  1654.5000      0.0000    742.3563      4.6217     99.5648
  1654.7500      0.0000    729.1787      5.8915    107.2614
  1655.0000      0.0000    705.8273      7.4023    113.2982
  1655.2500      0.0000    664.7744      9.0499    118.3468
  1655.5000      0.0000    604.0781     10.6447    123.6600
  1655.7500      0.0000    534.5104     11.9530    129.2794
  1656.0000      0.0000    473.7431     12.7951    133.4031
  1656.2500      0.0000    433.0495     13.1399    134.0918
  1656.5000      0.0000    411.7624     13.1088    131.4497
  1656.7500      0.0000    402.4349     12.8837    127.5287
  1657.0000      0.0000    397.3874     12.6087    124.2443
  1657.2500      0.0000    391.3846     12.3543    122.0485
  1657.5000      0.0000    382.6636     12.1353    120.5639
  1657.7500      0.0000    373.6100     11.9410    119.7310
  1658.0000      0.0000    369.7241     11.7543    119.9196
  1658.2500      0.0000    376.3393     11.5600    121.3005
  1658.5000      0.0000    394.4533     11.3504    123.3882
  1658.7500      0.0000    418.3575     11.1290    125.0064
  1659.0000      0.0000    439.1928     10.9096    124.7265
  1659.2500      0.0000    453.0562     10.7075    121.7121
  1659.5000      0.0000    463.8372     10.5290    116.3729
  1659.7500      0.0000    476.2194     10.3664    110.3064
  1660.0000      0.0000    489.4790     10.2039    105.6076
  1660.2500      0.0000    501.6565     10.0254    103.8809
  1660.5000      0.0000    516.4910      9.8082    105.3601
  1660.7500      0.0000    541.5251      9.5085    108.8427
  1661.0000      0.0000    579.5074      9.0633    112.6096
  1661.2500      0.0000    623.8743      8.4290    115.3079
  1661.5000      0.0000    663.3723      7.6294    115.9221
  1661.7500      0.0000    690.6245      6.7718    113.5862
  1662.0000      0.0000    706.1180      6.0049    108.1384
  1662.2500      0.0000    715.0151      5.4442    100.6691
  1662.5000      0.0000    721.6322      5.1229     92.9887
  1662.7500      0.0000    726.7334      5.0024     86.6741
  1663.0000      0.0000    728.7469      5.0216     82.8356
  1663.2500      0.0000    726.5634      5.1394     82.2976
  1663.5000      0.0000    720.9786      5.3500     85.2607
  1663.7500      0.0000    713.4129      5.6794     90.6461
  1664.0000      0.0000    703.0782      6.1851     96.2726
  1664.2500      0.0000    685.4406      6.9492    100.1774
  1664.5000      0.0000    654.3152      8.0414    101.7158
  1664.7500      0.0000    607.3571      9.4494    101.4559
  1665.0000      0.0000    550.9932     11.0245    100.6388
  1665.2500      0.0000    499.7734     12.5074    100.7907
  1665.5000      0.0000    469.5442     13.6426    102.9348
  1665.7500      0.0000    469.1175     14.3017    106.7616
  1666.0000      0.0000    495.4445     14.5245    110.9495
  1666.2500      0.0000    534.6332     14.4638    114.3055
  1666.5000      0.0000    569.4560     14.2927    116.3976
  1666.7500      0.0000    590.6798     14.1362    117.4298
  1667.0000      0.0000    602.9565     14.0483    117.9264
