~Version Information
VERS.                      2.0: CWLS Log ASCII Standard - VERSION 2.0
WRAP.                       NO: One line per depth step
~Well Information Block
STRT.FT               325.0000: 
STOP.FT              1014.5000: 
STEP.FT                 0.2500: 
NULL.                -999.2500: 
COMP.          Pioneer Natural Resources: COMPANY
WELL.                Doc 34-30: WELL
FLD.           Purgatoire River: FIELD
LOC.           454' FSL & 1386' FEL: LOCATION
CNTY.               Las Animas: COUNTY
SRVC.                Patterson: SERVICE COMPANY
DATE.          Wed Feb 15 20:26:19 2006: LOG DATE
UWI.           05 071 08694 00: UNIQUE WELL ID
STAT.                 Colorado: STATE
~Curve Information Block
DEPT.FT            0 000 00 00: Depth
SN.Ohm-m                      : IEL Short Normal
SP.mV                         : IEL Spontaneous Potential
DIR.Ohm-m                     : IEL Induction Resistivity
GR.GAPI                       : Gamma Ray
~Parameter Information Block
~A  Depth        SN          SP         DIR          GR     
   325.0000   2000.0000   2000.0000     60.2719    107.3007
   325.2500   2000.0000   2000.0000     60.4568    104.2705
   325.5000   2000.0000   2000.0000     60.5655    100.0049
   325.7500   2000.0000   2000.0000     60.5342     98.9224
   326.0000   2000.0000   2000.0000     60.3295    100.7067
   326.2500   2000.0000   2000.0000     59.9250    103.4181
   326.5000   2000.0000   2000.0000     59.3187    108.4115
   326.7500   2000.0000   2000.0000     58.5646    112.2558
   327.0000   2000.0000   2000.0000     57.7772    119.0217
   327.2500   2000.0000   2000.0000     57.1020    123.8979
   327.5000   2000.0000   2000.0000     56.6808    130.6801
   327.7500   2000.0000   2000.0000     56.6380    134.4050
   328.0000   2000.0000   2000.0000     57.0699    138.6394
   328.2500   2000.0000   2000.0000     58.0111    140.5333
   328.5000   2000.0000   2000.0000     59.3835    141.7158
   328.7500   2000.0000   2000.0000     60.9579    141.2609
   329.0000   2000.0000   2000.0000     62.3890    138.9333
   329.2500   2000.0000   2000.0000     63.3428    136.7492
   329.5000   2000.0000   2000.0000     63.6646    133.7496
   329.7500   2000.0000   2000.0000     63.4554    132.8414
   330.0000   2000.0000   2000.0000     62.9865    134.5048
   330.2500   2000.0000   2000.0000     62.5058    137.7326
   330.5000   2000.0000   2000.0000     62.0740    144.0525
   330.7500   2000.0000   2000.0000     61.5161    147.7444
   331.0000   2000.0000   2000.0000     60.4907    150.8600
   331.2500   2000.0000   2000.0000     58.6590    151.2035
   331.5000   2000.0000   2000.0000     55.9177    149.4978
   331.7500   2000.0000   2000.0000     52.5559    147.0986
   332.0000   2000.0000   2000.0000     49.1632    141.9585
   332.2500   2000.0000   2000.0000     46.3120    137.6195
   332.5000   2000.0000   2000.0000     44.2868    129.5354
   332.7500   2000.0000   2000.0000     43.0164    118.8596
   333.0000   2000.0000   2000.0000     42.1745    108.2103
   333.2500   2000.0000   2000.0000     41.3533    101.2904
   333.5000   2000.0000   2000.0000     40.2464     92.6198
   333.7500   2000.0000   2000.0000     38.7893     79.0251
   334.0000   2000.0000   2000.0000     37.2463     74.2628
   334.2500   2000.0000   2000.0000     36.2456     71.8154
   334.5000   2000.0000   2000.0000     36.7813     69.8578
   334.7500   2000.0000   2000.0000     40.4265     62.0753
   335.0000   2000.0000   2000.0000     50.4948     64.6617
   335.2500   2000.0000   2000.0000     77.2875     67.3878
   335.5000   2000.0000   2000.0000    178.0498     72.3210
   335.7500   2000.0000   2000.0000 100000.0000     66.2470
   336.0000   2000.0000   2000.0000 100000.0000     72.0412
   336.2500   2000.0000   2000.0000 100000.0000     75.8652
   336.5000   2000.0000   2000.0000 100000.0000     79.6604
   336.7500   2000.0000   2000.0000 100000.0000     79.8285
   337.0000   2000.0000   2000.0000 100000.0000     76.1249
   337.2500   2000.0000   2000.0000 100000.0000     71.9916
   337.5000   2000.0000   2000.0000 100000.0000     66.4248
   337.7500   2000.0000   2000.0000 100000.0000     64.8576
   338.0000   2000.0000   2000.0000 100000.0000     67.0189
   338.2500   2000.0000   2000.0000 100000.0000     71.1805
   338.5000   2000.0000   2000.0000 100000.0000     79.8560
   338.7500   2000.0000   2000.0000 100000.0000     85.8819
   339.0000   2000.0000   2000.0000 100000.0000     92.6636
   339.2500   2000.0000   2000.0000 100000.0000     94.6016
   339.5000   2000.0000   2000.0000 100000.0000     93.7542
   339.7500   2000.0000   2000.0000 100000.0000     91.7960
   340.0000   2000.0000   2000.0000 100000.0000     88.6862
   340.2500   2000.0000   2000.0000 100000.0000     86.8476
   340.5000   2000.0000   2000.0000 100000.0000     84.1584
   340.7500   2000.0000   2000.0000 100000.0000     82.4181
   341.0000   2000.0000   2000.0000 100000.0000     80.3259
   341.2500   2000.0000   2000.0000 100000.0000     79.3631
   341.5000   2000.0000   2000.0000 100000.0000     78.4420
   341.7500   2000.0000   2000.0000     77.7478     78.3889
   342.0000   2000.0000   2000.0000      7.8610     80.0131
   342.2500   2000.0000   2000.0000      4.3410     82.3946
   342.5000   2000.0000   2000.0000      3.3894     86.7482
   342.7500   2000.0000   2000.0000      3.1824     88.9746
   343.0000   2000.0000   2000.0000      3.3545     90.0350
   343.2500   2000.0000   2000.0000      3.8244     89.5532
   343.5000   2000.0000   2000.0000      4.6618     88.7814
   343.7500   2000.0000   2000.0000      6.1586     89.0056
   344.0000   2000.0000   2000.0000      9.1097     90.7537
   344.2500   2000.0000   2000.0000     15.6773     92.8648
   344.5000   2000.0000   2000.0000     31.1928     97.3492
   344.7500   2000.0000   2000.0000     53.6676    100.6022
   345.0000   2000.0000   2000.0000     45.5323    103.9532
   345.2500   2000.0000   2000.0000     27.6194    104.4750
   345.5000   2000.0000   2000.0000     18.5092    103.4263
   345.7500   2000.0000   2000.0000     14.3362    102.6985
   346.0000   2000.0000   2000.0000     12.3420    103.6120
   346.2500   2000.0000   2000.0000     11.3492    106.4053
   346.5000   2000.0000   2000.0000     10.8315    114.5031
   346.7500   2000.0000   2000.0000     10.5369    122.2760
   347.0000   2000.0000   2000.0000     10.3415    136.0574
   347.2500   2000.0000   2000.0000     10.1929    145.4226
   347.5000   2000.0000   2000.0000     10.0917    157.5654
   347.7500   2000.0000   2000.0000     10.0720    163.4527
   348.0000   2000.0000   2000.0000     10.1685    168.6943
   348.2500   2000.0000   2000.0000     10.3756    170.5529
   348.5000   2000.0000   2000.0000     10.6272    172.6445
   348.7500   2000.0000   2000.0000     10.8204    173.8742
   349.0000   2000.0000   2000.0000     10.8804    174.3049
   349.2500   2000.0000   2000.0000     10.8128    172.8681
   349.5000   2000.0000   2000.0000     10.6866    168.4135
   349.7500   2000.0000   2000.0000     10.5747    165.0125
   350.0000   2000.0000   2000.0000     10.5123    161.1059
   350.2500   2000.0000   2000.0000     10.4971    159.5217
   350.5000   2000.0000   2000.0000     10.5163    157.6148
   350.7500   2000.0000   2000.0000     10.5748    155.8594
   351.0000   2000.0000   2000.0000     10.7050    151.8259
   351.2500   2000.0000   2000.0000     10.9513    148.2572
   351.5000   2000.0000   2000.0000     11.3451    141.9053
   351.7500   2000.0000   2000.0000     11.8888    137.0435
   352.0000   2000.0000   2000.0000     12.5572    128.5612
   352.2500   2000.0000   2000.0000     13.3144    122.0158
   352.5000   2000.0000   2000.0000     14.1331    111.1218
   352.7500   2000.0000   2000.0000     15.0025    103.5440
   353.0000   2000.0000   2000.0000     15.9160     92.8439
   353.2500   2000.0000   2000.0000     16.8502     87.0694
   353.5000   2000.0000   2000.0000     17.7541     81.7843
   353.7500   2000.0000   2000.0000     18.5594     80.6423
   354.0000   2000.0000   2000.0000     19.2047     81.5847
   354.2500   2000.0000   2000.0000     19.6572     83.3463
   354.5000   2000.0000   2000.0000     19.9209     87.3697
   354.7500   2000.0000   2000.0000     20.0311     91.2119
   355.0000   2000.0000   2000.0000     20.0378     99.0714
   355.2500   2000.0000   2000.0000     19.9839    105.4761
   355.5000   2000.0000   2000.0000     19.8900    115.5513
   355.7500   2000.0000   2000.0000     19.7569    121.5621
   356.0000   2000.0000   2000.0000     19.5775    127.8485
   356.2500   2000.0000   2000.0000     19.3476    129.4832
   356.5000   2000.0000   2000.0000     19.0707    127.5968
   356.7500   2000.0000   2000.0000     18.7628    123.8986
   357.0000   2000.0000   2000.0000     18.4582    117.1155
   357.2500   2000.0000   2000.0000     18.2050    113.8317
   357.5000   2000.0000   2000.0000     18.0432    113.4767
   357.7500   2000.0000   2000.0000     17.9811    116.2426
   358.0000   2000.0000   2000.0000     17.9846    121.8363
   358.2500   2000.0000   2000.0000     17.9869    124.2370
