~Version Information
 VERS.                                  2.0 : CWLS LAS VERSION
 WRAP.                                   NO : WRAPING MODE
 SWARE .                 MController 2.5.0N : SOFTWARE VERSION
~Well Information
 WELL.                       BaaBaa 34-1 TR : WELL
 COMP.       Pioneer Natural Resources, USA : COMPANY
 FLD.                       Purgatory River : FIELD
 LOC.                 SW/SE Sec1 T33S R67W  : LOCATION
 DATE.                             03/02/06 : DATE(S) LOGGED
 SRVC.      Blanco Geological Services, LLC : SERVICE COMPANY
 STAT.                             Colorado : STATE
 CNTY.                           Las Animas : COUNTY
 CTRY.                                  USA : COUNTRY
 API.                       05-071-08710-00 : API NUMBER
 STRT.FT                             380.00 : START DEPTH
 STOP.FT                            1410.00 : STOP DEPTH
 STEP.FT                               1.00 : DEPTH INCREMENT
 NULL.                                -9999 : NULL VALUE
~Curve information
 DEPTH.FT                                   :
 ROP.MIN/FT                                 :
 GAS.UNITS                                  :
~ASCII Log data
# ...
       980.0         0.38         37.6 
       981.0         4.38         99.4 
       982.0         0.30         50.6 
       983.0         0.23         45.9 
       984.0         0.30         54.2 
       985.0         0.40         60.4 
       986.0         0.30         69.7 
       987.0         0.30         75.0 
       988.0         0.35         74.1 
       989.0         0.30         66.5 
       990.0         0.30         59.3 
       991.0         0.27         57.8 
       992.0         0.27         56.1 
       993.0         0.30         54.8 
       994.0         0.27         50.9 
       995.0         0.43         50.0 
       996.0         0.43         51.4 
       997.0         0.40         52.2 
       998.0         0.48         50.8 
       999.0         0.40         49.9 
      1000.0         0.40         48.9 
      1001.0         0.33         49.4 
      1002.0         0.37         49.2 
      1003.0         0.33         48.4 
      1004.0         0.33         47.1 
      1005.0         0.30         46.6 
      1006.0         0.30         46.7 
      1007.0         0.30         46.3 
      1008.0         0.28         44.9 
      1009.0         0.30         44.8 
      1010.0         0.37         43.1 
      1011.0         2.72        129.6 
      1012.0         0.33        116.4 
      1013.0         0.37         89.4 
      1014.0         0.40         69.1 
      1015.0         0.37         71.4 
      1016.0         0.23         70.9 
      1017.0         0.23         67.8 
      1018.0         0.23         64.5 
      1019.0         0.20         61.4 
      1020.0         0.23         59.4 
      1021.0         0.17         57.2 
      1022.0         0.17         55.8 
      1023.0         0.17         54.6 
      1024.0         0.18         53.2 
      1025.0         0.17         52.3 
      1026.0         0.17         52.1 
      1027.0         0.17         51.8 
      1028.0         0.17         53.0 
      1029.0         0.17         57.2 
      1030.0         0.20         64.4 
      1031.0         0.17         70.0 
      1032.0         0.17         73.4 
      1033.0         0.20         77.6 
      1034.0         0.20         79.8 
      1035.0         0.20         78.9 
      1036.0         0.23         75.1 
      1037.0         0.20         71.2 
      1038.0         0.20         69.4 
      1039.0         0.20         67.6 
      1040.0         0.23         65.5 
      1041.0         2.85        129.0 
      1042.0         0.33        152.6 
      1043.0         0.32        141.7 
      1044.0         0.30        112.6 
      1045.0         0.33        106.4 
      1046.0         0.27         97.4 
      1047.0         0.30         89.3 
      1048.0         0.27         71.3 
      1049.0         0.27         65.4 
      1050.0         0.33         62.3 
      1051.0         0.30         59.5 
      1052.0         0.33         57.6 
      1053.0         0.23         56.2 
      1054.0         0.27         53.8 
      1055.0         0.28         51.7 
      1056.0         0.20         52.8 
      1057.0         0.27         53.9 
      1058.0         0.20         53.8 
      1059.0         0.23         52.3 
      1060.0         0.23         50.1 
      1061.0         0.23         48.7 
      1062.0         0.23         48.7 
      1063.0         0.23         48.7 
      1064.0         0.20         49.4 
      1065.0         0.23         48.8 
      1066.0         0.20         47.6 
      1067.0         0.23         47.5 
      1068.0         0.23         47.8 
      1069.0         0.25         47.2 
      1070.0         0.23         47.6 
      1071.0         2.57        110.7 
      1072.0         0.33        143.1 
      1073.0         0.28        133.1 
      1074.0         0.27        110.1 
      1075.0         0.27        100.7 
      1076.0         0.20         98.5 
      1077.0         0.20         90.5 
      1078.0         0.17         83.4 
      1079.0         0.17         77.3 
      1080.0         0.20         70.9 
      1081.0         0.20         61.1 
      1082.0         0.27         64.6 
      1083.0         0.23         70.6 
      1084.0         0.20         73.4 
      1085.0         0.27         73.8 
      1086.0         0.30         72.4 
      1087.0         0.30         67.7 
      1088.0         0.28         62.1 
      1089.0         0.30         59.6 
      1090.0         0.30         56.4 
      1091.0         0.27         53.1 
      1092.0         0.27         49.8 
      1093.0         0.30         49.1 
      1094.0         0.30         48.9 
      1095.0         0.30         49.4 
      1096.0         0.27         49.7 
      1097.0         0.40         49.1 
      1098.0         0.33         47.8 
      1099.0         0.32         48.9 
      1100.0         0.33         48.9 
      1101.0         3.45        161.4 
      1102.0         0.33        123.2 
      1103.0         0.40         95.2 
      1104.0         0.40         89.4 
      1105.0         0.40         75.2 
      1106.0         0.43         61.1 
      1107.0         0.33         56.8 
      1108.0         0.23         54.0 
      1109.0         0.28         51.2 
      1110.0         0.27         48.9 
      1111.0         0.23         46.5 
      1112.0         0.27         45.8 
      1113.0         0.27         44.7 
      1114.0         0.23         44.1 
      1115.0         0.17         43.9 
      1116.0         0.23         44.0 
      1117.0         0.17         43.6 
      1118.0         0.17         43.8 
      1119.0         0.13         44.3 
      1120.0         0.20         44.6 
      1121.0         0.20         45.4 
      1122.0         0.17         45.5 
      1123.0         0.23         48.8 
      1124.0         0.28         50.5 
      1125.0         0.20         50.7 
      1126.0         0.20         50.7 
      1127.0         0.20         50.7 
      1128.0         0.20         50.0 
      1129.0         0.20         47.6 
      1130.0         0.27         45.4 
      1131.0         2.12         44.3 
      1132.0         0.13         50.0 
      1133.0         0.33        132.1 
      1134.0         0.37        141.4 
      1135.0         0.30        132.4 
      1136.0         0.23        113.9 
      1137.0         0.23        108.5 
      1138.0         0.23         99.2 
      1139.0         0.20         84.6 
      1140.0         0.20         74.5 
      1141.0         0.20         63.8 
      1142.0         0.27         61.6 
      1143.0         0.23         53.1 
      1144.0         0.23         51.0 
      1145.0         0.22         52.0 
      1146.0         0.20         52.7 
      1147.0         0.17         52.7 
      1148.0         0.20         52.4 
      1149.0         0.23         51.6 
      1150.0         0.17         49.6 
      1151.0         0.17         47.8 
      1152.0         0.13         47.2 
      1153.0         0.13         46.7 
      1154.0         0.17         46.0 
      1155.0         0.13         44.4 
      1156.0         0.13         43.9 
      1157.0         0.17         44.4 
      1158.0         0.30         48.8 
      1159.0         0.27         56.8 
      1160.0         0.17         65.4 
      1161.0         3.05        141.9 
      1162.0         0.27        155.9 
      1163.0         0.30        144.7 
      1164.0         0.25        108.8 
      1165.0         0.17         95.4 
      1166.0         0.13         93.2 
      1167.0         0.17         93.2 
      1168.0         0.13         92.2 
      1169.0         0.17         88.5 
      1170.0         0.13         82.8 
      1171.0         0.17         76.8 
      1172.0         0.13         72.6 
      1173.0         0.17         69.6 
      1174.0         0.17         71.9 
      1175.0         0.13         74.0 
      1176.0         0.17         76.2 
      1177.0         0.17         76.5 
      1178.0         0.27         75.3 
      1179.0         0.27         71.1 
