~Version Information
VERS.                      2.0: CWLS Log ASCII Standard - VERSION 2.0
WRAP.                       NO: One line per depth step
~Well Information Block
STRT.FT                 0.0000: 
STOP.FT              1426.7500: 
STEP.FT                 0.2500: 
NULL.                -999.2500: 
COMP.          Pioneer Natural Resources: COMPANY
WELL.            Bordeaux 42-2: WELL
FLD.           Purgatorie River: FIELD
LOC.           1963' FNL & 1148' FEL: LOCATION
PROV.                 Colorado: PROVINCE
CNTY.               Las Animas: COUNTRY
SRVC.                Patterson: SERVICE COMPANY
DATE.          Fri Dec 02 09:28:20 2005: LOG DATE
UWI.                          : UNIQUE WELL ID
~Curve Information Block
DEPT.FT            0 000 00 00: Depth
CCL.                          : Casing Collar Locator
TT3.usec                      : CBL 3' Travel Time
AMP3.mV                       : CBL 3' Amplitude
GR.GAPI                       : Gamma Ray
~Parameter Information Block
~A  Depth       CCL         TT3         AMP3         GR     
# ...
   737.0000      0.0000    796.3141     12.2797     67.7710
   737.2500      0.0000    798.6963     12.2916     63.9785
   737.5000      0.0000    799.0268     12.3351     63.1946
   737.7500      0.0000    797.6989     12.3598     65.7402
   738.0000      0.0000    793.2033     12.3337     71.1675
   738.2500      0.0000    784.3542     12.2707     78.6187
   738.5000      0.0000    773.0542     12.2246     87.1249
   738.7500      0.0000    762.8771     12.2341     95.6497
   739.0000      0.0000    754.3574     12.2964    103.0211
   739.2500      0.0000    745.2955     12.3923    108.1563
   739.5000      0.0000    735.6989     12.4906    110.6573
   739.7500      0.0000    728.2913     12.5484    111.0341
   740.0000      0.0000    724.3712     12.5415    110.1876
   740.2500      0.0000    722.8109     12.4836    108.8341
   740.5000      0.0000    722.7861     12.4118    107.4741
   740.7500      0.0000    725.4633     12.3476    106.4855
   741.0000      0.0000    733.3097     12.2655    105.8729
   741.2500      0.0000    746.8753     12.1223    105.1796
   741.5000      0.0000    761.6341     11.9163    104.0873
   741.7500      0.0000    771.2300     11.6868    102.9012
   742.0000      0.0000    773.9653     11.4679    101.9491
   742.2500      0.0000    774.1183     11.2738    100.7457
   742.5000      0.0000    777.6825     11.1216     98.4206
   742.7500      0.0000    785.7063     11.0308     94.8834
   743.0000      0.0000    793.6282     10.9836     90.9616
   743.2500      0.0000    797.9983     10.9327     87.3913
   743.5000      0.0000    799.4298     10.8586     84.1730
   743.7500      0.0000    799.6678     10.7765     81.0076
   744.0000      0.0000    799.3578     10.7034     77.9561
   744.2500      0.0000    797.9967     10.6487     75.4493
   744.5000      0.0000    794.6808     10.6095     73.8891
   744.7500      0.0000    790.1014     10.5626     73.4181
   745.0000      0.0000    787.5999     10.4835     73.9521
   745.2500      0.0000    788.8780     10.3876     75.3662
   745.5000      0.0000    790.2198     10.3489     77.8563
   745.7500      0.0000    787.2883     10.4411     82.2196
   746.0000      0.0000    780.6871     10.6411     89.4106
   746.2500      0.0000    773.5336     10.8593     99.3008
   746.5000      0.0000    766.5394     11.0541    109.9104
   746.7500      0.0000    758.7390     11.2503    118.3640
   747.0000      0.0000    750.6379     11.4917    122.8232
   747.2500      0.0000    743.0059     11.7880    123.3398
   747.5000      0.0000    735.6927     12.0851    121.0505
   747.7500      0.0000    729.7734     12.3110    117.0988
   748.0000      0.0000    727.2131     12.4334    112.4452
   748.2500      0.0000    728.8720     12.4794    108.1917
   748.5000      0.0000    733.3640     12.5147    105.4356
   748.7500      0.0000    737.3030     12.5732    104.5893
   749.0000      0.0000    740.2911     12.6225    105.0531
   749.2500      0.0000    747.5255     12.6244    105.8017
   749.5000      0.0000    762.0152     12.5767    106.3728
   749.7500      0.0000    778.7372     12.5036    107.1984
   750.0000      0.0000    790.6805     12.4450    108.8576
   750.2500      0.0000    795.8162     12.4118    110.9029
   750.5000      0.0000    795.3514     12.3537    111.4789
   750.7500      0.0000    789.5445     12.2314    108.4100
   751.0000      0.0000    779.1107     12.0789    101.0730
   751.2500      0.0000    767.9009     11.9427     91.3398
   751.5000      0.0000    759.6959     11.8095     82.4325
   751.7500      0.0000    756.0845     11.6406     76.5986
   752.0000      0.0000    758.8006     11.4358     73.9165
   752.2500      0.0000    767.1848     11.2280     73.2093
   752.5000      0.0000    775.0105     11.0561     73.6379
   752.7500      0.0000    775.5637     10.9545     75.2177
   753.0000      0.0000    769.3382     10.9249     78.1981
   753.2500      0.0000    763.3724     10.9213     82.4001
   753.5000      0.0000    763.7621     10.8917     87.0268
   753.7500      0.0000    771.0659     10.8270     90.7887
   754.0000      0.0000    779.6912     10.7621     92.3926
   754.2500      0.0000    780.6393     10.7393     91.3325
   754.5000      0.0000    769.0773     10.7788     88.3516
   754.7500      0.0000    750.0509     10.8682     85.0038
   755.0000      0.0000    733.6492     10.9788     82.6471
   755.2500      0.0000    724.9659     11.0928     81.7369
   755.5000      0.0000    722.1766     11.2018     81.9488
   755.7500      0.0000    721.7556     11.3089     82.8728
   756.0000      0.0000    721.6991     11.4415     84.5278
   756.2500      0.0000    721.4608     11.6230     87.3378
   756.5000      0.0000    721.1183     11.8407     91.9019
   756.7500      0.0000    720.8245     12.0672     98.6055
   757.0000      0.0000    720.6526     12.2687    106.8285
   757.2500      0.0000    720.5911     12.4050    114.4584
   757.5000      0.0000    720.5933     12.4606    118.8530
   757.7500      0.0000    720.6396     12.4408    118.6796
   758.0000      0.0000    720.7379     12.3438    114.6790
   758.2500      0.0000    720.9772     12.1695    108.6667
   758.5000      0.0000    721.8317     11.9385    101.9795
   758.7500      0.0000    724.9128     11.6991     94.8631
   759.0000      0.0000    733.3128     11.5027     87.1253
   759.2500      0.0000    748.5121     11.3670     79.0903
   759.5000      0.0000    765.6335     11.2925     71.8307
   759.7500      0.0000    777.2411     11.2729     66.5856
   760.0000      0.0000    782.6392     11.2748     63.9688
   760.2500      0.0000    785.3322     11.2650     63.6852
   760.5000      0.0000    784.6931     11.2355     64.9748
   760.7500      0.0000    780.0325     11.1957     67.2128
   761.0000      0.0000    777.2011     11.1664     70.0786
   761.2500      0.0000    781.3217     11.1592     73.2808
   761.5000      0.0000    788.4036     11.1575     76.3251
   761.7500      0.0000    791.0676     11.1394     78.7319
   762.0000      0.0000    786.1447     11.0980     80.5718
   762.2500      0.0000    774.3429     11.0305     82.7236
   762.5000      0.0000    758.3941     10.9282     86.6176
   762.7500      0.0000    742.8080     10.8027     93.6893
   763.0000      0.0000    732.1616     10.7025    104.5233
   763.2500      0.0000    728.2912     10.6594    117.8655
   763.5000      0.0000    730.7668     10.6481    130.7736
   763.7500      0.0000    738.0942     10.6340    140.5150
   764.0000      0.0000    746.2447     10.6147    146.2319
   764.2500      0.0000    750.9961     10.5947    148.3687
   764.5000      0.0000    753.5169     10.5590    147.1949
   764.7500      0.0000    757.4792     10.4946    142.9377
   765.0000      0.0000    762.3993     10.4109    137.0736
   765.2500      0.0000    765.4318     10.3203    132.2817
   765.5000      0.0000    764.8672     10.2019    130.7334
   765.7500      0.0000    758.3140      9.9750    132.7960
   766.0000      0.0000    742.3344      9.5904    137.2934
   766.2500      0.0000    718.8817      9.2445    142.4000
   766.5000      0.0000    702.7325      9.1820    146.1796
   766.7500      0.0000    714.5433      9.1438    146.8986
   767.0000      0.0000    754.9083      8.7327    143.4736
   767.2500      0.0000    793.4114      8.1666    135.9783
   767.5000      0.0000    801.4111      7.8250    125.9301
   767.7500      0.0000    787.3016      7.6719    115.8362
   768.0000      2.0000    781.6410      7.5462    107.8439
   768.2500     -2.0000    794.4843      7.4363    102.5757
   768.5000      0.0000    808.6289      7.3873     99.3228
   768.7500      0.0000    805.9961      7.3956     97.0069
   769.0000      0.0000    776.8538      7.5131     94.7279
   769.2500      0.0000    725.5262      7.8871     91.9282
   769.5000      0.0000    681.0962      8.4697     88.7037
   769.7500      0.0000    669.6452      9.1016     85.8886
   770.0000      0.0000    683.9586      9.8732     84.3696
   770.2500      0.0000    706.2818     10.7897     84.1564
