~Version Information
VERS.                      2.0: CWLS Log ASCII Standard - VERSION 2.0
WRAP.                       NO: One line per depth step
~Well Information Block
STRT.FT               525.0000: 
STOP.FT              2377.2000: 
STEP.FT                 0.1000: 
NULL.                -999.2500: 
COMP.          Pioneer Natural Resources: COMPANY
WELL.          Sparrowhawk 22-12: WELL
FLD.           Purgatoire River: FIELD
LOC.           2049' FNL & 2060' FWL--: LOCATION
CNTY.               Las Animas: COUNTY
SRVC.                Patterson: SERVICE COMPANY
DATE.          Thu Mar 23 13:24:48 2006: LOG DATE
UWI.           05 071 08484 00: UNIQUE WELL ID
STAT.                 Colorado: STATE
~Curve Information Block
DEPT.FT            0 000 00 00: Depth
DCAL.in                       : CDL Caliper
RHOB.g/cc                     : CDL Bulk Density
RHOC.g/cc                     : CDL Density Correction
DPOR.pu                       : CDL Density Porosity
NPOR.pu                       : Neutron Porosity
GR.GAPI                       : Gamma Ray
~Parameter Information Block
~A  Depth       DCAL        RHOB        RHOC        DPOR        NPOR         GR     
# ...
  2109.0000      7.9034      2.3143      0.1653     20.3425     29.6941    115.8182
  2109.1000      7.9034      2.3561      0.1105     17.8131     29.4224    123.1713
  2109.2000      7.9034      2.4042      0.1418     14.8974     29.1600    131.5516
  2109.3000      7.8867      2.4412      0.1119     12.6551     28.8820    137.2316
  2109.4000      7.8867      2.4598      0.0966     11.5298     28.6419    136.7778
  2109.5000      7.8704      2.4732      0.0889     10.7146     28.5160    131.4980
  2109.6000      7.8704      2.4874      0.0757      9.8570     28.3305    131.7822
  2109.7000      7.8704      2.4893      0.0976      9.7391     27.9819    142.7027
  2109.8000      7.8554      2.4707      0.0614     10.8663     27.8403    151.7230
  2109.9000      7.8554      2.4445      0.0319     12.4548     28.1520    152.2733
  2110.0000      7.8427      2.4300      0.0431     13.3326     28.7066    147.3575
  2110.1000      7.8427      2.4362      0.0171     12.9566     29.0289    138.2941
  2110.2000      7.8427      2.4582      0.0316     11.6239     28.7953    128.9879
  2110.3000      7.8363      2.4816      0.0417     10.2069     28.2919    124.2611
  2110.4000      7.8363      2.4962      0.0753      9.3184     28.0160    123.4919
  2110.5000      7.8380      2.5068      0.0418      8.6763     28.0275    123.9448
  2110.6000      7.8380      2.5205      0.0863      7.8502     28.2713    122.4043
  2110.7000      7.8380      2.5263      0.0772      7.4958     28.5808    118.3989
  2110.8000      7.8401      2.5118      0.0955      8.3737     28.7566    121.0025
  2110.9000      7.8401      2.4858      0.0360      9.9509     28.7995    130.7237
  2111.0000      7.8402      2.4595      0.0170     11.5458     28.8740    134.1089
  2111.1000      7.8402      2.4323      0.0078     13.1945     29.1386    130.9863
  2111.2000      7.8402      2.4067      0.0454     14.7434     29.4607    131.7263
  2111.3000      7.8484      2.3870     -0.0245     15.9397     29.6693    134.5782
  2111.4000      7.8484      2.3726      0.0160     16.8141     29.6971    131.6386
  2111.5000      7.8693      2.3584      0.0072     17.6731     29.5024    126.1096
  2111.6000      7.8693      2.3437      0.0112     18.5617     29.3672    127.9180
  2111.7000      7.8693      2.3322      0.0251     19.2602     29.5980    136.4371
  2111.8000      7.8878      2.3275      0.0183     19.5444     30.1044    144.3094
  2111.9000      7.8878      2.3221      0.0479     19.8738     30.5916    150.7767
  2112.0000      7.8960      2.2997      0.0052     21.2301     30.5266    155.2405
  2112.1000      7.8960      2.2626      0.0419     23.4770     29.8011    154.4302
  2112.2000      7.8960      2.2259      0.0114     25.7026     29.2502    151.7475
  2112.3000      7.8968      2.2010     -0.0051     27.2142     29.3931    154.2513
  2112.4000      7.8968      2.1827      0.0200     28.3230     29.8246    157.2088
  2112.5000      7.8932      2.1466      0.0426     30.5071     30.1179    150.6866
  2112.6000      7.8932      2.0860     -0.0310     34.1834     30.2881    141.2187
  2112.7000      7.8932      2.0232     -0.0281     37.9897     30.6165    142.0153
  2112.8000      7.8852      1.9674      0.0015     41.3716     31.2003    150.3773
  2112.9000      7.8852      1.9132     -0.0172     44.6566     31.8645    158.0900
  2113.0000      7.8751      1.8750     -0.0202     46.9719     32.1135    161.5372
  2113.1000      7.8751      1.8772      0.0085     46.8339     31.7324    159.7054
  2113.2000      7.8751      1.9196      0.0640     44.2675     31.3570    155.6287
  2113.3000      7.8653      1.9795      0.0909     40.6355     31.3282    157.0511
  2113.4000      7.8653      2.0391      0.1126     37.0262     31.2899    160.8804
  2113.5000      7.8595      2.0943      0.1300     33.6784     30.9937    154.7115
  2113.6000      7.8595      2.1518      0.1569     30.1949     30.3678    140.1154
  2113.7000      7.8595      2.2134      0.2244     26.4624     29.5971    127.2920
  2113.8000      7.8623      2.2654      0.2214     23.3111     29.2327    123.6443
  2113.9000      7.8623      2.2955      0.1995     21.4857     29.1561    130.7268
  2114.0000      7.8701      2.3113      0.1050     20.5293     29.1057    138.3957
  2114.1000      7.8701      2.3257      0.0878     19.6573     29.3174    138.7852
  2114.2000      7.8701      2.3372      0.0464     18.9605     29.4534    134.0901
  2114.3000      7.8790      2.3433      0.0428     18.5908     29.1171    126.3060
  2114.4000      7.8790      2.3480      0.0904     18.3038     28.6257    118.0675
  2114.5000      7.8847      2.3550      0.0795     17.8790     28.1765    112.0942
  2114.6000      7.8847      2.3717      0.0776     16.8670     27.6512    107.7486
  2114.7000      7.8847      2.3999      0.0838     15.1572     27.2252    109.4185
  2114.8000      7.8855      2.4236      0.1475     13.7204     27.2065    119.8823
  2114.9000      7.8855      2.4303      0.0761     13.3176     27.5992    125.7696
  2115.0000      7.8844      2.4319      0.0788     13.2189     28.1297    117.6170
  2115.1000      7.8844      2.4426      0.0567     12.5709     28.3152    108.7079
  2115.2000      7.8844      2.4616      0.0990     11.4189     27.9758    111.1947
  2115.3000      7.8780      2.4796      0.0963     10.3253     27.4947    120.9274
  2115.4000      7.8780      2.4839      0.1139     10.0693     27.0277    126.9373
  2115.5000      7.8671      2.4710      0.0676     10.8502     26.4803    123.2400
  2115.6000      7.8671      2.4596      0.0601     11.5400     26.2883    112.7661
  2115.7000      7.8671      2.4678      0.0533     11.0443     26.8257    102.9215
  2115.8000      7.8567      2.4888      0.0791      9.7705     27.5523    101.5370
  2115.9000      7.8567      2.5042      0.0856      8.8360     27.6290    110.0814
  2116.0000      7.8503      2.5099      0.0585      8.4916     27.0714    118.6414
  2116.1000      7.8503      2.5131      0.0979      8.2972     26.4712    119.0470
  2116.2000      7.8503      2.5173      0.0810      8.0431     26.1947    117.9554
  2116.3000      7.8475      2.5278      0.0799      7.4066     26.1573    122.9374
  2116.4000      7.8475      2.5524      0.0610      5.9124     25.8951    127.1722
  2116.5000      7.8501      2.5859      0.0976      3.8846     25.3758    122.4459
  2116.6000      7.8501      2.6084      0.1043      2.5187     25.1130    114.6342
  2116.7000      7.8501      2.6018      0.1268      2.9217     25.1661    114.2909
  2116.8000      7.8597      2.5674      0.0869      5.0077     25.1300    120.3179
  2116.9000      7.8597      2.5322      0.0673      7.1380     24.9240    124.6590
  2117.0000      7.8741      2.5235      0.0213      7.6678     24.9371    120.9712
  2117.1000      7.8741      2.5392      0.0223      6.7165     25.3631    113.0481
  2117.2000      7.8741      2.5532      0.0492      5.8647     25.6418    107.4885
  2117.3000      7.8853      2.5479      0.0466      6.1897     25.3566     99.5880
  2117.4000      7.8853      2.5352      0.0398      6.9552     24.9828     86.0025
  2117.5000      7.8876      2.5386      0.0541      6.7513     24.9723     75.5682
  2117.6000      7.8876      2.5595      0.0435      5.4823     25.0340     74.1807
  2117.7000      7.8876      2.5765      0.1029      4.4540     24.9300     80.0580
  2117.8000      7.8832      2.5751      0.0574      4.5370     24.9215     88.7558
  2117.9000      7.8832      2.5650      0.0697      5.1486     25.1647     93.0710
  2118.0000      7.8816      2.5567      0.0667      5.6542     25.4057     92.2431
  2118.1000      7.8816      2.5511      0.0566      5.9943     25.2133     91.7811
  2118.2000      7.8816      2.5480      0.0615      6.1820     24.6729     93.8145
  2118.3000      7.8870      2.5506      0.0087      6.0221     24.2446     94.1844
  2118.4000      7.8870      2.5639      0.0218      5.2203     24.0979     89.3045
  2118.5000      7.8928      2.5825      0.0794      4.0890     23.9392     86.8631
