~Version Information
VERS.                      2.0: CWLS Log ASCII Standard - VERSION 2.0
WRAP.                       NO: One line per depth step
~Well Information Block
STRT.FT               370.0000: 
STOP.FT              2832.5000: 
STEP.FT                 0.1000: 
NULL.                -999.2500: 
COMP.          Pioneer Natural Resources: COMPANY
WELL.          Black Cat 13-32: WELL
FLD.           Purgatoire River: FIELD
LOC.           1865' FSL & 1120' FWL--: LOCATION
PROV.                 Colorado: PROVINCE
CNTY.               Las Animas: COUNTRY
SRVC.                Patterson: SERVICE COMPANY
DATE.          Sun Jul 31 08:38:44 2005: LOG DATE
UWI.           05 071 08450 00: UNIQUE WELL ID
~Curve Information Block
DEPT.FT            0 000 00 00: Depth
DCAL.in                       : CDL Caliper
DPOR.pu                       : CDL Density Porosity
NPOR.pu                       : Neutron Porosity
RHOB.g/cc                     : CDL Bulk Density
RHOC.g/cc                     : CDL Density Correction
GR.GAPI                       : Gamma Ray
~Parameter Information Block
~A  Depth       DCAL        DPOR        NPOR        RHOB        RHOC         GR     
# ...
   984.4000      8.0510      4.3459     26.2018      2.5783      0.0299    132.1196
   984.5000      8.0522      4.2473     25.6480      2.5799      0.0418    119.2674
   984.6000      8.0522      3.3924     24.6700      2.5940      0.0506    105.7723
   984.7000      8.0522      2.5330     24.0208      2.6082      0.0924     96.5832
   984.8000      8.0533      2.6607     24.1096      2.6061      0.0380     96.0366
   984.9000      8.0533      3.2474     24.2920      2.5964      0.0401     99.7058
   985.0000      8.0533      3.7672     24.0289      2.5878      0.0547     96.7278
   985.1000      8.0533      3.9703     23.7276      2.5845      0.0550     88.6623
   985.2000      8.0533      3.4316     23.5336      2.5934      0.0447     87.0936
   985.3000      8.0536      2.7100     23.0658      2.6053      0.0759     91.7136
   985.4000      8.0536      2.7703     22.5087      2.6043      0.0521     93.7043
   985.5000      8.0541      3.4678     22.5154      2.5928      0.0573     92.4226
   985.6000      8.0541      4.4216     23.1448      2.5770      0.0729     91.6878
   985.7000      8.0541      5.7398     23.5709      2.5553      0.0600     92.8233
   985.8000      8.0525      6.9801     23.5158      2.5348     -0.0021     95.7561
   985.9000      8.0525      7.3085     23.4052      2.5294      0.0150     96.4433
   986.0000      8.0500      6.9376     23.1898      2.5355      0.0573     93.9295
   986.1000      8.0500      6.3479     22.7611      2.5453      0.0327     94.4653
   986.2000      8.0500      5.1013     22.5090      2.5658      0.0412     99.3871
   986.3000      8.0505      3.2399     22.8269      2.5965      0.0968    105.2948
   986.4000      8.0505      1.4988     23.4831      2.6253      0.0945    111.6300
   986.5000      8.0533      0.1392     23.6935      2.6477      0.1025    117.7886
   986.6000      8.0533     -0.5189     23.2057      2.6586      0.1192    119.8569
   986.7000      8.0533     -0.1181     22.7104      2.6519      0.0740    116.6298
   986.8000      8.0599      0.9046     23.0929      2.6351      0.0627    112.0395
   986.9000      8.0599      1.5761     24.3421      2.6240      0.0465    108.0502
   987.0000      8.0708      1.7677     25.3205      2.6208      0.0799    104.0227
   987.1000      8.0708      2.2023     25.4780      2.6137      0.0505     99.4175
   987.2000      8.0708      2.9931     25.4283      2.6006      0.0552     93.5925
   987.3000      8.0780      3.4626     25.4855      2.5929      0.0274     89.5380
   987.4000      8.0780      3.3406     25.6444      2.5949      0.0611     91.0917
   987.5000      8.0790      3.3191     25.7962      2.5952      0.0333     93.7414
   987.6000      8.0790      3.8255     25.2551      2.5869      0.0227     93.3796
   987.7000      8.0790      4.4433     24.0504      2.5767      0.0327     93.5571
   987.8000      8.0760      4.6020     23.2297      2.5741      0.0240     96.0321
   987.9000      8.0760      4.0143     23.3434      2.5838      0.0474     95.9868
   988.0000      8.0679      2.6553     23.8919      2.6062      0.0434     92.0654
   988.1000      8.0679      0.7444     24.2169      2.6377      0.0413     91.0223
   988.2000      8.0679     -1.1860     24.4638      2.6696      0.0730     94.8923
   988.3000      8.0566     -2.4228     24.8653      2.6900      0.0625     99.5442
   988.4000      8.0566     -2.2623     24.9604      2.6873      0.1015    104.4166
   988.5000      8.0511     -0.4606     24.5932      2.6576      0.0594    108.9288
   988.6000      8.0511      2.2035     24.5306      2.6136      0.0526    110.0045
   988.7000      8.0511      4.5617     25.1675      2.5747     -0.0150    106.2429
   988.8000      8.0513      5.7110     25.9572      2.5558     -0.0396     98.8263
   988.9000      8.0513      5.4862     26.2716      2.5595      0.0044     93.3085
   989.0000      8.0526      4.6700     26.0949      2.5729      0.0032     95.4816
   989.1000      8.0526      4.4056     25.8546      2.5773      0.0493    103.9590
   989.2000      8.0526      5.2351     26.0882      2.5636      0.0164    112.2827
   989.3000      8.0514      6.5064     26.8953      2.5426      0.0235    113.7110
   989.4000      8.0514      7.1616     27.6664      2.5318      0.0208    109.1356
   989.5000      8.0497      6.8660     27.9640      2.5367      0.0733    106.6711
   989.6000      8.0497      6.0729     27.8921      2.5498      0.0548    110.8504
   989.7000      8.0497      5.0339     27.6776      2.5669      0.0682    120.6385
   989.8000      8.0499      3.9244     27.6936      2.5852      0.0684    129.7853
   989.9000      8.0499      3.4378     27.9983      2.5933      0.0674    128.7904
   990.0000      8.0511      3.9774     28.3033      2.5844      0.0754    117.6554
   990.1000      8.0511      4.6909     28.2977      2.5726      0.0584    108.3646
   990.2000      8.0511      4.7421     27.6267      2.5718      0.0503    107.9962
   990.3000      8.0505      4.5336     26.8765      2.5752      0.0698    112.3661
   990.4000      8.0505      4.5016     26.9562      2.5757      0.0448    115.0620
   990.5000      8.0466      4.6340     27.3511      2.5735      0.0816    113.8753
   990.6000      8.0466      5.3077     26.9289      2.5624      0.0589    112.3200
   990.7000      8.0466      6.3227     25.9604      2.5457     -0.0052    114.1371
   990.8000      8.0397      6.6174     25.7031      2.5408      0.0502    115.3175
   990.9000      8.0397      5.9833     26.4849      2.5513      0.0362    113.5743
   991.0000      8.0307      5.3844     27.6057      2.5612      0.0984    115.7510
   991.1000      8.0307      5.5994     28.2312      2.5576      0.0494    122.4449
   991.2000      8.0307      6.1298     27.8112      2.5489      0.0284    125.3732
   991.3000      8.0245      6.2473     26.6792      2.5469      0.0308    120.8782
   991.4000      8.0245      6.0084     25.9370      2.5509      0.0367    113.5592
   991.5000      8.0225      5.6512     25.7884      2.5568      0.0602    111.3858
   991.6000      8.0225      5.3816     25.6608      2.5612      0.0757    114.1242
   991.7000      8.0225      5.6297     25.8250      2.5571      0.0527    116.9172
   991.8000      8.0198      6.2974     26.6808      2.5461      0.0098    116.4251
   991.9000      8.0198      6.8008     27.6378      2.5378      0.0589    113.9403
   992.0000      8.0121      7.4219     27.8915      2.5275      0.0959    114.1519
   992.1000      8.0121      8.6835     27.5109      2.5067      0.0890    116.4755
   992.2000      8.0121     10.0906     26.9680      2.4835      0.0463    118.0942
   992.3000      8.0035     10.7830     26.4148      2.4721      0.0558    120.0988
   992.4000      8.0035     10.3518     25.9885      2.4792      0.0590    122.4602
   992.5000      8.0001      9.1670     25.7922      2.4987      0.0960    120.2678
   992.6000      8.0001      8.1342     25.5661      2.5158      0.0877    111.9615
   992.7000      8.0001      7.5113     24.9403      2.5261      0.1033    102.1803
   992.8000      8.0043      7.0095     24.0818      2.5343      0.0921     92.5509
   992.9000      8.0043      6.2994     23.3317      2.5461      0.0805     86.3096
   993.0000      8.0174      5.2113     22.6217      2.5640      0.1247     84.6876
   993.1000      8.0174      4.1350     21.7876      2.5818      0.1109     81.0396
   993.2000      8.0174      3.4536     20.9549      2.5930      0.1211     72.8826
   993.3000      8.0331      2.9336     19.8820      2.6016      0.1028     64.4570
   993.4000      8.0331      2.4323     18.1393      2.6099      0.1234     60.1230
   993.5000      8.0462      2.4303     16.4730      2.6099      0.0989     59.5124
   993.6000      8.0462      2.8799     15.8729      2.6025      0.0687     58.8074
   993.7000      8.0462      3.2794     16.2328      2.5959      0.0814     57.6149
   993.8000      8.0526      3.6289     16.5441      2.5901      0.0668     55.9407
   993.9000      8.0526      4.0376     16.1279      2.5834      0.0753     51.5141
