~Version Information
VERS.                      2.0: CWLS Log ASCII Standard - VERSION 2.0
WRAP.                       NO: One line per depth step
~Well Information Block
STRT.FT               625.0000: 
STOP.FT              2053.7500: 
STEP.FT                 0.2500: 
NULL.                -999.2500: 
COMP.          Pioneer Natural Resources: COMPANY
WELL.            Zink 44-10 Tr: WELL
FLD.           Purgatoire River: FIELD
LOC.           486' FSL & 554' FEL--: LOCATION
PROV.                 Colorado: PROVINCE
CNTY.               Las Animas: COUNTRY
SRVC.                Patterson: SERVICE COMPANY
DATE.          Sun Jul 24 06:18:01 2005: LOG DATE
UWI.           05 071 08446 00: UNIQUE WELL ID
~Curve Information Block
DEPT.FT            0 000 00 00: Depth
SN.Ohm-m                      : IEL Short Normal
SP.mV                         : IEL Spontaneous Potential
DIR.Ohm-m                     : IEL Induction Resistivity
GR.GAPI                       : Gamma Ray
~Parameter Information Block
~A  Depth        SN          SP         DIR          GR     
# ...
  1663.5000     12.3828     47.8655     12.2441    104.9402
  1663.7500     11.7767     47.9803     11.7302    102.7916
  1664.0000     11.2942     48.0007     11.2571    102.6711
  1664.2500     10.9358     47.9221     10.8373    104.7357
  1664.5000     10.6725     47.7521     10.4676    110.1759
  1664.7500     10.4666     47.5073     10.1379    114.5110
  1665.0000     10.2894     47.2084      9.8410    120.6347
  1665.2500     10.1292     46.8754      9.5783    123.9265
  1665.5000      9.9894     46.5236      9.3603    127.2820
  1665.7500      9.8848     46.1629      9.2028    128.3354
  1666.0000      9.8363     45.7986      9.1218    128.0466
  1666.2500      9.8611     45.4354      9.1300    126.6544
  1666.5000      9.9625     45.0813      9.2358    122.7404
  1666.7500     10.1246     44.7507      9.4437    118.8053
  1667.0000     10.3190     44.4634      9.7538    111.2373
  1667.2500     10.5154     44.2428     10.1595    105.8846
  1667.5000     10.6892     44.1096     10.6429     99.1760
  1667.7500     10.8209     44.0770     11.1702     96.1325
  1668.0000     10.8932     44.1453     11.6897     93.3984
  1668.2500     10.8881     44.3013     12.1332     92.4532
  1668.5000     10.7890     44.5210     12.4235     92.6334
  1668.7500     10.5875     44.7763     12.4919     94.4100
  1669.0000     10.2907     45.0429     12.3032    100.2272
  1669.2500      9.9218     45.3067     11.8742    105.9258
  1669.5000      9.5127     45.5662     11.2692    115.4994
  1669.7500      9.0942     45.8297     10.5748    121.3818
  1670.0000      8.6895     46.1085      9.8705    128.5748
  1670.2500      8.3114     46.4090      9.2120    132.5976
  1670.5000      7.9632     46.7264      8.6292    138.0241
  1670.7500      7.6421     47.0434      8.1323    140.9831
  1671.0000      7.3416     47.3346      7.7201    143.8109
  1671.2500      7.0554     47.5735      7.3861    144.6952
  1671.5000      6.7829     47.7403      7.1233    145.0706
  1671.7500      6.5359     47.8268      6.9266    144.8210
  1672.0000      6.3362     47.8370      6.7927    143.4460
  1672.2500      6.2052     47.7844      6.7186    141.6028
  1672.5000      6.1531     47.6871      6.6999    137.2056
  1672.7500      6.1774     47.5629      6.7290    133.3629
  1673.0000      6.2680     47.4263      6.7941    127.1216
  1673.2500      6.4115     47.2878      6.8809    123.2798
  1673.5000      6.5918     47.1539      6.9753    118.9116
  1673.7500      6.7889     47.0296      7.0680    117.2252
  1674.0000      6.9795     46.9187      7.1565    116.4837
  1674.2500      7.1438     46.8256      7.2443    116.9204
  1674.5000      7.2724     46.7547      7.3361    118.5233
  1674.7500      7.3679     46.7100      7.4341    120.0012
  1675.0000      7.4370     46.6942      7.5355    122.2235
  1675.2500      7.4798     46.7085      7.6340    123.2032
  1675.5000      7.4907     46.7509      7.7212    123.2025
  1675.7500      7.4690     46.8171      7.7898    122.1272
  1676.0000      7.4282     46.9007      7.8360    119.4028
  1676.2500      7.3895     46.9934      7.8598    117.4151
  1676.5000      7.3658     47.0865      7.8653    115.2891
  1676.7500      7.3506     47.1718      7.8575    114.9637
  1677.0000      7.3231     47.2427      7.8409    116.3980
  1677.2500      7.2616     47.2944      7.8177    118.3751
  1677.5000      7.1547     47.3247      7.7886    122.0185
  1677.7500      7.0041     47.3336      7.7530    124.4788
  1678.0000      6.8225     47.3235      7.7100    127.9568
  1678.2500      6.6312     47.2992      7.6590    130.1623
  1678.5000      6.4563     47.2673      7.6010    133.1715
  1678.7500      6.3207     47.2352      7.5385    134.6325
  1679.0000      6.2354     47.2095      7.4752    135.4218
  1679.2500      6.1972     47.1935      7.4142    135.0768
  1679.5000      6.1925     47.1850      7.3565    133.7862
  1679.7500      6.2056     47.1756      7.3002    132.3844
  1680.0000      6.2248     47.1515      7.2414    128.8372
  1680.2500      6.2434     47.0957      7.1762    125.6130
  1680.5000      6.2558     46.9925      7.1029    121.3293
  1680.7500      6.2550     46.8301      7.0229    120.2293
  1681.0000      6.2372     46.6039      6.9401    122.1683
  1681.2500      6.2071     46.3170      6.8599    125.1541
  1681.5000      6.1772     45.9805      6.7880    129.7432
  1681.7500      6.1606     45.6122      6.7300    131.7489
  1682.0000      6.1648     45.2365      6.6908    132.9460
  1682.2500      6.1895     44.8834      6.6751    133.0397
  1682.5000      6.2286     44.5877      6.6866    132.5515
  1682.7500      6.2772     44.3857      6.7279    131.6961
  1683.0000      6.3350     44.3098      6.7998    129.9112
  1683.2500      6.4059     44.3810      6.9007    129.0067
  1683.5000      6.4929     44.6015      7.0259    128.8560
  1683.7500      6.5942     44.9504      7.1683    129.4358
  1684.0000      6.7036     45.3846      7.3195    130.4955
  1684.2500      6.8154     45.8463      7.4718    130.7962
  1684.5000      6.9274     46.2748      7.6211    129.9691
  1684.7500      7.0400     46.6184      7.7672    128.6211
  1685.0000      7.1554     46.8442      7.9132    126.6994
  1685.2500      7.2759     46.9411      8.0631    126.4741
  1685.5000      7.4021     46.9180      8.2206    128.1500
  1685.7500      7.5293     46.7969      8.3883    129.8980
  1686.0000      7.6456     46.6057      8.5670    131.9467
  1686.2500      7.7333     46.3726      8.7542    132.5337
  1686.5000      7.7748     46.1221      8.9410    132.0967
  1686.7500      7.7606     45.8746      9.1110    130.7464
  1687.0000      7.6975     45.6460      9.2432    126.9877
  1687.2500      7.6076     45.4488      9.3179    123.8540
  1687.5000      7.5203     45.2922      9.3237    120.0557
  1687.7500      7.4595     45.1817      9.2605    119.0092
  1688.0000      7.4312     45.1186      9.1368    119.7633
  1688.2500      7.4190     45.0992      8.9641    121.2011
  1688.5000      7.3923     45.1151      8.7515    123.6227
  1688.7500      7.3220     45.1542      8.5045    125.0687
  1689.0000      7.1924     45.2020      8.2275    126.8633
  1689.2500      7.0023     45.2451      7.9280    127.8147
  1689.5000      6.7624     45.2729      7.6174    128.8984
  1689.7500      6.4928     45.2808      7.3105    129.4925
  1690.0000      6.2214     45.2699      7.0222    130.3915
  1690.2500      5.9780     45.2468      6.7649    130.9000
  1690.5000      5.7831     45.2214      6.5467    131.0084
  1690.7500      5.6392     45.2038      6.3704    130.5555
  1691.0000      5.5340     45.2018      6.2336    129.9641
  1691.2500      5.4532     45.2192      6.1297    130.4016
  1691.5000      5.3894     45.2550      6.0505    132.7118
  1691.7500      5.3398     45.3041      5.9876    134.7535
  1692.0000      5.3007     45.3590      5.9344    136.8654
  1692.2500      5.2659     45.4110      5.8858    136.8363
  1692.5000      5.2301     45.4525      5.8391    134.1544
  1692.7500      5.1914     45.4776      5.7936    130.9370
  1693.0000      5.1518     45.4835      5.7501    125.2950
  1693.2500      5.1163     45.4709      5.7106    121.7981
  1693.5000      5.0906     45.4449      5.6780    117.7916
  1693.7500      5.0771     45.4147      5.6560    116.1313
  1694.0000      5.0746     45.3935      5.6486    115.2845
  1694.2500      5.0807     45.3954      5.6583    115.8278
  1694.5000      5.0961     45.4331      5.6845    118.1197
  1694.7500      5.1240     45.5130      5.7230    120.4369
  1695.0000      5.1654     45.6329      5.7676    124.6975
  1695.2500      5.2159     45.7804      5.8139    127.7106
  1695.5000      5.2692     45.9352      5.8623    131.5119
  1695.7500      5.3254     46.0730      5.9185    133.0282
  1696.0000      5.3937     46.1711      5.9915    133.6762
  1696.2500      5.4859     46.2136      6.0899    133.4279
  1696.5000      5.6074     46.1937      6.2178    132.5767
  1696.7500      5.7520     46.1140      6.3729    131.5944
