~Version Information
VERS.                      2.0: CWLS Log ASCII Standard - VERSION 2.0
WRAP.                       NO: One line per depth step
~Well Information Block
STRT.FT                 7.7500: 
STOP.FT              2101.0000: 
STEP.FT                 0.2500: 
NULL.                -999.2500: 
COMP.          Pioneer Natural Resources: COMPANY
WELL.          Gunslinger 13-24: WELL
FLD.           Purgatoire River: FIELD
LOC.           1968' FSL & 633' FWL: LOCATION
PROV.                 Colorado: PROVINCE
CNTY.               Las Animas: COUNTRY
SRVC.                Patterson: SERVICE COMPANY
DATE.          Mon Aug 15 11:00:02 2005: LOG DATE
UWI.           05 071 08442 00: UNIQUE WELL ID
~Curve Information Block
DEPT.FT            0 000 00 00: Depth
GR.GAPI                       : Gamma Ray
CCL.                          : Casing Collar Locator
TT3.usec                      : CBL 3' Travel Time
AMP3.mV                       : CBL 3' Amplitude
~Parameter Information Block
~A  Depth        GR         CCL         TT3         AMP3    
# ...
  1247.2500    138.3452      0.0000    252.8468     68.2820
  1247.5000    137.3340      0.0000    252.8728     68.1159
  1247.7500    135.9126      0.0000    252.9006     68.0384
  1248.0000    136.3145      0.0000    252.9248     68.0876
  1248.2500    139.2813      0.0000    252.9419     68.2717
  1248.5000    143.9740      0.0000    252.9491     68.5858
  1248.7500    149.2589      0.0000    252.9445     69.0349
  1249.0000    154.5876      0.0000    252.9274     69.6403
  1249.2500    159.6541      0.0000    252.8994     70.4214
  1249.5000    163.8829      0.0000    252.8626     71.3569
  1249.7500    166.5969      0.0000    252.8217     72.3508
  1250.0000    167.3091      0.0000    252.7854     73.2433
  1250.2500    165.5792      0.0000    252.7637     73.8879
  1250.5000    161.0110      0.0000    252.7611     74.2491
  1250.7500    153.8050      0.0000    252.7708     74.4267
  1251.0000    145.1433      0.0000    252.7802     74.5748
  1251.2500    136.7755      0.0000    252.7811     74.7996
  1251.5000    130.2700      0.0000    252.7729     75.1339
  1251.7500    126.4906      0.0000    252.7567     75.5760
  1252.0000    125.2168      0.0000    252.7307     76.1129
  1252.2500    125.0640      0.0000    252.6941     76.6937
  1252.5000    124.1496      0.0000    252.6523     77.1991
  1252.7500    121.1667      0.0000    252.6172     77.4570
  1253.0000    115.7741      0.0000    252.6019     77.3180
  1253.2500    108.1478      0.0000    252.6117     76.7502
  1253.5000     98.8154      0.0000    252.6404     75.8776
  1253.7500     89.0156      0.0000    252.6753     74.9100
  1254.0000     80.5015      0.0000    252.7064     74.0154
  1254.2500     74.6410      0.0000    252.7315     73.2543
  1254.5000     71.9557      0.0000    252.7537     72.6137
  1254.7500     72.2881      0.0000    252.7762     72.0736
  1255.0000     74.8648      0.0000    252.7992     71.6323
  1255.2500     78.3304      0.0000    252.8212     71.2924
  1255.5000     81.2799      0.0000    252.8397     71.0444
  1255.7500     82.9719      0.0000    252.8536     70.8695
  1256.0000     83.5319      0.0000    252.8629     70.7533
  1256.2500     83.6120      0.0000    252.8677     70.6964
  1256.5000     83.9590      0.0000    252.8679     70.7188
  1256.7500     85.1751      0.0000    252.8627     70.8509
  1257.0000     87.3997      0.0000    252.8528     71.1116
  1257.2500     89.8396      0.0000    252.8400     71.4886
  1257.5000     90.9322      0.0000    252.8252     71.9415
  1257.7500     89.6437      0.0000    252.8084     72.4213
  1258.0000     86.7369      0.0000    252.7904     72.8861
  1258.2500     84.3165      0.0000    252.7729     73.3079
  1258.5000     83.9294      0.0000    252.7574     73.6762
  1258.7500     85.2442      0.0000    252.7443     73.9978
  1259.0000     86.4924      0.0000    252.7343     74.2903
  1259.2500     86.0571      0.0000    252.7283     74.5731
  1259.5000     83.7743      0.0000    252.7255     74.8591
  1259.7500     80.8256      0.0000    252.7235     75.1453
  1260.0000     78.4078      0.0000    252.7211     75.4108
  1260.2500     76.7215      0.0000    252.7189     75.6272
  1260.5000     75.3372      0.0000    252.7177     75.7756
  1260.7500     74.1415      0.0000    252.7162     75.8554
  1261.0000     73.6032      0.0000    252.7117     75.8830
  1261.2500     74.3484      0.0000    252.7020     75.8833
  1261.5000     76.6166      0.0000    252.6897     75.8789
  1261.7500     79.8666      0.0000    252.6812     75.8819
  1262.0000     82.9074      0.0000    252.6813     75.8922
  1262.2500     84.7412      0.0000    252.6893     75.9022
  1262.5000     85.3800      0.0000    252.7009     75.9000
  1262.7500     85.6225      0.0000    252.7130     75.8724
  1263.0000     86.0633      0.0000    252.7257     75.8092
  1263.2500     86.5565      0.0000    252.7396     75.7098
  1263.5000     86.4759      0.0000    252.7533     75.5853
  1263.7500     85.2087      0.0000    252.7637     75.4540
  1264.0000     82.5923      0.0000    252.7704     75.3310
  1264.2500     79.1765      0.0000    252.7773     75.2231
  1264.5000     75.9833      0.0000    252.7884     75.1309
  1264.7500     73.8718      0.0000    252.8018     75.0536
  1265.0000     73.1162      0.0000    252.8105     74.9885
  1265.2500     73.5417      0.0000    252.8107     74.9266
  1265.5000     74.9011      0.0000    252.8067     74.8523
  1265.7500     77.0498      0.0000    252.8056     74.7522
  1266.0000     79.8751      0.0000    252.8103     74.6323
  1266.2500     83.1003      0.0000    252.8190     74.5233
  1266.5000     86.0839      0.0000    252.8293     74.4622
  1266.7500     87.9655      0.0000    252.8403     74.4616
  1267.0000     88.3128      0.0000    252.8506     74.4980
  1267.2500     87.5667      0.0000    252.8578     74.5317
  1267.5000     86.5689      0.0000    252.8603     74.5339
  1267.7500     85.7681      0.0000    252.8599     74.4966
  1268.0000     85.1383      0.0000    252.8608     74.4260
  1268.2500     84.6245      0.0000    252.8663     74.3364
  1268.5000     84.2872      0.0000    252.8756     74.2490
  1268.7500     84.1701      0.0000    252.8848     74.1886
  1269.0000     84.3374      0.0000    252.8894     74.1767
  1269.2500     84.9088      0.0000    252.8871     74.2219
  1269.5000     85.7799      0.0000    252.8777     74.3096
  1269.7500     86.4039      0.0000    252.8629     74.4033
  1270.0000     86.0961      0.0000    252.8445     74.4645
  1270.2500     84.6687      0.0000    252.8244     74.4764
  1270.5000     82.7684      0.0000    252.8053     74.4449
  1270.7500     81.4213      0.0000    252.7916     74.3833
  1271.0000     81.0998      0.0000    252.7882     74.3054
  1271.2500     81.3270      0.0000    252.7954     74.2311
  1271.5000     81.2802      0.0000    252.8076     74.1855
  1271.7500     80.6075      0.0000    252.8164     74.1863
  1272.0000     79.5596      0.0000    252.8168     74.2322
  1272.2500     78.5727      0.0000    252.8100     74.3028
  1272.5000     77.9331      0.0000    252.8013     74.3727
  1272.7500     77.6591      0.0000    252.7958     74.4256
  1273.0000     77.4817      0.0000    252.7959     74.4615
  1273.2500     77.0517      0.0000    252.8003     74.4893
  1273.5000     76.3670      0.0000    252.8046     74.5176
  1273.7500     75.9916      0.0000    252.8045     74.5509
  1274.0000     76.6971      0.0000    252.7992     74.5928
  1274.2500     78.6715      0.0000    252.7909     74.6471
  1274.5000     81.0505      0.0000    252.7826     74.7165
  1274.7500     82.5157      0.0000    252.7765     74.7966
  1275.0000     82.5546      0.0000    252.7731     74.8733
  1275.2500     81.9491      0.0000    252.7691     74.9279
  1275.5000     81.9815      0.0000    252.7571     74.9503
  1275.7500     83.3425      0.0000    252.7291     74.9461
  1276.0000     85.7489      0.0000    252.6863     74.9328
  1276.2500     88.2459      0.0000    252.6465     74.9313
  1276.5000     89.7687      0.0000    252.6339     74.9593
  1276.7500     89.7270      0.0000    252.6551     75.0249
  1277.0000     88.4230      0.0000    252.6917     75.1203
  1277.2500     86.8671      0.0000    252.7182     75.2236
  1277.5000     85.8660      0.0000    252.7232     75.3085
  1277.7500     85.2204      0.0000    252.7107     75.3541
  1278.0000     84.1149      0.0000    252.6915     75.3526
  1278.2500     82.3340      0.0000    252.6758     75.3144
  1278.5000     80.6660      0.0000    252.6685     75.2627
  1278.7500     79.9063      0.0000    252.6675     75.2196
  1279.0000     79.8381      0.0000    252.6654     75.1907
  1279.2500     79.5494      0.0000    252.6555     75.1638
  1279.5000     78.6071      0.0000    252.6349     75.1213
  1279.7500     77.5703      0.0000    252.6074     75.0594
  1280.0000     77.2742      0.0000    252.5807     74.9984
  1280.2500     77.8861      0.0000    252.5617     74.9688
  1280.5000     78.8773      0.0000    252.5513     74.9778
