~Version Information
VERS.                      2.0: CWLS Log ASCII Standard - VERSION 2.0
WRAP.                       NO: One line per depth step
~Well Information Block
STRT.FT                -7.0000: 
STOP.FT              2328.5000: 
STEP.FT                 0.2500: 
NULL.                -999.2500: 
COMP.          Pioneer Natural Resources: COMPANY
WELL.              Rolls 14-14: WELL
FLD.           Purgatorie River: FIELD
LOC.           572' FSL & 856' FWL--: LOCATION
PROV.                       CO: PROVINCE
CNTY.               Las Animas: COUNTRY
SRVC.          Patterson Wireline: SERVICE COMPANY
DATE.          Mon Aug 08 10:10:54 2005: LOG DATE
UWI.           05 071 08455 00: UNIQUE WELL ID
~Curve Information Block
DEPT.FT            0 000 00 00: Depth
CCL.                          : Casing Collar Locator
TT3.usec                      : CBL 3' Travel Time
AMP3.mV                       : CBL 3' Amplitude
GR.GAPI                       : Gamma Ray
~Parameter Information Block
~A  Depth       CCL         TT3         AMP3         GR     
# ...
   294.5000      0.0000    839.8932      7.2771     48.6953
   294.7500      0.0000    839.9714      7.3215     47.2397
   295.0000      0.0000    839.9103      7.3885     48.2726
   295.2500      0.0000    839.7050      7.4630     51.9465
   295.5000      0.0000    839.4144      7.5290     55.6935
   295.7500      0.0000    839.1281      7.5854     56.6453
   296.0000      0.0000    838.9301      7.6447     54.3223
   296.2500      0.0000    838.8732      7.7165     50.8771
   296.5000      0.0000    838.9606      7.7926     48.8311
   296.7500      0.0000    839.1479      7.8491     48.9302
   297.0000      0.0000    839.3675      7.8672     50.2840
   297.2500      0.0000    839.5541      7.8524     51.9062
   297.5000      0.0000    839.6577      7.8348     53.4849
   297.7500      0.0000    839.6594      7.8489     55.0206
   298.0000      0.0000    839.5875      7.9070     56.3242
   298.2500      0.0000    839.4971      7.9887     56.9273
   298.5000      0.0000    839.4218      8.0576     56.4192
   298.7500      0.0000    839.3531      8.0909     54.9366
   299.0000      0.0000    839.2606      8.0957     53.2459
   299.2500      0.0000    839.1218      8.0994     52.1858
   299.5000      0.0000    838.9399      8.1223     51.9947
   299.7500      0.0000    838.7548      8.1554     52.1840
   300.0000      0.0000    838.6271      8.1670     52.0721
   300.2500      0.0000    838.5981      8.1346     51.4232
   300.5000      0.0000    838.6588      8.0710     50.5139
   300.7500      0.0000    838.7589      8.0179     49.8015
   301.0000      0.0000    838.8452      8.0107     49.8402
   301.2500      0.0000    838.9058      8.0459     51.3474
   301.5000      0.0000    838.9951      8.0814     54.7650
   301.7500      0.0000    839.2111      8.0707     59.4895
   302.0000      0.0000    839.6230      8.0041     63.7794
   302.2500      0.0000    840.1942      7.9162     65.7964
   302.5000      0.0000    840.7774      7.8568     64.9600
   302.7500      0.0000    841.2025      7.8514     62.2771
   303.0000      0.0000    841.3755      7.8838     59.3718
   303.2500      0.0000    841.2955      7.9129     57.3989
   303.5000      0.0000    840.9935      7.9061     56.8429
   303.7500      0.0000    840.4900      7.8639     57.7773
   304.0000      0.0000    839.8176      7.8139     59.9699
   304.2500      0.0000    839.0520      7.7837     63.0403
   304.5000      0.0000    838.3006      7.7800     66.7733
   304.7500      0.0000    837.6709      7.7904     71.0474
   305.0000      0.0000    837.2396      7.8001     75.4508
   305.2500      0.0000    837.0086      7.8047     79.3166
   305.5000      0.0000    836.8392      7.8110     82.1691
   305.7500      0.0000    836.3837      7.8319     83.8904
   306.0000      0.0000    835.0275      7.8798     84.5906
   306.2500      0.0000    831.9405      7.9592     84.5872
   306.5000      0.0000    826.5457      8.0593     84.2782
   306.7500      0.0000    819.4649      8.1519     83.7306
   307.0000      0.0000    813.2209      8.2041     82.6574
   307.2500      0.0000    811.5873      8.1979     81.0801
   307.5000      0.0000    817.4077      8.1428     79.8592
   307.7500      0.0000    830.2360      8.0711     80.2415
   308.0000      0.0000    845.7536      8.0217     82.7620
   308.2500      0.0000    857.8738      8.0207     86.7540
   308.5000      0.0000    862.1667      8.0667     91.0831
   308.7500      0.0000    858.0354      8.1286     95.1669
   309.0000      0.0000    848.3772      8.1609     99.0315
   309.2500      0.0000    837.4063      8.1315    102.4800
   309.5000      0.0000    828.1303      8.0442    104.5927
   309.7500      0.0000    821.1353      7.9359    104.2786
   310.0000      0.0000    815.6558      7.8489    101.3251
   310.2500      0.0000    811.7205      7.8006     96.8635
   310.5000      0.0000    810.7059      7.7757     92.9268
   310.7500      0.0000    813.5718      7.7463     91.3105
   311.0000      0.0000    819.0355      7.6950     92.1877
   311.2500      0.0000    823.7337      7.6162     93.8078
   311.5000      0.0000    823.8019      7.4929     94.3352
   311.7500      0.0000    816.5986      7.2852     94.0548
   312.0000      0.0000    802.5181      6.9576     94.9237
   312.2500      0.0000    786.3923      6.5314     97.7480
   312.5000      0.0000    776.0479      6.1018    100.6099
   312.7500      0.0000    777.0651      5.7874    100.5440
   313.0000      0.0000    788.0479      5.6524     96.4693
   313.2500      0.0000    802.1545      5.6728     90.2629
   313.5000      0.0000    813.9881      5.7679     85.1790
   313.7500      0.0000    823.3359      5.8604     83.4117
   314.0000     -2.0000    830.6705      5.9230     84.9632
   314.2500      0.0000    830.7461      5.9911     88.2533
   314.5000      0.0000    814.5508      6.1414     91.3115
   314.7500      0.0000    779.5505      6.4368     92.4901
   315.0000      0.0000    737.4844      6.8610     90.8066
   315.2500      0.0000    709.8269      7.3022     86.4315
   315.5000      0.0000    712.6733      7.6288     80.9337
   315.7500      0.0000    744.8195      7.7864     76.4443
   316.0000      0.0000    790.3358      7.8146     74.1758
   316.2500      0.0000    831.4880      7.7864     73.7933
   316.5000      0.0000    858.9779      7.7576     74.2335
   316.7500      0.0000    872.7491      7.7548     74.9475
   317.0000      0.0000    876.7387      7.7760     76.2136
   317.2500      0.0000    874.2324      7.7983     78.2537
   317.5000      0.0000    867.1279      7.7982     80.3007
   317.7500      0.0000    857.6539      7.7752     81.0024
   318.0000      0.0000    849.2350      7.7498     79.9777
   318.2500      0.0000    844.8685      7.7390     78.6079
   318.5000      0.0000    845.0087      7.7364     78.8992
   318.7500      0.0000    847.4937      7.7242     81.5533
   319.0000      0.0000    849.6431      7.6992     85.2446
   319.2500      0.0000    850.4633      7.6789     87.8093
   319.5000      0.0000    851.1754      7.6850     88.1347
   319.7500      0.0000    853.8345      7.7229     86.8310
   320.0000      0.0000    859.3203      7.7772     85.1985
   320.2500      0.0000    866.3901      7.8225     84.0638
   320.5000      0.0000    872.3876      7.8434     83.8835
   320.7500      0.0000    874.7071      7.8451     85.1559
   321.0000      0.0000    871.7625      7.8447     87.8523
   321.2500      0.0000    863.1020      7.8530     90.7545
   321.5000      0.0000    849.1245      7.8650     92.0660
   321.7500      0.0000    831.0089      7.8658     90.7370
   322.0000      0.0000    811.3931      7.8439     87.2465
   322.2500      0.0000    795.0062      7.7974     83.5235
   322.5000      0.0000    787.4791      7.7334     82.0235
   322.7500      0.0000    792.4167      7.6648     84.0805
   323.0000      0.0000    809.2493      7.6081     88.8706
   323.2500      0.0000    833.1834      7.5775     94.2747
   323.5000      0.0000    856.5469      7.5741     98.6487
   323.7500      0.0000    871.8527      7.5830    101.6122
   324.0000      0.0000    876.4313      7.5862    103.6033
   324.2500      0.0000    874.4943      7.5748    105.0838
   324.5000      0.0000    873.0009      7.5467    105.9648
   324.7500      0.0000    875.2251      7.4966    105.6321
   325.0000      0.0000    879.3364      7.4217    103.6862
   325.2500      0.0000    882.0922      7.3390    100.6182
   325.5000      0.0000    881.3677      7.2892     97.4970
   325.7500      0.0000    875.6569      7.3136     95.1374
   326.0000      0.0000    864.7246      7.4273     93.9065
   326.2500      0.0000    852.0052      7.6139     94.0466
   326.5000      0.0000    843.5766      7.8433     95.6128
   326.7500      0.0000    842.4330      8.0901     98.0211
   327.0000      0.0000    844.8481      8.3389     99.9835
   327.2500      0.0000    844.0466      8.5810    100.1005
   327.5000      0.0000    836.5912      8.8102     97.6090
   327.7500      0.0000    824.0420      9.0204     92.8266
