~Version Information
VERS.                      2.0: CWLS Log ASCII Standard - VERSION 2.0
WRAP.                       NO: One line per depth step
~Well Information Block
STRT.FT               459.3000: 
STOP.FT              1604.7000: 
STEP.FT                 0.1000: 
NULL.                -999.2500: 
COMP.          Pioneer Natural Resources: COMPANY
WELL.          Grand Prix 13-12 Tr: WELL
FLD.           Purgatoire River: FIELD
LOC.           2595' FSL & 1277' FWL--: LOCATION
CNTY.               Las Animas: COUNTY
SRVC.                Patterson: SERVICE COMPANY
DATE.          Tue Apr 04 07:18:28 2006: LOG DATE
UWI.           05 071 08711 00: UNIQUE WELL ID
STAT.                 Colorado: STATE
~Curve Information Block
DEPT.FT            0 000 00 00: Depth
DCAL.in                       : CDL Caliper
RHOB.g/cc                     : CDL Bulk Density
RHOC.g/cc                     : CDL Density Correction
DPOR.pu                       : CDL Density Porosity
GR.GAPI                       : Gamma Ray
~Parameter Information Block
~A  Depth       DCAL        RHOB        RHOC        DPOR         GR     
# ...
  1064.1000      7.8236      2.6415      0.0095      0.5153    131.1712
  1064.2000      7.8236      2.6365      0.0324      0.8210    135.4883
  1064.3000      7.8148      2.6251      0.0476      1.5090    130.6843
  1064.4000      7.8148      2.6064      0.0284      2.6398    121.4656
  1064.5000      7.8251      2.5924      0.0272      3.4884    121.6064
  1064.6000      7.8251      2.5850     -0.0354      3.9408    130.4002
  1064.7000      7.8251      2.5743      0.0414      4.5850    134.7614
  1064.8000      7.8515      2.5647     -0.0409      5.1701    132.0853
  1064.9000      7.8515      2.5718      0.0279      4.7387    128.5416
  1065.0000      7.8777      2.5904     -0.0044      3.6127    123.5793
  1065.1000      7.8777      2.6046      0.0118      2.7531    114.7971
  1065.2000      7.8777      2.6080      0.0066      2.5443    106.8017
  1065.3000      7.8857      2.6036      0.0415      2.8148    105.1649
  1065.4000      7.8857      2.6047      0.0090      2.7469    107.7555
  1065.5000      7.8586      2.6164      0.0768      2.0376    108.9651
  1065.6000      7.8586      2.6199      0.1116      1.8225    106.5066
  1065.7000      7.8586      2.6103      0.0869      2.4070    104.5178
  1065.8000      7.8108      2.6048      0.1126      2.7380    107.9358
  1065.9000      7.8108      2.6097      0.0852      2.4450    113.7316
  1066.0000      7.7899      2.6142      0.1308      2.1670    116.8370
  1066.1000      7.7899      2.6093      0.0727      2.4644    118.5148
  1066.2000      7.7899      2.6005      0.0957      2.9977    125.2751
  1066.3000      7.8127      2.5920      0.1086      3.5151    139.5504
  1066.4000      7.8127      2.5825      0.0624      4.0907    150.4265
  1066.5000      7.8544      2.5742      0.0609      4.5928    148.0461
  1066.6000      7.8544      2.5672      0.1092      5.0161    138.6709
  1066.7000      7.8544      2.5655      0.0508      5.1236    131.1663
  1066.8000      7.8842      2.5778      0.0611      4.3759    126.7539
  1066.9000      7.8842      2.5981      0.0793      3.1465    125.5127
  1067.0000      7.8963      2.6109      0.0619      2.3699    128.7723
  1067.1000      7.8963      2.6143      0.0599      2.1649    135.2098
  1067.2000      7.8963      2.6106      0.0622      2.3896    137.7583
  1067.3000      7.8940      2.5910      0.0810      3.5739    132.6177
  1067.4000      7.8940      2.5495      0.0539      6.0888    124.5617
  1067.5000      7.8791      2.5055      0.0137      8.7559    118.4516
  1067.6000      7.8791      2.4859      0.0036      9.9436    115.7195
  1067.7000      7.8791      2.4943      0.0033      9.4339    114.3929
  1067.8000      7.8538      2.5121      0.0440      8.3548    110.5663
  1067.9000      7.8538      2.5193      0.0352      7.9229    104.7832
  1068.0000      7.8253      2.5161      0.0286      8.1127    100.3719
  1068.1000      7.8253      2.5149      0.0525      8.1854     99.5691
  1068.2000      7.8253      2.5169      0.0777      8.0648    100.7538
  1068.3000      7.8125      2.5169      0.0619      8.0645    101.1919
  1068.4000      7.8125      2.5197      0.0856      7.8992    100.7251
  1068.5000      7.8213      2.5301      0.1050      7.2682     99.0959
  1068.6000      7.8213      2.5381      0.1129      6.7819     96.7746
  1068.7000      7.8213      2.5266      0.0856      7.4778     95.7710
  1068.8000      7.8435      2.4964      0.0699      9.3082     94.9214
  1068.9000      7.8435      2.4794     -0.0019     10.3412     92.2595
  1069.0000      7.8572      2.5049      0.0818      8.7954     89.2373
  1069.1000      7.8572      2.5550      0.1302      5.7592     88.8967
  1069.2000      7.8572      2.5924      0.1573      3.4910     90.6298
  1069.3000      7.8563      2.6039      0.1510      2.7934     92.0282
  1069.4000      7.8563      2.6006      0.1122      2.9910     93.4640
  1069.5000      7.8586      2.5964      0.1058      3.2494     95.8938
  1069.6000      7.8586      2.5896      0.1178      3.6632     98.5066
  1069.7000      7.8586      2.5762      0.1029      4.4704    100.4917
  1069.8000      7.8686      2.5632      0.0928      5.2635    103.0114
  1069.9000      7.8686      2.5547      0.0533      5.7734    107.6831
  1070.0000      7.8822      2.5505      0.0564      6.0318    115.1387
  1070.1000      7.8822      2.5531      0.0077      5.8737    124.2157
  1070.2000      7.8822      2.5640      0.0685      5.2142    130.3487
  1070.3000      7.8963      2.5848      0.0195      3.9531    129.4079
  1070.4000      7.8963      2.6130      0.1240      2.2445    126.0285
  1070.5000      7.9034      2.6313      0.0581      1.1329    129.1488
  1070.6000      7.9034      2.6335      0.0525      0.9984    137.0931
  1070.7000      7.9034      2.6239      0.0900      1.5847    140.3372
  1070.8000      7.9055      2.6071      0.0568      2.6028    135.9579
  1070.9000      7.9055      2.5966      0.0453      3.2360    130.1607
  1071.0000      7.9081      2.5997      0.0280      3.0474    127.7766
  1071.1000      7.9081      2.6035      0.0752      2.8155    128.6909
  1071.2000      7.9081      2.6006      0.0122      2.9918    132.2685
  1071.3000      7.9104      2.6085      0.0146      2.5166    137.0809
  1071.4000      7.9104      2.6325      0.0615      1.0603    140.7777
  1071.5000      7.9106      2.6580      0.0591     -0.4833    138.8195
  1071.6000      7.9106      2.6766      0.0932     -1.6122    131.2448
  1071.7000      7.9106      2.6850      0.0571     -2.1228    126.2704
  1071.8000      7.9091      2.6874      0.0254     -2.2664    126.9236
  1071.9000      7.9091      2.6909      0.0817     -2.4797    127.3091
  1072.0000      7.9062      2.6944      0.0680     -2.6939    123.8612
  1072.1000      7.9062      2.6960      0.0641     -2.7892    120.5064
  1072.2000      7.9062      2.6921      0.0546     -2.5489    121.9337
  1072.3000      7.9030      2.6852      0.0098     -2.1359    126.3898
  1072.4000      7.9030      2.6825      0.0573     -1.9704    125.9712
  1072.5000      7.8981      2.6743      0.0339     -1.4744    119.6360
  1072.6000      7.8981      2.6557     -0.0128     -0.3435    116.0498
  1072.7000      7.8981      2.6346     -0.0029      0.9317    117.0694
  1072.8000      7.8895      2.6153     -0.0084      2.1015    117.4779
  1072.9000      7.8895      2.6081     -0.0250      2.5422    115.5003
  1073.0000      7.8821      2.6188      0.0022      1.8888    113.5394
  1073.1000      7.8821      2.6337      0.0444      0.9905    113.2293
  1073.2000      7.8821      2.6462      0.0082      0.2302    113.8671
  1073.3000      7.8765      2.6571      0.0708     -0.4284    114.6327
  1073.4000      7.8765      2.6531      0.0800     -0.1869    112.1525
  1073.5000      7.8718      2.6349      0.0620      0.9169    105.5201
  1073.6000      7.8718      2.6253      0.0064      1.4981    102.0746
  1073.7000      7.8718      2.6356      0.0373      0.8699    106.0526
  1073.8000      7.8676      2.6492      0.0820      0.0500    109.8503
  1073.9000      7.8676      2.6480      0.0160      0.1216    107.2013
  1074.0000      7.8622      2.6321      0.0204      1.0833    105.3341
  1074.1000      7.8622      2.5952      0.0307      3.3229    111.7837
  1074.2000      7.8622      2.5264     -0.0034      7.4907    122.4113
  1074.3000      7.8553      2.4359     -0.0521     12.9756    130.1966
  1074.4000      7.8553      2.3417     -0.0768     18.6868    135.1913
  1074.5000      7.8511      2.2486     -0.0936     24.3299    137.8055
  1074.6000      7.8511      2.1566     -0.1152     29.9057    136.0134
  1074.7000      7.8511      2.0802     -0.1604     34.5325    132.3040
  1074.8000      7.8526      2.0352     -0.1007     37.2579    127.4011
  1074.9000      7.8526      2.0148     -0.0701     38.4998    121.1876
  1075.0000      7.8610      2.0106     -0.0645     38.7531    117.9511
  1075.1000      7.8610      2.0327     -0.0097     37.4105    118.7809
  1075.2000      7.8610      2.0837      0.0754     34.3192    120.0251
