~Version Information
 VERS.                                  2.0 : CWLS LAS VERSION
 WRAP.                                   NO : WRAPING MODE
 SWARE .                 MController 2.5.0J : SOFTWARE VERSION
~Well Information
 WELL.                  Lorencito 8-1-34-67 : WELL
 COMP.                              Pioneer : COMPANY
 FLD.                      Purgatoire River : FIELD
 LOC.                    1567 FNL & 500 FEL : LOCATION
 DATE.                                  N/A : DATE(S) LOGGED
 SRVC.                                  N/A : SERVICE COMPANY
 STAT.                             Colorado : STATE
 CNTY.                           Las Animas : COUNTY
 CTRY.                                 USA  : COUNTRY
 API.                           05-071-08506 : API NUMBER
 STRT.FT                             201.00 : START DEPTH
 STOP.FT                            1673.00 : STOP DEPTH
 STEP.FT                               1.00 : DEPTH INCREMENT
 NULL.                                -9999 : NULL VALUE
~Curve information
 DEPTH.FT                                   :
 ROP.MIN/FT                                 :
 GAS.UNITS                                  :
~ASCII Log data
# ...
      1001.0         0.33         31.6 
      1002.0         0.35         31.5 
      1003.0         0.37         30.1 
      1004.0         0.33         31.1 
      1005.0         0.40         30.6 
      1006.0         0.33         31.0 
      1007.0         0.47         30.7 
      1008.0         0.43         30.8 
      1009.0         0.40         31.7 
      1010.0         0.37         31.6 
      1011.0         6.85        151.9 
      1012.0         0.30         51.1 
      1013.0         0.27         43.6 
      1014.0         0.27         42.2 
      1015.0         0.27         40.4 
      1016.0         0.10         39.4 
      1017.0         0.17         39.1 
      1018.0         0.23         39.0 
      1019.0         0.27         37.8 
      1020.0         0.17         36.5 
      1021.0         0.13         36.0 
      1022.0         0.23         36.1 
      1023.0         0.23         35.5 
      1024.0         0.20         35.0 
      1025.0         0.32         35.0 
      1026.0         0.40         34.6 
      1027.0         0.43         33.8 
      1028.0         0.27         32.2 
      1029.0         0.20         30.9 
      1030.0         0.23         30.1 
      1031.0         0.30         28.2 
      1032.0         0.40         31.4 
      1033.0         0.60         32.9 
      1034.0         0.30         32.3 
      1035.0         0.35         30.5 
      1036.0         0.20         28.1 
      1037.0         0.20         30.0 
      1038.0         0.17         31.7 
      1039.0         0.17         33.5 
      1040.0         0.33         33.8 
      1041.0         3.68         71.5 
      1042.0         0.40         64.2 
      1043.0         0.30         47.7 
      1044.0         0.43         43.9 
      1045.0         0.27         52.9 
      1046.0         0.28         54.6 
      1047.0         0.30         53.6 
      1048.0         0.30         49.2 
      1049.0         0.27         44.1 
      1050.0         0.30         41.7 
      1051.0         0.30         38.8 
      1052.0         0.33         37.4 
      1053.0         0.33         38.1 
      1054.0         0.50         37.1 
      1055.0         0.47         35.6 
      1056.0         0.38         35.1 
      1057.0         0.70         34.4 
      1058.0         0.27         32.6 
      1059.0         0.30         32.9 
      1060.0         0.30         30.5 
      1061.0         0.50         33.0 
      1062.0         0.27         35.2 
      1063.0         0.27         36.7 
      1064.0         0.33         36.3 
      1065.0         0.28         35.4 
      1066.0         0.27         34.0 
      1067.0         0.27         33.5 
      1068.0         0.30         33.0 
      1069.0         0.27         32.3 
      1070.0         0.33         32.9 
      1071.0         4.38         95.1 
      1072.0         0.33         65.5 
      1073.0         0.23         50.5 
      1074.0         0.28         45.7 
      1075.0         0.23         41.6 
      1076.0         0.20         41.1 
      1077.0         0.17         41.8 
      1078.0         0.27         42.3 
      1079.0         0.37         42.1 
      1080.0         0.17         40.8 
      1081.0         0.37         39.8 
      1082.0         0.27         38.5 
      1083.0         0.27         35.9 
      1084.0         2.05         35.4 
      1085.0         0.50         29.3 
      1086.0         0.33         31.6 
      1087.0         0.33         35.7 
      1088.0         0.47         39.9 
      1089.0         0.58         40.4 
      1090.0         0.23         37.6 
      1091.0         0.20         35.1 
      1092.0         0.20         34.0 
      1093.0         0.20         32.7 
      1094.0         0.20         31.7 
      1095.0         0.20         31.2 
      1096.0         0.23         31.7 
      1097.0         0.30         34.2 
      1098.0         0.30         34.9 
      1099.0         0.23         35.3 
      1100.0         0.17         35.4 
      1101.0         6.77        126.9 
      1102.0         0.27         35.7 
      1103.0         0.27         35.2 
      1104.0         0.15         34.5 
      1105.0         0.17         34.2 
      1106.0         0.27         34.7 
      1107.0         0.30         39.4 
      1108.0         0.30         43.3 
      1109.0         0.20         46.4 
      1110.0         0.23         47.2 
      1111.0         0.20         47.1 
      1112.0         0.20         45.7 
      1113.0         0.27         43.8 
      1114.0         0.23         41.0 
      1115.0         0.20         39.6 
      1116.0         0.30         38.0 
      1117.0         0.27         36.4 
      1118.0         0.22         34.9 
      1119.0         0.20         34.8 
      1120.0         0.20         34.3 
      1121.0         0.30         33.8 
      1122.0         0.20         32.8 
      1123.0         0.20         33.0 
      1124.0         0.20         32.4 
      1125.0         0.20         32.3 
      1126.0         0.23         32.2 
      1127.0         0.20         31.5 
      1128.0         0.23         31.4 
      1129.0         0.23         31.2 
      1130.0         0.27         31.7 
      1131.0         0.30         31.9 
      1132.0         4.47         33.2 
      1133.0         0.27         18.6 
      1134.0         0.20         50.8 
      1135.0         0.33        112.3 
      1136.0         0.30        112.4 
      1137.0         0.27         88.7 
      1138.0         0.17         68.6 
      1139.0         0.20         57.5 
      1140.0         0.17         53.1 
      1141.0         0.17         51.0 
      1142.0         0.20         49.4 
      1143.0         0.18         47.7 
      1144.0         0.13         46.0 
      1145.0         0.17         45.1 
      1146.0         0.20         44.6 
      1147.0         0.20         43.5 
      1148.0         0.20         41.6 
      1149.0         0.27         40.4 
      1150.0         0.33         39.4 
      1151.0         0.27         38.2 
      1152.0         0.23         37.4 
      1153.0         0.27         36.6 
      1154.0         0.27         34.9 
      1155.0         0.27         34.7 
      1156.0         0.28         35.0 
      1157.0         0.33         35.2 
      1158.0         0.23         34.3 
      1159.0         0.27         34.1 
      1160.0         0.23         33.7 
      1161.0         0.20         33.2 
      1162.0         5.40        140.2 
      1163.0         0.33        109.5 
      1164.0         0.30         76.1 
      1165.0         0.37         61.1 
      1166.0         0.27         57.6 
      1167.0         0.23         57.2 
      1168.0         0.23         55.4 
      1169.0         0.27         53.3 
      1170.0         0.23         50.7 
      1171.0         0.27         47.8 
      1172.0         0.27         46.9 
      1173.0         0.28         46.5 
      1174.0         0.13         46.5 
      1175.0         0.20         45.5 
      1176.0         0.27         45.4 
      1177.0         0.27         44.6 
      1178.0         0.27         44.7 
      1179.0         0.20         45.0 
      1180.0         0.23         44.8 
      1181.0         0.23         43.6 
      1182.0         0.23         42.8 
      1183.0         0.27         40.8 
      1184.0         0.23         40.7 
      1185.0         0.23         40.3 
      1186.0         0.27         40.0 
      1187.0         0.32         39.8 
      1188.0         0.33         45.0 
      1189.0         0.30         50.1 
      1190.0         0.30         54.6 
      1191.0         0.27         57.3 
      1192.0         6.13        276.0 
      1193.0         0.30        250.8 
      1194.0         0.43        171.2 
      1195.0         0.30        108.9 
      1196.0         0.30         88.2 
      1197.0         0.30         68.5 
      1198.0         0.20         70.6 
      1199.0         0.23         80.8 
      1200.0         0.20         86.3 
