~Version Information
VERS.                      2.0: CWLS Log ASCII Standard - VERSION 2.0
WRAP.                       NO: One line per depth step
~Well Information Block
STRT.FT                10.0000: 
STOP.FT              1485.0000: 
STEP.FT                 0.1000: 
NULL.                -999.2500: 
COMP.          Pioneer Natural Resources: COMPANY
WELL.          Old Faithful 21-2: WELL
FLD.           Purgatorie River: FIELD
LOC.           806' FNL & 2509' FWL: LOCATION
PROV.                 Colorado: PROVINCE
CNTY.               Las Animas: COUNTRY
SRVC.                Patterson: SERVICE COMPANY
DATE.          Wed Dec 07 13:17:12 2005: LOG DATE
UWI.                          : UNIQUE WELL ID
~Curve Information Block
DEPT.FT            0 000 00 00: Depth
DCAL.in                       : CDL Caliper
RHOB.g/cc                     : CDL Bulk Density
RHOC.g/cc                     : CDL Density Correction
DPOR.pu                       : CDL Density Porosity
GR.GAPI                       : Gamma Ray
NPOR.pu                       : Neutron Porosity
~Parameter Information Block
~A  Depth       DCAL        RHOB        RHOC        DPOR         GR         NPOR    
# ...
  1075.6000      8.1818      2.3807      0.0581     16.3211    152.1383     29.0064
  1075.7000      8.1818      2.3760      0.0476     16.6038    155.5646     28.7235
  1075.8000      8.1930      2.3690      0.0366     17.0324    154.4018     28.9276
  1075.9000      8.1930      2.3668      0.0383     17.1655    148.8795     29.4591
  1076.0000      8.1831      2.3649      0.1040     17.2786    145.7329     29.8867
  1076.1000      8.1831      2.3522      0.0634     18.0455    145.6449     30.0711
  1076.2000      8.1831      2.3390      0.0295     18.8488    144.6896     29.9822
  1076.3000      8.1524      2.3444      0.0696     18.5241    146.2449     29.6441
  1076.4000      8.1524      2.3724      0.0932     16.8264    149.3510     29.2272
  1076.5000      8.1561      2.4111      0.1368     14.4805    147.3349     28.9674
  1076.6000      8.1561      2.4469      0.0998     12.3115    141.9024     29.0381
  1076.7000      8.1561      2.4750      0.1232     10.6080    138.5881     29.4538
  1076.8000      8.1770      2.4915      0.1022      9.6049    138.2166     30.0469
  1076.9000      8.1770      2.4944      0.0712      9.4285    138.2664     30.6240
  1077.0000      8.1942      2.4924      0.0774      9.5485    138.0066     30.9556
  1077.1000      8.1942      2.4971      0.0416      9.2640    137.8570     30.7502
  1077.2000      8.1942      2.5096      0.0503      8.5106    138.2147     30.2282
  1077.3000      8.2128      2.5191      0.0587      7.9331    142.0070     29.8937
  1077.4000      8.2128      2.5151      0.0662      8.1766    147.6635     29.6779
  1077.5000      8.1928      2.4976      0.0338      9.2369    149.8891     29.3287
  1077.6000      8.1928      2.4774     -0.0062     10.4584    148.1922     28.9547
  1077.7000      8.1928      2.4657     -0.0299     11.1682    145.1550     28.6797
  1077.8000      8.1766      2.4592     -0.0027     11.5620    142.2459     28.4608
  1077.9000      8.1766      2.4431     -0.0013     12.5386    138.0804     28.3607
  1078.0000      8.1567      2.4053     -0.0054     14.8276    130.4136     28.3620
  1078.1000      8.1567      2.3469     -0.0129     18.3696    122.3299     28.3210
  1078.2000      8.1567      2.2823     -0.0252     22.2865    120.6440     28.3307
  1078.3000      8.1666      2.2215     -0.0119     25.9671    123.0451     28.4643
  1078.4000      8.1666      2.1704     -0.0802     29.0674    122.3490     28.6829
  1078.5000      8.1841      2.1379     -0.0351     31.0384    120.1626     29.0242
  1078.6000      8.1841      2.1221     -0.0328     31.9940    120.9566     29.4069
  1078.7000      8.1841      2.1152     -0.0139     32.4099    124.0481     29.6940
  1078.8000      8.2077      2.1212      0.0141     32.0489    126.9761     29.9575
  1078.9000      8.2077      2.1514      0.0356     30.2209    127.4299     30.2348
  1079.0000      8.2827      2.1998      0.1234     27.2843    124.5268     30.3342
  1079.1000      8.2827      2.2446      0.0459     24.5716    122.4422     30.1566
  1079.2000      8.2827      2.2762      0.0617     22.6551    126.5926     29.9287
  1079.3000      8.2428      2.3041      0.0413     20.9643    134.9633     29.8412
  1079.4000      8.2428      2.3415      0.0607     18.6956    140.9189     29.9060
  1079.5000      8.2533      2.3858      0.0797     16.0103    142.9437     30.1387
  1079.6000      8.2533      2.4220      0.0879     13.8185    143.5850     30.4321
  1079.7000      8.2533      2.4407      0.0986     12.6823    143.9248     30.5636
  1079.8000      8.1945      2.4475      0.0417     12.2742    143.6705     30.4554
  1079.9000      8.1945      2.4553      0.0262     11.7983    142.7161     30.1206
  1080.0000      8.2076      2.4642      0.0793     11.2631    142.8018     29.6598
  1080.1000      8.2076      2.4695      0.0328     10.9385    144.8691     29.2674
  1080.2000      8.2076      2.4799      0.0516     10.3089    147.6190     29.0122
  1080.3000      8.2240      2.4944      0.0491      9.4276    150.4738     28.8016
  1080.4000      8.2240      2.4946      0.0925      9.4175    149.9518     28.7201
  1080.5000      8.2263      2.4770      0.0418     10.4872    145.7305     28.8777
  1080.6000      8.2263      2.4665      0.0081     11.1207    142.5820     29.1277
  1080.7000      8.2263      2.4815      0.0528     10.2148    139.3465     29.2348
  1080.8000      8.2727      2.5128      0.0437      8.3144    133.9378     29.0714
  1080.9000      8.2727      2.5364      0.0825      6.8849    130.1843     28.8759
  1081.0000      8.2456      2.5360      0.0388      6.9118    131.5055     28.8338
  1081.1000      8.2456      2.5283      0.0010      7.3757    136.3185     28.7679
  1081.2000      8.2456      2.5336      0.0419      7.0569    140.5429     28.5475
  1081.3000      8.2367      2.5364      0.0575      6.8852    140.1111     28.1196
  1081.4000      8.2367      2.5243     -0.0026      7.6200    135.3604     27.5327
  1081.5000      8.2510      2.5192     -0.0417      7.9249    132.7490     27.1277
  1081.6000      8.2510      2.5354      0.0057      6.9469    133.4217     27.1824
  1081.7000      8.2510      2.5497      0.0563      6.0780    133.6669     27.4300
  1081.8000      8.2476      2.5401      0.0040      6.6605    132.5934     27.4799
  1081.9000      8.2476      2.5203     -0.0100      7.8594    131.2057     27.3093
  1082.0000      8.2438      2.5193      0.0144      7.9238    131.6315     27.1541
  1082.1000      8.2438      2.5418      0.0372      6.5550    133.4700     27.2619
  1082.2000      8.2438      2.5626      0.0600      5.2988    133.8016     27.5413
  1082.3000      8.2310      2.5597      0.0135      5.4738    134.1434     27.6135
  1082.4000      8.2310      2.5383      0.0311      6.7709    137.4865     27.3804
  1082.5000      8.2294      2.5160      0.0041      8.1191    139.0921     27.3634
  1082.6000      8.2294      2.5013      0.0064      9.0103    134.6031     27.8675
  1082.7000      8.2294      2.4878      0.0232      9.8284    129.2564     28.2270
  1082.8000      8.1957      2.4777     -0.0017     10.4418    129.3319     27.8704
  1082.9000      8.1957      2.4804     -0.0075     10.2763    133.1491     27.1470
  1083.0000      8.2178      2.4772      0.0701     10.4728    135.9677     26.7460
  1083.1000      8.2178      2.4461     -0.0272     12.3565    134.4368     26.9723
  1083.2000      8.2178      2.3988     -0.0137     15.2258    128.7471     27.5537
  1083.3000      8.2020      2.3446     -0.0200     18.5108    123.9107     28.1076
  1083.4000      8.2020      2.2764     -0.0136     22.6439    123.8737     28.4781
  1083.5000      8.2287      2.2002     -0.0486     27.2614    128.0518     28.6150
  1083.6000      8.2287      2.1324     -0.0288     31.3682    134.0089     28.6200
  1083.7000      8.2287      2.0770     -0.0125     34.7302    138.7688     28.6943
  1083.8000      8.2417      2.0291     -0.0301     37.6315    139.7578     28.8125
  1083.9000      8.2417      1.9928     -0.0701     39.8324    136.6199     28.8380
  1084.0000      8.2629      1.9778     -0.0497     40.7424    132.8745     28.9985
  1084.1000      8.2629      1.9892     -0.0217     40.0497    131.5316     29.4753
  1084.2000      8.2629      2.0239      0.0620     37.9461    129.6831     30.0259
  1084.3000      8.2116      2.0718      0.0864     35.0454    125.1657     30.3244
  1084.4000      8.2116      2.1232      0.1202     31.9270    121.5512     30.4512
  1084.5000      8.1976      2.1708      0.1331     29.0419    121.4261     30.7264
  1084.6000      8.1976      2.2085      0.0678     26.7546    122.4592     31.0548
  1084.7000      8.1976      2.2301      0.0694     25.4466    123.2540     31.2612
  1084.8000      8.1876      2.2384      0.0211     24.9426    126.4540     31.4430
  1084.9000      8.1876      2.2577     -0.0361     23.7785    133.1189     31.7462
  1085.0000      8.1901      2.3030     -0.0138     21.0282    139.3115     31.9873
  1085.1000      8.1901      2.3544      0.0738     17.9178    142.7049     31.8258
