~Version Information
VERS.                      2.0: CWLS Log ASCII Standard - VERSION 2.0
WRAP.                       NO: One line per depth step
~Well Information Block
STRT.FT               420.0000: 
STOP.FT              2888.7500: 
STEP.FT                 0.2500: 
NULL.                -999.2500: 
COMP.          Pioneer Natural Resources: COMPANY
WELL.          Touchstone 11-32: WELL
FLD.           Purgatoire River: FIELD
LOC.           853' FNL & 407' FWL--: LOCATION
CNTY.               Las Animas: COUNTY
SRVC.                Patterson: SERVICE COMPANY
DATE.          Thu Feb 23 14:02:36 2006: LOG DATE
UWI.           05 071 08564 00: UNIQUE WELL ID
STAT.                 Colorado: STATE
~Curve Information Block
DEPT.FT            0 000 00 00: Depth
SN.Ohm-m                      : IEL Short Normal
SP.mV                         : IEL Spontaneous Potential
DIR.Ohm-m                     : IEL Induction Resistivity
GR.GAPI                       : Gamma Ray
~Parameter Information Block
~A  Depth        SN          SP         DIR          GR     
# ...
  1224.0000   2000.0000   1974.0000     18.3922    133.2753
  1224.2500   2000.0000   1974.0000     18.3368    133.1663
  1224.5000   2000.0000   1974.0000     18.3383    133.2374
  1224.7500   2000.0000   1974.0000     18.4091    133.6409
  1225.0000   2000.0000   1974.0000     18.5635    133.8221
  1225.2500   2000.0000   1974.0000     18.8127    132.7547
  1225.5000   2000.0000   1974.0000     19.1630    128.7794
  1225.7500   2000.0000   1974.0000     19.6176    125.0851
  1226.0000   2000.0000   1974.0000     20.1775    119.3725
  1226.2500   2000.0000   1974.0000     20.8409    115.8173
  1226.5000   2000.0000   1974.0000     21.6051    110.6399
  1226.7500   2000.0000   1974.0000     22.4703    107.1433
  1227.0000   2000.0000   1974.0000     23.4414    102.0523
  1227.2500   2000.0000   1974.0000     24.5183     98.9463
  1227.5000   2000.0000   1974.0000     25.6782     94.6242
  1227.7500   2000.0000   1974.0000     26.8639     91.7663
  1228.0000   2000.0000   1974.0000     27.9944     87.4639
  1228.2500   2000.0000   1974.0000     28.9984     84.7235
  1228.5000   2000.0000   1974.0000     29.8474     80.7735
  1228.7500   2000.0000   1974.0000     30.5618     77.9969
  1229.0000   2000.0000   1974.0000     31.1884     73.3563
  1229.2500   2000.0000   1974.0000     31.7688     70.1621
  1229.5000   2000.0000   1974.0000     32.3213     66.0349
  1229.7500   2000.0000   1974.0000     32.8396     64.1452
  1230.0000   2000.0000   1974.0000     33.3073     62.7768
  1230.2500   2000.0000   1974.0000     33.7179     62.5420
  1230.5000   2000.0000   1974.0000     34.0835     62.2824
  1230.7500   2000.0000   1974.0000     34.4222     61.7566
  1231.0000   2000.0000   1974.0000     34.7282     60.5057
  1231.2500   2000.0000   1974.0000     34.9501     59.7349
  1231.5000   2000.0000   1974.0000     34.9962     59.1208
  1231.7500   2000.0000   1974.0000     34.7674     59.0819
  1232.0000   2000.0000   1974.0000     34.1960     59.7167
  1232.2500   2000.0000   1974.0000     33.2689     60.9198
  1232.5000   2000.0000   1974.0000     32.0299     64.2871
  1232.7500   2000.0000   1974.0000     30.5629     67.4226
  1233.0000   2000.0000   1974.0000     28.9675     72.9922
  1233.2500   2000.0000   1974.0000     27.3339     77.2805
  1233.5000   2000.0000   1974.0000     25.7245     84.8546
  1233.7500   2000.0000   1974.0000     24.1695     90.5475
  1234.0000   2000.0000   1974.0000     22.6759     99.2450
  1234.2500   2000.0000   1974.0000     21.2430    104.7082
  1234.5000   2000.0000   1974.0000     19.8765    112.0227
  1234.7500   2000.0000   1974.0000     18.5935    116.0727
  1235.0000   2000.0000   1974.0000     17.4171    120.3077
  1235.2500   2000.0000   1974.0000     16.3664    121.8240
  1235.5000   2000.0000   1974.0000     15.4506    122.8897
  1235.7500   2000.0000   1974.0000     14.6687    123.4073
  1236.0000   2000.0000   1974.0000     14.0151    124.4091
  1236.2500   2000.0000   1974.0000     13.4839    125.1211
  1236.5000   2000.0000   1974.0000     13.0726    125.6730
  1236.7500   2000.0000   1974.0000     12.7802    125.3862
  1237.0000   2000.0000   1974.0000     12.6048    123.8785
  1237.2500   2000.0000   1974.0000     12.5410    122.2333
  1237.5000   2000.0000   1974.0000     12.5799    118.5697
  1237.7500   2000.0000   1974.0000     12.7118    115.1095
  1238.0000   2000.0000   1974.0000     12.9299    108.9498
  1238.2500   2000.0000   1974.0000     13.2329    105.1903
  1238.5000   2000.0000   1974.0000     13.6247    101.6360
  1238.7500   2000.0000   1974.0000     14.1111    100.8104
  1239.0000   2000.0000   1974.0000     14.6937    101.0570
  1239.2500   2000.0000   1974.0000     15.3628    101.6672
  1239.5000   2000.0000   1974.0000     16.0938    102.8424
  1239.7500   2000.0000   1974.0000     16.8481    103.7369
  1240.0000   2000.0000   1974.0000     17.5828    104.8949
  1240.2500   2000.0000   1974.0000     18.2625    105.1476
  1240.5000   2000.0000   1974.0000     18.8678    104.3026
  1240.7500   2000.0000   1974.0000     19.3968    103.0780
  1241.0000   2000.0000   1974.0000     19.8612    100.9760
  1241.2500   2000.0000   1974.0000     20.2814     99.7428
  1241.5000   2000.0000   1974.0000     20.6798     98.3469
  1241.7500   2000.0000   1974.0000     21.0695     97.6509
  1242.0000   2000.0000   1974.0000     21.4408     96.5502
  1242.2500   2000.0000   1974.0000     21.7499     95.4803
  1242.5000   2000.0000   1974.0000     21.9202     93.3200
  1242.7500   2000.0000   1974.0000     21.8604     91.9343
  1243.0000   2000.0000   1974.0000     21.4993     90.9494
  1243.2500   2000.0000   1974.0000     20.8209     91.2758
  1243.5000   2000.0000   1974.0000     19.8776     92.8798
  1243.7500   2000.0000   1974.0000     18.7725     94.4514
  1244.0000   2000.0000   1974.0000     17.6204     97.8550
  1244.2500   2000.0000   1974.0000     16.5125    101.2435
  1244.5000   2000.0000   1974.0000     15.5005    108.2599
  1244.7500   2000.0000   1974.0000     14.6001    113.8033
  1245.0000   2000.0000   1974.0000     13.8049    121.9806
  1245.2500   2000.0000   1974.0000     13.1032    126.5690
  1245.5000   2000.0000   1974.0000     12.4883    131.6053
  1245.7500   2000.0000   1974.0000     11.9623    133.7317
  1246.0000   2000.0000   1974.0000     11.5336    135.1304
  1246.2500   2000.0000   1974.0000     11.2124    135.0273
  1246.5000   2000.0000   1974.0000     11.0057    134.1044
  1246.7500   2000.0000   1974.0000     10.9145    133.4878
  1247.0000   2000.0000   1974.0000     10.9320    132.7944
  1247.2500   2000.0000   1974.0000     11.0442    132.2254
  1247.5000   2000.0000   1974.0000     11.2314    130.6619
  1247.7500   2000.0000   1974.0000     11.4708    129.0499
  1248.0000   2000.0000   1974.0000     11.7409    126.1435
  1248.2500   2000.0000   1974.0000     12.0267    124.3347
  1248.5000   2000.0000   1974.0000     12.3241    122.6149
  1248.7500   2000.0000   1974.0000     12.6402    122.2257
  1249.0000   2000.0000   1974.0000     12.9875    121.8616
  1249.2500   2000.0000   1974.0000     13.3758    120.9147
  1249.5000   2000.0000   1974.0000     13.8036    117.7975
  1249.7500   2000.0000   1974.0000     14.2535    115.0772
  1250.0000   2000.0000   1974.0000     14.6930    111.5514
  1250.2500   2000.0000   1974.0000     15.0814    110.1073
  1250.5000   2000.0000   1974.0000     15.3800    109.1607
  1250.7500   2000.0000   1974.0000     15.5610    109.0109
  1251.0000   2000.0000   1974.0000     15.6133    109.3469
  1251.2500   2000.0000   1974.0000     15.5425    110.1562
  1251.5000   2000.0000   1974.0000     15.3659    112.4938
  1251.7500   2000.0000   1974.0000     15.1042    114.4595
  1252.0000   2000.0000   1974.0000     14.7746    116.6423
  1252.2500   2000.0000   1974.0000     14.3911    116.9461
  1252.5000   2000.0000   1974.0000     13.9704    116.0666
  1252.7500   2000.0000   1974.0000     13.5357    115.5922
  1253.0000   2000.0000   1974.0000     13.1127    116.3971
  1253.2500   2000.0000   1974.0000     12.7241    117.7313
  1253.5000   2000.0000   1974.0000     12.3856    119.3597
  1253.7500   2000.0000   1974.0000     12.1082    119.5741
  1254.0000   2000.0000   1974.0000     11.9011    119.0207
  1254.2500   2000.0000   1974.0000     11.7730    118.7982
  1254.5000   2000.0000   1974.0000     11.7308    119.4360
  1254.7500   2000.0000   1974.0000     11.7767    120.3601
  1255.0000   2000.0000   1974.0000     11.9067    121.7904
  1255.2500   2000.0000   1974.0000     12.1102    122.5427
  1255.5000   2000.0000   1974.0000     12.3711    123.3304
  1255.7500   2000.0000   1974.0000     12.6720    123.5250
  1256.0000   2000.0000   1974.0000     12.9999    123.0223
  1256.2500   2000.0000   1974.0000     13.3515    122.2206
  1256.5000   2000.0000   1974.0000     13.7346    120.8953
  1256.7500   2000.0000   1974.0000     14.1651    120.1690
  1257.0000   2000.0000   1974.0000     14.6610    118.9854
  1257.2500   2000.0000   1974.0000     15.2379    117.6523
