~Version Information
VERS.                      2.0: CWLS Log ASCII Standard - VERSION 2.0
WRAP.                       NO: One line per depth step
~Well Information Block
STRT.FT               350.0000: 
STOP.FT               906.0000: 
STEP.FT                 0.2500: 
NULL.                -999.2500: 
COMP.          Pioneer Natural Resources: COMPANY
WELL.           Hartford 31-18: WELL
FLD.           Purgatorie River: FIELD
LOC.           375' FNL & 1660' FEL: LOCATION
PROV.                 Colorado: PROVINCE
CNTY.               Las Animas: COUNTRY
SRVC.                Patterson: SERVICE COMPANY
DATE.          Sat Nov 19 19:02:38 2005: LOG DATE
UWI.           05-071-08555               : UNIQUE WELL ID
~Curve Information Block
DEPT.FT            0 000 00 00: Depth
SN.Ohm-m                      : IEL Short Normal
SP.mV                         : IEL Spontaneous Potential
DIR.Ohm-m                     : IEL Induction Resistivity
GR.GAPI                       : Gamma Ray
~Parameter Information Block
~A  Depth        SN          SP         DIR          GR     
# ...
   886.0000     33.4891    250.9731     30.4652     62.8322
   886.2500     33.2980    250.9861     30.8129     64.6504
   886.5000     33.3359    251.0517     30.9259     68.6487
   886.7500     33.5560    251.1817     30.8425     71.3869
   887.0000     33.9671    251.3934     30.6155     72.9198
   887.2500     34.6039    251.7017     30.3052     70.2626
   887.5000     35.4201    252.1079     29.9707     58.7362
   887.7500     36.2595    252.5906     29.6595     46.8231
   888.0000     36.9492    253.1028     29.3981     27.3775
   888.2500     37.3693    253.5771     29.1870     16.5184
   888.5000     37.4403    253.9383     29.0043      6.0745
   888.7500     37.1226    254.1245     28.8161      2.6277
   889.0000     36.4459    254.1067     28.5880      0.5714
   889.2500     35.5030    253.8948     28.2908      0.1711
   889.5000     34.4018    253.5231     27.9010      0.0200
   889.7500     33.2302    253.0301     27.4007      0.0027
   890.0000     32.0640    252.4466     26.7846   -999.2500
   890.2500     30.9821    251.7961     26.0683   -999.2500
   890.5000     30.0438    251.1017     25.2889   -999.2500
   890.7500     29.2533    250.3914     24.4926   -999.2500
   891.0000     28.5658    249.6982     23.7203   -999.2500
   891.2500     27.9543    249.0573     23.0027   -999.2500
   891.5000     27.4606    248.5018     22.3651   -999.2500
   891.7500     27.1324    248.0574     21.8330   -999.2500
   892.0000     26.9235    247.7309     21.4296   -999.2500
   892.2500     26.7065    247.4996     21.1678   -999.2500
   892.5000     26.3726    247.3094     21.0407   -999.2500
   892.7500     25.9029    247.0894     21.0192   -999.2500
   893.0000     25.3679    246.7693     20.5884   -999.2500
   893.2500     24.8627    246.2953     20.6465   -999.2500
   893.5000     24.4417    245.6413     20.6984   -999.2500
   893.7500     24.1212    244.8124     20.7346   -999.2500
   894.0000     23.9047    243.8391     20.7529   -999.2500
   894.2500     23.7843    242.7614     20.7500   -999.2500
   894.5000     23.7574    241.6155     20.7249   -999.2500
   894.7500     23.8539    240.4290     20.6868   -999.2500
   895.0000     24.1032    239.2258     20.6635   -999.2500
   895.2500     24.4577    238.0338     20.6999   -999.2500
   895.5000     24.7901    236.8926     20.8567   -999.2500
   895.7500     24.9966    235.8574     21.2153   -999.2500
   896.0000     25.0821    234.9975     21.8908   -999.2500
   896.2500     25.1214    234.3864     23.0399   -999.2500
   896.5000     25.1492    234.0868     25.6678   -999.2500
   896.7500     25.1158    234.1355     28.4577   -999.2500
   897.0000     24.9607    234.5367     32.1391   -999.2500
   897.2500     24.7118    235.2640     36.4231   -999.2500
   897.5000     24.4952    236.2663     40.6613   -999.2500
   897.7500     24.4207    237.4706     44.1139   -999.2500
   898.0000     24.4581    238.7893     46.4057   -999.2500
   898.2500     24.4762    240.1356     47.6750   -999.2500
   898.5000     24.4133    241.4402     48.3104   -999.2500
   898.7500     24.3589    242.6564     48.6619   -999.2500
   899.0000     24.4526    243.7496     48.9498   -999.2500
   899.2500     24.7283    244.6863     49.2935   -999.2500
   899.5000     25.0708    245.4344  27616.5586   -999.2500
   899.7500     25.3235    245.9731 100000.0000   -999.2500
   900.0000     25.4208    246.3011 100000.0000   -999.2500
   900.2500     25.4035    246.4333 100000.0000   -999.2500
   900.5000     25.3402    246.3942 100000.0000   -999.2500
   900.7500     25.2712    246.1916 100000.0000   -999.2500
   901.0000     25.2151    245.7573 100000.0000   -999.2500
   901.2500     25.1959    244.6234 100000.0000   -999.2500
   901.5000     25.2449    241.0908 100000.0000   -999.2500
   901.7500     25.3803    230.9316 100000.0000   -999.2500
   902.0000     25.5818    207.0566 100000.0000   -999.2500
   902.2500     25.6848    162.7667 100000.0000   -999.2500
   902.5000     25.0383     98.5079 100000.0000   -999.2500
   902.7500     22.2637     25.7872 100000.0000   -999.2500
   903.0000     16.3594    -38.3468 100000.0000   -999.2500
   903.2500      8.7340    -82.4100 100000.0000   -999.2500
   903.5000      2.5313   -105.9907 100000.0000   -999.2500
   903.7500     -0.6799   -115.8194 100000.0000   -999.2500
   904.0000     -1.7420   -119.0101 100000.0000   -999.2500
   904.2500     -1.9669   -119.8168 100000.0000   -999.2500
   904.5000     -1.9973   -119.9756 100000.0000   -999.2500
   904.7500   -999.2500   -999.2500 100000.0000   -999.2500
   905.0000   -999.2500   -999.2500 100000.0000   -999.2500
   905.2500   -999.2500   -999.2500 100000.0000   -999.2500
   905.5000   -999.2500   -999.2500 100000.0000   -999.2500
   905.7500   -999.2500   -999.2500 100000.0000   -999.2500
   906.0000   -999.2500   -999.2500 100000.0000   -999.2500
