~Version Information
VERS.                      2.0: CWLS Log ASCII Standard - VERSION 2.0
WRAP.                       NO: One line per depth step
~Well Information Block
STRT.FT                -5.0000: 
STOP.FT               912.2500: 
STEP.FT                 0.2500: 
NULL.                -999.2500: 
COMP.          Pioneer Natural Resources: COMPANY
WELL.               Ernie 31-6: WELL
FLD.           Purgatoire River: FIELD
LOC.           681' FNL & 2138' FEL: LOCATION
CNTY.               Las Animas: COUNTY
SRVC.                         : SERVICE COMPANY
DATE.          Tue Jun 27 10:36:58 2006: LOG DATE
UWI.           05 071 08716 00: UNIQUE WELL ID
STAT.                       CO: STATE
~Curve Information Block
DEPT.FT            0 000 00 00: Depth
GR.GAPI                       : Gamma Ray
CCL.                          : Casing Collar Locator
TT3.usec                      : CBL 3' Travel Time
AMP3.mV                       : CBL 3' Amplitude
~Parameter Information Block
~A  Depth        GR         CCL         TT3         AMP3    
# ...
    62.0000     85.8820      0.0000    580.7201      6.0092
    62.2500     86.9471      0.0000    578.3981      5.9147
    62.5000     86.4443      0.0000    574.5100      5.8229
    62.7500     85.0875      0.0000    569.3653      5.7509
    63.0000     84.3231      0.0000    564.0983      5.7062
    63.2500     84.9632      0.0000    559.8366      5.6889
    63.5000     86.4348      0.0000    556.9492      5.6987
    63.7500     87.4550      0.0000    555.3301      5.7360
    64.0000     87.3075      0.0000    554.8983      5.7962
    64.2500     86.3130      0.0000    555.2619      5.8646
    64.5000     85.2703      0.0000    555.3691      5.9210
    64.7500     84.6803      0.0000    554.2051      5.9475
    65.0000     84.2754      0.0000    551.6376      5.9352
    65.2500     83.1374      0.0000    548.2477      5.8856
    65.5000     80.5852      0.0000    544.7485      5.8108
    65.7500     77.0980      0.0000    541.9598      5.7284
    66.0000     74.1314      0.0000    540.8754      5.6553
    66.2500     72.9255      0.0000    542.1988      5.6040
    66.5000     73.5442      0.0000    545.9656      5.5788
    66.7500     74.9995      0.0000    551.7845      5.5678
    67.0000     76.3076      0.0000    559.0364      5.5437
    67.2500     77.4897      0.0000    566.6401      5.4857
    67.5000     79.4451      0.0000    573.1734      5.4023
    67.7500     82.7820      0.0000    577.6526      5.3210
    68.0000     86.8986      0.0000    580.0679      5.2558
    68.2500     90.3458      0.0000    581.0872      5.1960
    68.5000     91.9402      0.0000    581.4389      5.1278
    68.7500     91.5163      0.0000    581.5969      5.0524
    69.0000     89.9154      0.0000    581.7763      4.9782
    69.2500     88.4648      0.0000    582.0079      4.9062
    69.5000     88.2383      0.0000    582.1995      4.8313
    69.7500     89.4635      0.0000    582.2410      4.7526
    70.0000     91.5002      0.0000    582.1345      4.6788
    70.2500     93.4367      0.0000    582.0370      4.6219
    70.5000     94.7303      0.0000    582.2014      4.5869
    70.7500     95.1782      0.0000    583.0071      4.5676
    71.0000     94.4186      0.0000    585.2415      4.5537
    71.2500     92.0140      0.0000    590.2989      4.5389
    71.5000     88.3449      0.0000    599.5366      4.5170
    71.7500     85.0616      0.0000    612.6878      4.4714
    72.0000     84.0552      0.0000    626.7635      4.3778
    72.2500     85.7909      0.0000    637.1046      4.2224
    72.5000     88.7016      0.0000    640.0450      4.0164
    72.7500     90.1767      0.0000    634.8312      3.7916
    73.0000     88.1518      0.0000    623.5178      3.5848
    73.2500     82.1019      0.0000    609.4510      3.4213
    73.5000     73.0198      0.0000    595.4029      3.3030
    73.7500     62.8297      0.0000    581.7968      3.2023
    74.0000     53.7850      0.0000    565.7644      3.0724
    74.2500     47.7872      0.0000    542.7351      2.8750
    74.5000     45.5738      0.0000    511.1846      2.6101
    74.7500     46.4980      0.0000    477.1423      2.3265
    75.0000     49.3395      0.0000    452.9863      2.1078
    75.2500     53.1213      0.0000    449.7257      2.0358
    75.5000     56.9418      0.0000    469.0251      2.1413
    75.7500     59.6049      0.0000    501.9725      2.3748
    76.0000     60.1486      0.0000    535.2398      2.6273
    76.2500     58.7283      0.0000    558.7593      2.7911
    76.5000     56.6259      0.0000    569.1025      2.8155
    76.7500     55.3017      0.0000    568.4441      2.7235
    77.0000     55.3893      0.0000    562.2620      2.5842
    77.2500     56.4426      0.0000    557.0428      2.4631
    77.5000     57.4632      0.0000    557.6709      2.3826
    77.7500     57.6120      0.0000    565.1406      2.3189
    78.0000     56.4641      0.0000    576.1828      2.2361
    78.2500     53.9100      0.0000    584.8387      2.1249
    78.5000     50.2508      0.0000    584.9440      2.0100
    78.7500     46.4179      0.0000    572.6322      1.9253
    79.0000     43.6855      0.0000    547.8394      1.8819
    79.2500     42.9149      0.0000    513.7277      1.8630
    79.5000     44.0984      0.0000    474.9417      1.8455
    79.7500     46.5644      0.0000    436.8607      1.8228
    80.0000     49.4239      0.0000    405.3000      1.8012
    80.2500     51.8203      0.0000    384.5314      1.7832
    80.5000     53.1257      0.0000    375.1130      1.7621
    80.7500     53.2324      0.0000    374.7604      1.7337
    81.0000     52.5348      0.0000    381.9055      1.7101
    81.2500     51.4240      0.0000    398.1278      1.7195
    81.5000     49.8490      0.0000    426.1726      1.7879
    81.7500     47.4872      0.0000    464.6916      1.9152
    82.0000     44.3424      0.0000    505.6028      2.0658
    82.2500     41.2482      0.0000    538.0282      2.1909
    82.5000     39.8040      0.0000    554.7773      2.2668
    82.7500     41.5428      0.0000    554.7188      2.3087
    83.0000     46.7975      0.0000    541.3483      2.3462
    83.2500     54.3834      0.0000    522.0690      2.3896
    83.5000     62.5154      0.0000    507.6977      2.4203
    83.7500     70.0364      0.0000    508.0219      2.4081
    84.0000     76.8163      0.0000    524.9286      2.3413
    84.2500     83.2790      0.0000    550.5391      2.2411
    84.5000     89.7724      0.0000    573.4268      2.1463
    84.7500     96.1305      0.0000    586.8156      2.0874
    85.0000    101.3368      0.0000    591.1702      2.0815
    85.2500    103.5937      0.0000    590.5902      2.1431
    85.5000    101.3592      0.0000    588.4433      2.2801
    85.7500     94.7845      0.0000    586.4545      2.4802
    86.0000     86.0458      0.0000    586.3699      2.7162
    86.2500     78.0741      0.0000    591.3642      2.9663
    86.5000     72.8413      0.0000    605.5865      3.2174
    86.7500     70.6108      0.0000    631.5475      3.4525
    87.0000     70.4316      0.0000    666.4555      3.6547
    87.2500     71.0603      0.0000    701.7254      3.8307
    87.5000     71.6190      0.0000    728.3139      4.0167
    87.7500     71.9685      0.0000    743.3884      4.2563
    88.0000     72.7589      0.0000    751.4308      4.5696
    88.2500     74.9358      0.0000    760.6318      4.9338
    88.5000     78.8856      0.0000    779.1475      5.2854
    88.7500     83.8117      0.0000    810.7645      5.5551
    89.0000     87.9684     -1.0828    849.6700      5.7140
    89.2500     89.8351     -2.0000    881.2265      5.7955
    89.5000     89.2863     -1.1569    891.7714      5.8767
    89.7500     87.7388      0.0000    877.2394      6.0177
    90.0000     87.3613      0.0000    841.8571      6.1953
    90.2500     89.9881      0.0000    793.1819      6.3056
    90.5000     96.1536      0.0000    741.0956      6.2672
    90.7500    104.5956      0.0000    696.9518      6.1113
    91.0000    112.6684      0.0000    668.2308      5.9489
    91.2500    117.7993      0.0000    653.7960      5.8717
    91.5000    119.0591      0.0000    646.2446      5.9013
    91.7500    117.2339      0.0000    639.1621      6.0045
    92.0000    113.5108      0.0000    631.4139      6.1295
    92.2500    108.7236      0.0000    625.3430      6.2337
    92.5000    103.8240      0.0000    622.9663      6.2958
    92.7500    100.0319      0.0000    624.8400      6.3127
    93.0000     97.9520      0.0000    630.9667      6.2937
    93.2500     96.9920      0.0000    641.5175      6.2569
    93.5000     96.1720      0.0000    657.1209      6.2246
    93.7500     95.3147      0.0000    677.6680      6.2150
    94.0000     94.9599      0.0000    698.7830      6.2366
    94.2500     95.2307      0.0000    711.2248      6.2911
    94.5000     95.2200      0.0000    708.6563      6.3760
    94.7500     93.5204      0.0000    697.4739      6.4763
    95.0000     89.2784      0.0000    696.1468      6.5528
    95.2500     83.0363      0.0000    722.2635      6.5547
