~Version Information
VERS.                      2.0: CWLS Log ASCII Standard - VERSION 2.0
WRAP.                       NO: One line per depth step
~Well Information Block
STRT.FT               245.0000: 
STOP.FT              1208.2000: 
STEP.FT                 0.1000: 
NULL.                -999.2500: 
COMP.          Pioneer Natural Resources: COMPANY
WELL.              Davida 34-8: WELL
FLD.           Purgatoire River: FIELD
LOC.           418' FSL & 1923' FEL--: LOCATION
CNTY.               Las Animas: COUNTY
SRVC.                Patterson: SERVICE COMPANY
DATE.          Mon Mar 20 08:22:01 2006: LOG DATE
UWI.           05 071 08722 00: UNIQUE WELL ID
STAT.                 Colorado: STATE
~Curve Information Block
DEPT.FT            0 000 00 00: Depth
DCAL.in                       : CDL Caliper
RHOB.g/cc                     : CDL Bulk Density
RHOC.g/cc                     : CDL Density Correction
DPOR.pu                       : CDL Density Porosity
NPOR.pu                       : Neutron Porosity
GR.GAPI                       : Gamma Ray
~Parameter Information Block
~A  Depth       DCAL        RHOB        RHOC        DPOR        NPOR         GR     
# ...
  1176.2000      7.6975      2.4352      0.0821     13.0198     24.3193     13.7904
  1176.3000      7.7097      2.4415      0.0719     12.6365     24.2218      2.5845
  1176.4000      7.7097      2.4310      0.0744     13.2750     24.0540      0.2646
  1176.5000      7.7176      2.4086      0.0065     14.6328     24.0428      0.0143
  1176.6000      7.7176      2.3981      0.0329     15.2655     24.1781      0.0000
  1176.7000      7.7176      2.4001      0.0398     15.1448     24.0901   -999.2500
  1176.8000      7.7178      2.4030      0.0209     14.9705     23.7648   -999.2500
  1176.9000      7.7178      2.4106      0.0054     14.5081     23.6651   -999.2500
  1177.0000      7.7146      2.4212      0.0542     13.8696     23.8944   -999.2500
  1177.1000      7.7146      2.4214      0.0151     13.8550     24.2793   -999.2500
  1177.2000      7.7146      2.4129      0.0300     14.3676     24.5525   -999.2500
  1177.3000      7.7067      2.4052      0.0382     14.8386     24.4941   -999.2500
  1177.4000      7.7067      2.4025      0.0133     15.0005     24.3398   -999.2500
  1177.5000      7.6969      2.4107      0.0236     14.5016     24.3550   -999.2500
  1177.6000      7.6969      2.4229      0.0571     13.7623     24.3368   -999.2500
  1177.7000      7.6969      2.4168      0.0694     14.1341     24.1382   -999.2500
  1177.8000      7.6927      2.3887      0.0248     15.8387     24.0416   -999.2500
  1177.9000      7.6927      2.3669      0.0097     17.1563     24.2763   -999.2500
  1178.0000      7.6924      2.3764      0.0239     16.5843     24.6947   -999.2500
  1178.1000      7.6924      2.4030      0.1002     14.9710     24.9440   -999.2500
  1178.2000      7.6924      2.4213      0.0611     13.8581     24.6700   -999.2500
  1178.3000      7.6899      2.4337      0.0483     13.1117     23.9068   -999.2500
  1178.4000      7.6899      2.4460      0.0920     12.3647     23.1262   -999.2500
  1178.5000      7.6767      2.4516      0.0914     12.0247     22.4527   -999.2500
  1178.6000      7.6767      2.4474      0.1280     12.2763     21.9162   -999.2500
  1178.7000      7.6767      2.4385      0.0880     12.8185     21.9938   -999.2500
  1178.8000      7.6541      2.4326      0.1341     13.1765     22.6492   -999.2500
  1178.9000      7.6541      2.4313      0.1067     13.2571     23.3010   -999.2500
  1179.0000      7.6416      2.4312      0.1109     13.2586     23.7414   -999.2500
  1179.1000      7.6416      2.4317      0.1024     13.2276     23.8326   -999.2500
  1179.2000      7.6416      2.4371      0.0884     12.9011     23.5921   -999.2500
  1179.3000      7.6471      2.4452      0.1079     12.4146     23.3804   -999.2500
  1179.4000      7.6471      2.4447      0.1117     12.4412     23.3449   -999.2500
  1179.5000      7.6588      2.4376      0.0483     12.8697     23.4073   -999.2500
  1179.6000      7.6588      2.4400      0.0738     12.7253     23.5620   -999.2500
  1179.7000      7.6588      2.4542      0.0805     11.8669     23.7229   -999.2500
  1179.8000      7.6702      2.4658      0.0931     11.1649     23.6076   -999.2500
  1179.9000      7.6702      2.4673      0.0333     11.0729     23.2268   -999.2500
  1180.0000      7.6822      2.4617      0.0937     11.4099     23.1074   -999.2500
  1180.1000      7.6822      2.4505      0.0641     12.0891     23.4740   -999.2500
  1180.2000      7.6822      2.4372      0.0805     12.8996     23.8732   -999.2500
  1180.3000      7.6917      2.4287      0.0312     13.4124     23.8303   -999.2500
  1180.4000      7.6917      2.4312      0.0517     13.2616     23.4720   -999.2500
  1180.5000      7.7020      2.4420      0.0469     12.6064     23.2088   -999.2500
  1180.6000      7.7020      2.4478      0.0807     12.2522     23.1878   -999.2500
  1180.7000      7.7020      2.4464      0.0203     12.3384     23.1052   -999.2500
  1180.8000      7.7118      2.4567      0.0341     11.7154     22.4710   -999.2500
  1180.9000      7.7118      2.4849      0.0802     10.0036     21.4594   -999.2500
  1181.0000      7.7148      2.5139      0.1088      8.2455     20.7376   -999.2500
  1181.1000      7.7148      2.5335      0.0826      7.0611     20.2795   -999.2500
  1181.2000      7.7148      2.5486      0.1109      6.1458     19.7153   -999.2500
  1181.3000      7.7111      2.5639      0.0611      5.2169     19.6201   -999.2500
  1181.4000      7.7111      2.5775      0.0920      4.3910     21.9604   -999.2500
  1181.5000      7.7097      2.5834      0.0936      4.0388     29.0661   -999.2500
  1181.6000      7.7097      2.5804      0.0447      4.2169     39.1198   -999.2500
  1181.7000      7.7097      2.5716      0.0636      4.7535     46.1925   -999.2500
  1181.8000      7.7148      2.5616      0.0122      5.3597     48.7810   -999.2500
  1181.9000      7.7148      2.5577      0.0066      5.5949     49.2918   -999.2500
  1182.0000      7.7201      2.5517      0.0385      5.9569     49.3458   -999.2500
  1182.1000      7.7201      2.5268      0.0421      7.4694     49.3489   -999.2500
  1182.2000      7.7201      2.4865      0.0103      9.9107   -999.2500   -999.2500
  1182.3000      7.7218      2.4503      0.0103     12.1012   -999.2500   -999.2500
  1182.4000      7.7218      2.4248     -0.0091     13.6472   -999.2500   -999.2500
  1182.5000      7.7214      2.4044      0.0295     14.8847   -999.2500   -999.2500
  1182.6000      7.7214      2.3902     -0.0062     15.7436   -999.2500   -999.2500
  1182.7000      7.7214      2.3915     -0.0099     15.6639   -999.2500   -999.2500
  1182.8000      7.7238      2.4056      0.0443     14.8132   -999.2500   -999.2500
  1182.9000      7.7238      2.4180      0.0553     14.0623   -999.2500   -999.2500
  1183.0000      7.7255      2.4229      0.0610     13.7661   -999.2500   -999.2500
  1183.1000      7.7255      2.4225      0.0809     13.7851   -999.2500   -999.2500
  1183.2000      7.7255      2.4221      0.0444     13.8096   -999.2500   -999.2500
  1183.3000      7.7150      2.4231      0.0914     13.7542   -999.2500   -999.2500
  1183.4000      7.7150      2.4189      0.0685     14.0073   -999.2500   -999.2500
  1183.5000      7.6993      2.4083      0.0721     14.6483   -999.2500   -999.2500
  1183.6000      7.6993      2.3986      0.0490     15.2344   -999.2500   -999.2500
  1183.7000      7.6993      2.4002      0.0159     15.1364   -999.2500   -999.2500
  1183.8000      7.6945      2.4111      0.1014     14.4812   -999.2500   -999.2500
  1183.9000      7.6945      2.4143      0.0827     14.2829   -999.2500   -999.2500
  1184.0000      7.7072      2.4042      0.0619     14.8972   -999.2500   -999.2500
  1184.1000      7.7072      2.3882      0.0243     15.8661   -999.2500   -999.2500
  1184.2000      7.7072      2.3738      0.0483     16.7380   -999.2500   -999.2500
  1184.3000      7.7266      2.3657     -0.0018     17.2318   -999.2500   -999.2500
  1184.4000      7.7266      2.3663      0.0230     17.1940   -999.2500   -999.2500
  1184.5000      7.7373      2.3710      0.0276     16.9103   -999.2500   -999.2500
  1184.6000      7.7373      2.3709      0.0617     16.9177   -999.2500   -999.2500
  1184.7000      7.7373      2.3613      0.0185     17.4978   -999.2500   -999.2500
  1184.8000      7.7401      2.3537      0.0020     17.9598   -999.2500   -999.2500
  1184.9000      7.7401      2.3634      0.0282     17.3722   -999.2500   -999.2500
  1185.0000      7.7372      2.3845      0.0848     16.0929   -999.2500   -999.2500
  1185.1000      7.7372      2.3987      0.0633     15.2297   -999.2500   -999.2500
  1185.2000      7.7372      2.4018      0.0485     15.0443   -999.2500   -999.2500
  1185.3000      7.7304      2.3970      0.0616     15.3341   -999.2500   -999.2500
  1185.4000      7.7304      2.3854      0.0542     16.0362   -999.2500   -999.2500
  1185.5000      7.7215      2.3711      0.0459     16.9002   -999.2500   -999.2500
  1185.6000      7.7215      2.3607      0.0223     17.5318   -999.2500   -999.2500
  1185.7000      7.7215      2.3542      0.0401     17.9266   -999.2500   -999.2500
