~Version Information
VERS.                      2.0: CWLS Log ASCII Standard - VERSION 2.0
WRAP.                       NO: One line per depth step
~Well Information Block
STRT.FT               485.0000: 
STOP.FT              1030.5000: 
STEP.FT                 0.1000: 
NULL.                -999.2500: 
COMP.          Pioneer Natural Resources: COMPANY
WELL.          Red Raider 22-15: WELL
FLD.           Purgatoire River: FIELD
LOC.           1809' FNL & 2107' FWL: LOCATION
CNTY.               Las Animas: COUNTY
SRVC.                Patterson: SERVICE COMPANY
DATE.          Tue Apr 11 10:06:17 2006: LOG DATE
UWI.           05 071 08718 00: UNIQUE WELL ID
STAT.                 Colorado: STATE
~Curve Information Block
DEPT.FT            0 000 00 00: Depth
DCAL.in                       : CDL Caliper
RHOB.g/cc                     : CDL Bulk Density
RHOC.g/cc                     : CDL Density Correction
DPOR.pu                       : CDL Density Porosity
GR.GAPI                       : Gamma Ray
NPOR.pu                       : Neutron Porosity
~Parameter Information Block
~A  Depth       DCAL        RHOB        RHOC        DPOR         GR         NPOR    
# ...
   696.2000      7.9817      2.4625      0.0436     11.3607    125.7640     24.6742
   696.3000      7.9819      2.4742      0.0310     10.6542    132.0347     24.1636
   696.4000      7.9819      2.4692      0.0091     10.9581    130.3625     24.2513
   696.5000      7.9826      2.4512      0.0058     12.0481    127.3484     24.6741
   696.6000      7.9826      2.4368     -0.0403     12.9234    129.7818     25.2308
   696.7000      7.9826      2.4423     -0.0242     12.5906    133.4527     25.9896
   696.8000      7.9826      2.4673     -0.0280     11.0755    134.1714     26.6016
   696.9000      7.9826      2.4926      0.0133      9.5418    131.6303     26.6884
   697.0000      7.9822      2.4919      0.0290      9.5846    125.8842     26.5103
   697.1000      7.9822      2.4662      0.0027     11.1404    122.7659     26.2068
   697.2000      7.9822      2.4427     -0.0079     12.5655    127.6342     25.8526
   697.3000      7.9820      2.4358     -0.0105     12.9835    136.5286     25.5420
   697.4000      7.9820      2.4447     -0.0100     12.4427    141.4604     25.4495
   697.5000      7.9814      2.4615      0.0320     11.4239    137.4203     25.7525
   697.6000      7.9814      2.4761      0.0409     10.5402    129.2662     25.9529
   697.7000      7.9814      2.4860      0.0143      9.9378    124.5316     25.4463
   697.8000      7.9803      2.4958      0.0235      9.3458    122.0693     24.7225
   697.9000      7.9803      2.5071      0.0416      8.6635    119.8108     24.6767
   698.0000      7.9788      2.5118      0.0593      8.3781    118.5787     25.2038
   698.1000      7.9788      2.5096      0.0121      8.5118    117.9668     25.8145
   698.2000      7.9788      2.5169      0.0289      8.0677    116.5845     26.4121
   698.3000      7.9776      2.5391      0.0323      6.7185    114.5820     26.5815
   698.4000      7.9776      2.5621      0.0653      5.3259    115.4236     25.9134
   698.5000      7.9771      2.5752      0.0431      4.5329    120.2210     24.8883
   698.6000      7.9771      2.5798      0.0685      4.2543    124.3775     24.4332
   698.7000      7.9771      2.5709      0.0855      4.7942    127.5429     24.8196
   698.8000      7.9774      2.5498      0.0550      6.0750    128.1035     25.3303
   698.9000      7.9774      2.5440      0.0056      6.4262    120.3475     25.3621
   699.0000      7.9778      2.5673      0.0238      5.0091    109.0899     25.1954
   699.1000      7.9778      2.5917      0.0617      3.5356    105.0998     25.4464
   699.2000      7.9778      2.5868      0.0588      3.8303    110.7103     26.4563
   699.3000      7.9769      2.5562      0.0243      5.6852    120.8142     27.8121
   699.4000      7.9769      2.5251     -0.0171      7.5705    129.1112     28.9215
   699.5000      7.9748      2.5062      0.0155      8.7165    131.1717     30.1390
   699.6000      7.9748      2.4916      0.0136      9.5992    127.4780     31.8429
   699.7000      7.9748      2.4778      0.0112     10.4346    120.7374     33.3879
   699.8000      7.9728      2.4633      0.0352     11.3172    110.8002     34.0748
   699.9000      7.9728      2.4428      0.0030     12.5565    100.7405     34.1894
   700.0000      7.9665      2.4294     -0.0221     13.3699     98.6433     34.2958
   700.1000      7.9665      2.4455     -0.0088     12.3918    103.7518     34.1185
   700.2000      7.9665      2.4986      0.0436      9.1744    105.7866     33.1867
   700.3000      7.9470      2.5889      0.0443      3.7017    100.8139     31.7619
   700.4000      7.9470      2.7072      0.1583     -3.4654     93.8732     30.1189
   700.5000      7.9195      2.8177      0.2559    -10.1632     88.2906     28.3786
   700.6000      7.9195      2.8821      0.2956    -14.0662     82.6931     26.8969
   700.7000      7.9195      2.8927      0.3100    -14.7103     77.6048     25.7008
   700.8000      7.9118      2.8733      0.2322    -13.5326     78.5205     24.4935
   700.9000      7.9118      2.8449      0.1785    -11.8127     88.5752     23.5170
   701.0000      7.9512      2.8037      0.0763     -9.3150    101.6994     23.0366
   701.1000      7.9512      2.7420     -0.0452     -5.5770    110.5787     22.7927
   701.2000      7.9512      2.6644     -0.0584     -0.8725    114.6202     22.4177
   701.3000      8.0240      2.5852     -0.0288      3.9278    115.6740     21.8340
   701.4000      8.0240      2.5236     -0.0135      7.6611    117.6302     21.2810
   701.5000      8.0692      2.4890      0.0189      9.7582    123.3549     21.0575
   701.6000      8.0692      2.4769      0.0613     10.4895    129.3163     21.4473
   701.7000      8.0692      2.4763      0.0413     10.5283    131.2611     22.3802
   701.8000      8.0790      2.4805      0.0392     10.2724    130.7180     23.1343
   701.9000      8.0790      2.4851      0.0348      9.9919    133.3716     23.3831
   702.0000      7.9348      2.4824      0.0724     10.1565    141.4890     23.5681
   702.1000      7.9348      2.4746      0.0252     10.6320    151.1790     23.8443
   702.2000      7.9348      2.4739      0.0548     10.6715    156.2302     24.1533
   702.3000      7.9251      2.4799      0.0925     10.3076    152.0907     24.7215
   702.4000      7.9251      2.4829      0.0723     10.1252    142.8458     25.4745
   702.5000      7.9103      2.4853      0.0153      9.9801    139.0513     25.9173
   702.6000      7.9103      2.4929      0.0573      9.5194    141.9191     25.9742
   702.7000      7.9103      2.4985      0.0281      9.1822    145.4993     26.0048
   702.8000      7.9040      2.4991      0.0243      9.1472    146.9094     26.0110
   702.9000      7.9040      2.5029      0.0109      8.9147    145.2962     25.8813
   703.0000      7.9097      2.5114      0.0385      8.4004    142.5859     25.6889
   703.1000      7.9097      2.5132      0.0553      8.2908    142.4058     25.7160
   703.2000      7.9097      2.5001      0.0301      9.0873    143.6915     26.0896
   703.3000      7.9243      2.4786      0.0147     10.3884    143.7343     26.0567
   703.4000      7.9243      2.4625     -0.0301     11.3656    142.0034     25.3189
   703.5000      7.9432      2.4545      0.0152     11.8472    137.7305     24.7042
   703.6000      7.9432      2.4447      0.0186     12.4438    133.8911     24.7227
   703.7000      7.9432      2.4324      0.0067     13.1908    133.0572     24.9519
   703.8000      7.9540      2.4234      0.0114     13.7354    130.4118     24.7362
   703.9000      7.9540      2.4128      0.0033     14.3740    122.0456     24.1029
   704.0000      7.9564      2.4009     -0.0363     15.0945    113.1521     23.5842
   704.1000      7.9564      2.4034     -0.0055     14.9437    113.3068     23.4200
   704.2000      7.9564      2.4230      0.0448     13.7559    123.1874     23.5048
   704.3000      7.9568      2.4462      0.0356     12.3501    134.5772     23.3243
   704.4000      7.9568      2.4692      0.0540     10.9587    140.4375     22.6330
   704.5000      7.9566      2.4905      0.0993      9.6690    136.1241     21.8682
   704.6000      7.9566      2.5042      0.1194      8.8341    124.2974     21.4096
   704.7000      7.9566      2.5125      0.1229      8.3306    115.5246     21.2272
   704.8000      7.9571      2.5213      0.1449      7.8000    112.8730     21.2795
   704.9000      7.9571      2.5290      0.1106      7.3341    112.2070     21.5125
   705.0000      7.9579      2.5274      0.1587      7.4322    114.5077     21.8933
   705.1000      7.9579      2.5138      0.1183      8.2563    120.0604     22.4571
   705.2000      7.9579      2.4988      0.1007      9.1640    125.0273     23.0138
   705.3000      7.9580      2.4861      0.1471      9.9359    126.6747     23.4981
   705.4000      7.9580      2.4725      0.0546     10.7586    125.8731     24.0448
   705.5000      7.9578      2.4648      0.0835     11.2249    125.5177     24.7670
   705.6000      7.9578      2.4689      0.0694     10.9772    125.6563     25.4607
   705.7000      7.9578      2.4862      0.1022      9.9291    124.2700     25.5608
