~Version Information
VERS.                      2.0: CWLS Log ASCII Standard - VERSION 2.0
WRAP.                       NO: One line per depth step
~Well Information Block
STRT.FT               305.0000: 
STOP.FT              1376.5000: 
STEP.FT                 0.1000: 
NULL.                -999.2500: 
COMP.          Pioneer Natural Resources: COMPANY
WELL.               LPGC 32-32: WELL
FLD.           Purgatoire River: FIELD
LOC.           1937' FNL & 1661' FEL: LOCATION
PROV.                 Colorado: PROVINCE
CNTY.               Las Animas: COUNTRY
SRVC.                Patterson: SERVICE COMPANY
DATE.          Mon Jan 30 07:33:36 2006: LOG DATE
UWI.           05 071 08641 00: UNIQUE WELL ID
~Curve Information Block
DEPT.FT            0 000 00 00: Depth
DCAL.in                       : CDL Caliper
RHOB.g/cc                     : CDL Bulk Density
RHOC.g/cc                     : CDL Density Correction
DPOR.pu                       : CDL Density Porosity
GR.GAPI                       : Gamma Ray
NPOR.pu                       : Neutron Porosity
~Parameter Information Block
~A  Depth       DCAL        RHOB        RHOC        DPOR         GR         NPOR    
# ...
  1149.8000      7.9235      1.7652     -0.0656     53.6240     71.8109     32.5578
  1149.9000      7.9235      1.6976     -0.0573     57.7214     67.8188     32.5887
  1150.0000      7.9548      1.6563     -0.0481     60.2230     66.3266     32.0999
  1150.1000      7.9548      1.6478     -0.0125     60.7407     65.2283     31.6734
  1150.2000      7.9548      1.6767      0.0296     58.9851     65.4326     31.5016
  1150.3000      7.9861      1.7453      0.0614     54.8302     68.0764     31.9649
  1150.4000      7.9861      1.8460      0.1517     48.7250     71.6161     32.6236
  1150.5000      7.9943      1.9619      0.1514     41.7002     71.5225     32.3712
  1150.6000      7.9943      2.0860      0.2081     34.1790     66.7544     31.2073
  1150.7000      7.9943      2.2113      0.2181     26.5895     63.8564     30.3218
  1150.8000      8.0238      2.3178      0.2165     20.1354     68.0400     30.5452
  1150.9000      8.0238      2.3966      0.1920     15.3603     74.1594     31.4108
  1151.0000      7.9875      2.4517      0.1457     12.0208     76.1732     31.7794
  1151.1000      7.9875      2.4844      0.1170     10.0335     78.7055     31.3098
  1151.2000      7.9875      2.5006      0.1059      9.0536     85.6923     30.6664
  1151.3000      7.9895      2.5110      0.1050      8.4217     94.3828     30.2772
  1151.4000      7.9895      2.5176      0.0917      8.0258    100.9623     29.9497
  1151.5000      7.9460      2.5206      0.0450      7.8418    103.5814     29.6688
  1151.6000      7.9460      2.5297      0.0801      7.2938    105.4630     29.6548
  1151.7000      7.9460      2.5490      0.1122      6.1221    109.2669     29.6813
  1151.8000      7.9266      2.5657      0.1537      5.1106    113.3385     29.1721
  1151.9000      7.9266      2.5631      0.0792      5.2668    115.6287     28.6518
  1152.0000      7.9078      2.5446      0.1024      6.3873    113.2139     29.0631
  1152.1000      7.9078      2.5328      0.0568      7.1030    106.8521     29.8906
  1152.2000      7.9078      2.5463      0.0816      6.2846    101.1911     30.2885
  1152.3000      7.9088      2.5801      0.0894      4.2358     97.9246     30.0961
  1152.4000      7.9088      2.6103      0.1294      2.4052     96.4260     29.0668
  1152.5000      7.9107      2.6211      0.0953      1.7512     95.9986     27.5130
  1152.6000      7.9107      2.6168      0.1257      2.0104     92.3040     26.6799
  1152.7000      7.9107      2.5994      0.1186      3.0656     85.0468     26.9821
  1152.8000      7.9078      2.5711      0.0543      4.7804     81.0907     27.1419
  1152.9000      7.9078      2.5467      0.0379      6.2588     80.7985     26.4831
  1153.0000      7.9005      2.5336      0.0933      7.0525     79.7366     26.0365
  1153.1000      7.9005      2.5299      0.0299      7.2806     78.3217     26.3862
  1153.2000      7.9005      2.5338      0.0423      7.0427     79.9607     27.2840
  1153.3000      7.8966      2.5411      0.0510      6.5972     84.6217     28.1604
  1153.4000      7.8966      2.5502      0.0508      6.0468     88.9726     27.9779
  1153.5000      7.8945      2.5663      0.0703      5.0747     89.2107     26.2992
  1153.6000      7.8945      2.5878      0.1231      3.7675     85.1012     24.6204
  1153.7000      7.8945      2.6016      0.1557      2.9358     81.6064     24.3312
  1153.8000      7.9019      2.6028      0.1848      2.8584     82.9824     24.8098
  1153.9000      7.9019      2.5995      0.1355      3.0631     86.8615     25.3505
  1154.0000      7.9055      2.5947      0.1544      3.3502     89.8143     26.2273
  1154.1000      7.9055      2.5858      0.1341      3.8905     93.9245     27.1807
  1154.2000      7.9055      2.5756      0.1112      4.5094    100.3289     27.3813
  1154.3000      7.8638      2.5696      0.1047      4.8735    103.9338     26.7121
  1154.4000      7.8638      2.5692      0.0654      4.8994    102.3003     26.1672
  1154.5000      7.8565      2.5776      0.0947      4.3858     99.1335     26.5562
  1154.6000      7.8565      2.5948      0.1109      3.3434     98.1951     27.3017
  1154.7000      7.8565      2.6117      0.1104      2.3214     99.3070     27.8064
  1154.8000      7.8909      2.6242      0.1269      1.5618    102.3037     28.6409
  1154.9000      7.8909      2.6397      0.0899      0.6261    107.6255     29.8494
  1155.0000      7.9007      2.6599      0.0917     -0.5973    110.2133     30.4463
  1155.1000      7.9007      2.6703      0.1182     -1.2292    106.6714     29.7472
  1155.2000      7.9007      2.6577      0.1132     -0.4648    101.9351     28.3532
  1155.3000      7.9000      2.6286      0.0160      1.2978     97.7817     27.6360
  1155.4000      7.9000      2.5956      0.0388      3.2973     91.4661     27.7979
  1155.5000      7.9017      2.5661     -0.0255      5.0878     86.5928     28.1907
  1155.6000      7.9017      2.5609     -0.0529      5.4008     85.6076     28.4185
  1155.7000      7.9017      2.5860      0.0275      3.8788     84.3873     28.1991
  1155.8000      7.8944      2.6069      0.1340      2.6125     84.7407     27.7113
  1155.9000      7.8944      2.6063      0.0477      2.6512     89.4733     27.4006
  1156.0000      7.8788      2.6170      0.0487      2.0026     93.5071     27.3939
  1156.1000      7.8788      2.6594      0.0526     -0.5712     93.3296     27.5780
  1156.2000      7.8788      2.7044      0.1485     -3.2982     91.1897     27.7911
  1156.3000      7.9179      2.7227      0.0305     -4.4090     89.2092     27.9438
  1156.4000      7.9179      2.7262      0.0234     -4.6169     84.6242     28.0509
  1156.5000      7.9188      2.7314      0.1016     -4.9355     78.1882     27.9604
  1156.6000      7.9188      2.7344      0.0911     -5.1166     76.4379     27.6485
  1156.7000      7.9188      2.7261      0.0382     -4.6105     79.8839     27.3661
  1156.8000      7.9325      2.7008      0.0680     -3.0787     85.9337     27.3178
  1156.9000      7.9325      2.6582      0.0446     -0.4990     91.5264     27.6214
  1157.0000      7.9241      2.6012      0.0473      2.9585     92.2354     28.2161
  1157.1000      7.9241      2.5309      0.0222      7.2183     89.2668     28.5279
  1157.2000      7.9241      2.4535     -0.0155     11.9114     88.7433     28.4917
  1157.3000      7.9201      2.3706     -0.0122     16.9308     91.2492     28.9002
  1157.4000      7.9201      2.2691      0.0105     23.0828     91.9584     29.5476
  1157.5000      7.9467      2.1397     -0.0436     30.9243     89.5890     29.5683
  1157.6000      7.9467      1.9936     -0.1213     39.7812     85.7984     29.3722
  1157.7000      7.9467      1.8512     -0.1604     48.4142     79.5933     29.8285
  1157.8000      7.9821      1.7282     -0.1469     55.8661     70.7061     30.5695
  1157.9000      7.9821      1.6345     -0.1696     61.5472     62.3645     31.1213
  1158.0000      7.9668      1.5685     -0.0970     65.5482     59.7542     31.6875
  1158.1000      7.9668      1.5244     -0.0525     68.2165     65.6303     32.3063
  1158.2000      7.9668      1.5094      0.0155     69.1281     74.1798     32.7708
  1158.3000      7.9510      1.5292      0.0883     67.9249     79.1161     33.1940
  1158.4000      7.9510      1.5780      0.1082     64.9711     82.5516     33.6838
  1158.5000      7.9392      1.6492      0.0942     60.6535     83.7418     33.9861
  1158.6000      7.9392      1.7353      0.1769     55.4339     77.5378     33.7120
  1158.7000      7.9392      1.8276      0.1445     49.8428     69.2579     32.9747
  1158.8000      8.1757      1.9239      0.1483     44.0068     69.0645     32.3921
  1158.9000      8.1757      2.0186      0.1986     38.2694     78.8547     32.3398
  1159.0000      8.0660      2.1039      0.1767     33.0943     92.0316     32.4990
  1159.1000      8.0660      2.1798      0.1812     28.4966     99.9556     32.5652
  1159.2000      8.0660      2.2464      0.1529     24.4578    101.0974     32.6995
  1159.3000      7.9063      2.3042      0.1487     20.9569    101.7644     32.3827
