~Version Information
VERS.                      2.0: CWLS Log ASCII Standard - VERSION 2.0
WRAP.                       NO: One line per depth step
~Well Information Block
STRT.FT               580.0000: 
STOP.FT              1029.0000: 
STEP.FT                 0.1000: 
NULL.                -999.2500: 
COMP.          Pioneer Natural Resources: COMPANY
WELL.             Quartz 13-22: WELL
FLD.           Purgatoire River: FIELD
LOC.           1933' FSL & 675' FWL: LOCATION
PROV.                 Colorado: PROVINCE
CNTY.               Las Animas: COUNTRY
SRVC.                Patterson: SERVICE COMPANY
DATE.          Fri Dec 16 10:30:09 2005: LOG DATE
UWI.           05 071 08638 00: UNIQUE WELL ID
~Curve Information Block
DEPT.FT            0 000 00 00: Depth
DCAL.in                       : CDL Caliper
RHOB.g/cc                     : CDL Bulk Density
RHOC.g/cc                     : CDL Density Correction
DPOR.pu                       : CDL Density Porosity
GR.GAPI                       : Gamma Ray
NPOR.pu                       : Neutron Porosity
~Parameter Information Block
~A  Depth       DCAL        RHOB        RHOC        DPOR         GR         NPOR    
# ...
   896.8000      7.9525      2.5687      0.0588      4.9272    120.3295     25.3072
   896.9000      7.9525      2.5672      0.0209      5.0155    121.8411     25.4130
   897.0000      7.9558      2.5719      0.0137      4.7362    118.3591     25.1319
   897.1000      7.9558      2.5830      0.0592      4.0622    107.9668     24.8402
   897.2000      7.9558      2.5847      0.0203      3.9598    105.0252     24.7287
   897.3000      7.9617      2.5733      0.0047      4.6482    111.4229     24.6791
   897.4000      7.9617      2.5660     -0.0189      5.0928    111.9883     24.4935
   897.5000      7.9616      2.5741      0.0211      4.5999    101.3956     24.1193
   897.6000      7.9616      2.5803      0.0624      4.2263     90.4730     23.7400
   897.7000      7.9616      2.5650      0.0314      5.1511     86.5688     23.4460
   897.8000      7.9652      2.5397      0.0093      6.6860     84.4021     23.1957
   897.9000      7.9652      2.5231      0.0103      7.6936     80.6424     23.0806
   898.0000      7.9656      2.5163      0.0113      8.1034     80.3792     23.0752
   898.1000      7.9656      2.5188     -0.0221      7.9494     84.7281     23.0308
   898.2000      7.9656      2.5266      0.0195      7.4784     85.2364     22.7410
   898.3000      7.9646      2.5257      0.0296      7.5330     80.1116     22.3033
   898.4000      7.9646      2.5190     -0.0072      7.9389     78.5213     22.1824
   898.5000      7.9639      2.5217      0.0271      7.7768     81.8853     22.2889
   898.6000      7.9639      2.5343      0.0238      7.0092     84.2869     22.2229
   898.7000      7.9639      2.5438      0.0424      6.4340     84.7400     21.9984
   898.8000      7.9636      2.5399      0.0676      6.6716     82.4867     21.5751
   898.9000      7.9636      2.5303      0.0352      7.2563     75.4551     20.9760
   899.0000      7.9657      2.5321      0.0287      7.1425     69.3568     20.5966
   899.1000      7.9657      2.5502      0.0352      6.0472     69.5193     20.6238
   899.2000      7.9657      2.5740      0.0290      4.6051     72.0203     20.8038
   899.3000      7.9674      2.5923      0.0925      3.4942     70.7959     20.6802
   899.4000      7.9674      2.6023      0.0722      2.8917     66.5296     20.1849
   899.5000      7.9681      2.6011      0.0773      2.9645     62.4515     19.7591
   899.6000      7.9681      2.5820      0.0627      4.1198     59.9074     19.6741
   899.7000      7.9681      2.5555      0.0197      5.7272     61.4148     19.6211
   899.8000      7.9716      2.5410      0.0149      6.6036     65.4985     19.2837
   899.9000      7.9716      2.5402      0.0159      6.6554     66.1684     18.8958
   900.0000      7.9698      2.5426      0.0270      6.5082     63.4252     18.8507
   900.1000      7.9698      2.5387      0.0447      6.7452     63.3055     19.1434
   900.2000      7.9698      2.5234      0.0319      7.6721     66.6723     19.4408
   900.3000      7.9696      2.5058     -0.0133      8.7418     68.6119     19.7056
   900.4000      7.9696      2.4995     -0.0041      9.1209     68.6376     19.9112
   900.5000      7.9674      2.5051     -0.0011      8.7813     69.6692     19.7420
   900.6000      7.9674      2.5184      0.0107      7.9780     71.1548     19.1706
   900.7000      7.9674      2.5384      0.0249      6.7648     71.4218     18.6904
   900.8000      7.9680      2.5588      0.0351      5.5289     71.3537     18.6414
   900.9000      7.9680      2.5654      0.0943      5.1254     72.1682     18.8591
   901.0000      7.9680      2.5509      0.0537      6.0056     74.0845     19.1036
   901.1000      7.9680      2.5274      0.0302      7.4290     75.5060     19.3623
   901.2000      7.9680      2.5077     -0.0141      8.6250     73.3610     19.4339
   901.3000      7.9676      2.4942     -0.0168      9.4405     67.8625     19.1701
   901.4000      7.9676      2.4902      0.0063      9.6824     62.7135     18.7902
   901.5000      7.9709      2.4977      0.0280      9.2273     61.2989     18.4800
   901.6000      7.9709      2.5078      0.0576      8.6200     67.9392     18.1742
   901.7000      7.9709      2.5102      0.0488      8.4709     79.2263     17.8726
   901.8000      7.9691      2.5119      0.0228      8.3708     83.3085     17.9288
   901.9000      7.9691      2.5202      0.0440      7.8639     79.8930     18.5590
   902.0000      7.9727      2.5246      0.0326      7.5973     75.9742     19.0567
   902.1000      7.9727      2.5191      0.0119      7.9332     71.0459     18.7905
   902.2000      7.9727      2.5113      0.0399      8.4088     65.0756     18.1788
   902.3000      7.9706      2.5046      0.0351      8.8092     63.7427     17.8299
   902.4000      7.9706      2.4977      0.0451      9.2299     63.7128     17.7989
   902.5000      7.9721      2.4904      0.0013      9.6726     59.0957     18.0069
   902.6000      7.9721      2.4855     -0.0016      9.9720     55.7378     18.3919
   902.7000      7.9721      2.4895     -0.0111      9.7277     57.1697     18.6909
   902.8000      7.9749      2.5083      0.0496      8.5905     58.9228     18.8920
   902.9000      7.9749      2.5311      0.0589      7.2070     59.0228     19.1480
   903.0000      7.9706      2.5443      0.0636      6.4067     59.4299     19.1938
   903.1000      7.9706      2.5465      0.0184      6.2748     63.6491     19.0520
   903.2000      7.9706      2.5362      0.0283      6.8963     70.7279     19.1360
   903.3000      7.9702      2.5118      0.0169      8.3782     72.8967     19.3448
   903.4000      7.9702      2.4845      0.0087     10.0277     67.4313     19.3207
   903.5000      7.9766      2.4697     -0.0145     10.9267     60.9277     19.0687
   903.6000      7.9766      2.4702      0.0084     10.8993     59.0463     18.8059
   903.7000      7.9766      2.4789     -0.0021     10.3683     60.6586     18.6991
   903.8000      7.9828      2.4893      0.0413      9.7401     61.8928     18.9532
   903.9000      7.9828      2.5049      0.0005      8.7951     61.3908     19.6567
   904.0000      7.9818      2.5339      0.0157      7.0364     60.7587     20.3530
   904.1000      7.9818      2.5659      0.0582      5.0947     60.7578     20.4142
   904.2000      7.9818      2.5837      0.0687      4.0174     61.4704     19.9507
   904.3000      7.9856      2.5809      0.0547      4.1861     63.6361     19.4965
   904.4000      7.9856      2.5547      0.0295      5.7782     67.1770     19.2256
   904.5000      7.9848      2.5111     -0.0024      8.4209     71.2379     19.0612
   904.6000      7.9848      2.4735     -0.0216     10.6952     74.5414     18.8772
   904.7000      7.9848      2.4596     -0.0170     11.5423     77.4843     18.6243
   904.8000      7.9805      2.4613     -0.0215     11.4390     80.9836     18.4646
   904.9000      7.9805      2.4634      0.0058     11.3118     80.0756     18.5850
   905.0000      7.9744      2.4640     -0.0508     11.2751     70.9645     18.8423
   905.1000      7.9744      2.4734     -0.0457     10.7035     59.5679     18.8935
   905.2000      7.9744      2.4922      0.0116      9.5665     54.9018     18.7342
   905.3000      7.9773      2.5088      0.0255      8.5591     58.8473     18.4863
   905.4000      7.9773      2.5196      0.0053      7.9008     66.5152     18.1183
   905.5000      7.9739      2.5269      0.0309      7.4577     71.7639     17.8201
   905.6000      7.9739      2.5295      0.0242      7.3011     71.9933     17.8613
   905.7000      7.9739      2.5264      0.0283      7.4907     69.0909     18.1488
   905.8000      7.9758      2.5189      0.0408      7.9455     66.1832     18.2891
   905.9000      7.9758      2.5072      0.0316      8.6546     67.0479     18.1564
   906.0000      7.9757      2.4939      0.0181      9.4619     72.6756     18.0567
   906.1000      7.9757      2.4868     -0.0451      9.8898     76.8695     18.0627
   906.2000      7.9757      2.4874      0.0177      9.8571     76.7149     18.1865
   906.3000      7.9659      2.4841      0.0036     10.0552     78.3038     18.5955
