~Version Information
VERS.                      2.0: CWLS Log ASCII Standard - VERSION 2.0
WRAP.                       NO: One line per depth step
~Well Information Block
STRT.FT                -8.0000: 
STOP.FT              2135.0000: 
STEP.FT                 0.2500: 
NULL.                -999.2500: 
COMP.          Pioneer Natural Resources: COMPANY
WELL.             AMX 13-13 Tr: WELL
FLD.           Purgatorie River: FIELD
LOC.           2401' FSL & 895' FWL--: LOCATION
PROV.                       CO: PROVINCE
CNTY.               Las Animas: COUNTRY
SRVC.          Patterson Wireline: SERVICE COMPANY
DATE.          Thu Jan 05 10:37:28 2006: LOG DATE
UWI.           05 071 08631 00: UNIQUE WELL ID
~Curve Information Block
DEPT.FT            0 000 00 00: Depth
CCL.                          : Casing Collar Locator
TT3.usec                      : CBL 3' Travel Time
AMP3.mV                       : CBL 3' Amplitude
GR.GAPI                       : Gamma Ray
~Parameter Information Block
~A  Depth       CCL         TT3         AMP3         GR     
# ...
  2102.5000      0.0000    638.3983      2.6847    155.9776
  2102.7500      0.0000    638.5988      2.6859    149.3199
  2103.0000      0.0000    639.2176      2.6860    144.1344
  2103.2500      0.0000    640.7125      2.6876    141.3453
  2103.5000      0.0000    643.8655      2.7007    140.6740
  2103.7500      0.0000    649.4214      2.7332    141.3835
  2104.0000      0.0000    657.2816      2.7806    142.8633
  2104.2500      0.0000    666.0046      2.8264    145.0132
  2104.5000      0.0000    673.3794      2.8526    148.1917
  2104.7500      0.0000    677.5837      2.8516    152.5330
  2105.0000      0.0000    677.7391      2.8280    157.2814
  2105.2500      0.0000    673.7341      2.7914    161.0862
  2105.5000      0.0000    666.1268      2.7452    163.2084
  2105.7500      0.0000    656.2549      2.6925    164.2039
  2106.0000      0.0000    646.1033      2.6556    165.0739
  2106.2500      0.0000    638.1237      2.6754    165.8235
  2106.5000      0.0000    635.1844      2.7715    165.3190
  2106.7500      0.0000    639.6543      2.9109    162.7192
  2107.0000      0.0000    651.2587      3.0383    158.5867
  2107.2500      0.0000    665.9937      3.1296    154.0442
  2107.5000      0.0000    678.3574      3.1971    149.2464
  2107.7500      2.0000    685.2520      3.2550    143.4739
  2108.0000      0.0000    687.3618      3.3067    136.6403
  2108.2500      0.0000    686.7982      3.3609    130.1944
  2108.5000      0.0000    684.4857      3.4445    126.6191
  2108.7500      0.0000    680.5569      3.5865    128.2482
  2109.0000      0.0000    676.3362      3.7776    136.0190
  2109.2500      0.0000    674.2346      3.9437    148.4682
  2109.5000      0.0000    675.4230      3.9839    161.7953
  2109.7500      0.0000    678.6985      3.8606    171.6354
  2110.0000      0.0000    681.9516      3.6382    175.4344
  2110.2500      0.0000    683.9930      3.4197    173.3325
  2110.5000      0.0000    684.8441      3.2626    167.2609
  2110.7500      0.0000    685.0168      3.1630    159.6630
  2111.0000      0.0000    684.9426      3.0931    152.7163
  2111.2500      0.0000    684.8394      3.0344    147.9488
  2111.5000      0.0000    684.7750      2.9827    146.0309
  2111.7500      0.0000    684.7494      2.9408    146.4836
  2112.0000      0.0000    684.7288      2.9128    147.4680
  2112.2500      0.0000    684.6725      2.9016    146.5410
  2112.5000      0.0000    684.5750      2.9087    142.6997
  2112.7500      0.0000    684.4845      2.9312    137.9277
  2113.0000      0.0000    684.4680      2.9613    135.9970
  2113.2500      0.0000    684.5524      2.9873    139.4205
  2113.5000      0.0000    684.7027      2.9982    147.5697
  2113.7500      0.0000    684.8560      2.9892    157.2289
  2114.0000      0.0000    684.9792      2.9643    164.6630
  2114.2500      0.0000    685.0894      2.9325    167.8014
  2114.5000      0.0000    685.2157      2.9047    167.1588
  2114.7500      0.0000    685.3497      2.8934    164.9592
  2115.0000      0.0000    685.4494      2.9100    163.4005
  2115.2500      0.0000    685.4869      2.9521    163.3663
  2115.5000      0.0000    685.4707      2.9980    164.2218
  2115.7500      0.0000    685.4152      3.0212    164.5776
  2116.0000      0.0000    685.3106      3.0128    163.3903
  2116.2500      0.0000    685.1335      2.9873    160.5933
  2116.5000      0.0000    684.8771      2.9670    157.0895
  2116.7500      0.0000    684.5614      2.9646    154.3669
  2117.0000      0.0000    684.2139      2.9767    153.6481
  2117.2500      0.0000    683.8524      2.9909    154.8418
  2117.5000      0.0000    683.4631      2.9969    156.3788
  2117.7500      0.0000    682.8972      2.9909    156.4203
  2118.0000      0.0000    681.6536      2.9726    154.2761
  2118.2500      0.0000    678.7817      2.9413    150.5737
  2118.5000      0.0000    673.3431      2.8969    146.0924
  2118.7500      0.0000    665.4625      2.8410    140.8701
  2119.0000      0.0000    657.1030      2.7779    134.9282
  2119.2500      0.0000    651.4796      2.7149    129.3955
  2119.5000      0.0000    651.1880      2.6630    125.8246
  2119.7500      0.0000    656.4666      2.6332    124.3595
  2120.0000      0.0000    665.0227      2.6299    123.4366
  2120.2500      0.0000    673.5841      2.6482    121.3663
  2120.5000      0.0000    679.8505      2.6778    117.5888
  2120.7500      0.0000    683.2755      2.7085    111.9870
  2121.0000      0.0000    684.4489      2.7322    103.2934
  2121.2500      0.0000    684.0786      2.7435     89.2288
  2121.5000      0.0000    682.3470      2.7436     69.1496
  2121.7500      0.0000    678.7964      2.7406     46.2205
  2122.0000      0.0000    672.8473      2.7455     25.8632
  2122.2500      0.0000    664.8284      2.7670     11.8662
  2122.5000      0.0000    656.6298      2.8074      4.4007
  2122.7500      0.0000    650.9696      2.8617      1.3062
  2123.0000      0.0000    649.6879      2.9188      0.3077
  2123.2500      0.0000    652.7018      2.9681      0.0567
  2123.5000      0.0000    658.5144      3.0062      0.0074
  2123.7500      0.0000    665.4158      3.0357   -999.2500
  2124.0000      0.0000    672.0842      3.0564   -999.2500
  2124.2500      0.0000    677.5352      3.0626   -999.2500
  2124.5000      0.0000    681.1449      3.0529   -999.2500
  2124.7500      0.0000    682.7584      3.0394   -999.2500
  2125.0000      0.0000    682.3762      3.0401   -999.2500
  2125.2500      0.0000    679.6855      3.0623   -999.2500
  2125.5000      0.0000    673.7946      3.0925   -999.2500
  2125.7500      0.0000    662.6012      3.0995   -999.2500
  2126.0000      0.0000    640.5070      3.0358   -999.2500
  2126.2500      0.0000    596.2479      2.8395   -999.2500
  2126.5000      0.0000    517.1404      2.4581   -999.2500
  2126.7500      0.0000    401.8479      1.9010   -999.2500
  2127.0000      0.0000    269.6901      1.2698   -999.2500
  2127.2500      0.0000    151.8054      0.7124   -999.2500
  2127.5000      0.0000     70.1489      0.3285   -999.2500
  2127.7500      0.0000     26.2128      0.1227   -999.2500
  2128.0000      0.0000      7.8362      0.0367   -999.2500
  2128.2500      0.0000      1.8580      0.0087   -999.2500
  2128.5000      0.0000      0.3444      0.0016   -999.2500
  2128.7500      0.0000   -999.2500   -999.2500   -999.2500
  2129.0000      0.0000   -999.2500   -999.2500   -999.2500
  2129.2500      0.0000   -999.2500   -999.2500   -999.2500
  2129.5000      0.0000   -999.2500   -999.2500   -999.2500
  2129.7500      0.0000   -999.2500   -999.2500   -999.2500
  2130.0000      0.0000   -999.2500   -999.2500   -999.2500
  2130.2500      0.0000   -999.2500   -999.2500   -999.2500
  2130.5000      0.0000   -999.2500   -999.2500   -999.2500
  2130.7500      0.0000   -999.2500   -999.2500   -999.2500
  2131.0000      0.0000   -999.2500   -999.2500   -999.2500
  2131.2500      0.0000   -999.2500   -999.2500   -999.2500
  2131.5000      0.0000   -999.2500   -999.2500   -999.2500
  2131.7500      0.0000   -999.2500   -999.2500   -999.2500
  2132.0000      0.0000   -999.2500   -999.2500   -999.2500
  2132.2500      0.0000   -999.2500   -999.2500   -999.2500
  2132.5000      0.0000   -999.2500   -999.2500   -999.2500
  2132.7500      0.0000   -999.2500   -999.2500   -999.2500
  2133.0000      0.0000   -999.2500   -999.2500   -999.2500
  2133.2500      0.0000   -999.2500   -999.2500   -999.2500
  2133.5000      0.0000   -999.2500   -999.2500   -999.2500
  2133.7500      0.0000   -999.2500   -999.2500   -999.2500
  2134.0000      0.0000   -999.2500   -999.2500   -999.2500
  2134.2500      0.0000   -999.2500   -999.2500   -999.2500
  2134.5000      0.0000   -999.2500   -999.2500   -999.2500
  2134.7500   -999.2500   -999.2500   -999.2500   -999.2500
  2135.0000   -999.2500   -999.2500   -999.2500   -999.2500
