~Version Information
VERS.                      2.0: CWLS Log ASCII Standard - VERSION 2.0
WRAP.                       NO: One line per depth step
~Well Information Block
STRT.FT               686.2000: 
STOP.FT              1252.7000: 
STEP.FT                 0.1000: 
NULL.                -999.2500: 
COMP.          Pioneer Natural Resources: COMPANY
WELL.          Rock Island 44-24 Tr: WELL
FLD.           Purgatoire River: FIELD
LOC.           814' FSL & 761' FEL--: LOCATION
CNTY.               Las Animas: COUNTY
SRVC.                Patterson: SERVICE COMPANY
DATE.          Thu Apr 20 08:34:45 2006: LOG DATE
UWI.           05 071 08680 00: UNIQUE WELL ID
STAT.                 Colorado: STATE
~Curve Information Block
DEPT.FT            0 000 00 00: Depth
DCAL.in                       : CDL Caliper
RHOB.g/cc                     : CDL Bulk Density
RHOC.g/cc                     : CDL Density Correction
DPOR.pu                       : CDL Density Porosity
GR.GAPI                       : Gamma Ray
~Parameter Information Block
~A  Depth       DCAL        RHOB        RHOC        DPOR         GR     
# ...
   697.4000      8.2205      2.1667     -0.2853     29.2885     76.2528
   697.5000      8.2215      2.1242     -0.3205     31.8675     81.1333
   697.6000      8.2215      2.1057     -0.2793     32.9901     87.2878
   697.7000      8.2215      2.1142     -0.2922     32.4712     88.5464
   697.8000      8.2220      2.1498     -0.2815     30.3135     83.7637
   697.9000      8.2220      2.1987     -0.2306     27.3493     79.6992
   698.0000      8.2222      2.2395     -0.2412     24.8764     79.7814
   698.1000      8.2222      2.2739     -0.2724     22.7968     81.4577
   698.2000      8.2222      2.3042     -0.2147     20.9602     81.7285
   698.3000      8.2230      2.3107     -0.2207     20.5611     79.3945
   698.4000      8.2230      2.2959     -0.3244     21.4635     77.5138
   698.5000      8.2240      2.2970     -0.2963     21.3941     78.8236
   698.6000      8.2240      2.3291     -0.2431     19.4508     82.5443
   698.7000      8.2240      2.3662     -0.1936     17.1985     85.9703
   698.8000      8.2254      2.3927     -0.2133     15.5912     87.0081
   698.9000      8.2254      2.4197     -0.1917     13.9563     87.0295
   699.0000      8.2259      2.4463     -0.1411     12.3441     85.8584
   699.1000      8.2259      2.4594     -0.1893     11.5505     81.8162
   699.2000      8.2259      2.4652     -0.1705     11.1993     77.7238
   699.3000      8.2245      2.4883     -0.2344      9.8014     75.8208
   699.4000      8.2245      2.5442     -0.1423      6.4120     74.8244
   699.5000      8.2228      2.6071     -0.0733      2.6008     75.1100
   699.6000      8.2228      2.6350     -0.0752      0.9110     77.5660
   699.7000      8.2228      2.6221     -0.0868      1.6885     80.2272
   699.8000      8.2237      2.5962     -0.1330      3.2613     81.0655
   699.9000      8.2237      2.5803     -0.1405      4.2253     80.1963
   700.0000      8.2255      2.5697     -0.1287      4.8676     77.5372
   700.1000      8.2255      2.5477     -0.1623      6.1982     73.2974
   700.2000      8.2255      2.5152     -0.1871      8.1722     69.3734
   700.3000      8.2258      2.4876     -0.1758      9.8403     67.7580
   700.4000      8.2258      2.4745     -0.2030     10.6381     69.4464
   700.5000      8.2220      2.4704     -0.2019     10.8822     75.5207
   700.6000      8.2220      2.4708     -0.1822     10.8583     83.5681
   700.7000      8.2220      2.4780     -0.1586     10.4224     87.4609
   700.8000      8.2195      2.4835     -0.1815     10.0908     87.0191
   700.9000      8.2195      2.4717     -0.1444     10.8075     87.2132
   701.0000      8.2210      2.4420     -0.1658     12.6040     88.4693
   701.1000      8.2210      2.4154     -0.2287     14.2179     86.6267
   701.2000      8.2210      2.4109     -0.1961     14.4912     81.3853
   701.3000      8.2228      2.4192     -0.1876     13.9870     78.1851
   701.4000      8.2228      2.4194     -0.1511     13.9740     78.9637
   701.5000      8.2221      2.4102     -0.1817     14.5308     79.9588
   701.6000      8.2221      2.4059     -0.1911     14.7913     81.2674
   701.7000      8.2221      2.4180     -0.2030     14.0631     84.8916
   701.8000      8.2206      2.4489     -0.1808     12.1898     87.0399
   701.9000      8.2206      2.4864     -0.1372      9.9152     84.8313
   702.0000      8.2203      2.5177     -0.1283      8.0174     82.6940
   702.1000      8.2203      2.5530     -0.1311      5.8768     84.7163
   702.2000      8.2203      2.6113     -0.1272      2.3471     86.2599
   702.3000      8.2215      2.6861     -0.0340     -2.1854     82.8435
   702.4000      8.2215      2.7500     -0.0615     -6.0625     75.9921
   702.5000      8.2243      2.7938     -0.0642     -8.7145     70.1929
   702.6000      8.2243      2.8174     -0.0392    -10.1469     68.1817
   702.7000      8.2243      2.8058     -0.0315     -9.4410     69.1970
   702.8000      8.2270      2.7520     -0.0928     -6.1805     71.3773
   702.9000      8.2270      2.6849     -0.1831     -2.1156     73.5599
   703.0000      8.2269      2.6398     -0.1889      0.6164     74.9672
   703.1000      8.2269      2.6146     -0.1422      2.1479     74.4360
   703.2000      8.2269      2.5903     -0.1761      3.6196     74.8418
   703.3000      8.2245      2.5635     -0.1357      5.2432     77.2915
   703.4000      8.2245      2.5331     -0.1272      7.0863     77.7127
   703.5000      8.2246      2.5019     -0.1713      8.9773     76.3614
   703.6000      8.2246      2.4791     -0.1962     10.3562     77.1837
   703.7000      8.2246      2.4671     -0.1985     11.0859     77.3188
   703.8000      8.2271      2.4570     -0.1472     11.6960     72.5777
   703.9000      8.2271      2.4474     -0.1962     12.2810     67.7972
   704.0000      8.2276      2.4522     -0.2098     11.9861     67.0813
   704.1000      8.2276      2.4789     -0.1728     10.3672     69.1175
   704.2000      8.2276      2.5200     -0.1353      7.8796     71.0482
   704.3000      8.2254      2.5589     -0.1606      5.5183     69.7809
   704.4000      8.2254      2.5682     -0.1077      4.9555     65.0599
   704.5000      8.2220      2.5402     -0.1434      6.6547     60.1211
   704.6000      8.2220      2.5148     -0.2008      8.1959     57.4355
   704.7000      8.2220      2.5187     -0.1612      7.9601     56.9340
   704.8000      8.2223      2.5319     -0.1498      7.1599     59.2145
   704.9000      8.2223      2.5369     -0.1897      6.8554     63.9249
   705.0000      8.2252      2.5369     -0.1905      6.8528     67.5918
   705.1000      8.2252      2.5243     -0.1282      7.6192     67.7406
   705.2000      8.2252      2.4910     -0.1752      9.6364     67.3255
   705.3000      8.2268      2.4648     -0.2173     11.2253     70.2017
   705.4000      8.2268      2.4705     -0.2040     10.8813     74.9146
   705.5000      8.2267      2.4859     -0.1166      9.9441     78.0863
   705.6000      8.2267      2.4785     -0.1582     10.3955     79.4331
   705.7000      8.2267      2.4534     -0.1813     11.9159     79.4820
   705.8000      8.2256      2.4297     -0.1484     13.3496     77.9774
   705.9000      8.2256      2.4100     -0.1679     14.5432     75.7066
   706.0000      8.2260      2.4006     -0.2292     15.1158     73.2189
   706.1000      8.2260      2.4140     -0.2536     14.3050     71.4727
   706.2000      8.2260      2.4379     -0.1367     12.8556     71.5730
   706.3000      8.2272      2.4530     -0.2058     11.9373     71.1895
   706.4000      8.2272      2.4644     -0.1549     11.2493     67.8976
   706.5000      8.2273      2.4725     -0.1950     10.7576     62.9224
   706.6000      8.2273      2.4711     -0.1630     10.8421     59.3887
   706.7000      8.2273      2.4624     -0.1536     11.3723     58.8815
   706.8000      8.2271      2.4507     -0.1565     12.0761     60.0550
   706.9000      8.2271      2.4433     -0.1847     12.5284     63.8785
   707.0000      8.2262      2.4522     -0.1854     11.9857     70.7567
   707.1000      8.2262      2.4750     -0.1313     10.6042     75.2561
   707.2000      8.2262      2.4983     -0.1453      9.1919     75.9862
   707.3000      8.2260      2.5255     -0.1935      7.5473     77.0631
   707.4000      8.2260      2.5494     -0.0905      6.0975     80.0424
   707.5000      8.2283      2.5388     -0.1037      6.7375     83.7209
   707.6000      8.2283      2.4908     -0.1838      9.6496     84.9207
   707.7000      8.2283      2.4350     -0.1831     13.0292     82.9970
   707.8000      8.2311      2.3857     -0.1827     16.0206     80.3711
   707.9000      8.2311      2.3484     -0.2755     18.2788     78.1474
   708.0000      8.2321      2.3349     -0.2406     19.0950     76.3253
   708.1000      8.2321      2.3328     -0.1789     19.2257     75.0489
   708.2000      8.2321      2.3209     -0.2242     19.9464     74.5097
   708.3000      8.2307      2.3089     -0.2554     20.6708     72.6878
   708.4000      8.2307      2.3087     -0.2028     20.6869     69.9781
   708.5000      8.2283      2.3084     -0.2172     20.7044     70.7645
