~Version Information
VERS.                      2.0: CWLS Log ASCII Standard - VERSION 2.0
WRAP.                       NO: One line per depth step
~Well Information Block
STRT.FT                -7.7500: 
STOP.FT              2248.5000: 
STEP.FT                 0.2500: 
NULL.                -999.2500: 
COMP.          Pioneer Natural Resources: COMPANY
WELL.          Interceptor 43-13 Tr: WELL
FLD.           Purgatoire River: FIELD
LOC.           2006' FSL & 438' FEL--: LOCATION
PROV.                       CO: PROVINCE
CNTY.               Las Animas: COUNTRY
SRVC.          Patterson Wireline: SERVICE COMPANY
DATE.          Thu Nov 17 10:14:59 2005: LOG DATE
UWI.           05 071 08549 00: UNIQUE WELL ID
~Curve Information Block
DEPT.FT            0 000 00 00: Depth
CCL.                          : Casing Collar Locator
TT3.usec                      : CBL 3' Travel Time
AMP3.mV                       : CBL 3' Amplitude
GR.GAPI                       : Gamma Ray
~Parameter Information Block
~A  Depth       CCL         TT3         AMP3         GR     
# ...
   595.2500      0.0000    282.5168     73.1515     53.8251
   595.5000      0.0000    283.5428     69.6239     53.2209
   595.7500      0.0000    284.9157     64.8332     51.8249
   596.0000      0.0000    286.4314     59.8570     50.4424
   596.2500      0.0000    287.8051     56.0721     49.4891
   596.5000      0.0000    288.7979     54.2648     49.0639
   596.7500      0.0000    289.3305     54.1842     49.2002
   597.0000      0.0000    289.5090     54.9089     49.8240
   597.2500      2.0000    289.5589     55.5485     50.4628
   597.5000     -2.0000    289.7546     55.6038     50.4579
   597.7500      0.0000    290.4145     54.9005     49.7965
   598.0000      0.0000    291.8060     53.5921     49.3436
   598.2500      0.0000    293.7728     52.4525     49.8291
   598.5000      0.0000    295.3783     52.8680     50.8487
   598.7500      0.0000    295.2989     55.8988     51.3260
   599.0000      0.0000    292.9713     61.1102     50.7981
   599.2500      0.0000    289.2386     66.7239     49.7806
   599.5000      0.0000    285.6254     71.1080     48.9792
   599.7500      0.0000    283.1302     73.8342     48.5778
   600.0000      0.0000    281.8266     75.3533     48.3206
   600.2500      0.0000    281.2930     76.1962     48.0569
   600.5000      0.0000    281.1142     76.6569     48.0933
   600.7500      0.0000    281.0587     76.8819     48.9634
   601.0000      0.0000    281.0367     76.9714     50.8862
   601.2500      0.0000    281.0238     76.9953     53.4032
   601.5000      0.0000    281.0136     76.9948     55.4214
   601.7500      0.0000    281.0055     76.9887     55.8813
   602.0000      0.0000    280.9988     76.9847     54.9046
   602.2500      0.0000    280.9929     76.9866     54.2128
   602.5000      0.0000    280.9862     76.9961     55.7235
   602.7500      0.0000    280.9780     77.0137     59.4834
   603.0000      0.0000    280.9677     77.0373     63.3722
   603.2500      0.0000    280.9550     77.0609     65.0772
   603.5000      0.0000    280.9393     77.0767     64.2106
   603.7500      0.0000    280.9211     77.0800     62.5181
   604.0000      0.0000    280.9019     77.0740     62.2896
   604.2500      0.0000    280.8849     77.0683     64.6220
   604.5000      0.0000    280.8729     77.0696     68.8819
   604.7500      0.0000    280.8676     77.0752     73.3779
   605.0000      0.0000    280.8687     77.0755     76.3574
   605.2500      0.0000    280.8734     77.0609     76.8118
   605.5000      0.0000    280.8784     77.0260     74.8067
   605.7500      0.0000    280.8808     76.9723     71.1583
   606.0000      0.0000    280.8791     76.9070     66.8511
   606.2500      0.0000    280.8735     76.8385     62.7746
   606.5000      0.0000    280.8641     76.7702     59.5863
   606.7500      0.0000    280.8510     76.6980     57.3453
   607.0000      0.0000    280.8332     76.6134     55.3861
   607.2500      0.0000    280.8107     76.5100     53.0364
   607.5000      0.0000    280.7852     76.3875     50.5545
   607.7500      0.0000    280.7607     76.2489     49.0157
   608.0000      0.0000    280.7408     76.0961     49.1677
   608.2500      0.0000    280.7275     75.9271     50.6817
   608.5000      0.0000    280.7207     75.7368     52.5735
   608.7500      0.0000    280.7196     75.5180     54.0126
   609.0000      0.0000    280.7242     75.2651     54.5863
   609.2500      0.0000    280.7343     74.9785     54.2254
   609.5000      0.0000    280.7489     74.6664     53.4440
   609.7500      0.0000    280.7654     74.3442     53.7258
   610.0000      0.0000    280.7818     74.0301     57.0130
   610.2500      0.0000    280.7964     73.7384     64.1543
   610.5000      0.0000    280.8073     73.4751     73.7977
   610.7500      0.0000    280.8115     73.2469     83.1785
   611.0000      0.0000    280.8081     73.0854     90.1250
   611.2500      0.0000    280.8018     73.0562     94.0910
   611.5000      0.0000    280.8029     73.2225     95.3498
   611.7500      0.0000    280.8198     73.5773     93.9091
   612.0000      0.0000    280.8502     74.0145     89.6925
   612.2500      0.0000    280.8834     74.3875     83.2711
   612.5000      0.0000    280.9096     74.6032     75.8155
   612.7500      0.0000    280.9267     74.6590     68.5851
   613.0000      0.0000    280.9384     74.6035     62.6789
   613.2500      0.0000    280.9494     74.4859     58.9066
   613.5000      0.0000    280.9612     74.3411     57.6113
   613.7500      0.0000    280.9725     74.2062     58.5559
   614.0000      0.0000    280.9826     74.1392     60.7417
   614.2500      0.0000    280.9958     74.2113     62.5085
   614.5000      0.0000    281.0200     74.4663     62.6395
   614.7500      0.0000    281.0579     74.8784     61.7265
   615.0000      0.0000    281.0999     75.3569     61.8671
   615.2500      0.0000    281.1307     75.7994     64.6656
   615.5000      0.0000    281.1416     76.1443     69.7809
   615.7500      0.0000    281.1353     76.3842     75.3211
   616.0000      0.0000    281.1214     76.5424     79.2299
   616.2500      0.0000    281.1087     76.6435     80.4746
   616.5000      0.0000    281.1016     76.6994     79.5802
   616.7500      0.0000    281.1003     76.7115     78.3151
   617.0000      0.0000    281.1031     76.6772     78.4357
   617.2500      0.0000    281.1079     76.5963     80.2092
   617.5000      0.0000    281.1137     76.4788     82.1153
   617.7500      0.0000    281.1197     76.3491     82.1914
   618.0000      0.0000    281.1262     76.2388     79.7116
   618.2500      0.0000    281.1338     76.1664     75.6055
   618.5000      0.0000    281.1431     76.1282     71.5103
   618.7500      0.0000    281.1537     76.1072     68.6996
   619.0000      0.0000    281.1635     76.0922     67.8748
   619.2500      0.0000    281.1693     76.0855     69.4297
   619.5000      0.0000    281.1671     76.0991     73.2339
   619.7500      0.0000    281.1531     76.1435     78.0621
   620.0000      0.0000    281.1251     76.2163     81.8583
   620.2500      0.0000    281.0845     76.2991     83.1611
   620.5000      0.0000    281.0382     76.3661     82.2817
   620.7500      0.0000    280.9978     76.4033     80.7387
   621.0000      0.0000    280.9759     76.4200     79.4522
   621.2500      0.0000    280.9793     76.4413     77.8591
   621.5000      0.0000    281.0060     76.4809     75.0032
   621.7500      0.0000    281.0462     76.5238     71.0406
   622.0000      0.0000    281.0896     76.5394     67.1693
   622.2500      0.0000    281.1284     76.5130     64.3016
   622.5000      0.0000    281.1569     76.4611     62.4757
   622.7500      0.0000    281.1681     76.4156     61.6592
   623.0000      0.0000    281.1557     76.3990     62.4496
   623.2500      0.0000    281.1195     76.4124     65.3351
   623.5000      0.0000    281.0692     76.4443     69.4530
   623.7500      0.0000    281.0205     76.4854     72.8928
   624.0000      0.0000    280.9875     76.5363     74.5696
   624.2500      0.0000    280.9749     76.5992     75.1568
   624.5000      0.0000    280.9786     76.6686     75.8708
   624.7500      0.0000    280.9908     76.7327     77.0504
   625.0000      0.0000    281.0053     76.7822     78.2521
   625.2500      0.0000    281.0201     76.8151     78.9287
   625.5000      0.0000    281.0355     76.8342     78.5851
   625.7500      0.0000    281.0517     76.8453     76.9691
   626.0000      0.0000    281.0682     76.8548     74.6181
   626.2500      0.0000    281.0835     76.8645     72.7517
   626.5000      0.0000    281.0956     76.8686     72.1347
   626.7500      0.0000    281.1037     76.8603     72.2793
   627.0000      0.0000    281.1075     76.8400     72.2113
   627.2500      0.0000    281.1074     76.8178     71.8271
   627.5000      0.0000    281.1034     76.8062     71.9507
   627.7500      0.0000    281.0960     76.8096     73.0810
   628.0000      0.0000    281.0866     76.8216     74.6128
   628.2500      0.0000    281.0773     76.8319     75.4070
   628.5000      0.0000    281.0707     76.8337     74.8579
