~Version Information
VERS.                      2.0: CWLS Log ASCII Standard - VERSION 2.0
WRAP.                       NO: One line per depth step
~Well Information Block
STRT.FT                -8.2500: 
STOP.FT              1439.2500: 
STEP.FT                 0.2500: 
NULL.                -999.2500: 
COMP.          Pioneer Natural Resources: COMPANY
WELL.          Old Faithful 21-2: WELL
FLD.           Purgatorie River: FIELD
LOC.           806' FNL & 2509' FWL--: LOCATION
PROV.                       CO: PROVINCE
CNTY.               Las Animas: COUNTRY
SRVC.          Patterson Wireline: SERVICE COMPANY
DATE.          Mon Dec 12 11:21:25 2005: LOG DATE
UWI.           08 071 08617 00: UNIQUE WELL ID
~Curve Information Block
DEPT.FT            0 000 00 00: Depth
CCL.                          : Casing Collar Locator
TT3.usec                      : CBL 3' Travel Time
AMP3.mV                       : CBL 3' Amplitude
GR.GAPI                       : Gamma Ray
~Parameter Information Block
~A  Depth       CCL         TT3         AMP3         GR     
# ...
  1398.7500      0.0000    520.3102      4.8659     73.2047
  1399.0000      0.0000    471.1773      5.0628     71.7971
  1399.2500      0.0000    441.8739      5.2774     70.5706
  1399.5000      0.0000    439.8802      5.4705     71.0335
  1399.7500      0.0000    466.2048      5.6270     73.4738
  1400.0000      0.0000    514.9534      5.7568     76.6266
  1400.2500      0.0000    573.1158      5.8738     78.4960
  1400.5000      0.0000    625.1768      5.9786     77.9121
  1400.7500      0.0000    661.2423      6.0621     75.5182
  1401.0000      0.0000    680.8846      6.1212     73.2242
  1401.2500      0.0000    689.7123      6.1651     72.7445
  1401.5000      0.0000    693.7050      6.2039     74.5058
  1401.7500      0.0000    696.1602      6.2257     77.6444
  1402.0000      0.0000    697.5114      6.1822     81.0462
  1402.2500      0.0000    696.5049      6.0023     84.4396
  1402.5000      0.0000    691.7883      5.6412     88.3513
  1402.7500      0.0000    683.2926      5.1424     93.0539
  1403.0000      0.0000    672.9113      4.6519     97.8361
  1403.2500      0.0000    664.2186      4.3345    101.4083
  1403.5000      0.0000    660.9567      4.2484    102.8242
  1403.7500      0.0000    664.9471      4.3233    102.0051
  1404.0000      0.0000    675.0024      4.4753     99.6393
  1404.2500      0.0000    687.7169      4.6908     96.6876
  1404.5000      0.0000    699.6638      4.9646     93.8297
  1404.7500      0.0000    709.5306      5.2168     91.3003
  1405.0000     -2.0000    718.2710      5.3209     89.1544
  1405.2500      0.0000    727.2612      5.1915     87.4210
  1405.5000      0.0000    736.9501      4.8465     85.8709
  1405.7500      0.0000    746.9207      4.4273     83.9859
  1406.0000      0.0000    755.8008      4.1401     81.4079
  1406.2500      0.0000    761.0852      4.1095     78.2124
  1406.5000      0.0000    760.5526      4.2829     74.6514
  1406.7500      0.0000    754.5298      4.5237     70.8775
  1407.0000      0.0000    746.0746      4.7677     67.0575
  1407.2500      0.0000    738.5576      5.0352     63.6535
  1407.5000      0.0000    733.3675      5.3257     61.4563
  1407.7500      0.0000    729.6766      5.5805     61.2456
  1408.0000      0.0000    725.5215      5.7415     63.2519
  1408.2500      0.0000    719.0031      5.8010     66.8169
  1408.5000      0.0000    709.4534      5.7920     70.4285
  1408.7500      0.0000    698.2690      5.7566     72.2861
  1409.0000      0.0000    688.3038      5.7265     71.3885
  1409.2500      0.0000    681.7243      5.7191     68.3741
  1409.5000      0.0000    678.4876      5.7386     65.1558
  1409.7500      0.0000    677.2582      5.7782     63.6738
  1410.0000      0.0000    677.3805      5.8233     64.7007
  1410.2500      0.0000    679.1718      5.8601     67.3693
  1410.5000      0.0000    682.5509      5.8841     69.9144
  1410.7500      0.0000    686.5239      5.8991     71.2496
  1411.0000      0.0000    690.4334      5.9081     71.7377
  1411.2500      0.0000    695.0056      5.9070     72.3321
  1411.5000      0.0000    701.4426      5.8909     73.3794
  1411.7500      0.0000    709.5767      5.8636     74.5198
  1412.0000      0.0000    717.4522      5.8393     75.4439
  1412.2500      0.0000    722.5734      5.8339     76.3450
  1412.5000      0.0000    722.6318      5.8556     77.5499
  1412.7500      0.0000    714.6050      5.9023     79.0133
  1413.0000      0.0000    694.5081      5.9637     80.4224
  1413.2500      0.0000    661.0360      6.0237     81.6894
  1413.5000      0.0000    621.4998      6.0636     83.1249
  1413.7500      0.0000    591.9412      6.0720     85.3445
  1414.0000      0.0000    586.4818      6.0526     89.1811
  1414.2500      0.0000    604.9913      6.0203     95.0796
  1414.5000      0.0000    633.4802      5.9895    101.8593
  1414.7500      0.0000    656.7614      5.9696    106.6350
  1415.0000      0.0000    668.8306      5.9677    107.0672
  1415.2500      0.0000    672.4795      5.9895    103.6506
  1415.5000      0.0000    672.8871      6.0383     99.1913
  1415.7500      0.0000    672.4698      6.1174     96.2513
  1416.0000      0.0000    669.1801      6.2289     95.3933
  1416.2500      0.0000    657.9691      6.3637     95.3868
  1416.5000      0.0000    635.8494      6.4950     94.5365
  1416.7500      0.0000    608.3253      6.5910     92.0805
  1417.0000      0.0000    589.7623      6.6332     88.8742
  1417.2500      0.0000    593.2416      6.6172     86.6743
  1417.5000      0.0000    618.8396      6.5471     86.3762
  1417.7500      0.0000    654.0813      6.4356     87.1494
  1418.0000      0.0000    685.3157      6.3026     87.6369
  1418.2500      0.0000    706.0170      6.1708     87.4679
  1418.5000      0.0000    715.6824      6.0647     87.0469
  1418.7500      0.0000    715.1500      6.0076     86.5575
  1419.0000      0.0000    704.0974      6.0061     86.1587
  1419.2500      0.0000    681.3535      6.0390     86.7813
  1419.5000      0.0000    647.8538      6.0722     89.6265
  1419.7500      0.0000    611.0338      6.0836     94.6872
  1420.0000      0.0000    584.8077      6.0727    100.3935
  1420.2500      0.0000    580.5250      6.0554    104.8587
  1420.5000      0.0000    596.5980      6.0515    107.1023
  1420.7500      0.0000    620.1284      6.0713    107.2047
  1421.0000      0.0000    639.5615      6.1131    105.9149
  1421.2500      0.0000    653.1217      6.1778    104.2610
  1421.5000      0.0000    665.1572      6.2729    103.0318
  1421.7500      0.0000    677.8353      6.3934    102.2807
  1422.0000      0.0000    687.8730      6.5107    101.4448
  1422.2500      0.0000    689.4357      6.5921    100.1466
  1422.5000      0.0000    679.0746      6.6224     98.9930
  1422.7500      0.0000    659.5692      6.6024     99.4136
  1423.0000      0.0000    640.6467      6.5385    102.2522
  1423.2500      0.0000    634.0748      6.4448    106.2938
  1423.5000      0.0000    644.7208      6.3475    108.6521
  1423.7500      0.0000    666.4415      6.2748    107.1641
  1424.0000      0.0000    688.2383      6.2428    102.3697
  1424.2500      0.0000    703.2219      6.2541     96.8910
  1424.5000      0.0000    710.7271      6.3034     92.9146
  1424.7500      0.0000    712.4623      6.3806     90.1601
  1425.0000      0.0000    709.2858      6.4692     85.8798
  1425.2500      0.0000    701.4700      6.5491     76.7294
  1425.5000      0.0000    690.9116      6.6060     61.4240
  1425.7500      0.0000    682.4098      6.6411     42.3751
  1426.0000      0.0000    681.5616      6.6711     24.4459
  1426.2500      0.0000    690.1388      6.7094     11.5384
  1426.5000      0.0000    704.3408      6.7461      4.3892
  1426.7500      0.0000    718.6074      6.7493      1.3316
  1427.0000      0.0000    730.2153      6.6924      0.3194
  1427.2500      0.0000    739.0959      6.5787      0.0600
  1427.5000      0.0000    744.2432      6.4427      0.0082
  1427.7500      0.0000    742.5876      6.3263      0.0000
  1428.0000      0.0000    732.8308      6.2494   -999.2500
  1428.2500      0.0000    719.6804      6.2028   -999.2500
  1428.5000      0.0000    711.9568      6.1681   -999.2500
  1428.7500      0.0000    715.1680      6.1408   -999.2500
  1429.0000      0.0000    726.5269      6.1261   -999.2500
  1429.2500      0.0000    737.8107      6.1240   -999.2500
  1429.5000      0.0000    741.7228      6.1206   -999.2500
  1429.7500      0.0000    733.8506      6.0808   -999.2500
  1430.0000      0.0000    708.3970      5.9271   -999.2500
  1430.2500      0.0000    654.4083      5.5333   -999.2500
  1430.5000      0.0000    560.8572      4.7837   -999.2500
  1430.7500      0.0000    429.9729      3.6909   -999.2500
  1431.0000      0.0000    284.8847      2.4569   -999.2500
  1431.2500      0.0000    158.6069      1.3728   -999.2500
  1431.5000      0.0000     72.6478      0.6307   -999.2500
  1431.7500      0.0000     26.9614      0.2347   -999.2500
  1432.0000      0.0000      8.0176      0.0700   -999.2500
