~Version Information
VERS.                      2.0: CWLS Log ASCII Standard - VERSION 2.0
WRAP.                       NO: One line per depth step
~Well Information Block
STRT.FT               545.0000: 
STOP.FT              2200.7000: 
STEP.FT                 0.1000: 
NULL.                -999.2500: 
COMP.          Pioneer Natural Resources: COMPANY
WELL.               Erin 21-15: WELL
FLD.           Purgatoire River: FIELD
LOC.           1217' FNL & 2284' FWL--: LOCATION
CNTY.               Las Animas: COUNTY
SRVC.                Patterson: SERVICE COMPANY
DATE.          Thu Mar 02 09:55:43 2006: LOG DATE
UWI.           05 071 08713 00: UNIQUE WELL ID
STAT.                 Colorado: STATE
~Curve Information Block
DEPT.FT            0 000 00 00: Depth
DCAL.in                       : CDL Caliper
RHOB.g/cc                     : CDL Bulk Density
RHOC.g/cc                     : CDL Density Correction
DPOR.pu                       : CDL Density Porosity
NPOR.pu                       : Neutron Porosity
GR.GAPI                       : Gamma Ray
~Parameter Information Block
~A  Depth       DCAL        RHOB        RHOC        DPOR        NPOR         GR     
   545.0000      8.1813      2.4362     -0.2379     12.9571     40.4068     67.9538
   545.1000      8.1813      2.4356     -0.1979     12.9967     40.6958     64.3528
   545.2000      8.1813      2.4373     -0.1767     12.8924     41.0585     64.9786
   545.3000      8.1874      2.4323     -0.2044     13.1914     41.0745     69.7853
   545.4000      8.1874      2.4254     -0.1779     13.6122     40.7726     76.8995
   545.5000      8.1891      2.4109     -0.2305     14.4886     40.6739     82.6368
   545.6000      8.1891      2.3883     -0.1989     15.8614     40.9308     81.9958
   545.7000      8.1891      2.3621     -0.1631     17.4486     41.1042     75.9989
   545.8000      8.1861      2.3407     -0.2118     18.7468     41.1153     70.3889
   545.9000      8.1861      2.3305     -0.1686     19.3629     41.4087     69.9082
   546.0000      8.1820      2.3215     -0.1853     19.9095     41.8950     77.3555
   546.1000      8.1820      2.3050     -0.1564     20.9119     42.0700     88.4322
   546.2000      8.1820      2.2854     -0.2069     22.0970     41.9302     92.6669
   546.3000      8.1806      2.2673     -0.2094     23.1909     41.7397     88.3005
   546.4000      8.1806      2.2568     -0.2856     23.8331     41.5103     82.8650
   546.5000      8.1842      2.2599     -0.2006     23.6418     41.3426     81.7767
   546.6000      8.1842      2.2580     -0.1668     23.7596     41.4350     84.3271
   546.7000      8.1842      2.2331     -0.2041     25.2649     41.6783     86.2517
   546.8000      8.1882      2.2073     -0.2462     26.8298     41.9227     85.9664
   546.9000      8.1882      2.2047     -0.2195     26.9880     42.1033     85.2841
   547.0000      8.1910      2.2258     -0.2903     25.7088     42.1567     85.5013
   547.1000      8.1910      2.2564     -0.1728     23.8541     42.0384     87.6642
   547.2000      8.1910      2.2685     -0.1658     23.1207     41.9073     92.3213
   547.3000      8.1923      2.2532     -0.2244     24.0475     41.9380     96.5717
   547.4000      8.1923      2.2301     -0.2287     25.4470     41.8566     96.0588
   547.5000      8.1923      2.2170     -0.2611     26.2411     41.5182     92.1786
   547.6000      8.1923      2.2157     -0.2025     26.3210     41.2464     90.9177
   547.7000      8.1923      2.2178     -0.2068     26.1951     41.1204     95.7025
   547.8000      8.1918      2.2186     -0.1964     26.1439     41.1038    102.7367
   547.9000      8.1918      2.2216     -0.2775     25.9659     41.2666    105.3770
   548.0000      8.1916      2.2328     -0.2050     25.2822     41.4234    100.5846
   548.1000      8.1916      2.2498     -0.1945     24.2520     41.5397     90.9622
   548.2000      8.1916      2.2619     -0.1784     23.5236     41.8614     84.7521
   548.3000      8.1922      2.2648     -0.1733     23.3450     42.2749     87.2905
   548.4000      8.1922      2.2689     -0.2002     23.0979     42.3780     94.6301
   548.5000      8.1938      2.2799     -0.1495     22.4291     42.1784     98.8673
   548.6000      8.1938      2.2875     -0.1798     21.9678     42.0459     95.1557
   548.7000      8.1938      2.2905     -0.2083     21.7852     42.1069     86.7736
   548.8000      8.1956      2.2985     -0.1660     21.3004     42.2069     80.1256
   548.9000      8.1956      2.3020     -0.1544     21.0882     42.1467     78.5184
   549.0000      8.1990      2.2838     -0.1772     22.1925     41.9124     82.7878
   549.1000      8.1990      2.2476     -0.1930     24.3906     41.6923     89.8864
   549.2000      8.1990      2.2224     -0.3392     25.9137     41.5292     94.6953
   549.3000      8.2014      2.2295     -0.1761     25.4842     41.3303     93.8844
   549.4000      8.2014      2.2456     -0.1925     24.5082     41.0740     89.3057
   549.5000      8.2020      2.2531     -0.2332     24.0532     40.8381     85.2695
   549.6000      8.2020      2.2669     -0.2433     23.2182     40.6748     83.6996
   549.7000      8.2020      2.2882     -0.2034     21.9297     40.6196     83.5633
   549.8000      8.2018      2.2852     -0.1768     22.1107     40.7709     83.6317
   549.9000      8.2018      2.2389     -0.2345     24.9150     41.0088     85.9721
   550.0000      8.2017      2.1749     -0.3064     28.7918     41.0807     91.8583
   550.1000      8.2017      2.1332     -0.3259     31.3195     40.9462     99.0100
   550.2000      8.2017      2.1297     -0.3072     31.5328     40.6759    105.9701
   550.3000      8.2022      2.1464     -0.2232     30.5202     40.2280    110.6293
   550.4000      8.2022      2.1540     -0.2328     30.0621     39.6397    110.4180
   550.5000      8.2029      2.1495     -0.2680     30.3354     39.1893    107.0184
   550.6000      8.2029      2.1613     -0.3143     29.6171     39.0063    102.4193
   550.7000      8.2029      2.2054     -0.2305     26.9479     39.0107     97.5964
   550.8000      8.2056      2.2555     -0.1488     23.9080     39.2280     94.4258
   550.9000      8.2056      2.2869     -0.1527     22.0040     39.6143     91.5922
   551.0000      8.2085      2.3092     -0.1844     20.6530     39.7660     89.3437
   551.1000      8.2085      2.3416     -0.2001     18.6889     39.4650     91.0322
   551.2000      8.2085      2.3871     -0.1779     15.9338     39.2032     95.0969
   551.3000      8.1992      2.4299     -0.1264     13.3386     39.3818     96.5064
   551.4000      8.1992      2.4524     -0.1176     11.9739     39.6703     93.0164
   551.5000      8.1389      2.4626     -0.1400     11.3588     39.6423     88.7029
   551.6000      8.1389      2.4762     -0.1178     10.5344     39.3827     85.9225
   551.7000      8.1389      2.4810     -0.0835     10.2416     39.1588     83.3064
   551.8000      8.0237      2.4704     -0.1485     10.8856     39.1185     81.9361
   551.9000      8.0237      2.4658     -0.1519     11.1644     39.2897     83.7461
   552.0000      7.9455      2.4692     -0.1146     10.9602     39.4957     87.9357
   552.1000      7.9455      2.4621     -0.1598     11.3898     39.5809     91.2987
   552.2000      7.9455      2.4449     -0.1761     12.4302     39.5394     91.0368
   552.3000      7.9703      2.4235     -0.1875     13.7298     39.5502     86.5874
   552.4000      7.9703      2.3951     -0.2322     15.4470     39.7512     82.0747
   552.5000      8.0132      2.3698     -0.2704     16.9813     39.9250     81.3235
   552.6000      8.0132      2.3620     -0.2579     17.4572     39.8656     84.0496
   552.7000      8.0132      2.3713     -0.2554     16.8938     39.7236     88.5527
   552.8000      7.9487      2.3949     -0.2346     15.4580     39.6714     91.1451
   552.9000      7.9487      2.4274     -0.1991     13.4926     39.5798     88.8920
   553.0000      7.8728      2.4526     -0.2082     11.9607     39.2303     84.6401
   553.1000      7.8728      2.4630     -0.1920     11.3358     38.7094     82.7376
   553.2000      7.8728      2.4639     -0.1782     11.2766     38.4226     83.0678
   553.3000      7.8543      2.4693     -0.1920     10.9519     38.6806     84.5429
   553.4000      7.8543      2.5065     -0.1980      8.6984     39.2741     86.7712
   553.5000      7.8827      2.6064     -0.2058      2.6450     39.6658     88.2714
   553.6000      7.8827      2.7636     -0.1639     -6.8820     39.8417     89.1240
   553.7000      7.8827      2.9264     -0.0079    -16.7503     40.2192     90.3614
   553.8000      7.9607      3.0508      0.0058    -24.2921     40.7695     90.7178
   553.9000      7.9607      3.1224      0.0266    -28.6313     41.3374     88.9713
   554.0000      8.0464      3.1064      0.0279    -27.6612     41.9931     87.2346
   554.1000      8.0464      2.9663     -0.0119    -19.1700     42.5622     84.5406
   554.2000      8.0464      2.7523     -0.3439     -6.2019     42.9028     80.6065
   554.3000      8.1013      2.5729     -0.4463      4.6705     43.0538     80.5275
   554.4000      8.1013      2.4552     -0.4882     11.8033     43.0344     86.0096
   554.5000      8.1205      2.3369     -0.4686     18.9760     42.8653     93.6832
