~Version Information
VERS.                      2.0: CWLS Log ASCII Standard - VERSION 2.0
WRAP.                       NO: One line per depth step
~Well Information Block
STRT.FT               240.0000: 
STOP.FT              1159.2000: 
STEP.FT                 0.1000: 
NULL.                -999.2500: 
COMP.          Pioneer Natural Resources: COMPANY
WELL.               Ryan 41-17: WELL
FLD.           Purgatoire River: FIELD
LOC.           822' FNL & 532' FEL--: LOCATION
CNTY.               Las Animas: COUNTY
SRVC.                Patterson: SERVICE COMPANY
DATE.          Fri Mar 17 07:19:36 2006: LOG DATE
UWI.           05 071 08719 00: UNIQUE WELL ID
STAT.                 Colorado: STATE
~Curve Information Block
DEPT.FT            0 000 00 00: Depth
DCAL.in                       : CDL Caliper
RHOB.g/cc                     : CDL Bulk Density
RHOC.g/cc                     : CDL Density Correction
DPOR.pu                       : CDL Density Porosity
NPOR.pu                       : Neutron Porosity
GR.GAPI                       : Gamma Ray
~Parameter Information Block
~A  Depth       DCAL        RHOB        RHOC        DPOR        NPOR         GR     
# ...
   950.4000      7.8538      2.5494      0.1034      6.0954     26.4900    116.7322
   950.5000      7.8450      2.5476      0.0796      6.2082     26.5079    112.9681
   950.6000      7.8450      2.5339      0.0535      7.0383     26.3801    113.5998
   950.7000      7.8450      2.5245     -0.0036      7.6061     26.0701    118.0128
   950.8000      7.8415      2.5304      0.0616      7.2457     26.0445    118.4868
   950.9000      7.8415      2.5310      0.0872      7.2112     26.5773    112.6835
   951.0000      7.8440      2.5096      0.0271      8.5083     27.0242    108.1070
   951.1000      7.8440      2.4815      0.0394     10.2103     26.8900    106.2115
   951.2000      7.8440      2.4627      0.0280     11.3497     26.4945    104.0665
   951.3000      7.8506      2.4581      0.0220     11.6282     26.0572    106.5205
   951.4000      7.8506      2.4704      0.0176     10.8854     25.6145    120.9772
   951.5000      7.8602      2.4960      0.0164      9.3327     25.5497    139.4930
   951.6000      7.8602      2.5235      0.0572      7.6674     25.9951    144.7785
   951.7000      7.8602      2.5383      0.0655      6.7724     26.4232    133.3029
   951.8000      7.8663      2.5284      0.0653      7.3723     26.4702    118.2188
   951.9000      7.8663      2.4983      0.0095      9.1967     26.3962    111.0115
   952.0000      7.8671      2.4719      0.0132     10.7954     26.3432    110.3979
   952.1000      7.8671      2.4661      0.0381     11.1473     26.1304    112.2204
   952.2000      7.8671      2.4810      0.0072     10.2442     25.9257    113.9515
   952.3000      7.8657      2.5068      0.0593      8.6768     26.1156    111.9059
   952.4000      7.8657      2.5287      0.0653      7.3540     26.7061    106.7619
   952.5000      7.8645      2.5425      0.0654      6.5178     27.1828    103.8327
   952.6000      7.8645      2.5550      0.0572      5.7556     27.2169    104.8562
   952.7000      7.8645      2.5629      0.0844      5.2789     27.3623    105.9678
   952.8000      7.8665      2.5566      0.0878      5.6616     27.9914    103.1640
   952.9000      7.8665      2.5440      0.0314      6.4220     28.6003    100.7459
   953.0000      7.8701      2.5397      0.0640      6.6837     28.8877    105.9835
   953.1000      7.8701      2.5414      0.0795      6.5798     28.9875    116.3459
   953.2000      7.8701      2.5391      0.0531      6.7234     28.9499    123.5640
   953.3000      7.8717      2.5316      0.0348      7.1763     28.7518    126.0886
   953.4000      7.8717      2.5237      0.0673      7.6522     28.5896    125.6024
   953.5000      7.8687      2.5175      0.0432      8.0285     28.4836    122.6355
   953.6000      7.8687      2.5112      0.0848      8.4126     28.2868    119.1735
   953.7000      7.8687      2.5002      0.0558      9.0793     28.0774    119.0945
   953.8000      7.8647      2.4846      0.0511     10.0272     27.9125    124.1835
   953.9000      7.8647      2.4673      0.0367     11.0748     27.8207    128.4430
   954.0000      7.8669      2.4528     -0.0017     11.9538     27.8112    128.8773
   954.1000      7.8669      2.4496      0.0431     12.1430     27.6229    132.3428
   954.2000      7.8669      2.4611      0.0313     11.4471     26.9767    140.0867
   954.3000      7.8700      2.4829      0.0670     10.1299     26.1286    144.3231
   954.4000      7.8700      2.5123      0.0457      8.3446     25.7405    136.4979
   954.5000      7.8619      2.5477      0.0826      6.1992     25.7978    118.8014
   954.6000      7.8619      2.5758      0.1275      4.4956     25.8692    102.9078
   954.7000      7.8619      2.5895      0.0736      3.6644     25.9723     95.0910
   954.8000      7.8437      2.6037      0.0782      2.8062     25.9104     93.2799
   954.9000      7.8437      2.6210      0.1094      1.7568     25.4491     93.9381
   955.0000      7.8321      2.6209      0.1248      1.7625     25.1783     95.1961
   955.1000      7.8321      2.5949      0.0851      3.3378     25.3969     97.0951
   955.2000      7.8321      2.5595      0.0349      5.4859     25.8521     99.1400
   955.3000      7.8343      2.5358      0.0139      6.9216     26.4202     98.9710
   955.4000      7.8343      2.5317      0.0101      7.1708     26.6584     96.7472
   955.5000      7.8429      2.5367      0.0134      6.8643     26.3770     94.6177
   955.6000      7.8429      2.5418     -0.0509      6.5563     26.0571     94.9521
   955.7000      7.8429      2.5480      0.0479      6.1842     26.1986     99.0937
   955.8000      7.8533      2.5491      0.0652      6.1135     26.7557    102.8075
   955.9000      7.8533      2.5374      0.0810      6.8230     27.1305    103.1846
   956.0000      7.8628      2.5175      0.0263      8.0299     27.0541    104.3961
   956.1000      7.8628      2.5042      0.0162      8.8389     26.8377    110.0202
   956.2000      7.8628      2.4997      0.0602      9.1073     26.7975    116.6842
   956.3000      7.8713      2.4884      0.0229      9.7963     27.0105    118.7135
   956.4000      7.8713      2.4625     -0.0007     11.3622     27.5716    119.0817
   956.5000      7.8826      2.4301     -0.0052     13.3294     28.5006    122.0533
   956.6000      7.8826      2.3977      0.0162     15.2893     29.4408    127.5009
   956.7000      7.8826      2.3676      0.0094     17.1166     30.0952    131.1064
   956.8000      7.8986      2.3348      0.0058     19.1039     30.6440    128.0731
   956.9000      7.8986      2.2822      0.0021     22.2921     31.2504    119.5974
   957.0000      7.9130      2.1995     -0.0279     27.3041     31.6981    111.3540
   957.1000      7.9130      2.1031     -0.1086     33.1430     31.7580    106.1057
   957.2000      7.9130      2.0140     -0.0578     38.5469     31.6422    102.7578
   957.3000      7.9179      1.9326     -0.0556     43.4778     31.7145    100.8005
   957.4000      7.9179      1.8542     -0.0702     48.2294     31.8692     98.5735
   957.5000      7.9204      1.7766     -0.0560     52.9330     31.7653     93.6201
   957.6000      7.9204      1.7051     -0.0865     57.2670     31.4435     84.8874
   957.7000      7.9204      1.6595     -0.0649     60.0325     31.2922     75.1701
   957.8000      7.9274      1.6575      0.0017     60.1536     31.4991     70.1006
   957.9000      7.9274      1.7020      0.0716     57.4568     31.8053     70.7791
   958.0000      7.9166      1.7847      0.1360     52.4429     31.8059     74.0134
   958.1000      7.9166      1.8864      0.2060     46.2795     31.3645     76.8391
   958.2000      7.9166      1.9840      0.2505     40.3657     30.6542     78.0570
   958.3000      7.8770      2.0745      0.2234     34.8775     29.8484     77.1065
   958.4000      7.8770      2.1701      0.2560     29.0841     29.0298     76.6397
   958.5000      7.8466      2.2699      0.2748     23.0370     28.2498     80.0160
   958.6000      7.8466      2.3636      0.2675     17.3570     27.5116     86.6259
   958.7000      7.8466      2.4425      0.2604     12.5742     27.0661     92.0709
   958.8000      7.8398      2.4923      0.2215      9.5557     27.0010     92.5761
   958.9000      7.8398      2.5022      0.1867      8.9574     26.9287     93.4818
   959.0000      7.8392      2.4885      0.0539      9.7868     26.6820     97.3003
   959.1000      7.8392      2.4772      0.0845     10.4727     26.2972     97.8128
   959.2000      7.8392      2.4775      0.0636     10.4521     25.9767     92.3554
   959.3000      7.8346      2.4939      0.0562      9.4600     25.9347     84.1865
   959.4000      7.8346      2.5150      0.1036      8.1844     26.0137     81.6756
   959.5000      7.8353      2.5172      0.0828      8.0482     25.8922     92.3808
   959.6000      7.8353      2.5021      0.0458      8.9659     25.6268    108.4254
   959.7000      7.8353      2.4938      0.0416      9.4641     25.7072    115.1189
   959.8000      7.8488      2.5100      0.0194      8.4820     25.8841    111.7004
   959.9000      7.8488      2.5370      0.1158      6.8478     25.3933    107.6934
