~Version Information
VERS.                      2.0: CWLS Log ASCII Standard - VERSION 2.0
WRAP.                       NO: One line per depth step
~Well Information Block
STRT.FT               310.0000: 
STOP.FT              2295.5000: 
STEP.FT                 0.1000: 
NULL.                -999.2500: 
COMP.          Pioneer Natural Resources: COMPANY
WELL.               Relay 12-7: WELL
FLD.           Purgatoire River: FIELD
LOC.           1999' FNL & 848' FWL: LOCATION
PROV.                 Colorado: PROVINCE
CNTY.               Las Animas: COUNTRY
SRVC.                Patterson: SERVICE COMPANY
DATE.          Mon Dec 19 07:37:11 2005: LOG DATE
UWI.           05 071 08453 00: UNIQUE WELL ID
~Curve Information Block
DEPT.FT            0 000 00 00: Depth
DCAL.in                       : CDL Caliper
RHOB.g/cc                     : CDL Bulk Density
RHOC.g/cc                     : CDL Density Correction
DPOR.pu                       : CDL Density Porosity
GR.GAPI                       : Gamma Ray
NPOR.pu                       : Neutron Porosity
~Parameter Information Block
~A  Depth       DCAL        RHOB        RHOC        DPOR         GR         NPOR    
# ...
   444.4000      8.3481      2.3337      0.1032     19.1683     58.5431     16.6024
   444.5000      8.3477      2.3061      0.0448     20.8416     57.5408     16.7190
   444.6000      8.3477      2.2760      0.0216     22.6643     51.7712     17.3655
   444.7000      8.3477      2.2657      0.0211     23.2881     48.5113     18.1970
   444.8000      8.3457      2.2735      0.0317     22.8196     49.5432     18.5626
   444.9000      8.3457      2.2889      0.0542     21.8879     49.4804     18.2867
   445.0000      8.3491      2.3020      0.0599     21.0880     46.7212     17.8584
   445.1000      8.3491      2.3099      0.0612     20.6122     46.1168     17.4791
   445.2000      8.3491      2.3135      0.0620     20.3950     49.5549     17.1082
   445.3000      8.3548      2.3081      0.0699     20.7189     52.8978     16.9626
   445.4000      8.3548      2.2970      0.0359     21.3932     53.7794     16.8865
   445.5000      8.3491      2.2965      0.0288     21.4214     53.7735     16.6363
   445.6000      8.3491      2.3063      0.0626     20.8309     53.2262     16.3417
   445.7000      8.3491      2.3130      0.0559     20.4269     51.1934     16.1067
   445.8000      8.3494      2.3161      0.0649     20.2362     49.4500     16.0108
   445.9000      8.3494      2.3174      0.0336     20.1567     50.4057     16.2590
   446.0000      8.3475      2.3104      0.0601     20.5809     51.8672     16.9033
   446.1000      8.3475      2.2905      0.0565     21.7895     50.4583     17.5999
   446.2000      8.3475      2.2660      0.0352     23.2740     48.5473     18.0064
   446.3000      8.3462      2.2527      0.0349     24.0816     49.3459     18.1092
   446.4000      8.3462      2.2548      0.0129     23.9519     50.7841     18.2440
   446.5000      8.3490      2.2629      0.0213     23.4605     51.0297     18.4511
   446.6000      8.3490      2.2663      0.0064     23.2524     51.5052     18.1911
   446.7000      8.3490      2.2618      0.0114     23.5294     53.3083     17.4823
   446.8000      8.3468      2.2539     -0.0012     24.0077     55.5787     17.1447
   446.9000      8.3468      2.2529     -0.0050     24.0688     55.7216     17.4476
   447.0000      8.3480      2.2650      0.0161     23.3341     52.8904     17.7973
   447.1000      8.3480      2.2863      0.0284     22.0432     50.4991     17.8488
   447.2000      8.3480      2.3089      0.0575     20.6741     52.2698     17.6005
   447.3000      8.3457      2.3263      0.0947     19.6170     56.6178     17.0846
   447.4000      8.3457      2.3357      0.0955     19.0484     60.2788     16.7268
   447.5000      8.3483      2.3378      0.0915     18.9229     63.4384     16.8813
   447.6000      8.3483      2.3353      0.0655     19.0739     66.0830     17.2331
   447.7000      8.3483      2.3292      0.0689     19.4409     67.4034     17.3483
   447.8000      8.3527      2.3244      0.0371     19.7355     67.3392     17.3024
   447.9000      8.3527      2.3328      0.0082     19.2256     67.2874     17.3707
   448.0000      8.3475      2.3505      0.0864     18.1516     67.8626     17.6060
   448.1000      8.3475      2.3514      0.1069     18.0941     66.0213     17.6777
   448.2000      8.3475      2.3255      0.0454     19.6667     60.5629     17.4411
   448.3000      8.3498      2.2938      0.0237     21.5857     56.1017     17.3835
   448.4000      8.3498      2.2751      0.0563     22.7240     55.9832     17.7890
   448.5000      8.3729      2.2670      0.0344     23.2103     57.3485     18.1800
   448.6000      8.3729      2.2626     -0.0091     23.4804     56.4206     18.1509
   448.7000      8.3729      2.2620      0.0403     23.5174     54.3376     17.8549
   448.8000      8.3532      2.2699      0.0244     23.0391     54.3987     17.5739
   448.9000      8.3532      2.2865      0.0502     22.0328     55.0944     17.3925
   449.0000      8.3478      2.3060      0.0302     20.8483     55.7224     17.3623
   449.1000      8.3478      2.3243      0.0637     19.7414     58.6070     17.7283
   449.2000      8.3478      2.3364      0.0277     19.0082     60.9004     18.3081
   449.3000      8.3478      2.3461      0.0460     18.4175     59.9001     18.6941
   449.4000      8.3478      2.3621      0.0767     17.4467     58.7569     18.7961
   449.5000      8.3471      2.3787      0.0701     16.4404     59.8775     18.5061
   449.6000      8.3471      2.3849      0.0490     16.0687     63.1819     18.0164
   449.7000      8.3471      2.3805      0.0443     16.3349     67.1539     17.8086
   449.8000      8.3479      2.3767      0.0445     16.5656     68.3633     17.9685
   449.9000      8.3479      2.3824      0.0431     16.2166     67.9641     18.2649
   450.0000      8.3466      2.3914      0.0939     15.6704     70.6726     18.4500
   450.1000      8.3466      2.3822      0.0591     16.2319     73.8525     18.4056
   450.2000      8.3466      2.3536      0.0104     17.9634     71.6418     18.2769
   450.3000      8.3345      2.3357      0.0307     19.0462     65.0478     18.3115
   450.4000      8.3345      2.3397      0.0798     18.8078     59.7514     18.5063
   450.5000      8.3484      2.3445      0.0906     18.5142     58.1405     18.5546
   450.6000      8.3484      2.3357      0.0766     19.0490     56.8878     18.4259
   450.7000      8.3484      2.3194      0.0949     20.0385     54.4819     18.4409
   450.8000      8.3590      2.3124      0.0227     20.4612     54.4286     18.7318
   450.9000      8.3590      2.3293      0.0285     19.4386     57.6767     19.2220
   451.0000      8.3857      2.3620      0.0507     17.4527     61.2827     19.9478
   451.1000      8.3857      2.3883      0.0754     15.8602     63.2748     20.7602
   451.2000      8.3857      2.4075      0.0552     14.6946     62.1947     21.1698
   451.3000      8.3750      2.4326      0.1069     13.1761     60.1518     21.2063
   451.4000      8.3750      2.4538      0.1330     11.8927     61.1351     21.3719
   451.5000      8.3553      2.4611      0.0324     11.4491     65.6244     21.6108
   451.6000      8.3553      2.4696      0.0745     10.9355     72.7979     21.6826
   451.7000      8.3553      2.4872      0.1049      9.8657     80.8976     21.8921
   451.8000      8.3528      2.5008      0.0729      9.0431     87.6880     22.4581
   451.9000      8.3528      2.4950      0.0697      9.3918     93.1963     23.1177
   452.0000      8.3525      2.4605      0.0393     11.4860    101.4539     23.7036
   452.1000      8.3525      2.3946      0.0247     15.4805    114.3977     24.3129
   452.2000      8.3525      2.3100     -0.0707     20.6045    123.8799     24.9867
   452.3000      8.3533      2.2321     -0.0746     25.3273    122.9952     25.6163
   452.4000      8.3533      2.1767     -0.0277     28.6856    119.0496     25.8850
   452.5000      8.3556      2.1418     -0.0206     30.8020    120.6179     25.6049
   452.6000      8.3556      2.1205      0.0134     32.0903    128.5270     25.1426
   452.7000      8.3556      2.1273     -0.0282     31.6790    140.4235     24.9490
   452.8000      8.4087      2.2047      0.0698     26.9879    149.5046     25.3152
   452.9000      8.4087      2.3649      0.2819     17.2796    150.9486     26.0182
   453.0000      8.4721      2.5423      0.5319      6.5258    146.2404     26.4550
   453.1000      8.4721      2.6419      0.6549      0.4928    139.2560     26.6849
   453.2000      8.4721      2.6208      0.5644      1.7720    135.4306     26.9510
   453.3000      8.5180      2.5116      0.4436      8.3854    138.9416     27.0426
   453.4000      8.5180      2.3794      0.2934     16.3997    147.6256     27.1185
   453.5000      8.5447      2.2675      0.1425     23.1796    151.8359     27.4263
   453.6000      8.5447      2.1781      0.0885     28.5988    147.4220     27.7173
   453.7000      8.5447      2.0960      0.0011     33.5745    141.0201     27.6669
   453.8000      8.6764      2.0225     -0.0560     38.0322    136.8116     27.2413
   453.9000      8.6764      1.9839     -0.0053     40.3704    131.9992     26.9011
