~Version Information
VERS.                      2.0: CWLS Log ASCII Standard - VERSION 2.0
WRAP.                       NO: One line per depth step
~Well Information Block
STRT.FT               245.0000: 
STOP.FT              1208.2000: 
STEP.FT                 0.1000: 
NULL.                -999.2500: 
COMP.          Pioneer Natural Resources: COMPANY
WELL.              Davida 34-8: WELL
FLD.           Purgatoire River: FIELD
LOC.           418' FSL & 1923' FEL--: LOCATION
CNTY.               Las Animas: COUNTY
SRVC.                Patterson: SERVICE COMPANY
DATE.          Mon Mar 20 08:22:01 2006: LOG DATE
UWI.           05 071 08722 00: UNIQUE WELL ID
STAT.                 Colorado: STATE
~Curve Information Block
DEPT.FT            0 000 00 00: Depth
DCAL.in                       : CDL Caliper
RHOB.g/cc                     : CDL Bulk Density
RHOC.g/cc                     : CDL Density Correction
DPOR.pu                       : CDL Density Porosity
NPOR.pu                       : Neutron Porosity
GR.GAPI                       : Gamma Ray
~Parameter Information Block
~A  Depth       DCAL        RHOB        RHOC        DPOR        NPOR         GR     
# ...
   552.2000      7.9115      2.5936      0.0304      3.4184     20.3060    115.1568
   552.3000      7.8962      2.5823      0.0365      4.1039     21.0577    107.1841
   552.4000      7.8962      2.5753      0.0214      4.5288     21.6230    103.2357
   552.5000      7.8827      2.5782      0.0052      4.3486     21.8380    100.6046
   552.6000      7.8827      2.5920      0.0598      3.5129     21.7996     97.2062
   552.7000      7.8827      2.6007      0.0624      2.9894     21.8794     94.8145
   552.8000      7.8797      2.5949      0.0551      3.3422     22.2791     96.2975
   552.9000      7.8797      2.5834      0.0172      4.0387     22.8253    101.0974
   553.0000      7.8835      2.5826      0.0190      4.0843     23.1851    103.2472
   553.1000      7.8835      2.5979      0.0117      3.1583     23.3603    100.9067
   553.2000      7.8835      2.6160      0.0697      2.0608     23.7060    100.4123
   553.3000      7.8896      2.6163      0.0871      2.0455     24.2185    104.1511
   553.4000      7.8896      2.5985      0.0040      3.1185     24.5197    106.5692
   553.5000      7.8988      2.5821      0.0332      4.1121     24.3655    106.4101
   553.6000      7.8988      2.5748      0.0227      4.5576     23.9812    109.8684
   553.7000      7.8988      2.5758      0.0414      4.4981     23.7991    117.7627
   553.8000      7.9081      2.5811      0.0223      4.1785     23.8378    125.4948
   553.9000      7.9081      2.5789      0.0270      4.3101     23.8940    128.5747
   554.0000      7.9159      2.5720     -0.0175      4.7243     23.9531    124.8659
   554.1000      7.9159      2.5750      0.0230      4.5432     24.0592    120.5604
   554.2000      7.9159      2.5869     -0.0083      3.8261     24.2040    120.1730
   554.3000      7.9176      2.5967      0.0457      3.2310     24.3180    119.0500
   554.4000      7.9176      2.5985      0.0291      3.1200     24.3680    116.1047
   554.5000      7.9128      2.5954      0.0514      3.3077     24.5210    116.7094
   554.6000      7.9128      2.5951      0.0268      3.3266     24.6949    122.8010
   554.7000      7.9128      2.5996      0.0586      3.0552     24.7239    128.8820
   554.8000      7.9056      2.6013      0.0324      2.9541     24.6752    131.0173
   554.9000      7.9056      2.5956      0.0615      3.2998     24.3817    129.7942
   555.0000      7.9023      2.5858      0.0541      3.8891     23.7898    125.6803
   555.1000      7.9023      2.5826      0.0510      4.0839     23.3123    122.2757
   555.2000      7.9023      2.5948      0.0250      3.3469     23.1718    122.4609
   555.3000      7.9050      2.6132      0.0856      2.2331     23.0303    124.8308
   555.4000      7.9050      2.6149      0.0877      2.1290     22.6836    127.4347
   555.5000      7.9031      2.5956      0.0472      3.2950     22.3945    129.4098
   555.6000      7.9031      2.5795      0.0230      4.2704     22.3686    129.0872
   555.7000      7.9031      2.5816      0.0430      4.1457     22.6976    125.5166
   555.8000      7.8948      2.5906      0.0476      3.5994     23.1008    119.7695
   555.9000      7.8948      2.5960      0.0258      3.2745     23.2119    112.7507
   556.0000      7.8895      2.6020      0.0157      2.9108     23.3248    106.7481
   556.1000      7.8895      2.6125      0.0415      2.2723     23.7283    103.1603
   556.2000      7.8895      2.6191      0.0434      1.8727     24.3627     98.8702
   556.3000      7.8859      2.6195      0.0343      1.8473     25.2270     92.7630
   556.4000      7.8859      2.6317      0.0345      1.1111     26.4059     90.3623
   556.5000      7.8750      2.6692      0.0990     -1.1655     27.7655     92.7128
   556.6000      7.8750      2.7223      0.0276     -4.3844     28.9786     94.3428
   556.7000      7.8750      2.7656      0.1404     -7.0047     29.7003     93.5892
   556.8000      7.8533      2.7828      0.0532     -8.0499     29.8680     94.0818
   556.9000      7.8533      2.7870      0.0729     -8.3054     29.8985     98.9235
   557.0000      7.8348      2.7871      0.0759     -8.3080     30.0336    105.6182
   557.1000      7.8348      2.7608      0.1132     -6.7148     29.8933    108.7261
   557.2000      7.8348      2.6909     -0.0115     -2.4770     29.1155    108.8342
   557.3000      7.8364      2.6120     -0.1272      2.3028     27.8575    111.7990
   557.4000      7.8364      2.5669     -0.0830      5.0378     26.6371    116.1140
   557.5000      7.8634      2.5517     -0.0624      5.9577     25.9658    114.8386
   557.6000      7.8634      2.5452     -0.0453      6.3534     25.8701    112.5054
   557.7000      7.8634      2.5428     -0.0252      6.4978     25.9555    117.3326
   557.8000      7.8971      2.5410      0.0269      6.6074     26.0130    123.1603
   557.9000      7.8971      2.5257     -0.0037      7.5319     25.9545    123.9039
   558.0000      7.9132      2.4953      0.0119      9.3727     25.5450    127.3124
   558.1000      7.9132      2.4665     -0.0325     11.1191     24.7486    139.4510
   558.2000      7.9132      2.4540     -0.0086     11.8806     23.8381    153.9509
   558.3000      7.9182      2.4553      0.0217     11.8017     23.1107    163.2841
   558.4000      7.9182      2.4591      0.0457     11.5719     22.5784    166.9988
   558.5000      7.9290      2.4536      0.0403     11.9004     22.0311    166.6225
   558.6000      7.9290      2.4378      0.0290     12.8576     21.4555    163.2773
   558.7000      7.9290      2.4262      0.0112     13.5645     21.0929    158.9418
   558.8000      7.9422      2.4338     -0.0209     13.1016     21.0413    154.8509
   558.9000      7.9422      2.4540      0.0763     11.8801     21.1183    153.3280
   559.0000      7.9490      2.4603      0.0698     11.4994     21.1571    155.0322
   559.1000      7.9490      2.4495      0.0223     12.1490     20.9843    158.1564
   559.2000      7.9490      2.4456      0.0386     12.3849     20.4558    159.4602
   559.3000      7.9496      2.4584      0.0717     11.6143     19.8766    159.1090
   559.4000      7.9496      2.4703      0.1313     10.8928     19.5935    161.2321
   559.5000      7.9479      2.4640      0.0938     11.2712     19.3495    164.2653
   559.6000      7.9479      2.4486      0.0798     12.2081     19.0328    162.7797
   559.7000      7.9479      2.4375      0.0678     12.8794     18.7214    158.0627
   559.8000      7.9444      2.4272      0.0624     13.5021     18.3540    154.1988
   559.9000      7.9444      2.4123      0.0543     14.4059     18.0546    151.6484
   560.0000      7.9339      2.4007      0.0011     15.1109     17.9606    148.0620
   560.1000      7.9339      2.4029      0.0250     14.9758     17.9674    140.6412
   560.2000      7.9339      2.4151      0.0744     14.2381     17.8471    131.0031
   560.3000      7.9212      2.4209      0.1421     13.8841     17.4231    121.9922
   560.4000      7.9212      2.4135      0.0849     14.3328     16.8110    113.1329
   560.5000      7.9139      2.4134      0.0600     14.3392     16.3686    105.3598
   560.6000      7.9139      2.4368      0.0917     12.9185     16.3160    101.5688
   560.7000      7.9139      2.4635      0.1137     11.3025     16.6059    101.1760
   560.8000      7.9130      2.4677      0.0893     11.0461     16.9646    102.4311
   560.9000      7.9130      2.4536      0.0518     11.9004     17.1690    105.6030
   561.0000      7.9148      2.4411      0.0873     12.6579     17.1891    108.9610
   561.1000      7.9148      2.4422      0.0524     12.5941     17.0107    108.3378
   561.2000      7.9148      2.4620      0.0429     11.3911     16.6784    104.4355
   561.3000      7.9043      2.4987      0.0740      9.1726     16.5087    101.7604
   561.4000      7.9043      2.5376      0.1128      6.8119     16.9230    101.2922
   561.5000      7.8883      2.5669      0.1050      5.0384     17.7320    101.7054
   561.6000      7.8883      2.5856      0.1441      3.9018     18.2008    102.5319
   561.7000      7.8883      2.5883      0.1328      3.7409     18.0952    102.5269
