~Version Information
VERS.                      2.0: CWLS Log ASCII Standard - VERSION 2.0
WRAP.                       NO: One line per depth step
~Well Information Block
STRT.FT               840.0000: 
STOP.FT              1912.0000: 
STEP.FT                 0.1000: 
NULL.                -999.2500: 
COMP.          Petrogulf Corporation: COMPANY
WELL.             Kraft 17-23R: WELL
FLD.           Purgatorie River: FIELD
LOC.           1509' FSL & 1673' FWL: LOCATION
PROV.                 Colorado: PROVINCE
CNTY.               Las Animas: COUNTRY
SRVC.                Patterson: SERVICE COMPANY
DATE.          Wed Oct 12 07:01:14 2005: LOG DATE
UWI.                          : UNIQUE WELL ID
~Curve Information Block
DEPT.FT            0 000 00 00: Depth
DCAL.in                       : CDL Caliper
RHOB.g/cc                     : CDL Bulk Density
RHOC.g/cc                     : CDL Density Correction
DPOR.pu                       : CDL Density Porosity
GR.GAPI                       : Gamma Ray
NPOR.pu                       : Neutron Porosity
~Parameter Information Block
~A  Depth       DCAL        RHOB        RHOC        DPOR         GR         NPOR    
# ...
  1617.6000      7.8664      2.6538      0.1641     -0.2309    144.2196     27.4491
  1617.7000      7.8664      2.6210      0.1225      1.7590    143.7646     27.3648
  1617.8000      7.8298      2.6055      0.0953      2.6987    139.7508     27.1678
  1617.9000      7.8298      2.5900      0.0803      3.6335    131.3717     27.1261
  1618.0000      7.9219      2.5773      0.0658      4.4087    123.2524     27.1177
  1618.1000      7.9219      2.5728      0.0944      4.6797    120.2555     26.7907
  1618.2000      7.9219      2.5669      0.0627      5.0344    120.6549     26.2802
  1618.3000      8.0081      2.5571      0.0760      5.6286    121.3085     25.8725
  1618.4000      8.0081      2.5571      0.0417      5.6301    119.3821     25.5511
  1618.5000      7.9290      2.5694      0.1056      4.8828    113.0069     25.4427
  1618.6000      7.9290      2.5749      0.0918      4.5540    106.5013     25.5577
  1618.7000      7.9290      2.5705      0.0729      4.8168    103.8065     25.4122
  1618.8000      7.9136      2.5769      0.0975      4.4317    104.6357     24.9730
  1618.9000      7.9136      2.5966      0.1727      3.2390    108.6215     24.8239
  1619.0000      7.7668      2.6065      0.2117      2.6344    111.8789     25.1257
  1619.1000      7.7668      2.5956      0.1643      3.2952    109.9434     25.4329
  1619.2000      7.7668      2.5744      0.1424      4.5820    105.5469     25.3673
  1619.3000      7.6998      2.5514      0.1450      5.9772    103.1815     24.8472
  1619.4000      7.6998      2.5287      0.1262      7.3517    101.5487     24.2013
  1619.5000      7.6857      2.5092      0.1591      8.5306     97.3195     23.8607
  1619.6000      7.6857      2.4955      0.1329      9.3644     90.4248     23.7751
  1619.7000      7.6857      2.4966      0.0939      9.2977     83.4011     23.7452
  1619.8000      7.6945      2.5186      0.1336      7.9666     78.4526     23.8699
  1619.9000      7.6945      2.5474      0.1859      6.2158     76.3520     23.9595
  1620.0000      7.7418      2.5677      0.1716      4.9859     76.5156     23.5755
  1620.1000      7.7418      2.5777      0.1694      4.3831     77.5239     22.7360
  1620.2000      7.7418      2.5774      0.1619      4.4014     79.1100     22.1409
  1620.3000      7.7776      2.5589      0.1988      5.5219     81.4603     22.3786
  1620.4000      7.7776      2.5181      0.1542      7.9962     81.2498     23.0116
  1620.5000      7.7709      2.4703      0.1213     10.8935     76.2065     23.4584
  1620.6000      7.7709      2.4344      0.1071     13.0653     70.4837     23.6873
  1620.7000      7.7709      2.4140      0.0708     14.3028     67.2826     23.5681
  1620.8000      7.7999      2.4057      0.0248     14.8037     65.4904     23.3336
  1620.9000      7.7999      2.4107     -0.0101     14.5027     66.1994     23.4575
  1621.0000      7.8442      2.4293      0.0463     13.3749     69.4121     23.7684
  1621.1000      7.8442      2.4541      0.0783     11.8733     72.4246     23.9647
  1621.2000      7.8442      2.4764      0.1466     10.5192     73.7868     24.0310
  1621.3000      7.8127      2.4995      0.1007      9.1221     73.3741     23.9893
  1621.4000      7.8127      2.5296      0.1744      7.2969     72.3688     23.7933
  1621.5000      7.7818      2.5561      0.1539      5.6895     72.3793     23.4094
  1621.6000      7.7818      2.5603      0.1785      5.4337     75.2298     23.0949
  1621.7000      7.7818      2.5304      0.1337      7.2502     79.9428     23.1941
  1621.8000      7.7752      2.4757      0.1074     10.5659     83.4343     23.6943
  1621.9000      7.7752      2.4277      0.0470     13.4715     85.5624     24.2625
  1622.0000      7.7744      2.4140      0.0887     14.3042     87.3223     24.4817
  1622.1000      7.7744      2.4335      0.0593     13.1217     88.7022     24.2790
  1622.2000      7.7744      2.4605      0.1112     11.4836     89.8796     24.0750
  1622.3000      7.7848      2.4772      0.0716     10.4704     91.0258     24.0692
  1622.4000      7.7848      2.4965      0.0795      9.3008     90.7388     24.0629
  1622.5000      7.8822      2.5283      0.1376      7.3732     88.5690     23.8081
  1622.6000      7.8822      2.5521      0.2841      5.9341     86.7844     23.3187
  1622.7000      7.8822      2.5479      0.2547      6.1856     86.4299     22.8339
  1622.8000      7.8693      2.5287      0.1538      7.3541     87.8336     22.6165
  1622.9000      7.8693      2.5120      0.1382      8.3657     89.4445     22.6322
  1623.0000      7.8088      2.4932      0.0977      9.5001     86.8419     22.5513
  1623.1000      7.8088      2.4713      0.0707     10.8291     80.4046     22.1209
  1623.2000      7.8088      2.4659      0.0417     11.1555     77.2915     21.6014
  1623.3000      7.8005      2.4952      0.0988      9.3841     81.2908     21.6051
  1623.4000      7.8005      2.5456      0.1415      6.3285     86.3845     22.0181
  1623.5000      7.8039      2.5868      0.1606      3.8305     84.6584     22.1250
  1623.6000      7.8039      2.6093      0.1714      2.4682     77.6373     21.9684
  1623.7000      7.8039      2.6241      0.1803      1.5717     73.4247     22.0762
  1623.8000      7.8018      2.6405      0.1900      0.5733     74.4827     22.3502
  1623.9000      7.8018      2.6551      0.1990     -0.3120     77.5171     22.2612
  1624.0000      7.8115      2.6588      0.1884     -0.5325     81.1961     21.8311
  1624.1000      7.8115      2.6507      0.1657     -0.0446     84.3527     21.5971
  1624.2000      7.8115      2.6362      0.1723      0.8352     85.1001     21.7807
  1624.3000      7.8059      2.6208      0.1155      1.7676     83.9419     22.0995
  1624.4000      7.8059      2.6103      0.0786      2.4090     82.6772     22.2053
  1624.5000      7.8181      2.6004      0.1086      3.0064     82.3123     22.1967
  1624.6000      7.8181      2.5886      0.0021      3.7203     81.5667     22.1708
  1624.7000      7.8181      2.5889      0.0290      3.7057     78.8059     21.9978
  1624.8000      7.8526      2.6081      0.0621      2.5409     74.6930     21.8065
  1624.9000      7.8526      2.6382      0.0569      0.7133     69.5148     21.6739
  1625.0000      7.8289      2.6664      0.0663     -0.9953     64.7887     21.4201
  1625.1000      7.8289      2.6792      0.0683     -1.7716     62.6634     21.0993
  1625.2000      7.8289      2.6747      0.0821     -1.4949     62.2254     20.8514
  1625.3000      7.8268      2.6669      0.0589     -1.0216     62.1240     20.6658
  1625.4000      7.8268      2.6670      0.0543     -1.0332     61.7005     20.4616
  1625.5000      7.8249      2.6702      0.0717     -1.2243     59.3116     20.3140
  1625.6000      7.8249      2.6745      0.0310     -1.4868     56.1094     20.3042
  1625.7000      7.8249      2.6837      0.0597     -2.0401     54.9034     20.1012
  1625.8000      7.8241      2.6897      0.1101     -2.4057     55.1666     19.5121
  1625.9000      7.8241      2.6881      0.0356     -2.3062     55.9288     19.0056
  1626.0000      7.8277      2.6870      0.0851     -2.2419     56.9139     18.8852
  1626.1000      7.8277      2.6812      0.1022     -1.8915     58.3826     18.9430
  1626.2000      7.8277      2.6590      0.0777     -0.5460     61.5244     18.8926
  1626.3000      7.8249      2.6294      0.0430      1.2486     66.5542     18.7751
  1626.4000      7.8249      2.6044      0.0587      2.7633     73.2580     19.0794
  1626.5000      7.8246      2.5849      0.0167      3.9460     80.0342     19.9468
  1626.6000      7.8246      2.5715      0.0387      4.7587     83.7393     21.0046
  1626.7000      7.8246      2.5655      0.0298      5.1225     84.7361     21.8600
  1626.8000      7.8375      2.5657      0.0403      5.1108     87.9663     22.2440
  1626.9000      7.8375      2.5673      0.0757      5.0108     98.3338     22.3148
  1627.0000      7.8147      2.5648      0.0583      5.1615    112.2515     22.7139
  1627.1000      7.8147      2.5554      0.0861      5.7343    121.2450     23.8321
