~Version Information
VERS.                      2.0: CWLS Log ASCII Standard - VERSION 2.0
WRAP.                       NO: One line per depth step
~Well Information Block
STRT.FT               525.0000: 
STOP.FT              2377.2000: 
STEP.FT                 0.1000: 
NULL.                -999.2500: 
COMP.          Pioneer Natural Resources: COMPANY
WELL.          Sparrowhawk 22-12: WELL
FLD.           Purgatoire River: FIELD
LOC.           2049' FNL & 2060' FWL--: LOCATION
CNTY.               Las Animas: COUNTY
SRVC.                Patterson: SERVICE COMPANY
DATE.          Thu Mar 23 13:24:48 2006: LOG DATE
UWI.           05 071 08484 00: UNIQUE WELL ID
STAT.                 Colorado: STATE
~Curve Information Block
DEPT.FT            0 000 00 00: Depth
DCAL.in                       : CDL Caliper
RHOB.g/cc                     : CDL Bulk Density
RHOC.g/cc                     : CDL Density Correction
DPOR.pu                       : CDL Density Porosity
NPOR.pu                       : Neutron Porosity
GR.GAPI                       : Gamma Ray
~Parameter Information Block
~A  Depth       DCAL        RHOB        RHOC        DPOR        NPOR         GR     
   525.0000      8.1181      2.4654     -0.1727     11.1855     39.3217     87.0046
   525.1000      8.1181      2.4606     -0.1352     11.4814     39.5564     88.1767
   525.2000      8.1181      2.4437     -0.1457     12.5058     39.6473     89.2256
   525.3000      8.1185      2.4236     -0.1847     13.7226     39.6037     88.8384
   525.4000      8.1185      2.4105     -0.1778     14.5140     39.8182     87.5311
   525.5000      8.1178      2.4037     -0.2317     14.9270     40.1672     86.0742
   525.6000      8.1178      2.4067     -0.2372     14.7471     40.2350     84.6768
   525.7000      8.1178      2.4173     -0.1841     14.1034     40.0092     84.4074
   525.8000      8.1174      2.4266     -0.2030     13.5390     39.7350     87.6600
   525.9000      8.1174      2.4346     -0.1985     13.0575     39.4367     93.3283
   526.0000      8.1187      2.4387     -0.1977     12.8079     39.2070     96.5540
   526.1000      8.1187      2.4348     -0.1594     13.0426     39.3148     95.6830
   526.2000      8.1187      2.4334     -0.2029     13.1245     39.5745     93.1979
   526.3000      8.1192      2.4476     -0.1651     12.2676     39.5810     90.6838
   526.4000      8.1192      2.4640     -0.1595     11.2744     39.4961     88.2504
   526.5000      8.1200      2.4650     -0.1973     11.2122     39.5709     86.0256
   526.6000      8.1200      2.4610     -0.1866     11.4532     39.4722     83.6503
   526.7000      8.1200      2.4684     -0.1967     11.0033     38.9724     82.9045
   526.8000      8.1217      2.4850     -0.1540      9.9994     38.3716     84.9646
   526.9000      8.1217      2.4921     -0.1364      9.5696     37.9685     86.2930
   527.0000      8.1226      2.4729     -0.1309     10.7323     37.9130     84.2349
   527.1000      8.1226      2.4355     -0.2030     12.9981     38.3490     80.9159
   527.2000      8.1226      2.4061     -0.1977     14.7834     38.9596     81.8127
   527.3000      8.1217      2.3970     -0.2268     15.3348     39.0913     88.2300
   527.4000      8.1217      2.4063     -0.2225     14.7696     38.8713     93.1553
   527.5000      8.1208      2.4268     -0.1684     13.5253     38.6755     93.1232
   527.6000      8.1208      2.4486     -0.1523     12.2040     38.5224     90.7445
   527.7000      8.1208      2.4638     -0.1429     11.2854     38.6221     87.6927
   527.8000      8.1223      2.4745     -0.1710     10.6334     38.9038     85.3144
   527.9000      8.1223      2.4882     -0.1655      9.8047     39.0298     84.6762
   528.0000      8.1262      2.4999     -0.1655      9.0956     39.0780     84.1507
   528.1000      8.1262      2.4967     -0.1314      9.2883     39.1543     82.7513
   528.2000      8.1262      2.4754     -0.1791     10.5829     39.3573     81.1236
   528.3000      8.1287      2.4456     -0.1649     12.3895     39.7105     81.3470
   528.4000      8.1287      2.4133     -0.2161     14.3462     39.8487     83.2043
   528.5000      8.1281      2.3850     -0.2439     16.0621     39.5754     84.4812
   528.6000      8.1281      2.3791     -0.2402     16.4164     39.2628     85.6428
   528.7000      8.1281      2.4052     -0.2240     14.8378     39.3381     86.7745
   528.8000      8.1265      2.4484     -0.1329     12.2187     39.6962     86.7554
   528.9000      8.1265      2.4894     -0.1830      9.7342     39.8310     84.8086
   529.0000      8.1259      2.5135     -0.1158      8.2725     39.7573     81.7809
   529.1000      8.1259      2.5134     -0.1489      8.2761     39.9971     82.3687
   529.2000      8.1259      2.5046     -0.1304      8.8098     40.4025     85.6593
   529.3000      8.1253      2.5008     -0.1336      9.0417     40.4535     84.7440
   529.4000      8.1253      2.4886     -0.0777      9.7822     40.1550     81.7452
   529.5000      8.1262      2.4571     -0.1674     11.6921     39.8372     80.7105
   529.6000      8.1262      2.4259     -0.2171     13.5792     39.7829     79.8230
   529.7000      8.1262      2.4140     -0.2247     14.3020     39.7969     78.6901
   529.8000      8.1273      2.4167     -0.1956     14.1392     39.6606     78.3773
   529.9000      8.1273      2.4302     -0.1999     13.3195     39.5811     77.8816
   530.0000      8.1260      2.4574     -0.1956     11.6741     39.6281     75.4378
   530.1000      8.1260      2.4780     -0.0900     10.4269     39.6715     73.0202
   530.2000      8.1260      2.4611     -0.1494     11.4511     39.6418     74.4566
   530.3000      8.1225      2.4155     -0.1996     14.2116     39.5970     76.7760
   530.4000      8.1225      2.3803     -0.2387     16.3461     39.6602     74.2595
   530.5000      8.1181      2.3748     -0.2180     16.6768     39.9035     68.6846
   530.6000      8.1181      2.3874     -0.2063     15.9136     40.2146     67.1035
   530.7000      8.1181      2.3965     -0.1548     15.3661     40.3265     70.8613
   530.8000      8.1128      2.3934     -0.2135     15.5488     40.2212     76.3362
   530.9000      8.1128      2.3913     -0.2213     15.6758     40.1379     81.8602
   531.0000      8.1085      2.4007     -0.2544     15.1082     40.1877     87.5781
   531.1000      8.1085      2.4222     -0.1795     13.8069     40.4099     91.9301
   531.2000      8.1085      2.4503     -0.1562     12.1007     40.7708     91.3934
   531.3000      8.1079      2.4717     -0.1237     10.8074     40.9134     86.3948
   531.4000      8.1079      2.4721     -0.1158     10.7817     40.6134     80.3443
   531.5000      8.1086      2.4514     -0.1681     12.0339     40.0557     75.5357
   531.6000      8.1086      2.4273     -0.1710     13.4980     39.3867     74.3893
   531.7000      8.1086      2.4121     -0.2156     14.4168     38.7597     75.8675
   531.8000      8.1085      2.4067     -0.1782     14.7465     38.4492     76.9381
   531.9000      8.1085      2.4113     -0.1824     14.4667     38.5476     77.2001
   532.0000      8.1094      2.4259     -0.1769     13.5821     38.8137     76.7233
   532.1000      8.1094      2.4450     -0.1683     12.4240     38.9818     74.8910
   532.2000      8.1094      2.4556     -0.1420     11.7808     39.0104     73.0775
   532.3000      8.1095      2.4484     -0.1803     12.2196     39.0278     72.0443
   532.4000      8.1095      2.4310     -0.1650     13.2705     39.3026     71.4577
   532.5000      8.1080      2.4212     -0.2139     13.8673     39.6780     72.4234
   532.6000      8.1080      2.4308     -0.2082     13.2822     39.5715     73.5060
   532.7000      8.1080      2.4513     -0.1223     12.0439     38.9556     72.8694
   532.8000      8.1065      2.4694     -0.2050     10.9471     38.3614     72.8424
   532.9000      8.1065      2.4826     -0.1056     10.1438     38.0640     74.1627
   533.0000      8.1054      2.4795     -0.1030     10.3363     37.9307     73.9184
   533.1000      8.1054      2.4571     -0.1604     11.6939     37.6774     73.1814
   533.2000      8.1054      2.4320     -0.1631     13.2112     37.1605     75.8727
   533.3000      8.1055      2.4173     -0.2683     14.1059     36.6202     80.0758
   533.4000      8.1055      2.4172     -0.1913     14.1067     36.3641     81.5813
   533.5000      8.1076      2.4199     -0.1656     13.9449     36.3856     79.8186
   533.6000      8.1076      2.4100     -0.1517     14.5483     36.6871     76.4589
   533.7000      8.1076      2.4016     -0.2398     15.0552     37.2004     75.3892
   533.8000      8.1090      2.4139     -0.1149     14.3116     37.4453     78.3231
   533.9000      8.1090      2.4364     -0.1968     12.9464     37.1564     81.1797
   534.0000      8.1086      2.4538     -0.1376     11.8926     36.6696     79.7955
   534.1000      8.1086      2.4573     -0.0833     11.6767     36.3284     76.7168
   534.2000      8.1086      2.4444     -0.1441     12.4583     36.2813     76.6217
   534.3000      8.1087      2.4194     -0.1448     13.9771     36.5822     77.9159
   534.4000      8.1087      2.3968     -0.2122     15.3450     36.9060     76.1068
   534.5000      8.1092      2.4035     -0.1755     14.9378     37.0234     72.4845
