~Version Information
VERS.                      2.0: CWLS Log ASCII Standard - VERSION 2.0
WRAP.                       NO: One line per depth step
~Well Information Block
STRT.FT                -8.7500: 
STOP.FT              1035.7500: 
STEP.FT                 0.2500: 
NULL.                -999.2500: 
COMP.          Pioneer Natural Resources: COMPANY
WELL.                Mac 22-36: WELL
FLD.           Purgatorie River: FIELD
LOC.           2545' FNL & 1398' FWL--: LOCATION
PROV.                       CO: PROVINCE
CNTY.               Las Animas: COUNTRY
SRVC.          Patterson Wireline: SERVICE COMPANY
DATE.          Thu Dec 08 13:20:05 2005: LOG DATE
UWI.           08 071 08594 00: UNIQUE WELL ID
~Curve Information Block
DEPT.FT            0 000 00 00: Depth
CCL.                          : Casing Collar Locator
TT3.usec                      : CBL 3' Travel Time
AMP3.mV                       : CBL 3' Amplitude
GR.GAPI                       : Gamma Ray
~Parameter Information Block
~A  Depth       CCL         TT3         AMP3         GR     
# ...
   594.2500      0.0000    729.5684     12.8505    127.4773
   594.5000      0.0000    743.6276     12.9295    112.0700
   594.7500      0.0000    753.6688     12.9645    100.5308
   595.0000      0.0000    753.9030     12.9792     95.2549
   595.2500      0.0000    744.2593     13.0058     95.4165
   595.5000      0.0000    730.4338     13.0696     97.8253
   595.7500      0.0000    718.6989     13.1783     99.7990
   596.0000      0.0000    711.6520     13.3198    100.9267
   596.2500      0.0000    708.4666     13.4673    102.3568
   596.5000      0.0000    707.3614     13.5893    105.1695
   596.7500      0.0000    707.2040     13.6598    109.3421
   597.0000      0.0000    707.7593     13.6670    113.6483
   597.2500      0.0000    709.4584     13.6173    116.7222
   597.5000      0.0000    712.9578     13.5298    118.7174
   597.7500      0.0000    718.2628     13.4229    121.6208
   598.0000      0.0000    724.0001     13.3055    127.3898
   598.2500      0.0000    728.1967     13.1795    135.8523
   598.5000      0.0000    730.4880     13.0378    144.8401
   598.7500      0.0000    733.1909     12.8600    152.3085
   599.0000      0.0000    739.5377     12.6207    157.4618
   599.2500      0.0000    750.8685     12.3162    159.5681
   599.5000      0.0000    765.6533     11.9850    157.1211
   599.7500      0.0000    780.9978     11.7019    149.4454
   600.0000      0.0000    794.7577     11.5478    138.4887
   600.2500      0.0000    805.9605     11.5799    127.8551
   600.5000      0.0000    813.4376     11.8133    120.0358
   600.7500      0.0000    815.0650     12.2142    114.9338
   601.0000      0.0000    809.3938     12.7035    110.5733
   601.2500      0.0000    798.1748     13.1798    104.7673
   601.5000      0.0000    786.2743     13.5488     96.7577
   601.7500      0.0000    778.1441     13.7405     88.0607
   602.0000      0.0000    774.8296     13.7149     81.7113
   602.2500      0.0000    774.9990     13.4733     80.2536
   602.5000      0.0000    777.5952     13.0731     84.1079
   602.7500      0.0000    782.2452     12.6272     91.3684
   603.0000      0.0000    788.3663     12.2663     98.8650
   603.2500      0.0000    795.5967     12.0792    103.8652
   603.5000      0.0000    804.9843     12.0772    105.2035
   603.7500      0.0000    819.1295     12.2094    102.8972
   604.0000      0.0000    840.8942     12.4062     97.2401
   604.2500      0.0000    870.5333     12.6116     88.9111
   604.5000      0.0000    902.0239     12.7866     79.6197
   604.7500      0.0000    923.1489     12.8940     71.7084
   605.0000      0.0000    923.1461     12.8924     66.8505
   605.2500      0.0000    901.9587     12.7617     65.4622
   605.5000      0.0000    870.1904     12.5378     67.3202
   605.7500      0.0000    839.7693     12.3095     72.3539
   606.0000      0.0000    816.1987     12.1661     80.6638
   606.2500      0.0000    798.5653     12.1542     91.7561
   606.5000      0.0000    783.8284     12.2858    103.8438
   606.7500      0.0000    770.4730     12.5630    114.2898
   607.0000      0.0000    759.5157     12.9690    121.1715
   607.2500      0.0000    752.8802     13.4451    124.4073
   607.5000      0.0000    750.9768     13.9010    125.1257
   607.7500      0.0000    751.7905     14.2593    124.2349
   608.0000      0.0000    751.8289     14.4949    122.0801
   608.2500      0.0000    747.9931     14.6402    119.3650
   608.5000      0.0000    739.5421     14.7584    117.6799
   608.7500      0.0000    728.6371     14.9016    118.6943
   609.0000      0.0000    718.1730     15.0814    123.0171
   609.2500      0.0000    708.1776     15.2765    129.7088
   609.5000      0.0000    694.2411     15.4633    136.5059
   609.7500      0.0000    670.5991     15.6293    140.8657
   610.0000      0.0000    636.5585     15.7625    141.2616
   610.2500      0.0000    600.6591     15.8452    137.4350
   610.5000      0.0000    577.3741     15.8690    129.9457
   610.7500      0.0000    577.9999     15.8531    120.3450
   611.0000      0.0000    602.9591     15.8442    111.3656
   611.2500      0.0000    641.3046     15.9003    105.8177
   611.5000      0.0000    677.7095     16.0636    104.7828
   611.7500      0.0000    701.5423     16.3352    107.0050
   612.0000      0.0000    710.7482     16.6643    110.1495
   612.2500      0.0000    708.2396     16.9655    112.6833
   612.5000      0.0000    696.7880     17.1616    114.3974
   612.7500      0.0000    679.4494     17.2205    115.3703
   613.0000      0.0000    663.7203     17.1588    115.3839
   613.2500      0.0000    660.2095     17.0177    114.7634
   613.5000      0.0000    673.7380     16.8347    114.8909
   613.7500      0.0000    697.9150     16.6298    116.9346
   614.0000      0.0000    721.1505     16.4039    120.3205
   614.2500      0.0000    736.3579     16.1475    123.2136
   614.5000      0.0000    743.5713     15.8545    124.4458
   614.7500      0.0000    746.0769     15.5332    124.2511
   615.0000      0.0000    746.6249     15.2085    123.1068
   615.2500      0.0000    746.4182     14.9097    120.7385
   615.5000      0.0000    745.5890     14.6550    116.6664
   615.7500      0.0000    743.8391     14.4523    111.2158
   616.0000      0.0000    741.0244     14.3091    105.6604
   616.2500      0.0000    737.4410     14.2288    101.6309
   616.5000      0.0000    733.3754     14.1920    100.4038
   616.7500      0.0000    728.1656     14.1561    102.3001
   617.0000      0.0000    720.1140     14.0817    106.3049
   617.2500      0.0000    708.1103     13.9593    110.0655
   617.5000      0.0000    693.9505     13.8104    110.4982
   617.7500      0.0000    682.7613     13.6698    105.2406
   618.0000      0.0000    679.3528     13.5649     94.4091
   618.2500      0.0000    682.2645     13.5094     81.0974
   618.5000      0.0000    682.1025     13.5098     69.8442
   618.7500      0.0000    667.9885     13.5704     64.2811
   619.0000      0.0000    636.7321     13.6806     65.4908
   619.2500      0.0000    595.8596     13.7999     71.5824
   619.5000      0.0000    558.0800     13.8674     78.5199
   619.7500      0.0000    533.1632     13.8353     82.1905
   620.0000      0.0000    524.8658     13.6916     80.7786
   620.2500      0.0000    533.6580     13.4485     75.5799
   620.5000      0.0000    559.1804     13.1134     69.5526
   620.7500      0.0000    598.7394     12.6710     65.1270
   621.0000      0.0000    645.4949     12.0948     63.1352
   621.2500      0.0000    691.2189     11.3861     63.0821
   621.5000      0.0000    731.3003     10.6084     63.9070
   621.7500      0.0000    766.3557      9.8808     64.6854
   622.0000      0.0000    799.4588      9.3363     65.0518
   622.2500      0.0000    831.8337      9.0775     65.0204
   622.5000      0.0000    860.6258      9.1241     64.3554
   622.7500      0.0000    881.4854      9.3797     62.3652
   623.0000      2.0000    893.3059      9.6971     58.6135
   623.2500      0.0000    897.0732     10.0094     53.8258
   623.5000      0.0000    888.6850     10.3745     49.7646
   623.7500      0.0000    857.2261     10.8935     47.8502
   624.0000      0.0000    795.7498     11.6015     47.9310
   624.2500      0.0000    715.4957     12.4143     48.7329
   624.5000      0.0000    646.2286     13.1526     49.5179
   624.7500      0.0000    616.5081     13.6530     50.8462
   625.0000      0.0000    631.2884     13.9015     53.7387
   625.2500      0.0000    670.6932     14.0269     58.7723
   625.5000      0.0000    709.4905     14.1349     66.2039
   625.7500      0.0000    734.7917     14.2013     76.1864
   626.0000      0.0000    747.5100     14.1543     88.1676
   626.2500      0.0000    753.3345     13.9962    100.2435
   626.5000      0.0000    755.3054     13.7960    109.6737
   626.7500      0.0000    752.8157     13.6074    114.4110
   627.0000      0.0000    744.1711     13.4435    114.3756
   627.2500      0.0000    727.4739     13.3204    111.4569
   627.5000      0.0000    698.9118     13.2893    108.3581
