~Version Information
VERS.                      2.0: CWLS Log ASCII Standard - VERSION 2.0
WRAP.                       NO: One line per depth step
~Well Information Block
STRT.FT                 0.0000: 
STOP.FT              2072.7500: 
STEP.FT                 0.2500: 
NULL.                -999.2500: 
COMP.          Pioneer Natural Resources: COMPANY
WELL.          Greenwood 43-29 Tr: WELL
FLD.           Purgatorie River: FIELD
LOC.           1478' FSL & 744' FEL: LOCATION
STAT.                 Colorado: State
CNTY.               Las Animas: COUNTY
CTRY. USA : Country
SECT. 29 : Section
TOWN. 32S : Township
RANG. 67W : Range
SRVC.                Patterson: SERVICE COMPANY
DATE.          Tue Sep 06 12:54:40 2005: LOG DATE
API. 05-071-08478                          : UNIQUE WELL ID
~Curve Information Block
DEPT.FT            0 000 00 00: Depth
GR.GAPI                       : Gamma Ray
CCL.                          : Casing Collar Locator
TT3.usec                      : CBL 3' Travel Time
AMP3.mV                       : CBL 3' Amplitude
~Parameter Information Block
~A  Depth        GR         CCL         TT3         AMP3    
# ...
  1105.5000    106.2359      0.0000    788.5016      9.4164
  1105.7500    106.5941      0.0000    786.6993      9.4004
  1106.0000    107.4503      0.0000    786.9089      9.3890
  1106.2500    108.8777      0.0000    788.9247      9.3980
  1106.5000    111.1074      0.0000    792.7001      9.3984
  1106.7500    114.2915      0.0000    793.4654      9.3579
  1107.0000    117.9171      0.0000    779.7182      9.3077
  1107.2500    120.7724      0.0000    749.3159      9.3079
  1107.5000    121.7401      0.0000    726.1236      9.3560
  1107.7500    120.6153      0.0000    733.9625      9.3964
  1108.0000    118.1061      0.0000    763.5635      9.4048
  1108.2500    115.1475      0.0000    791.2076      9.3979
  1108.5000    112.2516      0.0000    803.9210      9.3991
  1108.7500    109.5182      0.0000    793.4617      9.4339
  1109.0000    107.2906      0.0000    749.7681      9.5118
  1109.2500    106.5462      0.0000    671.3074      9.6027
  1109.5000    108.2320      0.0000    580.6718      9.6712
  1109.7500    112.2744      0.0000    516.0101      9.7197
  1110.0000    117.5792      0.0000    500.9806      9.7740
  1110.2500    122.7989      0.0000    538.5796      9.8428
  1110.5000    126.6807      0.0000    620.9996      9.8987
  1110.7500    128.1537      0.0000    721.9902      9.9141
  1111.0000    126.9540      0.0000    801.4408      9.8958
  1111.2500    124.2218      0.0000    838.6494      9.8668
  1111.5000    121.9984      0.0000    844.7598      9.8475
  1111.7500    121.8507      0.0000    840.4933      9.8499
  1112.0000    123.8071      0.0000    837.0712      9.8552
  1112.2500    126.4356      0.0000    836.0279      9.8238
  1112.5000    128.1015      0.0000    835.7540      9.7432
  1112.7500    128.3374      0.0000    835.0615      9.6368
  1113.0000    128.0267      0.0000    833.1898      9.5365
  1113.2500    128.3889      0.0000    829.0880      9.4630
  1113.5000    129.8444      0.0000    822.7867      9.4103
  1113.7500    131.6401      0.0000    817.1068      9.3455
  1114.0000    132.4206      0.0000    815.8395      9.2426
  1114.2500    131.3183      0.0000    821.0634      9.1205
  1114.5000    128.7066      0.0000    831.2780      9.0259
  1114.7500    125.8682      0.0000    840.9412      8.9634
  1115.0000    123.7487      0.0000    846.8419      8.8871
  1115.2500    122.1655      0.0000    852.2642      8.7749
  1115.5000    120.3242      0.0000    859.7523      8.6590
  1115.7500    117.9409      0.0000    866.6929      8.5808
  1116.0000    115.6624      0.0000    870.4899      8.5538
  1116.2500    114.3689      0.0000    871.6523      8.5626
  1116.5000    114.1263      0.0000    871.5326      8.5779
  1116.7500    114.0353      0.0000    870.2382      8.5824
  1117.0000    113.3050      0.0000    866.3871      8.5897
  1117.2500    112.2043      0.0000    858.8029      8.6229
  1117.5000    111.6490      0.0000    849.2177      8.6804
  1117.7500    112.1822      0.0000    841.6105      8.7323
  1118.0000    113.8658      0.0000    838.4639      8.7470
  1118.2500    116.9120      0.0000    839.6774      8.7275
  1118.5000    121.6821      0.0000    843.3600      8.7123
  1118.7500    127.7262      0.0000    846.5197      8.7292
  1119.0000    133.1820      0.0000    848.4328      8.7693
  1119.2500    135.7976      0.0000    851.4211      8.8128
  1119.5000    134.8617      0.0000    854.7315      8.8530
  1119.7500    131.9946      0.0000    853.7210      8.8869
  1120.0000    129.8235      0.0000    847.5827      8.9052
  1120.2500    129.7477      0.0000    841.0541      8.9044
  1120.5000    130.8590      0.0000    838.4288      8.8910
  1120.7500    130.9916      0.0000    840.9376      8.8700
  1121.0000    128.7581      0.0000    847.4151      8.8469
  1121.2500    124.5709      0.0000    853.6055      8.8363
  1121.5000    120.0411      0.0000    854.9186      8.8463
  1121.7500    116.8119      0.0000    852.9741      8.8604
  1122.0000    115.8254      0.0000    854.1286      8.8491
  1122.2500    117.0861      0.0000    860.2064      8.8099
  1122.5000    119.7988      0.0000    866.8472      8.7853
  1122.7500    122.8309      0.0000    870.3516      8.8127
  1123.0000    125.2155      0.0000    870.3915      8.8734
  1123.2500    126.3829      0.0000    867.6279      8.9227
  1123.5000    126.0442      0.0000    863.5073      8.9372
  1123.7500    124.0350      0.0000    861.3358      8.9148
  1124.0000    120.5158      0.0000    863.1918      8.8726
  1124.2500    116.2551      0.0000    866.9799      8.8489
  1124.5000    112.4327      0.0000    869.7545      8.8674
  1124.7500    110.1491      0.0000    871.0543      8.9120
  1125.0000    110.2376      0.0000    871.6527      8.9595
  1125.2500    113.1921      0.0000    871.9333      9.0144
  1125.5000    118.7683      0.0000    871.9238      9.0923
  1125.7500    125.6099      0.0000    871.6124      9.1820
  1126.0000    131.6398      0.0000    870.9084      9.2508
  1126.2500    135.2472      0.0000    869.3815      9.2823
  1126.5000    136.3728      0.0000    866.3049      9.2845
  1126.7500    136.4224      0.0000    862.0206      9.2727
  1127.0000    136.9431      0.0000    858.6113      9.2597
  1127.2500    138.4396      0.0000    856.3903      9.2491
  1127.5000    140.4953      0.0000    852.2166      9.2408
  1127.7500    142.5291      0.0000    845.0462      9.2536
  1128.0000    143.8791      0.0000    838.0573      9.3164
  1128.2500    143.4943      0.0000    832.1069      9.4324
  1128.5000    140.3168      0.0000    820.3627      9.5737
  1128.7500    134.3318      0.0000    792.5423      9.7008
  1129.0000    127.1971      0.0000    753.7758      9.7731
  1129.2500    121.5296      0.0000    735.7291      9.7199
  1129.5000    119.1200      0.0000    763.0244      9.4010
  1129.7500    119.5767      0.0000    820.2343      8.7315
  1130.0000    120.7564      0.0000    872.9283      7.9484
  1130.2500    120.5532      0.0000    892.2146      7.4399
  1130.5000    118.3026      0.0000    872.5374      7.1624
  1130.7500    114.7551      0.0000    850.1353      6.8047
  1131.0000    111.0353      0.0000    857.7611      6.4182
  1131.2500    107.6979      0.0000    876.2225      6.2176
  1131.5000    104.6414      0.0000    879.4324      6.1884
  1131.7500    101.7366      0.0000    873.4168      6.2165
  1132.0000     99.4098      1.0000    867.5995      6.2458
  1132.2500     98.4604      0.0000    858.0046      6.3050
  1132.5000     99.0920      0.0000    834.4409      6.5680
  1132.7500    100.2410      0.0000    779.7574      7.3402
  1133.0000    100.4741      0.0000    691.5312      8.6279
  1133.2500     99.8787      0.0000    609.8594      9.7557
  1133.5000    100.4745      0.0000    576.6815     10.1209
  1133.7500    104.1378      0.0000    578.2365     10.0059
  1134.0000    110.4395      0.0000    583.8622      9.9153
  1134.2500    116.9798      0.0000    599.9519      9.9040
  1134.5000    121.5222      0.0000    637.5314      9.8618
  1134.7500    123.4652      0.0000    688.9437      9.7777
  1135.0000    123.7483      0.0000    744.8900      9.6862
  1135.2500    123.9663      0.0000    790.2665      9.6084
  1135.5000    125.2555      0.0000    804.7640      9.5582
  1135.7500    127.3762      0.0000    773.8802      9.5569
  1136.0000    128.8815      0.0000    695.5267      9.6108
  1136.2500    128.4635      0.0000    594.5975      9.6904
  1136.5000    126.0262      0.0000    512.7805      9.7559
  1136.7500    122.2972      0.0000    467.9687      9.7864
  1137.0000    117.8438      0.0000    445.6996      9.7826
  1137.2500    113.1534      0.0000    430.8603      9.7621
  1137.5000    109.3843      0.0000    432.8813      9.7440
  1137.7500    107.8249      0.0000    477.8155      9.7357
  1138.0000    108.2567      0.0000    570.7696      9.7373
  1138.2500    108.8217      0.0000    669.7765      9.7501
  1138.5000    107.9358      0.0000    716.1195      9.7809
  1138.7500    105.6712      0.0000    696.1373      9.8326
