~Version Information
VERS.                      2.0: CWLS Log ASCII Standard - VERSION 2.0
WRAP.                       NO: One line per depth step
~Well Information Block
STRT.FT               197.7500: 
STOP.FT              1631.0000: 
STEP.FT                 0.2500: 
NULL.                -999.2500: 
COMP.          Petrogulf Corporation: COMPANY
WELL.             State 16-44R: WELL
FLD.           Purgatoire River: FIELD
LOC.           632' FSL & 223' FEL--: LOCATION
PROV.                 Colorado: PROVINCE
CNTY.               Las Animas: COUNTRY
SRVC.                Patterson: SERVICE COMPANY
DATE.          Fri Oct 21 11:31:17 2005: LOG DATE
UWI.           05 071 08457 00: UNIQUE WELL ID
~Curve Information Block
DEPT.FT            0 000 00 00: Depth
SP.mV                         : DIL Spontaneous Potential
RILD.Ohm-m                    : DIL Deep Resistivity
RILM.Ohm-m                    : DIL Medium Resistivity
RLL3.Ohm-m                    : DIL Shallow Resistivity
GR.GAPI                       : Gamma Ray
~Parameter Information Block
~A  Depth        SP         RILD        RILM        RLL3         GR     
# ...
   309.7500   2000.0000     33.7533     33.2216   2000.0000     57.2423
   310.0000   2000.0000     33.7402     33.2815   2000.0000     55.4304
   310.2500   2000.0000     33.7284     33.2670   2000.0000     54.6179
   310.5000   2000.0000     33.7309     33.1721   2000.0000     54.2319
   310.7500   2000.0000     33.7470     33.0263   2000.0000     54.3238
   311.0000   2000.0000     33.7611     32.8730   2000.0000     54.5413
   311.2500   2000.0000     33.7539     32.7441   2000.0000     54.6018
   311.5000   2000.0000     33.7155     32.6486   2000.0000     54.4983
   311.7500   2000.0000     33.6527     32.5795   2000.0000     54.2509
   312.0000   2000.0000     33.5841     32.5257   2000.0000     53.4739
   312.2500   2000.0000     33.5324     32.4812   2000.0000     52.6636
   312.5000   2000.0000     33.5164     32.4478   2000.0000     51.1619
   312.7500   2000.0000     33.5431     32.4333   2000.0000     50.0714
   313.0000   2000.0000     33.5999     32.4453   2000.0000     48.3899
   313.2500   2000.0000     33.6565     32.4907   2000.0000     47.3501
   313.5000   2000.0000     33.6802     32.5790   2000.0000     46.3313
   313.7500   2000.0000     33.6567     32.7276   2000.0000     46.2311
   314.0000   2000.0000     33.5956     32.9572   2000.0000     46.9283
   314.2500   2000.0000     33.5220     33.2791   2000.0000     47.7325
   314.5000   2000.0000     33.4658     33.6794   2000.0000     48.9805
   314.7500   2000.0000     33.4555     34.1137   2000.0000     49.6022
   315.0000   2000.0000     33.5144     34.5159   2000.0000     49.8936
   315.2500   2000.0000     33.6516     34.8227   2000.0000     49.5898
   315.5000   2000.0000     33.8555     34.9986   2000.0000     48.6094
   315.7500   2000.0000     34.0957     35.0459   2000.0000     47.8649
   316.0000   2000.0000     34.3333     34.9970   2000.0000     46.9715
   316.2500   2000.0000     34.5318     34.8945   2000.0000     46.6329
   316.5000   2000.0000     34.6641     34.7739   2000.0000     46.7006
   316.7500   2000.0000     34.7141     34.6517   2000.0000     47.2618
   317.0000   2000.0000     34.6802     34.5245   2000.0000     48.8061
   317.2500   2000.0000     34.5798     34.3796   2000.0000     49.9684
   317.5000   2000.0000     34.4494     34.2124   2000.0000     51.2188
   317.7500   2000.0000     34.3322     34.0358   2000.0000     51.5970
   318.0000   2000.0000     34.2568     33.8754   2000.0000     51.8324
   318.2500   2000.0000     34.2214     33.7568   2000.0000     52.0258
   318.5000   2000.0000     34.1928     33.6977   2000.0000     52.4645
   318.7500   2000.0000     34.1228     33.7067   2000.0000     52.7119
   319.0000   2000.0000     33.9713     33.7815   2000.0000     52.6953
   319.2500   2000.0000     33.7238     33.9045   2000.0000     52.3565
   319.5000   2000.0000     33.3933     34.0403   2000.0000     51.6356
   319.7500   2000.0000     33.0088     34.1413   2000.0000     51.3610
   320.0000   2000.0000     32.6027     34.1634   2000.0000     51.6950
   320.2500   2000.0000     32.2034     34.0803   2000.0000     52.3238
   320.5000   2000.0000     31.8337     33.8916   2000.0000     53.1957
   320.7500   2000.0000     31.5072     33.6205   2000.0000     53.3019
   321.0000   2000.0000     31.2237     33.3057   2000.0000     52.4102
   321.2500   2000.0000     30.9669     32.9915   2000.0000     51.2664
   321.5000   2000.0000     30.7067     32.7142   2000.0000     49.5543
   321.7500   2000.0000     30.4058     32.4904   2000.0000     48.9631
   322.0000   2000.0000     30.0295     32.3072   2000.0000     49.1965
   322.2500   2000.0000     29.5539     32.1213   2000.0000     49.8175
   322.5000   2000.0000     28.9700     31.8664   2000.0000     51.0067
   322.7500   2000.0000     28.2802     31.4686   2000.0000     52.1833
   323.0000   2000.0000     27.4929     30.8663   2000.0000     55.3459
   323.2500   2000.0000     26.6207     30.0265   2000.0000     58.4939
   323.5000   2000.0000     25.6830     28.9498   2000.0000     63.9125
   323.7500   2000.0000     24.7083     27.6698   2000.0000     67.3995
   324.0000   2000.0000     23.7326     26.2481   2000.0000     72.5097
   324.2500   2000.0000     22.7919     24.7670   2000.0000     76.5153
   324.5000   2000.0000     21.9152     23.3146   2000.0000     84.3595
   324.7500   2000.0000     21.1174     21.9672   2000.0000     90.4682
   325.0000   2000.0000     20.3960     20.7766   2000.0000     98.8805
   325.2500   2000.0000     19.7345     19.7645   2000.0000    102.7815
   325.5000   2000.0000     19.1125     18.9267   2000.0000    105.5205
   325.7500   2000.0000     18.5177     18.2407   2000.0000    105.8572
   326.0000   2000.0000     17.9514     17.6768   2000.0000    105.6502
   326.2500   2000.0000     17.4251     17.2064   2000.0000    105.6847
   326.5000   2000.0000     16.9511     16.8060   2000.0000    106.3107
   326.7500   2000.0000     16.5362     16.4571   2000.0000    106.8812
   327.0000   2000.0000     16.1796     16.1451   2000.0000    107.2033
   327.2500   2000.0000     15.8753     15.8599   2000.0000    106.7016
   327.5000   2000.0000     15.6161     15.5966   2000.0000    105.0175
   327.7500   2000.0000     15.3956     15.3551   2000.0000    103.8296
   328.0000   2000.0000     15.2081     15.1374   2000.0000    102.8971
   328.2500   2000.0000     15.0459     14.9438   2000.0000    102.9672
   328.5000   2000.0000     14.8988     14.7716   2000.0000    103.7495
   328.7500   2000.0000     14.7554     14.6142   2000.0000    104.5025
   329.0000   2000.0000     14.6054     14.4622   2000.0000    105.6625
   329.2500   2000.0000     14.4424     14.3053   2000.0000    106.1838
   329.5000   2000.0000     14.2650     14.1349   2000.0000    106.1682
   329.7500   2000.0000     14.0765     13.9465   2000.0000    105.6480
   330.0000   2000.0000     13.8823     13.7391   2000.0000    104.6728
   330.2500   2000.0000     13.6866     13.5122   2000.0000    104.4239
   330.5000   2000.0000     13.4901     13.2620   2000.0000    105.6342
   330.7500   2000.0000     13.2906     12.9833   2000.0000    107.8109
   331.0000   2000.0000     13.0854     12.6758   2000.0000    112.6346
   331.2500   2000.0000     12.8741     12.3508   2000.0000    116.0827
   331.5000   2000.0000     12.6598     12.0296   2000.0000    120.1788
   331.7500   2000.0000     12.4475     11.7350   2000.0000    121.7390
   332.0000   2000.0000     12.2415     11.4827   2000.0000    122.4681
   332.2500   2000.0000     12.0435     11.2774   2000.0000    122.3963
   332.5000   2000.0000     11.8533     11.1157   2000.0000    122.4474
   332.7500   2000.0000     11.6686     10.9909   2000.0000    122.8544
   333.0000   2000.0000     11.4852     10.8972   2000.0000    123.8505
   333.2500   2000.0000     11.2974     10.8306   2000.0000    124.5540
   333.5000   2000.0000     11.0992     10.7872   2000.0000    125.4173
   333.7500   2000.0000     10.8874     10.7595   2000.0000    125.7813
   334.0000   2000.0000     10.6644     10.7340   2000.0000    125.9490
   334.2500   2000.0000     10.4363     10.6920   2000.0000    125.8740
   334.5000   2000.0000     10.2099     10.6137   2000.0000    125.7473
   334.7500   2000.0000      9.9887     10.4833   2000.0000    125.8477
   335.0000   2000.0000      9.7738     10.2943   2000.0000    126.6237
   335.2500   2000.0000      9.5661     10.0503   2000.0000    127.7032
   335.5000   2000.0000      9.3683      9.7636   2000.0000    129.9633
   335.7500   2000.0000      9.1849      9.4527   2000.0000    131.4773
   336.0000   2000.0000      9.0195      9.1390   2000.0000    133.1129
   336.2500   2000.0000      8.8732      8.8430   2000.0000    133.7828
   336.5000   2000.0000      8.7446      8.5800   2000.0000    134.5774
   336.7500   2000.0000      8.6314      8.3583   2000.0000    135.0686
   337.0000   2000.0000      8.5319      8.1788   2000.0000    135.5801
   337.2500   2000.0000      8.4469      8.0379   2000.0000    135.7527
   337.5000   2000.0000      8.3809      7.9315   2000.0000    135.9718
