~Version Information
VERS.                      2.0: CWLS Log ASCII Standard - VERSION 2.0
WRAP.                       NO: One line per depth step
~Well Information Block
STRT.FT                 0.0000: 
STOP.FT              1193.0000: 
STEP.FT                 0.1000: 
NULL.                -999.2500: 
COMP.          Pioneer Natural Resources: COMPANY
WELL.          Big Pine 32-15 Tr: WELL
FLD.           Purgatorie River: FIELD
LOC.           2546' FNL & 1451' FEL: LOCATION
STAT.                 Colorado: State
CNTY.               Las Animas: COUNTY
CTRY. USA : Country
SECT. 15 : Section
TOWN. 33S : Township
RANG. 67W : Range
SRVC.                Patterson: SERVICE COMPANY
DATE.          Tue Nov 08 07:11:35 2005: LOG DATE
API. 05-071-08604                         : UNIQUE WELL ID
~Curve Information Block
DEPT.FT            0 000 00 00: Depth
DCAL.in                       : CDL Caliper
RHOB.g/cc                     : CDL Bulk Density
RHOC.g/cc                     : CDL Density Correction
DPOR.pu                       : CDL Density Porosity
GR.GAPI                       : Gamma Ray
NPOR.pu                       : Neutron Porosity
~Parameter Information Block
~A  Depth       DCAL        RHOB        RHOC        DPOR         GR         NPOR    
# ...
     9.6000   -999.2500   -999.2500   -999.2500   -999.2500     81.4718     32.0342
     9.7000   -999.2500   -999.2500   -999.2500   -999.2500     81.7470     32.1091
     9.8000   -999.2500   -999.2500   -999.2500   -999.2500     79.9571     32.3364
     9.9000   -999.2500   -999.2500   -999.2500   -999.2500     78.0457     32.6066
    10.0000   -999.2500   -999.2500   -999.2500   -999.2500     75.2554     32.6979
    10.1000   -999.2500   -999.2500   -999.2500   -999.2500     72.4507     32.4672
    10.2000   -999.2500   -999.2500   -999.2500   -999.2500     71.1068     31.9471
    10.3000   -999.2500   -999.2500   -999.2500   -999.2500     73.1050     31.3343
    10.4000   -999.2500   -999.2500   -999.2500   -999.2500     78.6135     31.1410
    10.5000   -999.2500   -999.2500   -999.2500   -999.2500     83.2358     31.4993
    10.6000   -999.2500   -999.2500   -999.2500   -999.2500     83.9004     31.8688
    10.7000   -999.2500   -999.2500   -999.2500   -999.2500     84.0590     31.9345
    10.8000   -999.2500   -999.2500   -999.2500   -999.2500     86.7977     31.8975
    10.9000   -999.2500   -999.2500   -999.2500   -999.2500     87.8425     31.7885
    11.0000   -999.2500   -999.2500   -999.2500   -999.2500     86.2035     31.3483
    11.1000   -999.2500   -999.2500   -999.2500   -999.2500     86.4272     30.9028
    11.2000   -999.2500   -999.2500   -999.2500   -999.2500     88.4310     30.8600
    11.3000   -999.2500   -999.2500   -999.2500   -999.2500     89.1427     31.0151
    11.4000   -999.2500   -999.2500   -999.2500   -999.2500     88.8615     31.2674
    11.5000   -999.2500   -999.2500   -999.2500   -999.2500     88.3365     31.5333
    11.6000   -999.2500   -999.2500   -999.2500   -999.2500     86.6119     31.5539
    11.7000   -999.2500   -999.2500   -999.2500   -999.2500     84.4058     31.2696
    11.8000   -999.2500   -999.2500   -999.2500   -999.2500     83.6169     31.0309
    11.9000   -999.2500   -999.2500   -999.2500   -999.2500     85.5251     31.1780
    12.0000   -999.2500   -999.2500   -999.2500   -999.2500     89.0975     31.5571
    12.1000   -999.2500   -999.2500   -999.2500   -999.2500     91.0924     31.7736
    12.2000   -999.2500   -999.2500   -999.2500   -999.2500     90.4458     31.7433
    12.3000   -999.2500   -999.2500   -999.2500   -999.2500     89.5314     31.5425
    12.4000   -999.2500   -999.2500   -999.2500   -999.2500     90.2771     31.2407
    12.5000   -999.2500   -999.2500   -999.2500   -999.2500     90.8963     30.9564
    12.6000   -999.2500   -999.2500   -999.2500   -999.2500     90.6893     30.9737
    12.7000   -999.2500   -999.2500   -999.2500   -999.2500     92.5290     31.3912
    12.8000   -999.2500   -999.2500   -999.2500   -999.2500     98.7884     31.8281
    12.9000   -999.2500   -999.2500   -999.2500   -999.2500    105.3527     31.9839
    13.0000   -999.2500   -999.2500   -999.2500   -999.2500    103.8909     31.9504
    13.1000   -999.2500   -999.2500   -999.2500   -999.2500     95.6456     31.9439
    13.2000   -999.2500   -999.2500   -999.2500   -999.2500     92.2330     32.0239
    13.3000   -999.2500   -999.2500   -999.2500   -999.2500     97.9943     31.9583
    13.4000   -999.2500   -999.2500   -999.2500   -999.2500    102.5245     31.6742
    13.5000   -999.2500   -999.2500   -999.2500   -999.2500     99.3663     31.4319
    13.6000   -999.2500   -999.2500   -999.2500   -999.2500     94.3148     31.2120
    13.7000   -999.2500   -999.2500   -999.2500   -999.2500     90.9467     30.8590
    13.8000   -999.2500   -999.2500   -999.2500   -999.2500     89.5044     30.5121
    13.9000   -999.2500   -999.2500   -999.2500   -999.2500     90.7885     30.4768
    14.0000   -999.2500   -999.2500   -999.2500   -999.2500     92.7117     31.1471
    14.1000   -999.2500   -999.2500   -999.2500   -999.2500     93.0837     32.3564
    14.2000   -999.2500   -999.2500   -999.2500   -999.2500     91.8220     33.0653
    14.3000   -999.2500   -999.2500      2.0000   -999.2500     88.5891     32.8030
    14.4000   -999.2500   -999.2500      2.0000   -999.2500     84.1482     32.2971
    14.5000     -2.8029   -999.2500      2.0000   -999.2500     82.5368     32.2699
    14.6000     -2.8029   -999.2500      2.0000   -999.2500     86.9321     32.7412
    14.7000     -2.8029   -999.2500      2.0000   -999.2500     92.9639     33.2671
    14.8000     -2.8029      2.3775      2.0000     -0.0055     95.8951     33.4319
    14.9000     -2.8029      2.3332      2.0000     -0.0063     96.8092     33.2169
    15.0000     -2.8029      2.2908      2.0000     -0.0072     96.1378     32.8620
    15.1000     -2.8029      2.2616      2.0000     -0.0078     92.6694     32.5568
    15.2000     -2.8029      2.2494      2.0000     -0.0080     87.1361     32.5153
    15.3000     -2.8029      2.2597      2.0000     -0.0078     84.4227     32.8749
    15.4000     -2.8029      2.2873      2.0000     -0.0073     88.6754     33.2180
    15.5000     -2.8029      2.3158      2.0000     -0.0067     96.8255     33.1678
    15.6000     -2.8029      2.3314      2.0000     -0.0064    102.5703     32.8741
    15.7000     -2.8029      2.3331      2.0000     -0.0063    103.5612     32.5317
    15.8000     -2.8029      2.3346      2.0000     -0.0063    102.2903     32.2775
    15.9000     -2.8029      2.3394      2.0000     -0.0062    101.1036     32.0772
    16.0000     -2.8029      2.3435      2.0000     -0.0061     99.4348     31.7875
    16.1000     -2.8029      2.3557      2.0000     -0.0059     96.9156     31.6434
    16.2000     -2.8029      2.3778      2.0000     -0.0054     93.1204     31.7674
    16.3000     -2.8029      2.3899      2.0000     -0.0052     89.7856     31.7037
    16.4000     -2.8029      2.3831      2.0000     -0.0053     89.7620     31.5507
    16.5000     -2.8029      2.3791      2.0000     -0.0054     89.8702     31.7504
    16.6000     -2.8029      2.3956      2.0000     -0.0051     87.0126     32.1570
    16.7000     -2.8029      2.4163      2.0000     -0.0047     85.2437     32.3193
    16.8000     -2.8029      2.4219      2.0000     -0.0046     86.9929     32.0798
    16.9000     -2.8029      2.4108      2.0000     -0.0048     89.8478     31.6854
    17.0000     -2.8029      2.3872      2.0000     -0.0053     93.3446     31.3309
    17.1000     -2.8029      2.3576      2.0000     -0.0059     97.8668     31.2151
    17.2000     -2.8029      2.3280      2.0000     -0.0064    101.4204     31.5499
    17.3000     -2.8029      2.2991      2.0000     -0.0070    103.5154     32.1864
    17.4000     -2.8029      2.2678      2.0000     -0.0076    105.0990     32.4881
    17.5000     -2.8029      2.2378      2.0000     -0.0082    104.1700     31.8834
    17.6000     -2.8029      2.2205      2.0000     -0.0086     98.7740     31.0869
    17.7000     -2.8029      2.2170      2.0000     -0.0087     91.6476     31.0657
    17.8000     -2.8029      2.2226      2.0000     -0.0086     88.6384     31.4007
    17.9000     -2.8029      2.2383      2.0000     -0.0082     89.3721     31.5490
    18.0000     -2.8029      2.2591      2.0000     -0.0078     88.4827     31.5601
    18.1000     -2.8029      2.2684      2.0000     -0.0076     87.8790     31.4922
    18.2000     -2.8029      2.2632      2.0000     -0.0077     91.8370     31.3107
    18.3000     -2.8029      2.2612      2.0000     -0.0078     97.8691     31.0327
    18.4000     -2.8029      2.2705      2.0000     -0.0076    102.4170     30.8506
    18.5000     -2.8029      2.2840      2.0000     -0.0073    103.5743     30.6720
    18.6000     -2.8029      2.3042      2.0000     -0.0069    101.2295     30.2511
    18.7000     -2.8029      2.3407      2.0000     -0.0062     99.0826     29.8578
    18.8000     -2.8029      2.3842      2.0000     -0.0053    100.7052     29.8972
    18.9000     -2.8029      2.4119      2.0000     -0.0048    104.5818     30.2111
    19.0000     -2.8029      2.4136      2.0000     -0.0047    107.5604     30.5048
    19.1000     -2.8029      2.4010      2.0000     -0.0050    108.8292     30.7201
