~Version Information
VERS.                      2.0: CWLS Log ASCII Standard - VERSION 2.0
WRAP.                       NO: One line per depth step
~Well Information Block
STRT.FT               262.2500: 
STOP.FT              1942.0000: 
STEP.FT                 0.2500: 
NULL.                -999.2500: 
COMP.          XTO Energy Inc.: COMPANY
WELL.          Golden Eagle 19-11: WELL
FLD.           Purgatoire River: FIELD
LOC.           2351' FSL & 1926' FWL--: LOCATION
CNTY.               Las Animas: COUNTY
SRVC.                Patterson: SERVICE COMPANY
DATE.          Wed Mar 08 23:33:01 2006: LOG DATE
UWI.           05 071 08696 00: UNIQUE WELL ID
STAT.                 Colorado: STATE
~Curve Information Block
DEPT.FT            0 000 00 00: Depth
SP.mV                         : DIL Spontaneous Potential
RILD.Ohm-m                    : DIL Deep Resistivity
RILM.Ohm-m                    : DIL Medium Resistivity
RLL3.Ohm-m                    : DIL Shallow Resistivity
GR.GAPI                       : Gamma Ray
~Parameter Information Block
~A  Depth        SP         RILD        RILM        RLL3         GR     
# ...
   514.2500   -999.2500     13.8305     13.9200   2000.0000    113.7359
   514.5000   -999.2500     14.0524     14.2145   2000.0000    112.1690
   514.7500   -999.2500     14.2981     14.5723   2000.0000    110.0201
   515.0000   -999.2500     14.5672     14.9676   2000.0000    104.9752
   515.2500   -999.2500     14.8588     15.3733   2000.0000    100.8819
   515.5000   -999.2500     15.1753     15.7675   2000.0000     95.3001
   515.7500   -999.2500     15.5255     16.1397   2000.0000     92.9969
   516.0000   -999.2500     15.9216     16.4978   2000.0000     92.5230
   516.2500   -999.2500     16.3755     16.8691   2000.0000     93.8212
   516.5000   -999.2500     16.8967     17.2952   2000.0000     96.4808
   516.7500   -999.2500     17.4908     17.8219   2000.0000     97.6781
   517.0000   -999.2500     18.1595     18.4879   2000.0000     97.5985
   517.2500   -999.2500     18.8979     19.3142   2000.0000     96.2982
   517.5000   -999.2500     19.6928     20.2965   2000.0000     93.0662
   517.7500   -999.2500     20.5214     21.4035   2000.0000     90.3941
   518.0000   -999.2500     21.3538     22.5843   2000.0000     85.9091
   518.2500   -999.2500     22.1576     23.7822   2000.0000     82.6690
   518.5000   -999.2500     22.9077     24.9507   2000.0000     77.4976
   518.7500   -999.2500     23.5947     26.0646   2000.0000     73.8995
   519.0000   -999.2500     24.2279     27.1193   2000.0000     68.6076
   519.2500   -999.2500     24.8315     28.1147   2000.0000     65.5598
   519.5000   -999.2500     25.4361     29.0336   2000.0000     62.6280
   519.7500   -999.2500     26.0703     29.8351   2000.0000     62.1693
   520.0000   -999.2500     26.7559     30.4765   2000.0000     63.6191
   520.2500   -999.2500     27.5023     30.9540   2000.0000     65.4241
   520.5000   -999.2500     28.3021     31.3280   2000.0000     68.0992
   520.7500   -999.2500     29.1301     31.7077   2000.0000     69.3143
   521.0000   -999.2500     29.9471     32.2092   2000.0000     69.7099
   521.2500   -999.2500     30.7077     32.9165   2000.0000     68.7537
   521.5000   -999.2500     31.3661     33.8634   2000.0000     65.3712
   521.7500   -999.2500     31.8837     35.0325   2000.0000     62.1926
   522.0000   -999.2500     32.2455     36.3600   2000.0000     57.2248
   522.2500   -999.2500     32.4810     37.7455   2000.0000     54.3434
   522.5000   -999.2500     32.6676     39.0695   2000.0000     51.0438
   522.7500   -999.2500     32.9048     40.2239   2000.0000     49.6384
   523.0000   -999.2500     33.2759     41.1435   2000.0000     49.0074
   523.2500   -999.2500     33.8178     41.8227   2000.0000     49.5272
   523.5000   -999.2500     34.5091     42.2988   2000.0000     50.8020
   523.7500   -999.2500     35.2749     42.6068   2000.0000     51.1937
   524.0000   -999.2500     36.0051     42.7419   2000.0000     50.3501
   524.2500   -999.2500     36.5850     42.6658   2000.0000     49.0484
   524.5000   -999.2500     36.9272     42.3521   2000.0000     47.1275
   524.7500   -999.2500     36.9956     41.8266   2000.0000     46.6121
   525.0000   -999.2500     36.8154     41.1603   2000.0000     47.7776
   525.2500   -999.2500     36.4655     40.4320   2000.0000     49.7084
   525.5000   -999.2500     36.0529     39.7017   2000.0000     52.9064
   525.7500   -999.2500     35.6762     39.0177   2000.0000     54.2003
   526.0000   -999.2500     35.3962     38.4360   2000.0000     54.1350
   526.2500   -999.2500     35.2283     38.0202   2000.0000     53.1258
   526.5000   -999.2500     35.1507     37.8153   2000.0000     51.2474
   526.7500   -999.2500     35.1215     37.8188   2000.0000     50.0897
   527.0000   -999.2500     35.1007     37.9733   2000.0000     48.4273
   527.2500   -999.2500     35.0689     38.1878   2000.0000     47.1995
   527.5000   -999.2500     35.0268     38.3771   2000.0000     45.1189
   527.7500   -999.2500     34.9740     38.4933   2000.0000     43.7620
   528.0000   -999.2500     34.8962     38.5283   2000.0000     42.2601
   528.2500   -999.2500     34.7812     38.4941   2000.0000     41.7397
   528.5000   -999.2500     34.6501     38.4004   2000.0000     41.4259
   528.7500   -999.2500     34.5663     38.2545   2000.0000     41.3308
   529.0000   -999.2500     34.6075     38.0774   2000.0000     41.5069
   529.2500   -999.2500     34.8213     37.9151   2000.0000     42.2225
   529.5000   -999.2500     35.1926     37.8278   2000.0000     44.8541
   529.7500   -999.2500     35.6433     37.8632   2000.0000     47.7399
   530.0000   -999.2500     36.0706     38.0355   2000.0000     53.2232
   530.2500   -999.2500     36.4057     38.3258   2000.0000     57.0427
   530.5000   -999.2500     36.6462     38.6986   2000.0000     61.9584
   530.7500   -999.2500     36.8307     39.1229   2000.0000     64.2781
   531.0000   -999.2500     36.9913     39.5777   2000.0000     65.9413
   531.2500   -999.2500     37.1401     40.0325   2000.0000     65.6778
   531.5000   -999.2500     37.2932     40.4179   2000.0000     63.0810
   531.7500   -999.2500     37.4866     40.6299   2000.0000     60.0994
   532.0000   -999.2500     37.7504     40.5897   2000.0000     54.8475
   532.2500   -999.2500     38.0670     40.3150   2000.0000     51.6794
   532.5000   -999.2500     38.3579     39.9279   2000.0000     48.5429
   532.7500   -999.2500     38.5182     39.5842   2000.0000     47.6937
   533.0000   -999.2500     38.4783     39.3922   2000.0000     47.6985
   533.2500   -999.2500     38.2484     39.3808   2000.0000     47.9683
   533.5000   -999.2500     37.9126     39.5232   2000.0000     48.0939
   533.7500   -999.2500     37.5750     39.7841   2000.0000     48.0155
   534.0000   -999.2500     37.2998     40.1517   2000.0000     48.0690
   534.2500   -999.2500     37.0838     40.6240   2000.0000     48.2425
   534.5000   -999.2500     36.8666     41.1669   2000.0000     48.1680
   534.7500   -999.2500     36.5506     41.6877   2000.0000     47.6198
   535.0000   -999.2500     36.0038     42.0578   2000.0000     46.3365
   535.2500   -999.2500     35.0637     42.1539   2000.0000     45.6890
   535.5000   -999.2500     33.5879     41.8530   2000.0000     45.7597
   535.7500   -999.2500     31.5494     40.9819   2000.0000     46.5718
   536.0000   -999.2500     29.0945     39.3086   2000.0000     48.5749
   536.2500   -999.2500     26.4878     36.6611   2000.0000     50.2386
   536.5000   -999.2500     23.9853     33.1163   2000.0000     53.4770
   536.7500   -999.2500     21.7432     29.0597   2000.0000     56.6967
   537.0000   -999.2500     19.8067     25.0156   2000.0000     64.3570
   537.2500   -999.2500     18.1498     21.4055   2000.0000     71.7861
   537.5000   -999.2500     16.7230     18.4375   2000.0000     85.9637
   537.7500   -999.2500     15.4827     16.1367   2000.0000     96.3894
   538.0000   -999.2500     14.3977     14.4258   2000.0000    110.9366
   538.2500   -999.2500     13.4436     13.1873   2000.0000    118.6140
   538.5000   -999.2500     12.5967     12.2972   2000.0000    126.1959
   538.7500   -999.2500     11.8366     11.6385   2000.0000    128.9001
   539.0000   -999.2500     11.1513     11.1111   2000.0000    130.5281
   539.2500   -999.2500     10.5404     10.6431   2000.0000    130.5476
   539.5000   -999.2500     10.0105     10.1992   2000.0000    129.4280
   539.7500   -999.2500      9.5686      9.7792   2000.0000    128.0408
   540.0000   -999.2500      9.2157      9.4032   2000.0000    125.5803
   540.2500   -999.2500      8.9446      9.0932   2000.0000    124.3056
   540.5000   -999.2500      8.7399      8.8596   2000.0000    123.7110
   540.7500   -999.2500      8.5810      8.6960   2000.0000    124.0160
   541.0000   -999.2500      8.4451      8.5829   2000.0000    124.4216
   541.2500   -999.2500      8.3114      8.4957   2000.0000    124.1860
   541.5000   -999.2500      8.1646      8.4131   2000.0000    123.2729
   541.7500   -999.2500      7.9975      8.3206   2000.0000    122.8214
   542.0000   -999.2500      7.8117      8.2080   2000.0000    123.2251
