~Version Information
VERS.                      2.0: CWLS Log ASCII Standard - VERSION 2.0
WRAP.                       NO: One line per depth step
~Well Information Block
STRT.FT               800.0000: 
STOP.FT              3500.0000: 
STEP.FT                 0.2500: 
NULL.                -999.2500: 
COMP.          Pioneer Natural Resources: COMPANY
WELL.          Cordillera 34-7: WELL
FLD.           Purgatoire River: FIELD
LOC.           598' FSL & 1770' FEL--: LOCATION
PROV.                 Colorado: PROVINCE
CNTY.               Las Animas: COUNTRY
SRVC.                Patterson: SERVICE COMPANY
DATE.          Thu Oct 27 20:08:30 2005: LOG DATE
UWI.           05 071 08552 00: UNIQUE WELL ID
~Curve Information Block
DEPT.FT            0 000 00 00: Depth
SN.Ohm-m                      : IEL Short Normal
SP.mV                         : IEL Spontaneous Potential
DIR.Ohm-m                     : IEL Induction Resistivity
GR.GAPI                       : Gamma Ray
~Parameter Information Block
~A  Depth        SN          SP         DIR          GR     
# ...
  2776.5000     12.6656    160.7656     13.1682    142.7297
  2776.7500     12.6616    160.7682     13.3529    141.7526
  2777.0000     12.6079    160.8872     13.5546    138.0246
  2777.2500     12.6075    161.0650     13.7875    134.0047
  2777.5000     12.7766    161.2165     14.0619    127.5897
  2777.7500     13.1598    161.2646     14.3832    125.0154
  2778.0000     13.6773    161.1683     14.7486    125.9856
  2778.2500     14.1855    160.9453     15.1447    129.5048
  2778.5000     14.6081    160.6758     15.5473    136.4026
  2778.7500     14.9806    160.4542     15.9278    140.4335
  2779.0000     15.3767    160.3141     16.2626    143.5811
  2779.2500     15.8336    160.1994     16.5416    142.7791
  2779.5000     16.3511    160.0150     16.7699    135.8296
  2779.7500     16.9327    159.7097     16.9635    127.1087
  2780.0000     17.6066    159.3262     17.1444    109.2612
  2780.2500     18.4041    158.9845     17.3360     96.0256
  2780.5000     19.2960    158.8107     17.5594     77.9310
  2780.7500     20.1594    158.8618     17.8279     68.7245
  2781.0000     20.8421    159.1037     18.1402     60.2933
  2781.2500     21.2551    159.4512     18.4778     57.9035
  2781.5000     21.4102    159.8234     18.8083     57.5441
  2781.7500     21.3873    160.1680     19.0951     58.3265
  2782.0000     21.2668    160.4435     19.3088     59.3826
  2782.2500     21.0906    160.5910     19.4358     59.4082
  2782.5000     20.8759    160.5385     19.4781     58.1787
  2782.7500     20.6515    160.2437     19.4485     56.7772
  2783.0000     20.4668    159.7362     19.3637     54.6504
  2783.2500     20.3607    159.1214     19.2405     53.6322
  2783.5000     20.3240    158.5419     19.0952     52.6907
  2783.7500     20.2979    158.1325     18.9443     52.0831
  2784.0000     20.2187    157.9860     18.8019     51.0019
  2784.2500     20.0684    158.1317     18.6769     50.7424
  2784.5000     19.8710    158.5252     18.5705     52.5303
  2784.7500     19.6509    159.0661     18.4774     55.4913
  2785.0000     19.4166    159.6449     18.3899     61.6253
  2785.2500     19.1682    160.1900     18.3028     65.8902
  2785.5000     18.9047    160.6852     18.2147     71.3116
  2785.7500     18.6359    161.1525     18.1250     73.9531
  2786.0000     18.3867    161.6175     18.0308     76.4851
  2786.2500     18.1734    162.0787     17.9265     77.5089
  2786.5000     17.9799    162.5017     17.8091     78.7033
  2786.7500     17.7690    162.8431     17.6829     79.5563
  2787.0000     17.5265    163.0814     17.5594     81.0600
  2787.2500     17.2854    163.2290     17.4505     82.0299
  2787.5000     17.1082    163.3173     17.3614     82.8017
  2787.7500     17.0410    163.3715     17.2871     82.6510
  2788.0000     17.0744    163.3956     17.2159     81.7756
  2788.2500     17.1509    163.3813     17.1363     81.0674
  2788.5000     17.2089    163.3325     17.0429     79.7271
  2788.7500     17.2147    163.2774     16.9386     78.3244
  2789.0000     17.1602    163.2596     16.8307     75.2963
  2789.2500     17.0489    163.3210     16.7288     73.0523
  2789.5000     16.8960    163.4941     16.6432     70.5746
  2789.7500     16.7285    163.7974     16.5836     70.1553
  2790.0000     16.5690    164.2260     16.5556     71.5794
  2790.2500     16.4202    164.7451     16.5559     73.3739
  2790.5000     16.2810    165.2967     16.5719     76.0220
  2790.7500     16.1653    165.8197     16.5857     77.2820
  2791.0000     16.0914    166.2656     16.5821     78.3220
  2791.2500     16.0664    166.5982     16.5555     78.5443
  2791.5000     16.0871    166.7847     16.5108     78.3174
  2791.7500     16.1368    166.7998     16.4605     77.9463
  2792.0000     16.1861    166.6509     16.4185     77.3778
  2792.2500     16.2063    166.3990     16.3945     77.0600
  2792.5000     16.1862    166.1394     16.3898     76.6831
  2792.7500     16.1467    165.9402     16.3974     76.5976
  2793.0000     16.1275    165.7941     16.4058     76.8497
  2793.2500     16.1510    165.6356     16.4046     77.0915
  2793.5000     16.2026    165.4097     16.3882     76.9474
  2793.7500     16.2413    165.1236     16.3575     76.3038
  2794.0000     16.2296    164.8369     16.3181     74.6925
  2794.2500     16.1615    164.6091     16.2766     73.4804
  2794.5000     16.0600    164.4584     16.2369     71.9651
  2794.7500     15.9513    164.3659     16.1987     71.3290
  2795.0000     15.8481    164.3087     16.1579     70.8405
  2795.2500     15.7548    164.2768     16.1101     70.5752
  2795.5000     15.6754    164.2669     16.0525     69.8755
  2795.7500     15.6099    164.2805     15.9851     69.2468
  2796.0000     15.5514    164.3374     15.9098     68.7302
  2796.2500     15.4934    164.4746     15.8309     69.1220
  2796.5000     15.4350    164.7123     15.7561     70.8269
  2796.7500     15.3803    165.0050     15.6965     72.2136
  2797.0000     15.3381    165.2257     15.6643     73.8693
  2797.2500     15.3217    165.2243     15.6676     74.6281
  2797.5000     15.3488    164.9332     15.7071     75.4901
  2797.7500     15.4360    164.4259     15.7760     75.8644
  2798.0000     15.5869    163.8694     15.8641     75.7149
  2798.2500     15.7753    163.4176     15.9618     74.9176
  2798.5000     15.9530    163.1324     16.0632     72.7504
  2798.7500     16.0906    162.9727     16.1662     70.9309
  2799.0000     16.1961    162.8375     16.2703     67.9337
  2799.2500     16.2903    162.6302     16.3750     65.6995
  2799.5000     16.3878    162.3033     16.4778     62.0326
  2799.7500     16.4936    161.8569     16.5755     59.7410
  2800.0000     16.5991    161.3125     16.6646     57.3818
  2800.2500     16.6909    160.6986     16.7430     56.7667
  2800.5000     16.7624    160.0510     16.8092     57.0316
  2800.7500     16.8179    159.4135     16.8632     57.6386
  2801.0000     16.8707    158.8304     16.9071     58.6606
  2801.2500     16.9359    158.3367     16.9477     59.3491
  2801.5000     17.0224    157.9466     16.9944     60.8477
  2801.7500     17.1305    157.6391     17.0536     62.5822
  2802.0000     17.2548    157.3460     17.1241     66.4766
  2802.2500     17.3946    156.9719     17.1955     69.3982
  2802.5000     17.5543    156.4491     17.2541     72.7007
  2802.7500     17.7259    155.7838     17.2893     73.5342
  2803.0000     17.8844    155.0485     17.2964     72.7025
  2803.2500     18.0075    154.3267     17.2745     71.1631
  2803.5000     18.0859    153.6622     17.2214     68.1564
  2803.7500     18.1088    153.0548     17.1330     66.0661
  2804.0000     18.0551    152.4914     17.0063     63.3479
  2804.2500     17.9224    151.9709     16.8429     62.1059
  2804.5000     17.7516    151.5107     16.6473     61.5975
  2804.7500     17.6031    151.1406     16.4224     62.4194
  2805.0000     17.5174    150.8853     16.1683     65.5535
  2805.2500     17.4846    150.7453     15.8862     68.6974
  2805.5000     17.4358    150.6951     15.5835     74.1874
  2805.7500     17.2735    150.6928     15.2769     77.9595
  2806.0000     16.9242    150.6880     14.9900     83.9366
  2806.2500     16.3649    150.6355     14.7491     88.6886
  2806.5000     15.6217    150.5329     14.5776     97.5688
  2806.7500     14.7702    150.4627     14.4903    104.1007
  2807.0000     13.9373    150.5964     14.4902    112.3170
  2807.2500     13.2994    151.1347     14.5679    115.3123
  2807.5000     13.0712    152.2068     14.7061    115.6045
  2807.7500     13.4346    153.7859     14.8876    113.8937
  2808.0000     14.4158    155.6769     15.1016    110.2044
  2808.2500     15.8250    157.5907     15.3456    107.2552
  2808.5000     17.3459    159.2681     15.6212    101.2979
  2808.7500     18.7310    160.5793     15.9293     95.7805
  2809.0000     19.9178    161.5378     16.2676     85.3330
  2809.2500     20.9513    162.2314     16.6328     77.7401
  2809.5000     21.8419    162.7395     17.0235     67.2654
  2809.7500     22.5404    163.0973     17.4399     61.6106
