~Version Information
VERS.                      2.0: CWLS Log ASCII Standard - VERSION 2.0
WRAP.                       NO: One line per depth step
~Well Information Block
STRT.FT               -12.0000: 
STOP.FT              1266.5000: 
STEP.FT                 0.2500: 
NULL.                -999.2500: 
COMP.          Pioneer Natural Resources: COMPANY
WELL.          Hot Tomatoes 22-20: WELL
FLD.           Purgatorie River: FIELD
LOC.           2120' FNL & 2585' FWL: LOCATION
CNTY.               Las Animas: COUNTY
SRVC.                Patterson: SERVICE COMPANY
DATE.          Thu Mar 02 13:59:39 2006: LOG DATE
UWI.           05 071 08701 00: UNIQUE WELL ID
STAT.                       CO: STATE
~Curve Information Block
DEPT.FT            0 000 00 00: Depth
GR.GAPI                       : Gamma Ray
CCL.                          : Casing Collar Locator
TT3.usec                      : CBL 3' Travel Time
AMP3.mV                       : CBL 3' Amplitude
~Parameter Information Block
~A  Depth        GR         CCL         TT3         AMP3    
# ...
   557.5000    138.4524      0.0000    688.5599      6.9365
   557.7500    140.8820      0.0000    684.0527      6.8916
   558.0000    144.2862      0.0000    676.2851      6.8719
   558.2500    147.1548      0.0000    670.3002      6.8369
   558.5000    147.7292      0.0000    672.0995      6.7518
   558.7500    145.1769      0.0000    684.4382      6.5707
   559.0000    140.2303      0.0000    704.6650      6.2350
   559.2500    134.5921      0.0000    726.0646      5.7391
   559.5000    129.4451      0.0000    742.1407      5.1843
   559.7500    124.7989      0.0000    750.2206      4.7076
   560.0000    120.3359      0.0000    751.4723      4.3429
   560.2500    116.4103      0.0000    748.7647      4.0230
   560.5000    114.0732      0.0000    744.7268      3.7488
   560.7500    114.3903      0.0000    740.5029      3.6737
   561.0000    117.6141      0.0000    735.9005      3.9438
   561.2500    122.6808      0.0000    731.4097      4.5004
   561.5000    127.6264      0.0000    729.7493      5.1050
   561.7500    130.8888     -1.4621    734.1385      5.5447
   562.0000    132.3525      0.0000    744.3688      5.8042
   562.2500    133.0773      0.0000    755.3124      6.0693
   562.5000    134.0873      0.0000    760.6255      6.5468
   562.7500    135.5085      0.0000    757.2885      7.2224
   563.0000    136.7450      0.0000    745.6919      7.8290
   563.2500    137.1733      0.0000    727.9203      8.1248
   563.5000    136.5927      0.0000    708.5295      8.1417
   563.7500    135.2815      0.0000    693.7061      8.0824
   564.0000    133.8412      0.0000    685.6906      8.0477
   564.2500    132.6874      0.0000    680.1277      7.9715
   564.5000    131.4330      0.0000    671.9117      7.7858
   564.7500    129.0061      0.0000    660.5546      7.5581
   565.0000    124.6516      0.0000    646.5049      7.4437
   565.2500    118.8352      0.0000    625.4456      7.5463
   565.5000    113.0032      0.0000    591.0280      7.8437
   565.7500    108.3237      0.0000    542.8391      8.2336
   566.0000    104.8004      0.0000    489.2121      8.6206
   566.2500    101.8050      0.0000    442.3917      8.9568
   566.5000     99.1596      0.0000    411.8195      9.2331
   566.7500     97.2471      0.0000    400.2840      9.4596
   567.0000     96.2174      0.0000    403.5969      9.6499
   567.2500     95.5744      0.0000    412.8810      9.8091
   567.5000     94.7778      0.0000    418.7766      9.9341
   567.7500     94.0512      0.0000    415.8841     10.0234
   568.0000     94.2093      0.0000    404.8246     10.0793
   568.2500     95.5214      0.0000    390.4519     10.1052
   568.5000     97.0805      0.0000    377.9259     10.1094
   568.7500     97.5293      0.0000    369.8490     10.1068
   569.0000     96.1573      0.0000    366.3988     10.1084
   569.2500     93.1374      0.0000    367.6735     10.1090
   569.5000     89.1213      0.0000    376.3133     10.0885
   569.7500     84.9337      0.0000    398.2241     10.0312
   570.0000     81.3746      0.0000    439.3353      9.9451
   570.2500     79.0088      0.0000    499.0819      9.8597
   570.5000     78.1573      0.0000    566.7356      9.8010
   570.7500     79.0069      0.0000    626.6222      9.7716
   571.0000     81.5596      0.0000    668.4739      9.7477
   571.2500     85.5561      0.0000    692.3652      9.6911
   571.5000     90.6078      0.0000    704.5718      9.5728
   571.7500     96.1793      0.0000    710.8447      9.4037
   572.0000    101.1897      0.0000    713.6133      9.2319
   572.2500    103.9325      0.0000    713.1185      9.0922
   572.5000    102.9525      0.0000    709.1719      8.9632
   572.7500     98.3321      0.0000    702.0322      8.7944
   573.0000     92.1103      0.0000    692.9014      8.5730
   573.2500     87.1702      0.0000    683.8838      8.3469
   573.5000     85.4411      0.0000    676.9942      8.1823
   573.7500     87.1763      0.0000    672.9291      8.1143
   574.0000     91.8527      0.0000    670.4742      8.1415
   574.2500     99.1457      0.0000    665.9904      8.2537
   574.5000    108.5901      0.0000    653.1381      8.4475
   574.7500    118.8150      0.0000    625.3032      8.7072
   575.0000    127.8933      0.0000    581.6315      8.9823
   575.2500    134.3932      0.0000    531.3949      9.2014
   575.5000    137.8064      0.0000    490.1286      9.3159
   575.7500    138.3966      0.0000    470.0888      9.3259
   576.0000    137.1394      0.0000    474.3541      9.2623
   576.2500    135.4655      0.0000    497.4043      9.1491
   576.5000    134.5384      0.0000    527.3242      8.9910
   576.7500    134.7722      0.0000    548.8770      8.7899
   577.0000    135.9653      0.0000    551.3397      8.5589
   577.2500    137.5362      0.0000    537.4033      8.3103
   577.5000    138.7155      0.0000    522.5853      8.0411
   577.7500    139.0715      0.0000    523.5369      7.7473
   578.0000    138.9937      0.0000    546.0477      7.4562
   578.2500    139.4968      0.0000    582.4476      7.2324
   578.5000    141.4923      0.0000    618.6014      7.1344
   578.7500    145.1023      0.0000    643.8450      7.1632
   579.0000    149.4705      0.0000    656.4036      7.2622
   579.2500    153.2879      0.0000    661.7201      7.3683
   579.5000    155.7313      0.0000    667.0419      7.4536
   579.7500    156.8989      0.0000    676.6308      7.5231
   580.0000    157.3290      0.0000    689.5870      7.5850
   580.2500    157.4170      0.0000    700.5484      7.6275
   580.5000    157.4889      0.0000    703.0743      7.6176
   580.7500    157.8318      0.0000    694.4508      7.5271
   581.0000    157.9937      0.0000    678.3713      7.3705
   581.2500    156.5835      0.0000    661.9671      7.2113
   581.5000    152.6960      0.0000    649.6270      7.1198
   581.7500    147.2823      0.0000    640.9887      7.1272
   582.0000    142.4587      0.0000    634.6234      7.2185
   582.2500    139.8642      0.0000    631.1298      7.3543
   582.5000    140.0802      0.0000    632.7280      7.4907
   582.7500    142.8180      0.0000    641.4312      7.5964
   583.0000    146.8913      0.0000    656.3044      7.6644
   583.2500    150.4250      0.0000    671.5415      7.6937
   583.5000    151.8406      0.0000    678.3508      7.6588
   583.7500    150.6593      0.0000    668.6572      7.5198
   584.0000    147.0900      0.0000    637.5670      7.2653
   584.2500    141.0937      0.0000    586.0799      6.9345
   584.5000    132.5187      0.0000    524.0683      6.6031
   584.7500    122.2708      0.0000    468.4033      6.3545
   585.0000    112.8267      0.0000    434.9594      6.2450
   585.2500    107.2358      0.0000    430.2399      6.2785
   585.5000    107.4411      0.0000    447.9213      6.4173
   585.7500    113.1166      0.0000    472.2954      6.6147
   586.0000    121.7440      0.0000    489.0703      6.8315
   586.2500    130.0918      0.0000    496.8194      7.0333
   586.5000    136.1520      0.0000    505.7252      7.1966
   586.7500    139.8705      0.0000    522.2065      7.3198
   587.0000    142.1538      0.0000    537.8073      7.4208
   587.2500    143.4872      0.0000    536.9731      7.5180
   587.5000    143.5839      0.0000    513.4781      7.6103
   587.7500    142.0109      0.0000    475.5854      7.6743
   588.0000    138.7732      0.0000    437.0640      7.6882
   588.2500    134.2156      0.0000    407.1294      7.6589
   588.5000    128.6305      0.0000    387.9934      7.6110
   588.7500    122.4242      0.0000    377.6361      7.5539
   589.0000    116.7535      0.0000    373.0827      7.4821
   589.2500    113.4602      0.0000    372.5281      7.4132
   589.5000    113.8833      0.0000    376.5130      7.3963
   589.7500    117.8634      0.0000    388.2002      7.4712
   590.0000    124.0098      0.0000    412.2954      7.6343
   590.2500    130.5565      0.0000    451.8545      7.8434
   590.5000    135.8937      0.0000    503.8323      8.0383
   590.7500    139.0734      0.0000    557.2584      8.1590
