~Version Information
VERS.                      2.0: CWLS Log ASCII Standard - VERSION 2.0
WRAP.                       NO: One line per depth step
~Well Information Block
STRT.FT               245.0000: 
STOP.FT              1208.2500: 
STEP.FT                 0.2500: 
NULL.                -999.2500: 
COMP.          Pioneer Natural Resources: COMPANY
WELL.              Davida 34-8: WELL
FLD.           Purgatoire River: FIELD
LOC.           418' FSL & 1923' FEL--: LOCATION
CNTY.               Las Animas: COUNTY
SRVC.                Patterson: SERVICE COMPANY
DATE.          Sat Mar 18 07:00:13 2006: LOG DATE
UWI.           05 071 08722 00: UNIQUE WELL ID
STAT.                 Colorado: STATE
~Curve Information Block
DEPT.FT            0 000 00 00: Depth
GR.GAPI                       : Gamma Ray
DIR.Ohm-m                     : IEL Induction Resistivity
~Parameter Information Block
~A  Depth        GR         DIR     
# ...
   412.2500    149.3457     12.9388
   412.5000    151.7060     12.7588
   412.7500    152.3544     12.6686
   413.0000    150.5216     12.6745
   413.2500    146.7466     12.7750
   413.5000    137.4342     12.9644
   413.7500    129.6960     13.2370
   414.0000    117.6969     13.5889
   414.2500    110.2344     14.0144
   414.5000    100.6256     14.4987
   414.7500     95.6490     15.0146
   415.0000     90.7891     15.5261
   415.2500     89.1390     15.9973
   415.5000     87.9984     16.4016
   415.7500     87.4520     16.7280
   416.0000     86.4682     16.9816
   416.2500     85.8500     17.1782
   416.5000     85.4006     17.3367
   416.7500     85.4236     17.4722
   417.0000     85.4476     17.5942
   417.2500     85.1474     17.7098
   417.5000     84.1789     17.8294
   417.7500     83.4132     17.9686
   418.0000     82.3941     18.1444
   418.2500     81.7500     18.3671
   418.5000     80.5270     18.6329
   418.7500     79.4145     18.9219
   419.0000     77.2724     19.2008
   419.2500     75.6406     19.4308
   419.5000     73.4340     19.5793
   419.7500     72.5791     19.6313
   420.0000     72.5966     19.5924
   420.2500     73.1914     19.4834
   420.5000     74.0044     19.3323
   420.7500     74.1687     19.1706
   421.0000     74.0387     19.0311
   421.2500     73.9235     18.9428
   421.5000     73.5817     18.9216
   421.7500     72.9610     18.9642
   422.0000     71.4019     19.0525
   422.2500     70.3960     19.1654
   422.5000     69.9430     19.2900
   422.7500     70.5478     19.4248
   423.0000     72.2288     19.5750
   423.2500     73.3120     19.7451
   423.5000     74.3093     19.9346
   423.7500     74.5556     20.1348
   424.0000     74.6218     20.3267
   424.2500     74.6747     20.4838
   424.5000     75.0007     20.5797
   424.7500     75.4514     20.5996
   425.0000     76.5519     20.5473
   425.2500     77.5441     20.4427
   425.5000     79.1056     20.3105
   425.7500     79.9039     20.1706
   426.0000     80.3598     20.0341
   426.2500     80.0846     19.9060
   426.5000     78.9191     19.7897
   426.7500     77.9449     19.6893
   427.0000     77.0552     19.6058
   427.2500     77.2659     19.5317
   427.5000     78.9061     19.4529
   427.7500     80.6320     19.3604
   428.0000     83.5913     19.2632
   428.2500     85.6417     19.1907
   428.5000     89.2016     19.1783
   428.7500     92.4874     19.2484
   429.0000     99.8991     19.4002
   429.2500    106.8042     19.6113
   429.5000    119.6472     19.8477
   429.7500    129.0679     20.0733
   430.0000    142.2587     20.2550
   430.2500    148.5724     20.3654
   430.5000    150.8566     20.3885
   430.7500    146.4702     20.3281
   431.0000    132.6446     20.2099
   431.2500    121.5454     20.0721
   431.5000    107.7907     19.9478
   431.7500    102.4433     19.8493
   432.0000     99.7327     19.7641
   432.2500     99.8641     19.6620
   432.5000    100.1263     19.5118
   432.7500     99.4398     19.2995
   433.0000     97.3222     19.0381
   433.2500     96.0227     18.7617
   433.5000     95.6579     18.5062
   433.7500     96.7553     18.2889
   434.0000     99.8734     18.0975
   434.2500    102.2698     17.8933
   434.5000    105.2350     17.6290
   434.7500    106.5024     17.2719
   435.0000    107.7500     16.8210
   435.2500    108.7687     16.3067
   435.5000    111.6677     15.7759
   435.7500    114.7347     15.2735
   436.0000    120.1128     14.8305
   436.2500    123.0334     14.4610
   436.5000    124.4897     14.1670
   436.7500    123.1488     13.9468
   437.0000    118.6552     13.8016
   437.2500    115.0940     13.7349
   437.5000    110.6433     13.7447
   437.7500    108.8795     13.8142
   438.0000    108.1656     13.9079
   438.2500    108.5592     13.9796
   438.5000    109.4072     13.9900
   438.7500    109.7921     13.9247
   439.0000    110.4396     13.7975
   439.2500    111.5018     13.6385
   439.5000    114.8866     13.4761
   439.7500    118.3863     13.3285
   440.0000    124.6425     13.2045
   440.2500    128.5108     13.1097
   440.5000    131.9064     13.0494
   440.7500    131.7951     13.0293
   441.0000    128.2344     13.0563
   441.2500    124.5380     13.1396
   441.5000    119.0831     13.2896
   441.7500    116.3553     13.5140
   442.0000    113.8315     13.8102
   442.2500    112.7598     14.1593
   442.5000    111.4509     14.5253
   442.7500    110.9108     14.8608
   443.0000    111.1920     15.1194
   443.2500    112.0800     15.2690
   443.5000    113.5841     15.2969
   443.7500    114.1804     15.2074
   444.0000    114.4275     15.0140
   444.2500    114.6344     14.7382
   444.5000    115.9669     14.4124
   444.7500    117.7860     14.0817
   445.0000    121.5938     13.7970
   445.2500    124.3787     13.6030
   445.5000    127.9318     13.5266
   445.7500    129.2230     13.5730
   446.0000    128.4080     13.7289
   446.2500    125.6947     13.9693
   446.5000    118.9624     14.2646
   446.7500    113.6321     14.5877
   447.0000    106.1398     14.9193
   447.2500    102.2095     15.2495
   447.5000     98.3950     15.5748
   447.7500     97.1465     15.8920
   448.0000     96.7842     16.1941
   448.2500     97.3288     16.4688
   448.5000     99.0018     16.7013
   448.7500    100.4158     16.8787
   449.0000    102.3339     16.9970
   449.2500    103.1204     17.0657
   449.5000    103.3223     17.1063
   449.7500    102.9221     17.1444
   450.0000    101.7634     17.2006
   450.2500    100.6110     17.2849
   450.5000     98.4313     17.3961
   450.7500     97.1167     17.5239
   451.0000     96.3385     17.6514
   451.2500     96.7613     17.7569
   451.5000     98.0657     17.8145
   451.7500     98.9008     17.7966
   452.0000    100.2639     17.6798
   452.2500    101.8959     17.4514
   452.5000    106.3537     17.1117
   452.7500    110.4653     16.6688
   453.0000    116.7757     16.1338
   453.2500    120.1715     15.5229
   453.5000    123.7456     14.8652
   453.7500    125.6255     14.2065
   454.0000    128.6532     13.5997
   454.2500    130.9395     13.0898
   454.5000    134.1414     12.7018
   454.7500    135.5347     12.4368
   455.0000    135.8279     12.2754
   455.2500    134.8345     12.1855
   455.5000    132.1754     12.1313
   455.7500    130.1355     12.0807
   456.0000    127.4360     12.0109
   456.2500    126.1761     11.9101
   456.5000    125.5254     11.7788
   456.7500    126.1930     11.6285
   457.0000    128.9963     11.4776
   457.2500    131.6847     11.3436
   457.5000    135.5552     11.2371
   457.7500    137.1588     11.1602
   458.0000    137.2709     11.1099
   458.2500    135.8501     11.0836
   458.5000    132.1072     11.0837
   458.7500    128.9681     11.1200
   459.0000    123.7122     11.2090
   459.2500    119.7723     11.3699
   459.5000    112.8920     11.6176
   459.7500    107.8348     11.9540
   460.0000    100.8891     12.3606
   460.2500     97.7090     12.7954
   460.5000     96.2043     13.1982
   460.7500     97.4210     13.5070
   461.0000    102.0691     13.6770
   461.2500    106.6861     13.6940
   461.5000    115.0359     13.5729
   461.7500    120.7149     13.3470
   462.0000    127.6808     13.0540
   462.2500    130.6689     12.7243
   462.5000    132.8125     12.3776
   462.7500    133.1492     12.0263
   463.0000    132.5839     11.6842
   463.2500    131.6948     11.3725
   463.5000    130.3268     11.1198
   463.7500    130.0296     10.9551
   464.0000    131.0952     10.8988
   464.2500    132.5534     10.9563
   464.5000    134.7482     11.1166
   464.7500    135.5478     11.3566
   465.0000    134.9403     11.6501
   465.2500    133.0617     11.9759
   465.5000    127.9096     12.3221
   465.7500    123.1513     12.6829
   466.0000    115.2617     13.0521
   466.2500    110.6660     13.4188
   466.5000    106.6595     13.7653
   466.7500    106.2997     14.0670
   467.0000    108.2544     14.2936
   467.2500    110.1540     14.4136
   467.5000    112.5044     14.4038
   467.7500    113.5371     14.2579
