~Version Information
VERS.                      2.0: CWLS Log ASCII Standard - VERSION 2.0
WRAP.                       NO: One line per depth step
~Well Information Block
STRT.FT               625.0000: 
STOP.FT              2053.7000: 
STEP.FT                 0.1000: 
NULL.                -999.2500: 
COMP.          Pioneer Natural Resources: COMPANY
WELL.            Zink 44-10 Tr: WELL
FLD.           Purgatoire River: FIELD
LOC.           486' FSL & 554' FEL--: LOCATION
PROV.                 Colorado: PROVINCE
CNTY.               Las Animas: COUNTRY
SRVC.                Patterson: SERVICE COMPANY
DATE.          Sun Jul 24 08:46:57 2005: LOG DATE
UWI.           05 071 08446 00: UNIQUE WELL ID
~Curve Information Block
DEPT.FT            0 000 00 00: Depth
DCAL.in                       : CDL Caliper
RHOB.g/cc                     : CDL Bulk Density
RHOC.g/cc                     : CDL Density Correction
DPOR.pu                       : CDL Density Porosity
NPOR.pu                       : Neutron Porosity
GR.GAPI                       : Gamma Ray
~Parameter Information Block
~A  Depth       DCAL        RHOB        RHOC        DPOR        NPOR         GR     
# ...
  1652.2000      7.8880      2.5491      0.0343      6.1176     24.6344    142.2184
  1652.3000      7.8721      2.5751      0.0772      4.5411     24.7652    145.3704
  1652.4000      7.8721      2.6225      0.0701      1.6676     24.8860    143.8237
  1652.5000      7.8378      2.6938      0.1042     -2.6552     25.0496    136.5208
  1652.6000      7.8378      2.7628      0.1820     -6.8369     25.1893    126.1188
  1652.7000      7.8378      2.8000      0.1776     -9.0888     25.1459    117.0194
  1652.8000      7.8086      2.8135      0.2042     -9.9077     24.9039    110.0477
  1652.9000      7.8086      2.8207      0.1784    -10.3479     24.6954    105.6173
  1653.0000      7.7987      2.8249      0.1594    -10.6020     24.5976    106.5142
  1653.1000      7.7987      2.8200      0.1767    -10.3022     24.9027    111.9026
  1653.2000      7.7987      2.7950      0.1236     -8.7908     25.7904    117.0075
  1653.3000      7.8137      2.7452      0.0670     -5.7724     26.3622    121.1315
  1653.4000      7.8137      2.6720      0.0339     -1.3347     26.1678    127.3878
  1653.5000      7.8621      2.5937     -0.0603      3.4097     25.9860    134.6190
  1653.6000      7.8621      2.5337      0.0125      7.0493     26.2893    137.1640
  1653.7000      7.8621      2.4873      0.0056      9.8609     26.8390    133.9988
  1653.8000      7.9223      2.4384      0.0092     12.8218     27.3019    130.2358
  1653.9000      7.9223      2.3834      0.0098     16.1593     27.5607    131.2105
  1654.0000      7.9621      2.3355     -0.0629     19.0615     28.0888    134.3835
  1654.1000      7.9621      2.3075     -0.0266     20.7574     29.1690    134.4170
  1654.2000      7.9621      2.2946      0.0022     21.5400     29.9790    132.8291
  1654.3000      7.9797      2.2878     -0.0236     21.9545     29.8339    131.4654
  1654.4000      7.9797      2.2755      0.0420     22.6994     29.0546    128.9470
  1654.5000      7.9893      2.2452      0.0284     24.5355     28.0151    127.5838
  1654.6000      7.9893      2.2109     -0.0173     26.6118     26.9711    128.4274
  1654.7000      7.9893      2.1978      0.1010     27.4065     26.4247    126.7627
  1654.8000      8.0034      2.2033      0.1004     27.0703     26.4827    122.9026
  1654.9000      8.0034      2.2126      0.1233     26.5077     26.6131    121.6961
  1655.0000      8.0070      2.2227      0.0972     25.8999     26.4822    121.9806
  1655.1000      8.0070      2.2403      0.1003     24.8309     26.3349    123.4806
  1655.2000      8.0070      2.2695      0.1165     23.0586     26.2874    127.6839
  1655.3000      7.9799      2.3101      0.1404     20.6025     26.0167    131.4311
  1655.4000      7.9799      2.3578      0.1706     17.7082     25.4094    132.6414
  1655.5000      7.9503      2.4050      0.1823     14.8500     24.6626    130.7846
  1655.6000      7.9503      2.4473      0.1813     12.2877     24.1600    126.4298
  1655.7000      7.9503      2.4847      0.1489     10.0176     24.2050    121.9351
  1655.8000      7.9307      2.5099      0.1778      8.4925     24.5411    119.9116
  1655.9000      7.9307      2.5115      0.1324      8.3937     24.5559    121.6338
  1656.0000      7.9145      2.4947      0.0933      9.4105     24.1671    126.4085
  1656.1000      7.9145      2.4656      0.0909     11.1734     23.9481    131.4174
  1656.2000      7.9145      2.4226      0.0211     13.7790     24.3635    134.8480
  1656.3000      7.9034      2.3657      0.0477     17.2301     25.3414    134.8194
  1656.4000      7.9034      2.2903     -0.0108     21.7974     26.4200    129.1858
  1656.5000      7.8911      2.1946     -0.0224     27.5996     27.5581    120.8188
  1656.6000      7.8911      2.0927     -0.0840     33.7785     29.0346    115.9201
  1656.7000      7.8911      2.0115     -0.1062     38.6969     30.2489    116.4691
  1656.8000      7.8610      1.9669     -0.0854     41.4016     30.6566    118.6696
  1656.9000      7.8610      1.9549     -0.0686     42.1297     30.6393    116.4465
  1657.0000      7.8223      1.9695     -0.0269     41.2444     30.3981    108.0598
  1657.1000      7.8223      2.0158      0.0131     38.4338     30.0853    100.9795
  1657.2000      7.8223      2.1010      0.1213     33.2712     29.7804    101.6896
  1657.3000      7.8086      2.2087      0.2694     26.7483     28.9380    106.5634
  1657.4000      7.8086      2.3047      0.3125     20.9254     27.2451    108.5257
  1657.5000      7.8241      2.3692      0.2884     17.0158     25.2091    105.5655
  1657.6000      7.8241      2.4072      0.2197     14.7161     23.5674    101.7467
  1657.7000      7.8241      2.4381      0.1898     12.8427     22.5935    101.6483
  1657.8000      7.8560      2.4678      0.2322     11.0405     21.9539    105.3459
  1657.9000      7.8560      2.4838      0.1633     10.0702     21.5513    110.1284
  1658.0000      7.8862      2.4882      0.1326      9.8089     21.4905    114.1994
  1658.1000      7.8862      2.4928      0.1180      9.5258     21.4797    114.9545
  1658.2000      7.8862      2.5021      0.0980      8.9613     21.4131    111.5320
  1658.3000      7.8851      2.5182      0.0893      7.9894     21.4935    106.7156
  1658.4000      7.8851      2.5395      0.1157      6.6988     21.7324    102.1252
  1658.5000      7.8658      2.5592      0.1306      5.5044     21.7551     96.9640
  1658.6000      7.8658      2.5703      0.1339      4.8319     21.4085     93.1373
  1658.7000      7.8658      2.5721      0.1311      4.7231     21.0534     95.1163
  1658.8000      7.8598      2.5722      0.1220      4.7165     20.6503    100.2591
  1658.9000      7.8598      2.5730      0.1345      4.6638     19.9192    101.6832
  1659.0000      7.8712      2.5713      0.0871      4.7699     19.2333     98.8446
  1659.1000      7.8712      2.5736      0.0825      4.6281     19.1325     96.8233
  1659.2000      7.8712      2.5822      0.1116      4.1116     19.5482     98.8962
  1659.3000      7.8866      2.5815      0.1081      4.1541     20.2471    101.3642
  1659.4000      7.8866      2.5686      0.0655      4.9323     21.0570    100.5813
  1659.5000      7.8897      2.5582      0.0634      5.5620     21.6942    100.5046
  1659.6000      7.8897      2.5584      0.0503      5.5522     22.0656    105.0057
  1659.7000      7.8897      2.5671      0.0922      5.0246     21.8551    111.7580
  1659.8000      7.8819      2.5810      0.0945      4.1816     21.1388    120.2331
  1659.9000      7.8819      2.6011      0.1152      2.9609     20.8980    128.0442
  1660.0000      7.8767      2.6211      0.1226      1.7488     21.1049    125.2830
  1660.1000      7.8767      2.6283      0.1157      1.3139     20.7777    111.3584
  1660.2000      7.8767      2.6196      0.1005      1.8443     19.8987     98.9307
  1660.3000      7.8727      2.6044      0.0782      2.7634     19.0385     93.8424
  1660.4000      7.8727      2.5934      0.0730      3.4279     18.3656     92.1076
  1660.5000      7.8708      2.5941      0.0485      3.3853     17.9745     92.0141
  1660.6000      7.8708      2.6086      0.0943      2.5077     17.8222     95.2280
  1660.7000      7.8708      2.6246      0.0920      1.5377     17.2622     98.9855
  1660.8000      7.8801      2.6331      0.0645      1.0222     16.3192     97.0640
  1660.9000      7.8801      2.6347      0.1006      0.9294     16.1956     89.0881
  1661.0000      7.8946      2.6280      0.0981      1.3363     17.0760     81.7543
  1661.1000      7.8946      2.6167      0.0884      2.0169     17.8616     81.5081
  1661.2000      7.8946      2.6003      0.0868      3.0131     18.3196     87.5666
  1661.3000      7.8976      2.5726      0.0249      4.6885     19.0137     90.8790
  1661.4000      7.8976      2.5442      0.0468      6.4115     20.0421     86.8335
  1661.5000      7.8897      2.5352      0.0137      6.9552     21.1186     80.1306
  1661.6000      7.8897      2.5569      0.0504      5.6431     22.2141     74.0701
  1661.7000      7.8897      2.5937      0.0954      3.4147     23.2775     71.6577
