~Version Information
VERS.                      2.0: CWLS Log ASCII Standard - VERSION 2.0
WRAP.                       NO: One line per depth step
~Well Information Block
STRT.FT               615.0000: 
STOP.FT              2807.0000: 
STEP.FT                 0.1000: 
NULL.                -999.2500: 
COMP.          Pioneer Natural Resources: COMPANY
WELL.              Loews 41-32: WELL
FLD.           Purgatoire River: FIELD
LOC.           751' FNL & 128' FEL: LOCATION
CNTY.               Las Animas: COUNTY
SRVC.                Patterson: SERVICE COMPANY
DATE.          Mon Feb 13 07:19:27 2006: LOG DATE
UWI.           05 071 08693 00: UNIQUE WELL ID
STAT.                 Colorado: STATE
~Curve Information Block
DEPT.FT            0 000 00 00: Depth
DCAL.in                       : CDL Caliper
RHOB.g/cc                     : CDL Bulk Density
RHOC.g/cc                     : CDL Density Correction
DPOR.pu                       : CDL Density Porosity
GR.GAPI                       : Gamma Ray
NPOR.pu                       : Neutron Porosity
~Parameter Information Block
~A  Depth       DCAL        RHOB        RHOC        DPOR         GR         NPOR    
# ...
   759.0000      8.2244      2.4159      0.0893     14.1863    174.2567     27.6371
   759.1000      8.2244      2.3477      0.0253     18.3224    170.5241     27.5792
   759.2000      8.2244      2.3092      0.0167     20.6566    174.3826     27.2591
   759.3000      8.2272      2.3032      0.0099     21.0172    185.6204     26.7021
   759.4000      8.2272      2.3169      0.0053     20.1894    192.1348     26.0502
   759.5000      8.2333      2.3470      0.0420     18.3611    188.1222     25.9011
   759.6000      8.2333      2.3918      0.0842     15.6482    181.3417     26.3606
   759.7000      8.2333      2.4344      0.2372     13.0637    177.3000     26.7077
   759.8000      8.2627      2.4609      0.2709     11.4598    179.8529     26.5291
   759.9000      8.2627      2.4770      0.3201     10.4822    192.8294     26.3957
   760.0000      8.2207      2.4818      0.2740     10.1953    206.6276     26.8766
   760.1000      8.2207      2.4631      0.1943     11.3266    208.7134     27.6256
   760.2000      8.2207      2.4305      0.1097     13.3004    202.9129     27.9600
   760.3000      8.2328      2.4103      0.0803     14.5247    198.9400     27.8988
   760.4000      8.2328      2.4106      0.0986     14.5096    196.7867     27.6583
   760.5000      8.2277      2.4086      0.1342     14.6294    192.2683     27.5244
   760.6000      8.2277      2.3825      0.0564     16.2096    186.7100     27.8906
   760.7000      8.2277      2.3496      0.0053     18.2063    182.3304     28.1402
   760.8000      8.2520      2.3362      0.0492     19.0191    179.0201     27.4221
   760.9000      8.2520      2.3419      0.0253     18.6746    177.4909     26.0671
   761.0000      8.2954      2.3535      0.0262     17.9683    176.6206     25.0638
   761.1000      8.2954      2.3611      0.0517     17.5067    178.3054     24.8257
   761.2000      8.2954      2.3650      0.1015     17.2724    183.5378     25.0180
   761.3000      8.2882      2.3709      0.1328     16.9158    184.4165     25.2120
   761.4000      8.2882      2.3827      0.0993     16.1989    176.1661     25.4467
   761.5000      8.3163      2.3977      0.1403     15.2893    162.9544     25.7025
   761.6000      8.3163      2.4086      0.0874     14.6273    153.1591     25.5354
   761.7000      8.3163      2.4175      0.1109     14.0901    153.7536     25.1047
   761.8000      8.3457      2.4204      0.1188     13.9153    160.5871     24.8770
   761.9000      8.3457      2.3972      0.1399     15.3188    165.9074     24.6534
   762.0000      8.3487      2.3503      0.0419     18.1613    168.5264     24.5415
   762.1000      8.3487      2.3184      0.0364     20.0953    167.9169     25.1289
   762.2000      8.3487      2.3143      0.1058     20.3435    165.9538     26.0693
   762.3000      8.4200      2.3139      0.0462     20.3685    166.2513     26.3050
   762.4000      8.4200      2.3234      0.0252     19.7913    166.7730     25.9897
   762.5000      8.4260      2.3726      0.0650     16.8107    166.2684     26.1127
   762.6000      8.4260      2.4463      0.1933     12.3479    165.9914     26.6326
   762.7000      8.4260      2.4948      0.2324      9.4058    165.3775     26.7561
   762.8000      8.4238      2.5030      0.2375      8.9115    166.5305     25.8249
   762.9000      8.4238      2.4928      0.2456      9.5255    172.0935     24.3251
   763.0000      8.5560      2.4790      0.3300     10.3657    178.8358     23.2410
   763.1000      8.5560      2.4646      0.2260     11.2336    182.1692     22.5666
   763.2000      8.5560      2.4617      0.2200     11.4115    181.2054     22.2645
   763.3000      8.5515      2.4777      0.2579     10.4432    178.2244     22.7241
   763.4000      8.5515      2.5092      0.2243      8.5323    173.4780     23.8392
   763.5000      8.4008      2.5454      0.2540      6.3405    166.8413     24.7301
   763.6000      8.4008      2.5677      0.2563      4.9873    165.3054     24.9983
   763.7000      8.4008      2.5694      0.2783      4.8824    170.9405     25.2936
   763.8000      8.4322      2.5468      0.3361      6.2540    176.1943     26.1509
   763.9000      8.4322      2.4927      0.2991      9.5346    177.0954     27.2402
   764.0000      8.5275      2.4299      0.1151     13.3379    173.9822     28.0618
   764.1000      8.5275      2.3992      0.0781     15.2021    168.9177     28.6592
   764.2000      8.5275      2.4094      0.0793     14.5812    163.6808     29.1006
   764.3000      8.3480      2.4420      0.0379     12.6075    159.3788     29.4379
   764.4000      8.3480      2.4789      0.0993     10.3692    157.9899     29.6682
   764.5000      8.2445      2.5153      0.1091      8.1626    159.0056     28.9380
   764.6000      8.2445      2.5594      0.1538      5.4936    160.1806     27.0790
   764.7000      8.2445      2.6140      0.2135      2.1811    160.8916     25.4393
   764.8000      8.3865      2.6531      0.3188     -0.1886    159.6489     24.7819
   764.9000      8.3865      2.6370      0.2198      0.7867    154.0636     24.6583
   765.0000      8.4069      2.5759      0.1059      4.4904    147.0479     24.6877
   765.1000      8.4069      2.5096      0.0763      8.5074    141.9702     24.7064
   765.2000      8.4069      2.4394      0.0475     12.7652    138.0528     24.8547
   765.3000      8.4068      2.3602     -0.0488     17.5618    137.3164     25.2974
   765.4000      8.4068      2.3052     -0.1309     20.8998    145.0268     25.4110
   765.5000      8.3952      2.3079     -0.1277     20.7319    158.2758     24.5835
   765.6000      8.3952      2.3588     -0.0344     17.6461    166.2166     23.4546
   765.7000      8.3952      2.4128      0.0517     14.3763    165.5160     23.2401
   765.8000      8.4002      2.4332      0.0685     13.1395    165.2504     23.8949
   765.9000      8.4002      2.4133      0.2470     14.3474    168.9395     24.0451
   766.0000      8.4812      2.3664      0.2723     17.1871    167.7476     23.3473
   766.1000      8.4812      2.3092      0.3080     20.6526    160.1809     22.5267
   766.2000      8.4812      2.2503      0.2049     24.2271    155.2793     21.7825
   766.3000      8.4855      2.2071      0.0663     26.8402    156.7121     21.3593
   766.4000      8.4855      2.2012      0.0602     27.1987    159.6220     22.2076
   766.5000      8.4600      2.2377      0.0775     24.9901    161.0518     24.2804
   766.6000      8.4600      2.3127      0.1770     20.4397    161.6698     25.8615
   766.7000      8.4600      2.4273      0.2459     13.4955    159.1864     25.9184
   766.8000      8.6096      2.5661      0.5036      5.0865    153.5769     25.3464
   766.9000      8.6096      2.6758      0.5977     -1.5640    151.0337     25.0093
   767.0000      8.6182      2.7169      0.5091     -4.0534    155.6908     24.7004
   767.1000      8.6182      2.6988      0.4136     -2.9605    165.6161     24.8246
   767.2000      8.6182      2.6518      0.3145     -0.1094    174.4260     25.9281
   767.3000      8.3328      2.6022      0.1807      2.8959    179.1911     27.5055
   767.4000      8.3328      2.5615      0.1217      5.3637    180.6722     28.8532
   767.5000      8.2941      2.5295      0.1233      7.3013    179.3489     29.2921
   767.6000      8.2941      2.5120      0.0407      8.3621    175.2536     29.0478
   767.7000      8.2941      2.5197     -0.0065      7.9000    171.0678     29.0113
   767.8000      8.2920      2.5414      0.0355      6.5841    172.5466     29.1063
   767.9000      8.2920      2.5518      0.0108      5.9511    176.1030     28.7784
   768.0000      8.2848      2.5551     -0.0069      5.7500    173.1076     28.2646
   768.1000      8.2848      2.5672      0.0481      5.0181    166.3785     28.4031
   768.2000      8.2848      2.5844      0.0294      3.9729    160.1683     29.0505
   768.3000      8.2813      2.6011      0.0113      2.9636    152.1751     29.1653
   768.4000      8.2813      2.6130      0.0342      2.2413    146.1206     28.7247
   768.5000      8.2837      2.6142      0.0631      2.1686    146.1087     28.7508
