~Version Information
VERS.                      2.0: CWLS Log ASCII Standard - VERSION 2.0
WRAP.                       NO: One line per depth step
~Well Information Block
STRT.FT                 0.0000: 
STOP.FT              1877.2500: 
STEP.FT                 0.2500: 
NULL.                -999.2500: 
COMP.          Pioneer Natural Resources: COMPANY
WELL.            Corazon 13-10: WELL
FLD.           Purgatoire River: FIELD
LOC.           2510' FSL & 439' FWL--------: LOCATION
PROV.                 Colorado: PROVINCE
CNTY.               Las Animas: COUNTRY
SRVC.                         : SERVICE COMPANY
DATE.          Mon Dec 19 14:34:49 2005: LOG DATE
UWI.                          : UNIQUE WELL ID
~Curve Information Block
DEPT.FT            0 000 00 00: Depth
CCL.                          : Casing Collar Locator
TT3.usec                      : CBL 3' Travel Time
AMP3.mV                       : CBL 3' Amplitude
AMP5.mV                       : CBL 5' Amplitude
GR.GAPI                       : Gamma Ray
~Parameter Information Block
~A  Depth       CCL         TT3         AMP3        AMP5         GR     
# ...
  1484.0000      0.0000    517.4905      5.0595      0.4312     46.9280
  1484.2500      0.0000    486.1049      5.0860      0.4331     46.7848
  1484.5000      0.0000    463.1516      5.1221      0.4300     46.8719
  1484.7500      0.0000    451.1685      5.1532      0.4237     46.9086
  1485.0000      0.0000    447.3478      5.1643      0.4280     46.4014
  1485.2500      0.0000    447.5693      5.1547      0.4515     45.2975
  1485.5000      0.0000    448.8117      5.1442      0.4842     43.7547
  1485.7500      0.0000    449.9318      5.1596      0.5048     41.7761
  1486.0000      0.0000    451.5556      5.2135      0.5012     39.5146
  1486.2500      0.0000    455.6520      5.2977      0.4810     37.7130
  1486.5000      0.0000    464.3858      5.3922      0.4656     37.4437
  1486.7500      0.0000    477.6464      5.4770      0.4737     39.2138
  1487.0000      0.0000    490.8131      5.5386      0.5103     42.2308
  1487.2500      0.0000    496.6462      5.5735      0.5623     44.6979
  1487.5000      0.0000    491.3409      5.5847      0.6041     45.1235
  1487.7500      0.0000    477.9789      5.5730      0.6151     43.4904
  1488.0000      0.0000    462.8714      5.5316      0.5952     41.1619
  1488.2500      0.0000    449.8513      5.4513      0.5634     39.7486
  1488.5000      0.0000    439.2083      5.3284      0.5410     40.1086
  1488.7500      0.0000    430.3851      5.1718      0.5375     42.1309
  1489.0000      0.0000    423.7271      5.0047      0.5511     45.1154
  1489.2500      0.0000    420.1490      4.8561      0.5765     48.3228
  1489.5000      0.0000    420.6857      4.7455      0.6064     51.3889
  1489.7500      0.0000    426.8759      4.6718      0.6279     54.4624
  1490.0000      0.0000    440.2699      4.6194      0.6241     58.0405
  1490.2500      0.0000    459.6378      4.5741      0.5825     62.5362
  1490.5000      0.0000    478.3030      4.5346      0.5059     67.7778
  1490.7500      0.0000    486.8538      4.5136      0.4142     72.8108
  1491.0000      0.0000    481.1001      4.5293      0.3341     76.2026
  1491.2500      0.0000    466.6219      4.5930      0.2833     76.7880
  1491.5000      0.0000    454.1863      4.7002      0.2631     74.4323
  1491.7500      0.0000    451.7133      4.8305      0.2646     70.0850
  1492.0000      0.0000    460.6229      4.9597      0.2800     64.9666
  1492.2500      0.0000    477.3007      5.0716      0.3098     59.8827
  1492.5000      0.0000    497.3445      5.1608      0.3598     55.4970
  1492.7500      0.0000    520.0025      5.2255      0.4301     52.8383
  1493.0000      0.0000    547.8644      5.2633      0.5080     52.8669
  1493.2500      0.0000    580.9507      5.2754      0.5684     55.4897
  1493.5000      0.0000    613.2501      5.2706      0.5844     59.3310
  1493.7500      0.0000    637.1767      5.2605      0.5455     62.5175
  1494.0000      0.0000    649.9146      5.2520      0.4697     63.7108
  1494.2500      0.0000    654.2562      5.2465      0.3936     62.7562
  1494.5000      0.0000    654.8953      5.2471      0.3458     60.7208
  1494.7500      0.0000    655.1752      5.2626      0.3322     59.2738
  1495.0000      0.0000    656.2375      5.3010      0.3442     59.7610
  1495.2500      0.0000    657.5097      5.3585      0.3729     62.5268
  1495.5000      0.0000    657.7063      5.4153      0.4130     66.6963
  1495.7500      0.0000    656.0098      5.4470      0.4564     70.4616
  1496.0000      0.0000    652.7892      5.4384      0.4900     71.9936
  1496.2500      0.0000    649.4977      5.3938      0.5077     70.6403
  1496.5000      0.0000    648.0974      5.3348      0.5190     67.4972
  1496.7500      0.0000    650.1166      5.2880      0.5403     64.7877
  1497.0000      0.0000    655.3422      5.2701      0.5770     64.4311
  1497.2500      0.0000    661.5287      5.2835      0.6210     66.7482
  1497.5000      0.0000    666.2615      5.3232      0.6615     70.1214
  1497.7500      0.0000    669.1454      5.3836      0.6896     71.8445
  1498.0000      0.0000    671.6854      5.4567      0.6957     69.8101
  1498.2500      0.0000    675.5125      5.5287      0.6734     63.9895
  1498.5000      0.0000    681.5127      5.5816      0.6282     56.5088
  1498.7500      0.0000    689.8691      5.6054      0.5757     50.1760
  1499.0000      0.0000    699.4987      5.6092      0.5291     46.7038
  1499.2500      0.0000    707.7034      5.6202      0.4929     46.0095
  1499.5000      0.0000    711.7568      5.6620      0.4670     46.8805
  1499.7500      0.0000    711.0178      5.7346      0.4525     48.1882
  1500.0000      0.0000    707.0165      5.8162      0.4538     49.6338
  1500.2500      0.0000    701.9190      5.8812      0.4781     51.5816
  1500.5000      0.0000    697.3757      5.9128      0.5270     54.4657
  1500.7500      0.0000    694.2333      5.9077      0.5873     58.6838
  1501.0000      0.0000    692.5836      5.8790      0.6361     64.9278
  1501.2500      0.0000    691.9634      5.8511      0.6561     73.8694
  1501.5000      0.0000    691.6182      5.8450      0.6456     85.0078
  1501.7500      0.0000    690.8026      5.8675      0.6144     96.2267
  1502.0000      0.0000    689.2466      5.9186      0.5749    105.0894
  1502.2500      0.0000    687.5457      6.0054      0.5379    110.6492
  1502.5000      0.0000    686.8235      6.1338      0.5126    113.8580
  1502.7500      0.0000    687.6652      6.2853      0.5058    116.4073
  1503.0000      0.0000    689.4421      6.4157      0.5153    119.4652
  1503.2500      0.0000    690.7766      6.4876      0.5301    123.1909
  1503.5000      0.0000    690.5591      6.4980      0.5388    126.7142
  1503.7500      0.0000    688.5847      6.4728      0.5374    128.5444
  1504.0000      0.0000    685.6351      6.4432      0.5289    127.6248
  1504.2500      0.0000    683.1368      6.4272      0.5174    124.1597
  1504.5000      0.0000    682.4996      6.4193      0.5019    119.1626
  1504.7500      0.0000    684.5027      6.3930      0.4749    113.4694
  1505.0000      0.0000    689.1786      6.3189      0.4308    107.8247
  1505.2500      0.0000    696.2852      6.1946      0.3766    103.7128
  1505.5000      0.0000    705.9102      6.0527      0.3338    103.0013
  1505.7500      0.0000    718.8118      5.9242      0.3234    106.1712
  1506.0000      0.0000    736.5230      5.7835      0.3443    111.4195
  1506.2500      0.0000    760.6323      5.5612      0.3715    115.9898
  1506.5000      0.0000    790.0980      5.2403      0.3775    118.0692
  1506.7500      0.0000    818.2133      4.9218      0.3573    117.2928
  1507.0000      0.0000    834.4744      4.7518      0.3333    114.1938
  1507.2500      0.0000    832.4027      4.7807      0.3371    109.8363
  1507.5000      0.0000    815.5617      4.9139      0.3825    105.7969
  1507.7500      2.0000    794.1523      4.9886      0.4522    103.8489
  1508.0000      0.0000    775.7617      4.8865      0.5116    105.1397
  1508.2500      0.0000    760.8605      4.6083      0.5355    109.3926
  1508.5000      0.0000    746.8420      4.2767      0.5230    114.9005
  1508.7500      0.0000    733.6816      4.0552      0.4905    119.5304
  1509.0000      0.0000    724.0541      4.0306      0.4532    121.9718
  1509.2500      0.0000    719.2635      4.1721      0.4140    122.0643
  1509.5000      0.0000    717.1933      4.3964      0.3733    120.0989
  1509.7500      0.0000    714.8035      4.6455      0.3436    116.2308
  1510.0000      0.0000    711.5803      4.8958      0.3426    110.7739
  1510.2500      0.0000    709.5218      5.1213      0.3711    104.7211
  1510.5000      0.0000    710.0884      5.2803      0.4108     99.5143
  1510.7500      0.0000    712.1210      5.3452      0.4444     96.1523
  1511.0000      0.0000    712.9438      5.3261      0.4725     94.5759
  1511.2500      0.0000    710.4860      5.2598      0.5072     93.8649
  1511.5000      0.0000    703.6203      5.1795      0.5511     92.9864
  1511.7500      0.0000    690.6182      5.1043      0.5892     91.6679
