~Version Information
VERS.                      2.0: CWLS Log ASCII Standard - VERSION 2.0
WRAP.                       NO: One line per depth step
~Well Information Block
STRT.FT               650.0000: 
STOP.FT              2053.7000: 
STEP.FT                 0.1000: 
NULL.                -999.2500: 
COMP.          Pioneer Natural Resources: COMPANY
WELL.           Alabaster 11-8: WELL
FLD.           Purgatoire River: FIELD
LOC.           1249' FNL & 215' FWL--: LOCATION
PROV.                 Colorado: PROVINCE
CNTY.               Las Animas: COUNTRY
SRVC.                Patterson: SERVICE COMPANY
DATE.          Thu Jan 19 09:16:54 2006: LOG DATE
UWI.           05 071 08642 00: UNIQUE WELL ID
~Curve Information Block
DEPT.FT            0 000 00 00: Depth
DCAL.in                       : CDL Caliper
RHOB.g/cc                     : CDL Bulk Density
RHOC.g/cc                     : CDL Density Correction
DPOR.pu                       : CDL Density Porosity
NPOR.pu                       : Neutron Porosity
GR.GAPI                       : Gamma Ray
~Parameter Information Block
~A  Depth       DCAL        RHOB        RHOC        DPOR        NPOR         GR     
# ...
  1110.8000      8.1145      2.6598      0.0521     -0.5930     22.4000     99.0252
  1110.9000      8.1145      2.6842      0.0901     -2.0724     22.4755    103.4916
  1111.0000      8.1179      2.6906      0.0897     -2.4635     22.9977    106.9658
  1111.1000      8.1179      2.6911      0.0332     -2.4937     23.4262    103.6830
  1111.2000      8.1179      2.6936      0.0683     -2.6450     23.4117     94.8455
  1111.3000      8.1194      2.6969      0.0066     -2.8417     23.4214     89.4882
  1111.4000      8.1194      2.7016      0.0685     -3.1243     23.8028     90.0174
  1111.5000      8.1179      2.7047      0.0227     -3.3175     24.4008     90.7011
  1111.6000      8.1179      2.6970      0.0496     -2.8494     24.8674     87.9500
  1111.7000      8.1179      2.6646      0.0274     -0.8861     24.7767     84.2218
  1111.8000      8.1155      2.6097     -0.0116      2.4408     24.1766     82.1561
  1111.9000      8.1155      2.5618     -0.1057      5.3476     23.7805     79.7147
  1112.0000      8.1152      2.5429     -0.0708      6.4911     23.9486     75.6189
  1112.1000      8.1152      2.5445     -0.0771      6.3934     23.8569     72.6148
  1112.2000      8.1152      2.5485     -0.0090      6.1529     22.6715     72.5919
  1112.3000      8.1164      2.5449     -0.0272      6.3690     21.0261     75.3973
  1112.4000      8.1164      2.5377      0.0249      6.8080     19.9468     81.0111
  1112.5000      8.1176      2.5376     -0.0178      6.8120     19.5324     86.6510
  1112.6000      8.1176      2.5517     -0.0115      5.9564     19.5856     89.4468
  1112.7000      8.1176      2.5733      0.0402      4.6506     19.7969     91.6828
  1112.8000      8.1192      2.5928      0.0246      3.4677     19.5276     95.5001
  1112.9000      8.1192      2.6082      0.0489      2.5314     18.6140     99.6933
  1113.0000      8.1201      2.6123      0.0541      2.2872     17.7572    101.4167
  1113.1000      8.1201      2.5975      0.0324      3.1803     17.8193     98.3021
  1113.2000      8.1201      2.5757      0.0008      4.5024     18.6055     91.7524
  1113.3000      8.1212      2.5644      0.0487      5.1874     19.1619     87.4781
  1113.4000      8.1212      2.5599      0.0461      5.4581     19.3006     88.8890
  1113.5000      8.1216      2.5543      0.0096      5.8028     19.3697     92.4705
  1113.6000      8.1216      2.5533      0.0143      5.8601     19.5818     94.5317
  1113.7000      8.1216      2.5572      0.0302      5.6228     19.9642     94.7312
  1113.8000      8.1204      2.5563      0.0289      5.6768     20.0890     93.3215
  1113.9000      8.1204      2.5536      0.0165      5.8428     19.8026     92.2787
  1114.0000      8.1192      2.5616     -0.0100      5.3594     19.7222     95.7004
  1114.1000      8.1192      2.5820     -0.0193      4.1191     19.8920    103.2905
  1114.2000      8.1192      2.5996      0.0495      3.0547     19.7740    106.4017
  1114.3000      8.1171      2.6049      0.0611      2.7313     19.6214     98.3401
  1114.4000      8.1171      2.6080      0.0416      2.5465     19.7298     86.3781
  1114.5000      8.1142      2.6078      0.0801      2.5569     19.5320     81.1468
  1114.6000      8.1142      2.5930      0.0375      3.4546     18.6772     83.7820
  1114.7000      8.1142      2.5703      0.0569      4.8290     17.8174     87.3583
  1114.8000      8.1125      2.5577     -0.0002      5.5955     17.7556     85.2719
  1114.9000      8.1125      2.5641      0.0460      5.2065     18.1708     79.4448
  1115.0000      8.1112      2.5801      0.0360      4.2376     18.1384     75.4048
  1115.1000      8.1112      2.5841      0.0935      3.9920     17.4808     74.7081
  1115.2000      8.1112      2.5670      0.0293      5.0311     16.7053     76.2971
  1115.3000      8.1107      2.5445      0.0364      6.3954     16.2164     78.7881
  1115.4000      8.1107      2.5327     -0.0238      7.1086     16.0799     79.4147
  1115.5000      8.1104      2.5359      0.0501      6.9141     16.2708     77.1834
  1115.6000      8.1104      2.5450      0.0281      6.3643     16.5030     78.5181
  1115.7000      8.1104      2.5477      0.0612      6.1986     16.2041     86.8203
  1115.8000      8.1105      2.5461      0.0323      6.2973     15.3638     94.6693
  1115.9000      8.1105      2.5527      0.0247      5.8941     14.8608     94.1678
  1116.0000      8.1112      2.5634      0.0776      5.2498     15.2138     86.7376
  1116.1000      8.1112      2.5598      0.0542      5.4656     15.8252     80.8920
  1116.2000      8.1112      2.5461      0.0470      6.2987     16.0412     80.4371
  1116.3000      8.1132      2.5404      0.0446      6.6448     16.0966     81.7558
  1116.4000      8.1132      2.5397      0.0852      6.6843     16.3358     84.3000
  1116.5000      8.1130      2.5370      0.0286      6.8506     16.5155     87.8767
  1116.6000      8.1130      2.5465      0.0490      6.2755     16.4643     88.0279
  1116.7000      8.1130      2.5692      0.0904      4.8982     16.3661     84.1478
  1116.8000      8.1110      2.5854      0.0698      3.9137     16.3017     79.5043
  1116.9000      8.1110      2.5889      0.0670      3.7041     16.3121     77.3069
  1117.0000      8.1106      2.5883      0.0521      3.7382     16.3636     79.9802
  1117.1000      8.1106      2.5907      0.0892      3.5964     16.2484     85.8192
  1117.2000      8.1106      2.5932      0.0700      3.4413     15.8615     89.4342
  1117.3000      8.1122      2.5953      0.0430      3.3164     15.4374     88.1411
  1117.4000      8.1122      2.6036      0.0576      2.8127     15.0647     83.6170
  1117.5000      8.1145      2.6181      0.0741      1.9309     14.6354     78.0052
  1117.6000      8.1145      2.6271      0.0702      1.3906     14.3823     73.2385
  1117.7000      8.1145      2.6185      0.0738      1.9100     14.5771     70.3533
  1117.8000      8.1148      2.5978      0.0519      3.1615     15.0263     69.1731
  1117.9000      8.1148      2.5861      0.0585      3.8706     15.3830     69.4934
  1118.0000      8.1157      2.5934      0.0572      3.4286     15.4205     70.1725
  1118.1000      8.1157      2.6051      0.0597      2.7214     15.1535     70.4517
  1118.2000      8.1157      2.6045      0.1008      2.7563     14.8037     68.7294
  1118.3000      8.1163      2.5927      0.0613      3.4708     14.6825     64.3798
  1118.4000      8.1163      2.5806      0.0765      4.2079     14.9547     59.6856
  1118.5000      8.1140      2.5762      0.0371      4.4736     15.4974     57.2488
  1118.6000      8.1140      2.5798      0.0369      4.2517     15.9761     57.8724
  1118.7000      8.1140      2.5842      0.0318      3.9872     16.2301     60.5255
  1118.8000      8.1129      2.5828      0.0311      4.0755     16.3836     61.9673
  1118.9000      8.1129      2.5794      0.0312      4.2782     16.5518     61.4571
  1119.0000      8.1138      2.5908     -0.0100      3.5876     16.9097     61.8345
  1119.1000      8.1138      2.6239      0.0452      1.5815     17.8665     62.4768
  1119.2000      8.1138      2.6626      0.0508     -0.7635     19.3991     62.1914
  1119.3000      8.1133      2.6928      0.0871     -2.5960     20.7022     63.6135
  1119.4000      8.1133      2.7160      0.0784     -3.9972     21.5308     67.5023
  1119.5000      8.1108      2.7371      0.0547     -5.2762     22.5614     71.4828
  1119.6000      8.1108      2.7511      0.1040     -6.1266     23.9704     75.6267
  1119.7000      8.1108      2.7488      0.0419     -5.9882     25.4525     78.3030
  1119.8000      8.1109      2.7357      0.0503     -5.1923     26.7718     75.0028
  1119.9000      8.1109      2.7224      0.0151     -4.3870     27.1731     68.7520
  1120.0000      8.1129      2.7086     -0.0105     -3.5536     26.3496     66.8243
  1120.1000      8.1129      2.6826     -0.0404     -1.9780     25.4074     70.1015
  1120.2000      8.1129      2.6466     -0.0707      0.2068     24.9765     76.6294
  1120.3000      8.1133      2.6263     -0.0264      1.4391     24.4496     84.7356
