~Version Information
VERS.                      2.0: CWLS Log ASCII Standard - VERSION 2.0
WRAP.                       NO: One line per depth step
~Well Information Block
STRT.FT               245.0000: 
STOP.FT              1006.0000: 
STEP.FT                 0.1000: 
NULL.                -999.2500: 
COMP.          Pioneer Natural Resources: COMPANY
WELL.              Atlas 32-18: WELL
FLD.           Purgatoire River: FIELD
LOC.           1892' FNL & 1456' FEL: LOCATION
PROV.                 Colorado: PROVINCE
CNTY.               Las Animas: COUNTRY
SRVC.                Patterson: SERVICE COMPANY
DATE.          Mon Nov 21 08:58:56 2005: LOG DATE
UWI.           05 071 08556 00: UNIQUE WELL ID
~Curve Information Block
DEPT.FT            0 000 00 00: Depth
DCAL.in                       : CDL Caliper
RHOB.g/cc                     : CDL Bulk Density
RHOC.g/cc                     : CDL Density Correction
DPOR.pu                       : CDL Density Porosity
GR.GAPI                       : Gamma Ray
NPOR.pu                       : Neutron Porosity
~Parameter Information Block
~A  Depth       DCAL        RHOB        RHOC        DPOR         GR         NPOR    
# ...
   648.2000      7.8663      2.6027      0.0287      2.8638     37.2132     11.7513
   648.3000      7.8803      2.6183      0.0880      1.9200     40.1199      8.0925
   648.4000      7.8803      2.6322      0.0465      1.0775     45.0499      4.0998
   648.5000      7.9135      2.6368      0.0386      0.8003     51.8965      2.1161
   648.6000      7.9135      2.6276      0.0792      1.3587     58.0386      3.5738
   648.7000      7.9135      2.6098      0.0620      2.4390     60.8769      7.9952
   648.8000      7.9393      2.5956      0.0245      3.2991     61.7864     12.9241
   648.9000      7.9393      2.5901      0.0269      3.6331     64.4471     15.2109
   649.0000      7.9269      2.5854      0.0560      3.9178     70.1869     15.8791
   649.1000      7.9269      2.5632      0.0499      5.2611     77.4158     15.8282
   649.2000      7.9269      2.5232     -0.0389      7.6832     90.9547     14.1577
   649.3000      7.9009      2.4959     -0.0027      9.3397     94.7965     11.4974
   649.4000      7.9009      2.5074     -0.0306      8.6405    100.1601     10.1890
   649.5000      7.9935      2.5508      0.0133      6.0112    104.5616     11.4737
   649.6000      7.9935      2.5947      0.0605      3.3507    101.9960     14.3905
   649.7000      7.9935      2.6210      0.0743      1.7564     93.1080     16.2691
   649.8000      7.9866      2.6307      0.0812      1.1723     86.3538     16.2559
   649.9000      7.9866      2.6193      0.1335      1.8633     85.3740     16.0146
   650.0000      7.9598      2.5903      0.0248      3.6202     84.4825     16.2864
   650.1000      7.9598      2.5668      0.0543      5.0406     83.0946     16.0292
   650.2000      7.9598      2.5527      0.1009      5.8977     95.4193     14.9594
   650.3000      7.9504      2.5380      0.0614      6.7891    104.7628     14.1626
   650.4000      7.9504      2.5378      0.0175      6.8007    109.7852     13.8815
   650.5000      7.9094      2.5659      0.0524      5.0961    106.7384     14.0529
   650.6000      7.9094      2.6011      0.1045      2.9651    101.2692     15.2693
   650.7000      7.9094      2.6177      0.0756      1.9605    100.3557     17.2014
   650.8000      7.8864      2.6193      0.0648      1.8592    102.9493     18.0966
   650.9000      7.8864      2.6161      0.0820      2.0528    104.8295     17.4810
   651.0000      7.8986      2.6043      0.0817      2.7707    103.3148     16.5062
   651.1000      7.8986      2.5853      0.0554      3.9232     99.0672     15.9328
   651.2000      7.8986      2.5657      0.0833      5.1086     96.8665     15.8684
   651.3000      7.8995      2.5506      0.0104      6.0266     96.9955     16.1295
   651.4000      7.8995      2.5438      0.0453      6.4360     97.6413     16.5931
   651.5000      7.9291      2.5350      0.0539      6.9677    101.0262     17.3941
   651.6000      7.9291      2.5167     -0.0043      8.0768    106.8474     17.9989
   651.7000      7.9291      2.4977      0.0302      9.2285    112.9805     17.7430
   651.8000      7.8958      2.4836     -0.0139     10.0836    120.6722     17.2560
   651.9000      7.8958      2.4780     -0.0148     10.4240    128.1661     17.1400
   652.0000      7.9458      2.4846      0.0288     10.0246    130.9464     17.3081
   652.1000      7.9458      2.4964      0.0267      9.3101    130.3300     17.4059
   652.2000      7.9458      2.5004      0.0374      9.0669    128.1891     17.0964
   652.3000      7.9627      2.4853      0.0688      9.9806    123.5845     16.9626
   652.4000      7.9627      2.4537      0.0257     11.8953    118.5779     17.8354
   652.5000      7.9560      2.4270      0.0182     13.5153    117.7527     19.2004
   652.6000      7.9560      2.4149      0.0564     14.2500    121.2124     19.8064
   652.7000      7.9560      2.3963      0.0470     15.3762    126.6109     19.3988
   652.8000      7.9524      2.3597      0.0343     17.5934    131.1111     18.7300
   652.9000      7.9524      2.3285     -0.0160     19.4842    130.7091     18.2544
   653.0000      7.9563      2.3214      0.0455     19.9148    125.2754     18.4047
   653.1000      7.9563      2.3269      0.0764     19.5800    118.7962     19.5449
   653.2000      7.9563      2.3349      0.1356     19.0985    115.1097     20.8587
   653.3000      7.9517      2.3532      0.1128     17.9906    117.1541     21.5361
   653.4000      7.9517      2.3845      0.1664     16.0888    125.4632     22.0476
   653.5000      7.9632      2.4125      0.1993     14.3966    134.8662     22.8214
   653.6000      7.9632      2.4251      0.1693     13.6328    137.6629     23.4592
   653.7000      7.9632      2.4158      0.2392     14.1924    133.9516     23.6918
   653.8000      7.9844      2.3686      0.1869     17.0553    129.5094     23.5882
   653.9000      7.9844      2.2860      0.0970     22.0611    128.5972     23.4422
   654.0000      8.0254      2.1933      0.0717     27.6782    130.7813     23.5640
   654.1000      8.0254      2.1100      0.0518     32.7255    132.5618     23.8583
   654.2000      8.0254      2.0420      0.0572     36.8504    132.7447     23.9655
   654.3000      8.2261      1.9896      0.0389     40.0258    130.9519     23.9045
   654.4000      8.2261      1.9628     -0.0264     41.6489    128.1973     23.9863
   654.5000      8.2495      1.9756      0.0327     40.8723    123.5871     24.5860
   654.6000      8.2495      2.0256      0.0698     37.8452    116.8254     25.8444
   654.7000      8.2495      2.1002      0.1184     33.3207    114.2979     26.9338
   654.8000      8.0915      2.1807      0.2262     28.4421    118.3502     26.8965
   654.9000      8.0915      2.2474      0.1746     24.4004    120.9664     26.1181
   655.0000      7.9955      2.2963      0.1881     21.4362    116.3297     25.6394
   655.1000      7.9955      2.3299      0.1062     19.4024    108.7247     25.8428
   655.2000      7.9955      2.3509      0.0730     18.1283    104.6061     26.2092
   655.3000      7.9913      2.3667      0.0573     17.1683    104.0572     26.2344
   655.4000      7.9913      2.3879      0.0293     15.8851    105.0600     25.8761
   655.5000      8.0077      2.4153      0.0595     14.2234    108.9788     24.9106
   655.6000      8.0077      2.4344      0.0386     13.0644    116.5201     23.1968
   655.7000      8.0077      2.4439     -0.0113     12.4904    124.1299     21.4711
   655.8000      8.0240      2.4580      0.0274     11.6340    128.3089     20.6143
   655.9000      8.0240      2.4691      0.0425     10.9612    127.3094     20.6884
   656.0000      8.0216      2.4581      0.0454     11.6297    123.0794     20.1677
   656.1000      8.0216      2.4294      0.0059     13.3718    119.3847     17.7685
   656.2000      8.0216      2.4066     -0.0005     14.7495    118.9962     15.6714
   656.3000      8.0348      2.4080     -0.0437     14.6691    125.0764     16.2330
   656.4000      8.0348      2.4273      0.0290     13.4984    135.8737     18.6417
   656.5000      8.0396      2.4437      0.0432     12.5015    146.2842     20.1742
   656.6000      8.0396      2.4449      0.0945     12.4317    155.0934     20.3465
   656.7000      8.0396      2.4369      0.0485     12.9148    158.7421     20.9437
   656.8000      8.0036      2.4333      0.0836     13.1330    152.6196     21.9945
   656.9000      8.0036      2.4350      0.0913     13.0321    142.7670     21.8817
   657.0000      8.0054      2.4414      0.0742     12.6433    140.1642     20.6549
   657.1000      8.0054      2.4534      0.1191     11.9138    143.8831     19.8837
   657.2000      8.0054      2.4595      0.0981     11.5434    145.1500     20.3926
   657.3000      8.0519      2.4458      0.0846     12.3743    143.5709     21.8050
   657.4000      8.0519      2.4147      0.0528     14.2579    142.8215     23.3863
   657.5000      8.0547      2.3899     -0.0182     15.7634    140.9593     24.6497
   657.6000      8.0547      2.3840      0.0609     16.1225    137.7303     25.3700
   657.7000      8.0547      2.3873      0.0381     15.9221    135.7902     25.1765
