~Version Information
VERS.                      2.0: CWLS Log ASCII Standard - VERSION 2.0
WRAP.                       NO: One line per depth step
~Well Information Block
STRT.FT               615.0000: 
STOP.FT              1607.0000: 
STEP.FT                 0.1000: 
NULL.                -999.2500: 
COMP.          Pioneer Natural Resources: COMPANY
WELL.          Galloway 32-13 Tr: WELL
FLD.           Purgatoire River: FIELD
LOC.           1910' FNL & 2002' FEL: LOCATION
PROV.                 Colorado: PROVINCE
CNTY.               Las Animas: COUNTRY
SRVC.                Patterson: SERVICE COMPANY
DATE.          Mon Nov 14 07:13:22 2005: LOG DATE
UWI.           05 071 08608 00: UNIQUE WELL ID
~Curve Information Block
DEPT.FT            0 000 00 00: Depth
DCAL.in                       : CDL Caliper
RHOB.g/cc                     : CDL Bulk Density
RHOC.g/cc                     : CDL Density Correction
DPOR.pu                       : CDL Density Porosity
GR.GAPI                       : Gamma Ray
NPOR.pu                       : Neutron Porosity
~Parameter Information Block
~A  Depth       DCAL        RHOB        RHOC        DPOR         GR         NPOR    
# ...
  1594.2000      7.8526      2.6452      0.0551      0.2894   -999.2500   -999.2500
  1594.3000      7.8596      2.6813      0.0788     -1.8983   -999.2500   -999.2500
  1594.4000      7.8596      2.7039      0.1103     -3.2639   -999.2500   -999.2500
  1594.5000      7.8604      2.7089      0.0853     -3.5692   -999.2500   -999.2500
  1594.6000      7.8604      2.7059      0.0975     -3.3876   -999.2500   -999.2500
  1594.7000      7.8604      2.6935      0.0738     -2.6382   -999.2500   -999.2500
  1594.8000      7.8224      2.6720      0.0195     -1.3363   -999.2500   -999.2500
  1594.9000      7.8224      2.6534     -0.0048     -0.2038   -999.2500   -999.2500
  1595.0000      7.8135      2.6377     -0.0025      0.7460   -999.2500   -999.2500
  1595.1000      7.8135      2.6171     -0.0216      1.9960   -999.2500   -999.2500
  1595.2000      7.8135      2.6073     -0.0353      2.5855   -999.2500   -999.2500
  1595.3000      7.7967      2.6292      0.0617      1.2581   -999.2500   -999.2500
  1595.4000      7.7967      2.6549      0.1703     -0.2963   -999.2500   -999.2500
  1595.5000      7.8230      2.6404      0.1315      0.5789   -999.2500   -999.2500
  1595.6000      7.8230      2.5976      0.0593      3.1745   -999.2500   -999.2500
  1595.7000      7.8230      2.5622      0.0779      5.3184   -999.2500   -999.2500
  1595.8000      7.8553      2.5350      0.0803      6.9686   -999.2500   -999.2500
  1595.9000      7.8553      2.5049      0.0703      8.7920   -999.2500   -999.2500
  1596.0000      7.8127      2.4810      0.0070     10.2400   -999.2500   -999.2500
  1596.1000      7.8127      2.4796      0.0256     10.3289   -999.2500   -999.2500
  1596.2000      7.8127      2.5042      0.0357      8.8386   -999.2500   -999.2500
  1596.3000      7.7985      2.5373      0.1235      6.8299   -999.2500   -999.2500
  1596.4000      7.7985      2.5553      0.0902      5.7406   -999.2500   -999.2500
  1596.5000      7.8054      2.5574      0.1001      5.6104   -999.2500   -999.2500
  1596.6000      7.8054      2.5620      0.0683      5.3313   -999.2500   -999.2500
  1596.7000      7.8054      2.5783      0.0858      4.3449   -999.2500   -999.2500
  1596.8000      7.8356      2.5917      0.1005      3.5349   -999.2500   -999.2500
  1596.9000      7.8356      2.5851      0.1118      3.9341   -999.2500   -999.2500
  1597.0000      7.8539      2.5660      0.0386      5.0928   -999.2500   -999.2500
  1597.1000      7.8539      2.5592      0.0279      5.5015   -999.2500   -999.2500
  1597.2000      7.8539      2.5693      0.0701      4.8883   -999.2500   -999.2500
  1597.3000      7.8530      2.5732      0.0848      4.6517   -999.2500   -999.2500
  1597.4000      7.8530      2.5609      0.0721      5.3990   -999.2500   -999.2500
  1597.5000      7.8706      2.5465      0.0414      6.2742   -999.2500   -999.2500
  1597.6000      7.8706      2.5450      0.0302      6.3607   -999.2500   -999.2500
  1597.7000      7.8706      2.5652      0.0376      5.1400   -999.2500   -999.2500
  1597.8000      7.8581      2.6051      0.0733      2.7187   -999.2500   -999.2500
  1597.9000      7.8581      2.6459      0.1035      0.2470   -999.2500   -999.2500
  1598.0000      7.8558      2.6670      0.1162     -1.0275   -999.2500   -999.2500
  1598.1000      7.8558      2.6628      0.1316     -0.7760   -999.2500   -999.2500
  1598.2000      7.8558      2.6427      0.1168      0.4443   -999.2500   -999.2500
  1598.3000      7.8576      2.6217      0.1033      1.7138   -999.2500   -999.2500
  1598.4000      7.8576      2.6136      0.0654      2.2074   -999.2500   -999.2500
  1598.5000      7.8562      2.6188      0.1177      1.8899   -999.2500   -999.2500
  1598.6000      7.8562      2.6206      0.0781      1.7841   -999.2500   -999.2500
  1598.7000      7.8562      2.6103      0.0511      2.4058   -999.2500   -999.2500
  1598.8000      7.8481      2.5949      0.0459      3.3393   -999.2500   -999.2500
  1598.9000      7.8481      2.5812      0.0584      4.1719   -999.2500   -999.2500
  1599.0000      7.8514      2.5753      0.0479      4.5299   -999.2500   -999.2500
  1599.1000      7.8514      2.5831      0.0699      4.0531   -999.2500   -999.2500
  1599.2000      7.8514      2.5986      0.0985      3.1174   -999.2500   -999.2500
  1599.3000      7.8546      2.6121      0.0637      2.2974   -999.2500   -999.2500
  1599.4000      7.8546      2.6237      0.0816      1.5960   -999.2500   -999.2500
  1599.5000      7.8609      2.6354      0.0845      0.8829   -999.2500   -999.2500
  1599.6000      7.8609      2.6456      0.0807      0.2680   -999.2500   -999.2500
  1599.7000      7.8609      2.6429      0.0875      0.4300   -999.2500   -999.2500
  1599.8000      7.8180      2.6172      0.1015      1.9885   -999.2500   -999.2500
  1599.9000      7.8180      2.5818      0.0274      4.1356   -999.2500   -999.2500
  1600.0000      7.8186      2.5660     -0.0202      5.0931   -999.2500   -999.2500
  1600.1000      7.8186      2.5712      0.0504      4.7769   -999.2500   -999.2500
  1600.2000      7.8186      2.5690      0.0400      4.9089   -999.2500   -999.2500
  1600.3000      7.8074      2.5523     -0.0034      5.9200   -999.2500   -999.2500
  1600.4000      7.8074      2.5411      0.0226      6.6015   -999.2500   -999.2500
  1600.5000      7.8167      2.5448     -0.0071      6.3768   -999.2500   -999.2500
  1600.6000      7.8167      2.5529      0.0483      5.8858   -999.2500   -999.2500
  1600.7000      7.8167      2.5498      0.0456      6.0704   -999.2500   -999.2500
  1600.8000      7.8435      2.5403      0.0379      6.6479   -999.2500   -999.2500
  1600.9000      7.8435      2.5406      0.0602      6.6326   -999.2500   -999.2500
  1601.0000      7.8509      2.5471      0.0919      6.2369   -999.2500   -999.2500
  1601.1000      7.8509      2.5520      0.0437      5.9403   -999.2500   -999.2500
  1601.2000      7.8509      2.5646      0.0700      5.1728   -999.2500   -999.2500
  1601.3000      7.8500      2.5834      0.0935      4.0373   -999.2500   -999.2500
  1601.4000      7.8500      2.5872      0.0893      3.8072   -999.2500   -999.2500
  1601.5000      7.8277      2.5721      0.0849      4.7226   -999.2500   -999.2500
  1601.6000      7.8277      2.5628      0.0231      5.2843   -999.2500   -999.2500
  1601.7000      7.8277      2.5781      0.0420      4.3578   -999.2500   -999.2500
  1601.8000      7.8131      2.5947      0.1213      3.3507   -999.2500   -999.2500
  1601.9000      7.8131      2.5779      0.1219      4.3715   -999.2500   -999.2500
  1602.0000      7.7801      2.5358      0.0420      6.9217   -999.2500   -999.2500
  1602.1000      7.7801      2.5035      0.0392      8.8804   -999.2500   -999.2500
  1602.2000      7.7801      2.4936      0.0580      9.4796   -999.2500   -999.2500
  1602.3000      7.7787      2.5000      0.0576      9.0934   -999.2500   -999.2500
  1602.4000      7.7787      2.5219      0.0768      7.7616   -999.2500   -999.2500
  1602.5000      7.7064      2.5606     -0.0056      5.4173   -999.2500   -999.2500
  1602.6000      7.7064      2.6026      0.0987      2.8746   -999.2500   -999.2500
  1602.7000      7.7064      2.6268      0.1476      1.4056   -999.2500   -999.2500
  1602.8000      7.7019      2.6340      0.1399      0.9685   -999.2500   -999.2500
  1602.9000      7.7019      2.6341      0.1483      0.9648   -999.2500   -999.2500
  1603.0000      7.7048      2.6243      0.1583      1.5558   -999.2500   -999.2500
  1603.1000      7.7048      2.6029      0.1195      2.8530   -999.2500   -999.2500
  1603.2000      7.7048      2.5740      0.1194      4.6055   -999.2500   -999.2500
  1603.3000      7.7035      2.5592      0.0624      5.5017   -999.2500   -999.2500
  1603.4000      7.7035      2.6045      0.0402      2.7593   -999.2500   -999.2500
  1603.5000      7.6930      2.6106      0.0409      2.3865   -999.2500   -999.2500
  1603.6000      7.6930      2.1779      0.4722     28.6150   -999.2500   -999.2500
  1603.7000      7.6930      1.2366      0.0200     85.6581   -999.2500   -999.2500
