~Version Information
VERS.                      2.0: CWLS Log ASCII Standard - VERSION 2.0
WRAP.                       NO: One line per depth step
~Well Information Block
STRT.FT               230.0000: 
STOP.FT              1028.0000: 
STEP.FT                 0.2500: 
NULL.                -999.2500: 
COMP.          Pioneer Natural Resources: COMPANY
WELL.              Gough 14-29: WELL
FLD.           Purgatoire River: FIELD
LOC.           1199' FSL & 676' FWL: LOCATION
PROV.                 Colorado: PROVINCE
CNTY.               Las Animas: COUNTRY
SRVC.                Patterson: SERVICE COMPANY
DATE.          Thu Dec 22 16:27:18 2005: LOG DATE
UWI.           05 071 08612 00: UNIQUE WELL ID
~Curve Information Block
DEPT.FT            0 000 00 00: Depth
SN.Ohm-m                      : IEL Short Normal
SP.mV                         : IEL Spontaneous Potential
DIR.Ohm-m                     : IEL Induction Resistivity
GR.GAPI                       : Gamma Ray
~Parameter Information Block
SNDERRM.mmho-m         10.0000: Medium Sonde Error Correction
~A  Depth        SN          SP         DIR          GR     
   230.0000   2000.0000   2000.0000     93.9161     98.8308
   230.2500   2000.0000   2000.0000     92.2062    102.6346
   230.5000   2000.0000   2000.0000     91.5263    108.0288
   230.7500   2000.0000   2000.0000     91.7675    111.2230
   231.0000   2000.0000   2000.0000     92.8160    115.0724
   231.2500   2000.0000   2000.0000     94.3573    117.0239
   231.5000   2000.0000   2000.0000     95.8528    119.6704
   231.7500   2000.0000   2000.0000     96.7684    121.7140
   232.0000   2000.0000   2000.0000     96.8644    125.4363
   232.2500   2000.0000   2000.0000     96.2668    128.0690
   232.5000   2000.0000   2000.0000     95.2994    131.2174
   232.7500   2000.0000   2000.0000     94.2833    131.9049
   233.0000   2000.0000   2000.0000     93.4646    129.1499
   233.2500   2000.0000   2000.0000     93.0202    124.2940
   233.5000   2000.0000   2000.0000     93.0480    113.5868
   233.7500   2000.0000   2000.0000     93.5223    105.8794
   234.0000   2000.0000   2000.0000     94.2942     96.5969
   234.2500   2000.0000   2000.0000     95.1543     92.8973
   234.5000   2000.0000   2000.0000     95.9570     90.8280
   234.7500   2000.0000   2000.0000     96.7014     91.0316
   235.0000   2000.0000   2000.0000     97.5334     92.6774
   235.2500   2000.0000   2000.0000     98.6769     94.3427
   235.5000   2000.0000   2000.0000    100.3076     96.8707
   235.7500   2000.0000   2000.0000    102.4084     97.6775
   236.0000   2000.0000   2000.0000    104.6583     96.2107
   236.2500   2000.0000   2000.0000    106.5068     93.5797
   236.5000   2000.0000   2000.0000    107.4686     89.0980
   236.7500   2000.0000   2000.0000    107.4811     87.0153
   237.0000   2000.0000   2000.0000    107.0038     86.0987
   237.2500   2000.0000   2000.0000    106.7784     86.6903
   237.5000   2000.0000   2000.0000    107.4555     88.4710
   237.7500   2000.0000   2000.0000    109.2629     89.7273
   238.0000   2000.0000   2000.0000    111.7925     91.0665
   238.2500   2000.0000   2000.0000    114.0465     91.6797
   238.5000   2000.0000   2000.0000    114.9357     93.2070
   238.7500   2000.0000   2000.0000    114.0122     95.0859
   239.0000   2000.0000   2000.0000    111.7412     98.3808
   239.2500   2000.0000   2000.0000    109.0482     99.6537
   239.5000   2000.0000   2000.0000    106.7223     98.4759
   239.7500   2000.0000   2000.0000    105.0929     95.6144
   240.0000   2000.0000   2000.0000    104.0117     89.6955
   240.2500   2000.0000   2000.0000    102.9633     85.7252
   240.5000   2000.0000   2000.0000    101.2794     80.6419
   240.7500   2000.0000   2000.0000     98.4575     75.1294
   241.0000   2000.0000   2000.0000     94.4965     71.0984
   241.2500   2000.0000   2000.0000     90.0099     68.5460
   241.5000   2000.0000   2000.0000     85.8873     65.2689
   241.7500   2000.0000   2000.0000     82.7117     56.9359
   242.0000   2000.0000   2000.0000     80.3177     54.9741
   242.2500   2000.0000   2000.0000     77.8093     54.0726
   242.5000   2000.0000   2000.0000     74.1147     54.2002
   242.7500   2000.0000   2000.0000     68.8314     49.3621
   243.0000   2000.0000   2000.0000     62.5857     53.5891
   243.2500   2000.0000   2000.0000     56.6075     57.3667
   243.5000   2000.0000   2000.0000     52.1735     63.2570
   243.7500   2000.0000   2000.0000     50.5063     57.9759
   244.0000   2000.0000   2000.0000     53.2486     61.1670
   244.2500   2000.0000   2000.0000     64.0324     62.3528
   244.5000   2000.0000   2000.0000     94.7381     62.9248
   244.7500   2000.0000   2000.0000    213.7529     62.8942
   245.0000   2000.0000   2000.0000 100000.0000     63.2823
   245.2500   2000.0000   2000.0000 100000.0000     64.3022
   245.5000   2000.0000   2000.0000 100000.0000     66.7739
   245.7500   2000.0000   2000.0000 100000.0000     68.4158
   246.0000   2000.0000   2000.0000 100000.0000     70.0207
   246.2500   2000.0000   2000.0000 100000.0000     70.6758
   246.5000   2000.0000   2000.0000 100000.0000     72.2288
   246.7500   2000.0000   2000.0000 100000.0000     74.2717
   247.0000   2000.0000   2000.0000 100000.0000     78.8122
   247.2500   2000.0000   2000.0000 100000.0000     82.1409
   247.5000   2000.0000   2000.0000 100000.0000     86.2972
   247.7500   2000.0000   2000.0000 100000.0000     88.2653
   248.0000   2000.0000   2000.0000 100000.0000     90.5277
   248.2500   2000.0000   2000.0000 100000.0000     91.9821
   248.5000   2000.0000   2000.0000 100000.0000     94.5102
   248.7500   2000.0000   2000.0000 100000.0000     96.5629
   249.0000   2000.0000   2000.0000 100000.0000    100.0110
   249.2500   2000.0000   2000.0000 100000.0000    101.9769
   249.5000   2000.0000   2000.0000 100000.0000    103.1380
   249.7500   2000.0000   2000.0000 100000.0000    102.4701
   250.0000   2000.0000   2000.0000 100000.0000    100.1332
   250.2500   2000.0000   2000.0000 100000.0000     98.3921
   250.5000   2000.0000   2000.0000 100000.0000     96.0724
   250.7500   2000.0000   2000.0000 100000.0000     94.6625
   251.0000   2000.0000   2000.0000 100000.0000     92.7460
   251.2500   2000.0000   2000.0000     10.6052     91.9251
   251.5000   2000.0000   2000.0000      4.9363     92.0256
   251.7500   2000.0000   2000.0000      3.5661     92.9087
   252.0000   2000.0000   2000.0000      3.1905     94.2901
   252.2500   2000.0000   2000.0000      3.2539     94.3130
   252.5000   2000.0000   2000.0000      3.6065     91.8183
   252.7500   2000.0000   2000.0000      4.2408     88.3308
   253.0000   2000.0000   2000.0000      5.2985     81.2340
   253.2500   2000.0000   2000.0000      7.2095     76.1944
   253.5000   2000.0000   2000.0000     11.1047     69.6637
   253.7500   2000.0000   2000.0000     20.1157     66.4494
   254.0000   2000.0000   2000.0000     41.8665     63.4291
   254.2500   2000.0000   2000.0000     69.9397     62.4599
   254.5000   2000.0000   2000.0000     56.7951     62.1003
   254.7500   2000.0000   2000.0000     36.1712     62.2383
   255.0000   2000.0000   2000.0000     26.0216     62.5596
   255.2500   2000.0000   2000.0000     21.5231     62.8211
   255.5000   2000.0000   2000.0000     19.5910     63.5142
   255.7500   2000.0000   2000.0000     18.8747     64.2484
   256.0000   2000.0000   2000.0000     18.7801     65.4835
   256.2500   2000.0000   2000.0000     19.0717     66.0338
   256.5000   2000.0000   2000.0000     19.6978     65.7421
   256.7500   2000.0000   2000.0000     20.7230     64.5268
   257.0000   2000.0000   2000.0000     22.3269     61.3018
   257.2500   2000.0000   2000.0000     24.8072     58.7000
   257.5000   2000.0000   2000.0000     28.5200     55.1731
   257.7500   2000.0000   2000.0000     33.6319     53.4629
   258.0000   2000.0000   2000.0000     39.5990     52.0213
   258.2500   2000.0000   2000.0000     44.7859     51.7767
   258.5000   2000.0000   2000.0000     47.4094     52.3053
   258.7500   2000.0000   2000.0000     47.2752     53.0232
   259.0000   2000.0000   2000.0000     45.5796     54.1903
   259.2500   2000.0000   2000.0000     43.3743     54.9111
   259.5000   2000.0000   2000.0000     41.0269     56.0137
   259.7500   2000.0000   2000.0000     38.6025     56.8195
   260.0000   2000.0000   2000.0000     36.2639     57.9096
   260.2500   2000.0000   2000.0000     34.3208     58.3094
   260.5000   2000.0000   2000.0000     33.0462     58.2254
   260.7500   2000.0000   2000.0000     32.5279     57.8322
   261.0000   2000.0000   2000.0000     32.6475     57.0427
   261.2500   2000.0000   2000.0000     33.1432     56.4784
   261.5000   2000.0000   2000.0000     33.7101     55.8828
   261.7500   2000.0000   2000.0000     34.0988     56.1590
   262.0000   2000.0000   2000.0000     34.1651     58.7679
   262.2500   2000.0000   2000.0000     33.8622     62.3300
   262.5000   2000.0000   2000.0000     33.2129     69.7957
   262.7500   2000.0000   2000.0000     32.2943     75.3587
   263.0000   2000.0000   2000.0000     31.2222     83.4867
   263.2500   2000.0000   2000.0000     30.1182     88.6487
