~Version Information
VERS.                      2.0: CWLS Log ASCII Standard - VERSION 2.0
WRAP.                       NO: One line per depth step
~Well Information Block
STRT.FT                 0.0000: 
STOP.FT              1528.0000: 
STEP.FT                 0.1000: 
NULL.                -999.2500: 
COMP.          Pioneer Natural Resources: COMPANY
WELL.             Andrew 23-15: WELL
FLD.           Purgatorie River: FIELD
LOC.           2137' FSL & 2292' FWL: LOCATION
PROV.                 Colorado: PROVINCE
CNTY.               Las Animas: COUNTRY
SRVC.                Patterson: SERVICE COMPANY
DATE.          Sat Aug 13 12:06:57 2005: LOG DATE
UWI.                          : UNIQUE WELL ID
~Curve Information Block
DEPT.FT            0 000 00 00: Depth
DCAL.in                       : CDL Caliper
RHOB.g/cc                     : CDL Bulk Density
RHOC.g/cc                     : CDL Density Correction
DPOR.pu                       : CDL Density Porosity
GR.GAPI                       : Gamma Ray
NPOR.pu                       : Neutron Porosity
~Parameter Information Block
~A  Depth       DCAL        RHOB        RHOC        DPOR         GR         NPOR    
# ...
  1113.6000      8.1982      2.5599      0.1341      5.4585    164.0394     26.1085
  1113.7000      8.1982      2.5592      0.1060      5.5059    166.6134     25.9874
  1113.8000      8.2703      2.5687      0.1279      4.9268    163.6233     25.9904
  1113.9000      8.2703      2.5814      0.1416      4.1546    160.1108     26.3012
  1114.0000      8.3154      2.5804      0.1353      4.2186    160.4857     26.6596
  1114.1000      8.3154      2.5621      0.1267      5.3256    162.9608     26.7260
  1114.2000      8.3154      2.5368      0.1171      6.8633    164.2981     26.5607
  1114.3000      8.3606      2.5155      0.0682      8.1507    163.1289     26.2409
  1114.4000      8.3606      2.5005      0.0705      9.0596    160.1154     25.8337
  1114.5000      8.3584      2.4837      0.0447     10.0804    159.7795     25.5442
  1114.6000      8.3584      2.4620      0.0329     11.3952    164.6614     25.5383
  1114.7000      8.3584      2.4454      0.0305     12.4028    168.6167     25.6084
  1114.8000      8.3425      2.4491      0.0152     12.1745    166.2225     25.3416
  1114.9000      8.3425      2.4780      0.0636     10.4213    159.2175     24.8300
  1115.0000      8.3795      2.5163      0.1261      8.1026    152.1354     24.4931
  1115.1000      8.3795      2.5444      0.1318      6.3970    150.7191     24.3219
  1115.2000      8.3795      2.5542      0.1620      5.8090    156.5515     24.0645
  1115.3000      8.4313      2.5455      0.1519      6.3336    163.0278     23.8079
  1115.4000      8.4313      2.5238      0.1804      7.6511    164.7986     23.7244
  1115.5000      8.3976      2.4960      0.2093      9.3344    164.0287     23.7690
  1115.6000      8.3976      2.4720      0.1819     10.7888    164.0125     23.9117
  1115.7000      8.3976      2.4644      0.1282     11.2473    164.8641     24.1385
  1115.8000      8.3138      2.4723      0.1203     10.7678    165.0130     24.3701
  1115.9000      8.3138      2.4825      0.1116     10.1506    164.1190     24.5517
  1116.0000      8.4442      2.4940      0.0848      9.4559    163.2920     24.7097
  1116.1000      8.4442      2.5143      0.1283      8.2241    164.1622     24.9585
  1116.2000      8.4442      2.5411      0.1487      6.5976    166.6871     25.2031
  1116.3000      8.5822      2.5689      0.2003      4.9152    169.2245     25.2510
  1116.4000      8.5822      2.5963      0.2412      3.2550    171.4184     25.1913
  1116.5000      8.4768      2.6204      0.2559      1.7940    173.8719     25.1404
  1116.6000      8.4768      2.6337      0.2582      0.9891    176.2415     25.1680
  1116.7000      8.4768      2.6269      0.2173      1.3975    177.1191     25.3549
  1116.8000      8.5918      2.5988      0.1551      3.1004    176.8861     25.7848
  1116.9000      8.5918      2.5640      0.1165      5.2143    176.7639     26.3326
  1117.0000      8.6579      2.5444      0.0556      6.4029    177.9248     26.6466
  1117.1000      8.6579      2.5450      0.0676      6.3627    181.0748     26.7512
  1117.2000      8.6579      2.5502      0.0690      6.0462    184.2864     26.8757
  1117.3000      8.6381      2.5545      0.0173      5.7876    183.9874     27.0164
  1117.4000      8.6381      2.5668      0.0247      5.0447    180.9731     27.0683
  1117.5000      8.5426      2.5870      0.0480      3.8170    178.6096     27.0398
  1117.6000      8.5426      2.6040      0.0578      2.7871    177.2828     27.0512
  1117.7000      8.5426      2.6051      0.1046      2.7222    175.1530     27.0661
  1117.8000      8.4279      2.5916      0.0459      3.5410    172.3857     27.0134
  1117.9000      8.4279      2.5830      0.0574      4.0618    170.9899     27.0022
  1118.0000      8.3049      2.5868      0.0645      3.8305    170.6306     27.1273
  1118.1000      8.3049      2.5946      0.0602      3.3598    171.9198     27.3303
  1118.2000      8.3049      2.6063      0.0353      2.6471    175.3951     27.4481
  1118.3000      8.2540      2.6247      0.0534      1.5308    176.4642     27.2832
  1118.4000      8.2540      2.6393      0.0727      0.6461    171.9962     26.8949
  1118.5000      8.1685      2.6409      0.0576      0.5539    165.3227     26.6826
  1118.6000      8.1685      2.6292      0.0876      1.2593    159.4532     26.9558
  1118.7000      8.1685      2.6059      0.0176      2.6703    154.2432     27.3749
  1118.8000      8.1720      2.5795      0.0061      4.2720    151.9160     27.3352
  1118.9000      8.1720      2.5565      0.0339      5.6642    154.1728     26.9457
  1119.0000      8.1860      2.5429      0.0017      6.4914    157.8899     26.5671
  1119.1000      8.1860      2.5469      0.0498      6.2460    161.2932     26.1803
  1119.2000      8.1860      2.5562      0.0801      5.6821    164.7745     25.8900
  1119.3000      8.1824      2.5539      0.0416      5.8218    168.0327     25.8242
  1119.4000      8.1824      2.5447      0.0579      6.3848    169.6460     25.8714
  1119.5000      8.1898      2.5370      0.0491      6.8480    167.5604     25.9631
  1119.6000      8.1898      2.5340      0.0384      7.0286    164.1017     26.2183
  1119.7000      8.1898      2.5333      0.0389      7.0718    162.2392     26.5905
  1119.8000      8.1831      2.5292      0.0608      7.3195    162.1479     26.6858
  1119.9000      8.1831      2.5154      0.0957      8.1589    163.6930     26.2732
  1120.0000      8.1703      2.4921      0.0580      9.5698    165.8387     25.7364
  1120.1000      8.1703      2.4792     -0.0247     10.3490    166.9616     25.6646
  1120.2000      8.1703      2.4885      0.0491      9.7882    167.0097     26.0253
  1120.3000      8.1578      2.5041      0.0491      8.8416    167.2038     26.3831
  1120.4000      8.1578      2.5148      0.0502      8.1968    167.1384     26.5949
  1120.5000      8.1464      2.5216      0.0992      7.7817    166.2037     26.8348
  1120.6000      8.1464      2.5278      0.0665      7.4061    165.6720     27.0464
  1120.7000      8.1464      2.5406      0.0857      6.6321    165.8281     26.9501
  1120.8000      8.0963      2.5589      0.1186      5.5189    166.4052     26.5732
  1120.9000      8.0963      2.5697      0.1590      4.8665    167.0615     26.1330
  1121.0000      8.0557      2.5653      0.1434      5.1333    166.9022     25.7267
  1121.1000      8.0557      2.5502      0.1496      6.0456    164.7955     25.5009
  1121.2000      8.0557      2.5321      0.1121      7.1432    161.3943     25.5580
  1121.3000      8.0684      2.5184      0.1018      7.9777    160.6524     25.7025
  1121.4000      8.0684      2.5147      0.1070      8.2020    163.2855     25.7595
  1121.5000      8.0887      2.5200      0.1054      7.8818    165.6071     25.7449
  1121.6000      8.0887      2.5280      0.1160      7.3937    165.8819     25.7167
  1121.7000      8.0887      2.5373      0.1028      6.8315    165.3392     25.8409
  1121.8000      8.1262      2.5468      0.1486      6.2569    166.4118     26.1507
  1121.9000      8.1262      2.5473      0.1780      6.2250    169.7072     26.3202
  1122.0000      8.1875      2.5379      0.1398      6.7953    172.1128     26.1488
  1122.1000      8.1875      2.5311      0.1529      7.2067    173.1428     25.8361
  1122.2000      8.1875      2.5331      0.1291      7.0861    175.6127     25.7632
  1122.3000      8.1941      2.5432      0.1185      6.4748    178.6228     26.0078
  1122.4000      8.1941      2.5591      0.1580      5.5105    178.4944     26.3669
  1122.5000      8.2587      2.5769      0.1429      4.4326    176.2545     26.6113
  1122.6000      8.2587      2.5955      0.1704      3.3049    174.6192     26.6708
  1122.7000      8.2587      2.6131      0.1774      2.2349    172.1549     26.7710
  1122.8000      8.2613      2.6247      0.1854      1.5352    168.8496     27.0026
  1122.9000      8.2613      2.6202      0.1754      1.8039    168.0714     27.1552
  1123.0000      8.2527      2.5972      0.1397      3.1975    172.3054     27.1946
  1123.1000      8.2527      2.5652      0.1101      5.1410    179.6701     27.1225
