~Version Information
VERS.                      2.0: CWLS Log ASCII Standard - VERSION 2.0
WRAP.                       NO: One line per depth step
~Well Information Block
STRT.FT               588.7000: 
STOP.FT              1820.2000: 
STEP.FT                 0.1000: 
NULL.                -999.2500: 
COMP.          Pioneer Natural Resources: COMPANY
WELL.           Loews 41-32 Tr: WELL
FLD.           Purgatoire River: FIELD
LOC.           706' FNL & 224' FEL--: LOCATION
CNTY.               Las Animas: COUNTY
SRVC.                Patterson: SERVICE COMPANY
DATE.          Tue Feb 21 10:23:46 2006: LOG DATE
UWI.           05 071 08690 00: UNIQUE WELL ID
STAT.                 Colorado: STATE
~Curve Information Block
DEPT.FT            0 000 00 00: Depth
DCAL.in                       : CDL Caliper
RHOB.g/cc                     : CDL Bulk Density
RHOC.g/cc                     : CDL Density Correction
DPOR.pu                       : CDL Density Porosity
GR.GAPI                       : Gamma Ray
~Parameter Information Block
~A  Depth       DCAL        RHOB        RHOC        DPOR         GR     
# ...
   913.5000      8.0733      2.7590      0.0748     -6.6084    119.4217
   913.6000      8.0733      2.7213      0.0237     -4.3186    122.4521
   913.7000      8.0733      2.6799     -0.0209     -1.8117    124.4992
   913.8000      8.0737      2.6656     -0.0740     -0.9457    122.7003
   913.9000      8.0737      2.6815     -0.0159     -1.9082    119.5991
   914.0000      8.0768      2.6878     -0.0073     -2.2898    116.3075
   914.1000      8.0768      2.6706     -0.0623     -1.2489    113.0371
   914.2000      8.0768      2.6510     -0.0586     -0.0603    113.8281
   914.3000      8.0788      2.6327     -0.0106      1.0506    118.2679
   914.4000      8.0788      2.6153     -0.0223      2.1001    120.8397
   914.5000      8.0771      2.6062      0.0497      2.6526    119.7098
   914.6000      8.0771      2.5964      0.0526      3.2455    118.2972
   914.7000      8.0771      2.5831      0.0108      4.0571    119.9907
   914.8000      8.0742      2.5809     -0.0122      4.1903    124.8980
   914.9000      8.0742      2.5989      0.0217      3.0975    128.0600
   915.0000      8.0716      2.6277      0.0596      1.3506    125.1632
   915.1000      8.0716      2.6437      0.1183      0.3814    117.9092
   915.2000      8.0716      2.6344      0.0898      0.9473    112.1821
   915.3000      8.0699      2.6187      0.0443      1.8972    112.7182
   915.4000      8.0699      2.6262      0.0693      1.4401    117.3629
   915.5000      8.0692      2.6597      0.1052     -0.5860    121.6464
   915.6000      8.0692      2.6890      0.1414     -2.3622    126.7302
   915.7000      8.0692      2.6862      0.0955     -2.1931    132.0884
   915.8000      8.0702      2.6537      0.0706     -0.2233    132.6566
   915.9000      8.0702      2.6151      0.0531      2.1168    127.0534
   916.0000      8.0714      2.5929      0.0160      3.4586    121.0097
   916.1000      8.0714      2.5871      0.0505      3.8113    121.1181
   916.2000      8.0714      2.5840      0.0353      3.9978    124.3700
   916.3000      8.0720      2.5919      0.0487      3.5231    125.1135
   916.4000      8.0720      2.6229      0.0748      1.6407    122.4682
   916.5000      8.0714      2.6633      0.0850     -0.8089    117.0307
   916.6000      8.0714      2.6915      0.1338     -2.5148    111.2273
   916.7000      8.0714      2.7030      0.0778     -3.2147    107.8064
   916.8000      8.0693      2.7085      0.0873     -3.5456    109.4618
   916.9000      8.0693      2.7141      0.1320     -3.8850    114.5739
   917.0000      8.0684      2.7223      0.0702     -4.3808    116.3545
   917.1000      8.0684      2.7308      0.1221     -4.8940    111.8793
   917.2000      8.0684      2.7277      0.0273     -4.7083    104.5329
   917.3000      8.0674      2.7151      0.0306     -3.9452     96.8285
   917.4000      8.0674      2.7004      0.0510     -3.0554     90.0065
   917.5000      8.0674      2.6835      0.0379     -2.0274     87.3853
   917.6000      8.0674      2.6648      0.0182     -0.8984     90.3569
   917.7000      8.0674      2.6476     -0.0105      0.1444     94.5227
   917.8000      8.0716      2.6281     -0.0012      1.3279     96.3589
   917.9000      8.0716      2.6047     -0.0228      2.7475     97.5211
   918.0000      8.0790      2.5864     -0.0106      3.8568     99.0208
   918.1000      8.0790      2.5749      0.0159      4.5505    100.1649
   918.2000      8.0790      2.5688      0.0249      4.9222     98.1222
   918.3000      8.0856      2.5732      0.0614      4.6563     94.1156
   918.4000      8.0856      2.5794      0.1209      4.2779     93.2102
   918.5000      8.0940      2.5703      0.1068      4.8314     95.1047
   918.6000      8.0940      2.5479      0.0952      6.1893     99.3720
   918.7000      8.0940      2.5319      0.0524      7.1595    107.6223
   918.8000      8.1022      2.5354      0.0751      6.9444    117.4780
   918.9000      8.1022      2.5465      0.1098      6.2753    122.3237
   919.0000      8.1080      2.5470      0.0635      6.2432    121.0274
   919.1000      8.1080      2.5432      0.0418      6.4715    120.9506
   919.2000      8.1080      2.5481      0.0967      6.1755    125.9617
   919.3000      8.1103      2.5585      0.0766      5.5474    131.8915
   919.4000      8.1103      2.5695      0.0353      4.8764    135.0073
   919.5000      8.1106      2.5824      0.0732      4.0943    135.0152
   919.6000      8.1106      2.5952      0.1001      3.3219    132.2182
   919.7000      8.1106      2.6038      0.1019      2.7974    128.7974
   919.8000      8.1090      2.5992      0.1129      3.0773    128.4949
   919.9000      8.1090      2.5760      0.0628      4.4833    131.6750
   920.0000      8.1065      2.5584     -0.0039      5.5541    134.9348
   920.1000      8.1065      2.5684      0.0725      4.9425    134.8481
   920.2000      8.1065      2.5874      0.0968      3.7961    131.0875
   920.3000      8.1038      2.5959      0.0694      3.2793    123.8367
   920.4000      8.1038      2.5972      0.0980      3.1973    117.2230
   920.5000      8.1023      2.5962      0.0698      3.2583    116.9886
   920.6000      8.1023      2.6047      0.0266      2.7456    119.3697
   920.7000      8.1023      2.6290      0.0973      1.2735    117.9556
   920.8000      8.1007      2.6485      0.0911      0.0909    114.8983
   920.9000      8.1007      2.6496      0.0816      0.0244    116.2531
   921.0000      8.0997      2.6379      0.0754      0.7360    123.1529
   921.1000      8.0997      2.6173      0.0609      1.9808    131.5267
   921.2000      8.0997      2.5976      0.0437      3.1776    135.4325
   921.3000      8.0998      2.5887      0.0669      3.7141    134.8150
   921.4000      8.0998      2.5844      0.0443      3.9769    134.6863
   921.5000      8.0997      2.5721      0.0294      4.7242    134.9632
   921.6000      8.0997      2.5443      0.0586      6.4089    133.0411
   921.7000      8.0997      2.5036      0.0529      8.8709    128.5573
   921.8000      8.1015      2.4733      0.0284     10.7117    121.7421
   921.9000      8.1015      2.4759      0.0630     10.5527    115.5116
   922.0000      8.1020      2.5008      0.0866      9.0447    113.0147
   922.1000      8.1020      2.5200      0.0710      7.8803    116.4053
   922.2000      8.1020      2.5238      0.0678      7.6507    124.2455
   922.3000      8.0990      2.5195      0.0739      7.9119    129.9970
   922.4000      8.0990      2.5074      0.1079      8.6401    131.0182
   922.5000      8.0935      2.4808      0.1301     10.2518    132.3350
   922.6000      8.0935      2.4538      0.0269     11.8935    136.1274
   922.7000      8.0935      2.4529      0.0688     11.9446    138.2306
   922.8000      8.0811      2.4749      0.1026     10.6151    136.3371
   922.9000      8.0811      2.5024      0.0977      8.9432    133.2266
   923.0000      8.0640      2.5294      0.1157      7.3106    134.2042
   923.1000      8.0640      2.5455      0.0897      6.3314    139.8704
   923.2000      8.0640      2.5466      0.0721      6.2696    144.0120
   923.3000      8.0538      2.5443      0.0569      6.4051    142.0056
   923.4000      8.0538      2.5476      0.0871      6.2077    137.4079
   923.5000      8.0532      2.5568      0.0539      5.6458    134.2614
   923.6000      8.0532      2.5739      0.0863      4.6098    128.8313
   923.7000      8.0532      2.5950      0.1040      3.3344    119.6740
   923.8000      8.0595      2.6147      0.1169      2.1394    111.3473
   923.9000      8.0595      2.6361      0.0998      0.8397    106.9948
   924.0000      8.0686      2.6502      0.1533     -0.0110    107.4002
   924.1000      8.0686      2.6378      0.0523      0.7373    108.1224
   924.2000      8.0686      2.6066      0.0551      2.6314    105.8213
   924.3000      8.0735      2.5753      0.0168      4.5284    105.1216
   924.4000      8.0735      2.5544      0.0212      5.7938    110.3214
   924.5000      8.0745      2.5517     -0.0008      5.9601    117.5854
   924.6000      8.0745      2.5673      0.0373      5.0138    120.4229
