~Version Information
 VERS.                                  2.0 : CWLS LAS VERSION
 WRAP.                                   NO : WRAPING MODE
 SWARE .                 MController 2.5.0N : SOFTWARE VERSION
~Well Information
 WELL.                    Hellzonfire 32-31 : WELL
 COMP.    Pioneer Natural Resources USA Inc : COMPANY
 FLD.                      Purgatoire River : FIELD
 LOC.                 SW/NE SEC31 T32S R66W : LOCATION
 DATE.                             09/01/05 : DATE(S) LOGGED
 SRVC.       Blanco Geological Services LLC : SERVICE COMPANY
 STAT.                             Colorado : STATE
 CNTY.                           Las Animas : COUNTY
 CTRY.                                  USA : COUNTRY
 API.                       05-071-08483-00 : API NUMBER
 STRT.FT                             356.00 : START DEPTH
 STOP.FT                            2480.00 : STOP DEPTH
 STEP.FT                               1.00 : DEPTH INCREMENT
 NULL.                                -9999 : NULL VALUE
~Curve information
 DEPTH.FT                                   :
 ROP.MIN/FT                                 :
 GAS.UNITS                                  :
~ASCII Log data
# ...
       556.0         0.17         15.4 
       557.0         0.13         15.4 
       558.0         0.13         15.4 
       559.0         0.13         15.2 
       560.0         0.13         15.2 
       561.0         0.13         15.5 
       562.0         0.27         15.6 
       563.0         0.10         15.4 
       564.0         0.20         15.8 
       565.0         0.23         15.6 
       566.0         2.52         15.9 
       567.0         0.87         14.8 
       568.0         0.52         14.4 
       569.0         0.53         14.5 
       570.0         0.43         16.8 
       571.0         0.50         20.3 
       572.0         0.50         29.4 
       573.0         0.43         28.3 
       574.0         0.30         25.8 
       575.0         0.20         23.9 
       576.0         0.18         24.3 
       577.0         0.17         22.8 
       578.0         0.20         22.6 
       579.0         0.17         22.0 
       580.0         0.13         22.0 
       581.0         0.17         22.6 
       582.0         0.20         21.5 
       583.0         0.20         16.0 
       584.0         0.17         15.4 
       585.0         0.23         15.7 
       586.0         0.20         15.7 
       587.0         0.20         14.8 
       588.0         0.20         14.7 
       589.0         0.20         14.1 
       590.0         0.17         13.8 
       591.0         0.17         13.8 
       592.0         0.20         13.7 
       593.0         0.17         13.7 
       594.0         0.18         14.0 
       595.0         0.20         13.7 
       596.0         2.03         14.6 
       597.0         0.23         13.5 
       598.0         0.20         14.7 
       599.0         0.20         14.1 
       600.0         0.20         13.7 
       601.0         0.22         14.0 
       602.0         0.20         14.3 
       603.0         0.23         14.2 
       604.0         0.17         14.6 
       605.0         0.13         13.7 
       606.0         0.20         13.7 
       607.0         0.23         13.7 
       608.0         0.27         13.7 
       609.0         0.13         14.3 
       610.0         0.17         14.3 
       611.0         0.20         14.0 
       612.0         0.20         14.0 
       613.0         0.40         14.2 
       614.0         0.20         14.2 
       615.0         0.20         14.1 
       616.0         0.20         13.6 
       617.0         0.32         13.8 
       618.0         0.20         14.2 
       619.0         0.20         13.7 
       620.0         0.20         13.7 
       621.0         0.23         14.4 
       622.0         0.27         14.4 
       623.0         0.27         14.2 
       624.0         0.53         15.2 
       625.0         0.47         17.4 
       626.0         1.12         15.3 
       627.0         0.27         14.8 
       628.0         0.27         15.3 
       629.0         0.27         15.6 
       630.0         0.27         14.9 
       631.0         0.27         15.7 
       632.0         0.27         15.3 
       633.0         0.37         14.3 
       634.0         0.23         13.6 
       635.0         0.20         13.6 
       636.0         0.27         13.9 
       637.0         0.20         13.8 
       638.0         0.25         14.6 
       639.0         0.30         14.5 
       640.0         0.33         14.7 
       641.0         0.20         15.1 
       642.0         0.27         15.3 
       643.0         0.23         15.0 
       644.0         0.27         16.6 
       645.0         0.27         20.2 
       646.0         0.20         27.1 
       647.0         0.13         27.1 
       648.0         0.17         44.2 
       649.0         0.17         44.2 
       650.0         0.17         52.9 
       651.0         0.10         52.9 
       652.0         0.55         53.0 
       653.0         0.23         41.6 
       654.0         0.27         46.4 
       655.0         0.27         67.8 
       656.0         1.37        227.6 
       657.0         0.53        211.6 
       658.0         0.30        122.6 
       659.0         0.42        114.9 
       660.0         0.30         82.1 
       661.0         0.27         73.1 
       662.0         0.27         65.0 
       663.0         0.23         60.7 
       664.0         0.20         59.0 
       665.0         0.23         58.3 
       666.0         0.20         57.4 
       667.0         0.20         55.8 
       668.0         0.23         55.1 
       669.0         0.27         54.0 
       670.0         0.23         52.8 
       671.0         0.27         52.4 
       672.0         0.23         52.8 
       673.0         0.28         51.9 
       674.0         0.23         53.7 
       675.0         0.20         55.4 
       676.0         0.10         55.4 
       677.0         0.23         58.3 
       678.0         0.20         59.9 
       679.0         0.23         57.9 
       680.0         0.27         54.8 
       681.0         0.23         53.3 
       682.0         0.30         52.3 
       683.0         0.20         51.8 
       684.0         0.23         46.4 
       685.0         0.20         40.8 
       686.0         1.32        205.4 
       687.0         0.43        229.6 
       688.0         0.50        212.1 
       689.0         0.33        170.9 
       690.0         0.30        133.1 
       691.0         0.20         84.4 
       692.0         0.20         81.5 
       693.0         0.17         77.1 
       694.0         0.17         69.1 
       695.0         0.22         64.4 
       696.0         0.20         62.2 
       697.0         0.17         54.8 
       698.0         0.23         54.4 
       699.0         0.23         54.0 
       700.0         0.23         52.9 
       701.0         0.23         52.9 
       702.0         0.20         52.5 
       703.0         0.20         53.0 
       704.0         0.20         53.0 
       705.0         0.17         52.3 
       706.0         0.13         50.2 
       707.0         0.20         50.2 
       708.0         0.20         51.1 
       709.0         0.17         48.3 
       710.0         0.17         48.3 
       711.0         0.17         47.0 
       712.0         0.28         37.1 
       713.0         0.17         37.1 
       714.0         0.67         39.0 
       715.0         0.27         56.0 
       716.0         2.45        396.4 
       717.0         0.23        156.8 
       718.0         0.23        115.9 
       719.0         0.20         95.0 
       720.0         0.17         93.2 
       721.0         0.20         82.4 
       722.0         0.23         72.5 
       723.0         0.27         64.5 
       724.0         0.30         58.1 
       725.0         0.30         55.1 
       726.0         0.23         52.6 
       727.0         0.23         52.0 
       728.0         0.20         51.5 
       729.0         0.25         50.5 
       730.0         0.20         50.1 
       731.0         0.23         50.7 
       732.0         0.20         50.7 
       733.0         0.23         52.6 
       734.0         0.20         52.7 
       735.0         0.20         52.7 
       736.0         0.17         51.4 
       737.0         0.23         49.8 
       738.0         0.17         49.0 
       739.0         0.20         48.2 
       740.0         0.20         46.2 
       741.0         0.20         39.9 
       742.0         0.17         39.9 
       743.0         0.17         38.4 
       744.0         0.27         39.1 
       745.0         0.27         70.4 
       746.0         2.25        219.6 
       747.0         0.20        111.8 
       748.0         0.10        101.6 
       749.0         0.23         96.4 
       750.0         0.23         86.1 
       751.0         0.20         78.0 
       752.0         0.22         77.2 
       753.0         0.20         69.1 
       754.0         0.10         65.2 
       755.0         0.13         65.2 
