~Version Information
VERS.                      2.0: CWLS Log ASCII Standard - VERSION 2.0
WRAP.                       NO: One line per depth step
~Well Information Block
STRT.FT                -8.0000: 
STOP.FT              1661.0000: 
STEP.FT                 0.2500: 
NULL.                -999.2500: 
COMP.          Pioneer Natural Resources: COMPANY
WELL.          Rollerball 34-30: WELL
FLD.           Purgatorie River: FIELD
LOC.           893' FSL & 2408' FEL----: LOCATION
CNTY.               Las Animas: COUNTY
SRVC.          Patterson Wireline: SERVICE COMPANY
DATE.          Mon Feb 20 08:34:38 2006: LOG DATE
UWI.           05 071 08581 00: UNIQUE WELL ID
STAT.                       CO: STATE
~Curve Information Block
DEPT.FT            0 000 00 00: Depth
CCL.                          : Casing Collar Locator
TT3.usec                      : CBL 3' Travel Time
AMP3.mV                       : CBL 3' Amplitude
GR.GAPI                       : Gamma Ray
~Parameter Information Block
~A  Depth       CCL         TT3         AMP3         GR     
# ...
   427.5000      0.0000    813.7988      5.4737     70.3411
   427.7500      0.0000    829.5474      5.5102     68.9311
   428.0000      0.0000    832.8356      5.6072     71.2620
   428.2500      0.0000    818.1051      5.7440     75.8114
   428.5000      0.0000    787.1310      5.8801     80.7503
   428.7500      0.0000    749.8462      5.9724     84.9173
   429.0000      0.0000    718.1722      5.9981     87.6717
   429.2500      0.0000    698.4390      5.9661     88.9584
   429.5000      0.0000    689.6711      5.9056     89.5043
   429.7500      0.0000    687.2020      5.8489     90.1667
   430.0000      0.0000    686.6369      5.8200     90.9631
   430.2500      0.0000    685.6820      5.8286     91.2312
   430.5000      0.0000    684.1087      5.8691     90.9052
   430.7500      0.0000    682.6526      5.9244     91.2022
   431.0000      0.0000    681.8392      5.9759     93.5707
   431.2500      0.0000    681.6292      6.0112     97.8411
   431.5000      0.0000    681.6750      6.0239    101.7270
   431.7500      0.0000    681.5729      6.0137    102.6011
   432.0000      0.0000    680.8732      5.9961     99.9366
   432.2500      0.0000    679.2947      6.0058     95.6819
   432.5000      0.0000    677.8298      6.0644     92.1163
   432.7500      0.0000    680.3935      6.1366     89.8963
   433.0000      0.0000    693.9228      6.1462     88.4089
   433.2500      0.0000    724.1768      6.0543     87.1094
   433.5000      0.0000    768.1807      5.9028     85.7139
   433.7500      0.0000    811.3229      5.7634     83.6763
   434.0000      0.0000    836.8238      5.6693     80.5384
   434.2500      0.0000    841.0957      5.6063     76.8757
   434.5000     -2.0000    837.3464      5.5478     74.1543
   434.7500      0.0000    842.5136      5.4891     73.3502
   435.0000      0.0000    862.2233      5.4622     74.0692
   435.2500      0.0000    886.9069      5.5204     75.1183
   435.5000      0.0000    899.2075      5.6940     75.6106
   435.7500      0.0000    887.1310      5.9616     75.3527
   436.0000      0.0000    853.7747      6.2739     74.4306
   436.2500      0.0000    814.3031      6.5831     72.7848
   436.5000      0.0000    783.1732      6.8385     70.3917
   436.7500      0.0000    765.2725      6.9903     67.6625
   437.0000      0.0000    757.5229      7.0238     65.1476
   437.2500      0.0000    754.9457      6.9728     62.8206
   437.5000      0.0000    754.2259      6.8872     60.2032
   437.7500      0.0000    753.9109      6.7997     57.2523
   438.0000      0.0000    753.3771      6.7228     54.5189
   438.2500      0.0000    752.0444      6.6627     52.3394
   438.5000      0.0000    749.2986      6.6240     50.4022
   438.7500      0.0000    745.1832      6.6060     48.2763
   439.0000      0.0000    741.1141      6.5996     46.0949
   439.2500      0.0000    739.3137      6.5916     44.6073
   439.5000      0.0000    740.9009      6.5720     44.5878
   439.7500      0.0000    744.7593      6.5393     46.0949
   440.0000      0.0000    748.6646      6.4991     48.2456
   440.2500      0.0000    751.1852      6.4590     49.7651
   440.5000      0.0000    752.2338      6.4224     49.9895
   440.7500      0.0000    752.2834      6.3866     49.5302
   441.0000      0.0000    751.5314      6.3458     49.7725
   441.2500      0.0000    749.6937      6.2974     51.4633
   441.5000      0.0000    746.4402      6.2448     53.9133
   441.7500      0.0000    742.1095      6.1967     55.7327
   442.0000      0.0000    737.9595      6.1613     56.0797
   442.2500      0.0000    735.4006      6.1413     55.0405
   442.5000      0.0000    734.8136      6.1323     53.2358
   442.7500      0.0000    735.1456      6.1267     51.4839
   443.0000      0.0000    734.6849      6.1181     50.6319
   443.2500      0.0000    732.4517      6.1038     51.1673
   443.5000      0.0000    729.0794      6.0816     52.7543
   443.7500      0.0000    726.1243      6.0487     54.3997
   444.0000      0.0000    724.3210      6.0047     55.3648
   444.2500      0.0000    722.8952      5.9561     55.8620
   444.5000      0.0000    720.7675      5.9164     56.6539
   444.7500      0.0000    717.8863      5.8970     57.9721
   445.0000      0.0000    715.0602      5.8991     59.1144
   445.2500      0.0000    712.9609      5.9137     59.2208
   445.5000      0.0000    711.6862      5.9291     58.1632
   445.7500      0.0000    711.0009      5.9373     56.4725
   446.0000      0.0000    710.6465      5.9357     54.7147
   446.2500      0.0000    710.4478      5.9250     53.3113
   446.5000      0.0000    710.3133      5.9073     52.7539
   446.7500      0.0000    710.2278      5.8853     53.4382
   447.0000      0.0000    710.2353      5.8624     55.0226
   447.2500      0.0000    710.4108      5.8422     56.2241
   447.5000      0.0000    710.8572      5.8277     55.6782
   447.7500      0.0000    711.8030      5.8217     53.0652
   448.0000      0.0000    713.9400      5.8259     49.2728
   448.2500      0.0000    718.9739      5.8382     45.7191
   448.5000      0.0000    730.0577      5.8534     43.8627
   448.7500      0.0000    751.1534      5.8676     44.8100
   449.0000      0.0000    784.2536      5.8818     48.4474
   449.2500      0.0000    824.9206      5.8986     53.0193
   449.5000      0.0000    860.2405      5.9174     56.2970
   449.7500      0.0000    874.6898      5.9332     57.2665
   450.0000      0.0000    862.5007      5.9408     56.4378
   450.2500      0.0000    835.1310      5.9388     54.8067
   450.5000      0.0000    814.1236      5.9290     52.9318
   450.7500      0.0000    814.2555      5.9145     50.8513
   451.0000      0.0000    832.0572      5.8980     48.4149
   451.2500      0.0000    849.7045      5.8828     45.6078
   451.5000      0.0000    850.8954      5.8736     42.7814
   451.7500      0.0000    834.9386      5.8758     40.6256
   452.0000      0.0000    816.4321      5.8919     39.7220
   452.2500      0.0000    811.7505      5.9172     40.1394
   452.5000      0.0000    825.3871      5.9425     41.5311
   452.7500      0.0000    846.9867      5.9596     43.3516
   453.0000      0.0000    860.0954      5.9664     44.9360
   453.2500      0.0000    854.9968      5.9659     45.8671
   453.5000      0.0000    834.8793      5.9643     46.4708
   453.7500      0.0000    810.8390      5.9696     47.6203
   454.0000      0.0000    792.2106      5.9879     49.9706
   454.2500      0.0000    781.6841      6.0205     53.6481
   454.5000      0.0000    777.1721      6.0627     58.5323
   454.7500      0.0000    775.6871      6.1058     64.2549
   455.0000      0.0000    775.3422      6.1400     69.9124
   455.2500      0.0000    775.3619      6.1571     74.3365
   455.5000      0.0000    775.4720      6.1540     76.8212
   455.7500      0.0000    775.4953      6.1348     77.3633
   456.0000      0.0000    775.1829      6.1088     76.2436
   456.2500      0.0000    774.1540      6.0834     73.6764
   456.5000      0.0000    772.1310      6.0564     69.7903
   456.7500      0.0000    769.7935      6.0176     64.6660
   457.0000      0.0000    769.9025      5.9594     58.4797
   457.2500      0.0000    776.6082      5.8857     51.8783
   457.5000      0.0000    791.2537      5.8106     46.1834
   457.7500      0.0000    808.0717      5.7494     42.9821
   458.0000      0.0000    816.7887      5.7097     43.2603
   458.2500      0.0000    811.9861      5.6877     46.8131
   458.5000      0.0000    798.3223      5.6731     52.5067
   458.7500      0.0000    784.7859      5.6602     58.9808
   459.0000      0.0000    775.9131      5.6557     64.9282
   459.2500      0.0000    770.3249      5.6735     69.0420
   459.5000      0.0000    765.3971      5.7215     70.4090
   459.7500      0.0000    760.5915      5.7967     69.1441
   460.0000      0.0000    756.8309      5.8886     66.3697
   460.2500      0.0000    754.6923      5.9833     63.4791
   460.5000      0.0000    753.8761      6.0643     61.2822
   460.7500      0.0000    753.7108      6.1161     59.5408
