~Version Information
VERS.                      2.0: CWLS Log ASCII Standard - VERSION 2.0
WRAP.                       NO: One line per depth step
~Well Information Block
STRT.FT               615.0000: 
STOP.FT              1607.0000: 
STEP.FT                 0.1000: 
NULL.                -999.2500: 
COMP.          Pioneer Natural Resources: COMPANY
WELL.          Galloway 32-13 Tr: WELL
FLD.           Purgatoire River: FIELD
LOC.           1910' FNL & 2002' FEL: LOCATION
PROV.                 Colorado: PROVINCE
CNTY.               Las Animas: COUNTRY
SRVC.                Patterson: SERVICE COMPANY
DATE.          Mon Nov 14 07:13:22 2005: LOG DATE
UWI.           05 071 08608 00: UNIQUE WELL ID
~Curve Information Block
DEPT.FT            0 000 00 00: Depth
DCAL.in                       : CDL Caliper
RHOB.g/cc                     : CDL Bulk Density
RHOC.g/cc                     : CDL Density Correction
DPOR.pu                       : CDL Density Porosity
GR.GAPI                       : Gamma Ray
NPOR.pu                       : Neutron Porosity
~Parameter Information Block
~A  Depth       DCAL        RHOB        RHOC        DPOR         GR         NPOR    
# ...
   749.4000      7.9474      2.6624      0.1285     -0.7545     78.4187     19.4726
   749.5000      7.9350      2.6568      0.0379     -0.4142     86.3185     19.3316
   749.6000      7.9350      2.6411      0.0860      0.5416    101.3026     19.7531
   749.7000      7.9350      2.6142      0.0516      2.1708    111.2682     20.0398
   749.8000      7.9163      2.5840      0.0430      3.9978    109.4739     20.5110
   749.9000      7.9163      2.5576      0.0061      5.5994    106.8117     21.6020
   750.0000      7.9155      2.5329      0.0050      7.0965    114.5845     22.7144
   750.1000      7.9155      2.5088      0.0280      8.5594    128.0650     23.3825
   750.2000      7.9155      2.4929     -0.0116      9.5223    137.8192     23.6624
   750.3000      7.9417      2.4912      0.0279      9.6241    142.2758     23.8341
   750.4000      7.9417      2.5009      0.0031      9.0366    142.2526     24.2585
   750.5000      7.9536      2.5222      0.0017      7.7443    137.9347     24.5030
   750.6000      7.9536      2.5515      0.0530      5.9716    131.4814     24.1598
   750.7000      7.9536      2.5764      0.0732      4.4579    126.2203     23.9450
   750.8000      7.9547      2.5945      0.0746      3.3646    124.7471     24.4326
   750.9000      7.9547      2.6072      0.1153      2.5938    125.4167     25.4144
   751.0000      7.9575      2.6139      0.0579      2.1883    122.7231     26.3178
   751.1000      7.9575      2.6228      0.0692      1.6510    119.1431     26.9726
   751.2000      7.9575      2.6434      0.0329      0.3986    121.8173     27.6889
   751.3000      7.9591      2.6683      0.1127     -1.1081    129.2443     28.3106
   751.4000      7.9591      2.6723      0.1197     -1.3542    135.9782     28.6878
   751.5000      7.9636      2.6500      0.0937      0.0014    140.9843     28.8267
   751.6000      7.9636      2.6246      0.0116      1.5423    144.4625     28.3596
   751.7000      7.9636      2.6107      0.0469      2.3805    144.2348     27.4152
   751.8000      7.9583      2.6017      0.0728      2.9266    141.7771     26.5075
   751.9000      7.9583      2.5950      0.0704      3.3358    142.0077     25.5714
   752.0000      7.9584      2.5892      0.0661      3.6867    144.1331     24.5819
   752.1000      7.9584      2.5717      0.1008      4.7428    142.5931     24.3157
   752.2000      7.9584      2.5423      0.0172      6.5285    139.2616     25.1453
   752.3000      7.9551      2.5218      0.0341      7.7672    139.2883     26.2525
   752.4000      7.9551      2.5194      0.0250      7.9141    141.6219     26.5641
   752.5000      7.9566      2.5182      0.0833      7.9858    143.3768     26.1116
   752.6000      7.9566      2.5065      0.0164      8.6983    143.8714     25.8504
   752.7000      7.9566      2.4973      0.0357      9.2524    142.8321     26.4278
   752.8000      7.9541      2.4964      0.0810      9.3092    142.2879     27.4896
   752.9000      7.9541      2.4832      0.0480     10.1080    146.7878     28.4156
   753.0000      7.9546      2.4511     -0.0117     12.0542    152.3103     28.9316
   753.1000      7.9546      2.4187      0.0025     14.0183    151.9377     28.8817
   753.2000      7.9546      2.4036     -0.0149     14.9334    149.4504     28.4794
   753.3000      7.9583      2.4080      0.0200     14.6662    152.9362     28.2093
   753.4000      7.9583      2.4164      0.0626     14.1578    159.8943     28.1884
   753.5000      7.9672      2.4218     -0.0178     13.8281    161.6643     28.3099
   753.6000      7.9672      2.4343     -0.0004     13.0741    160.9165     28.5140
   753.7000      7.9672      2.4456      0.0199     12.3874    161.7538     28.5700
   753.8000      7.9850      2.4313      0.0311     13.2553    160.2723     28.3537
   753.9000      7.9850      2.3853      0.0236     16.0401    155.3306     28.3188
   754.0000      7.9853      2.3228      0.0272     19.8310    148.2948     28.7787
   754.1000      7.9853      2.2520     -0.0061     24.1197    137.9070     29.5501
   754.2000      7.9853      2.1706     -0.0038     29.0529    126.3295     30.4894
   754.3000      7.9825      2.0794      0.0119     34.5846    118.7462     31.3296
   754.4000      7.9825      1.9819     -0.0146     40.4937    114.3634     31.7440
   754.5000      7.9946      1.8848     -0.0827     46.3776    112.3757     31.7937
   754.6000      7.9946      1.7950     -0.0533     51.8185    113.9862     31.9106
   754.7000      7.9946      1.7132     -0.0844     56.7766    116.3360     32.2052
   754.8000      7.9747      1.6448     -0.0647     60.9197    115.6774     32.2932
   754.9000      7.9747      1.5986      0.0079     63.7183    112.0608     31.9978
   755.0000      7.9744      1.5694      0.0327     65.4903    105.9333     31.7270
   755.1000      7.9744      1.5429      0.0164     67.0953    100.2880     31.7818
   755.2000      7.9744      1.5117     -0.0180     68.9886     99.2267     31.8492
   755.3000      8.0150      1.4773     -0.0411     71.0747     99.0972     31.9699
   755.4000      8.0150      1.4514     -0.0618     72.6400     93.9556     32.3712
   755.5000      8.1406      1.4532     -0.0431     72.5304     85.6490     32.6760
   755.6000      8.1406      1.4912      0.0001     70.2278     80.0768     32.3304
   755.7000      8.1406      1.5488      0.0685     66.7405     81.1862     31.1920
   755.8000      8.0888      1.5973      0.0643     63.7988     86.5154     30.2049
   755.9000      8.0888      1.6236      0.0672     62.2052     90.5812     30.0322
   756.0000      8.0603      1.6263      0.1086     62.0443     94.2179     30.2086
   756.1000      8.0603      1.6100      0.0213     63.0313     98.2066     30.4738
   756.2000      8.0603      1.5901      0.0592     64.2362     98.8464     30.6449
   756.3000      8.0743      1.5756      0.0082     65.1160     94.8395     30.7464
   756.4000      8.0743      1.5665     -0.0380     65.6652     88.2156     31.2906
   756.5000      8.0901      1.5690     -0.0750     65.5148     84.2605     32.2460
   756.6000      8.0901      1.5944     -0.0362     63.9772     87.4701     33.0944
   756.7000      8.0901      1.6452      0.0392     60.8971     94.0012     33.5085
   756.8000      8.0825      1.7136      0.0931     56.7509    100.5854     33.2047
   756.9000      8.0825      1.7870      0.1605     52.3036    109.4317     32.4698
   757.0000      8.0938      1.8498      0.1570     48.4945    119.6900     32.1566
   757.1000      8.0938      1.8929      0.1508     45.8874    126.1177     32.6664
   757.2000      8.0938      1.9164      0.1549     44.4614    126.2092     33.3116
   757.3000      8.1333      1.9272      0.0906     43.8079    125.5606     33.2363
   757.4000      8.1333      1.9383      0.0860     43.1327    127.7279     32.5592
   757.5000      8.0406      1.9585      0.0617     41.9065    130.7057     31.9250
   757.6000      8.0406      1.9852      0.0880     40.2892    133.9729     31.8058
   757.7000      8.0406      2.0194      0.0592     38.2198    135.9704     32.4120
   757.8000      8.0379      2.0716      0.1196     35.0562    135.5150     33.1404
   757.9000      8.0379      2.1395      0.1439     30.9395    133.1328     32.6907
   758.0000      8.0249      2.2039      0.1804     27.0346    131.8735     30.8903
   758.1000      8.0249      2.2533      0.1265     24.0394    134.5302     29.4500
   758.2000      8.0249      2.2928      0.1262     21.6491    136.4209     29.5056
   758.3000      8.0109      2.3290      0.0877     19.4571    136.4179     30.3921
   758.4000      8.0109      2.3731      0.0802     16.7791    140.3491     30.7315
   758.5000      7.9999      2.4324      0.0913     13.1860    144.8835     29.9995
   758.6000      7.9999      2.4901      0.1254      9.6907    142.5211     28.8892
   758.7000      7.9999      2.5233      0.1148      7.6776    138.2642     27.9665
   758.8000      8.0179      2.5284      0.0902      7.3707    136.4024     27.1642
   758.9000      8.0179      2.5240      0.0561      7.6352    133.3348     26.5968
