~Version Information
VERS.                      2.0: CWLS Log ASCII Standard - VERSION 2.0
WRAP.                       NO: One line per depth step
~Well Information Block
STRT.FT               240.0000: 
STOP.FT               940.5000: 
STEP.FT                 0.1000: 
NULL.                -999.2500: 
COMP.          Pioneer Natural Resources: COMPANY
WELL.               Ernie 31-6: WELL
FLD.           Purgatoire River: FIELD
LOC.           681' FNL & 2138' FEL: LOCATION
CNTY.               Las Animas: COUNTY
SRVC.                Patterson: SERVICE COMPANY
DATE.          Tue May 30 07:05:10 2006: LOG DATE
UWI.           05 071 08716 00: UNIQUE WELL ID
STAT.                 Colorado: STATE
~Curve Information Block
DEPT.FT            0 000 00 00: Depth
DCAL.in                       : CDL Caliper
RHOB.g/cc                     : CDL Bulk Density
RHOC.g/cc                     : CDL Density Correction
DPOR.pu                       : CDL Density Porosity
GR.GAPI                       : Gamma Ray
NPOR.pu                       : Neutron Porosity
~Parameter Information Block
~A  Depth       DCAL        RHOB        RHOC        DPOR         GR         NPOR    
# ...
   470.4000      8.0590      2.4824      0.0482     10.1585    150.7888     26.0836
   470.5000      8.0621      2.4677      0.0395     11.0469    153.8868     25.2521
   470.6000      8.0621      2.4480      0.0211     12.2424    153.4830     24.6736
   470.7000      8.0621      2.4288      0.0182     13.4057    154.7894     24.9222
   470.8000      8.0616      2.4254      0.0162     13.6148    162.9184     25.7548
   470.9000      8.0616      2.4439      0.0457     12.4902    168.6669     26.3571
   471.0000      8.0595      2.4710      0.0750     10.8487    166.5437     26.4281
   471.1000      8.0595      2.4896      0.0437      9.7237    164.3739     26.3237
   471.2000      8.0595      2.4946      0.0539      9.4162    170.5215     26.0345
   471.3000      8.0583      2.4926      0.0287      9.5374    176.4220     25.4102
   471.4000      8.0583      2.4934      0.0496      9.4923    169.4121     24.6126
   471.5000      8.0599      2.4963      0.0493      9.3141    158.4031     23.8538
   471.6000      8.0599      2.4994      0.0479      9.1285    152.0452     23.3315
   471.7000      8.0599      2.5054      0.0423      8.7617    144.7934     23.0501
   471.8000      8.0617      2.5073      0.0531      8.6504    137.3029     23.0833
   471.9000      8.0617      2.4963      0.0216      9.3147    137.8425     23.6051
   472.0000      8.0600      2.4804     -0.0015     10.2802    145.2908     24.1893
   472.1000      8.0600      2.4725     -0.0082     10.7593    151.2821     24.1641
   472.2000      8.0600      2.4702      0.0075     10.8994    154.5099     23.8086
   472.3000      8.0594      2.4623      0.0274     11.3737    158.3839     23.8801
   472.4000      8.0594      2.4534      0.0240     11.9148    161.9705     24.5750
   472.5000      8.0595      2.4589      0.0371     11.5830    165.5417     25.2245
   472.6000      8.0595      2.4741      0.0659     10.6623    173.4569     25.0574
   472.7000      8.0595      2.4733      0.0737     10.7102    181.9608     24.4536
   472.8000      8.0607      2.4487      0.0231     12.2004    183.0272     24.2972
   472.9000      8.0607      2.4197      0.0181     13.9592    177.0007     24.6559
   473.0000      8.0615      2.4045      0.0209     14.8768    169.1627     25.4671
   473.1000      8.0615      2.4144      0.0317     14.2763    162.1325     26.5666
   473.2000      8.0615      2.4474      0.1038     12.2806    158.1763     27.1996
   473.3000      8.0606      2.4843      0.1471     10.0424    157.8649     27.1363
   473.4000      8.0606      2.5119      0.1297      8.3673    156.1635     26.9561
   473.5000      8.0610      2.5271      0.1707      7.4510    152.7828     27.0277
   473.6000      8.0610      2.5281      0.1378      7.3873    154.6115     27.4480
   473.7000      8.0610      2.5245      0.1305      7.6054    163.5619     27.8754
   473.8000      8.0601      2.5218      0.2008      7.7692    172.0556     27.6352
   473.9000      8.0601      2.5078      0.1768      8.6195    170.1611     26.9652
   474.0000      8.0606      2.4828      0.1343     10.1315    159.5684     26.7118
   474.1000      8.0606      2.4641      0.1363     11.2652    152.4704     26.7077
   474.2000      8.0606      2.4629      0.0851     11.3365    154.1915     26.4556
   474.3000      8.0579      2.4810      0.1372     10.2434    162.8612     26.4523
   474.4000      8.0579      2.5030      0.1682      8.9088    176.3322     26.6919
   474.5000      8.0604      2.5072      0.1529      8.6538    185.5795     26.5296
   474.6000      8.0604      2.5004      0.0916      9.0656    180.3634     25.9028
   474.7000      8.0604      2.5072      0.1360      8.6575    166.9980     25.0487
   474.8000      8.0613      2.5266      0.1969      7.4758    158.7128     24.4976
   474.9000      8.0613      2.5393      0.2027      6.7072    157.9619     24.8550
   475.0000      8.0623      2.5310      0.1694      7.2129    160.1998     25.6098
   475.1000      8.0623      2.4996      0.1126      9.1132    162.5171     25.8774
   475.2000      8.0623      2.4614      0.0691     11.4287    161.8763     25.6743
   475.3000      8.0608      2.4387      0.0513     12.8059    160.1928     25.4063
   475.4000      8.0608      2.4365      0.0770     12.9369    160.8834     24.7096
   475.5000      8.0594      2.4448      0.0746     12.4338    159.4729     22.7987
   475.6000      8.0594      2.4581      0.1104     11.6285    153.2867     20.4476
   475.7000      8.0594      2.4734      0.1213     10.7015    148.7496     19.0511
   475.8000      8.0613      2.4856      0.1129      9.9658    147.6921     18.5153
   475.9000      8.0613      2.4806      0.1620     10.2646    143.9302     18.2897
   476.0000      8.0607      2.4355      0.1379     12.9983    136.7172     18.3616
   476.1000      8.0607      2.3478      0.0797     18.3125    132.6293     18.6420
   476.2000      8.0607      2.2379      0.0971     24.9756    132.6473     19.0949
   476.3000      8.0588      2.1340     -0.0384     31.2727    130.9379     19.9399
   476.4000      8.0588      2.0705     -0.0396     35.1193    127.9144     21.1283
   476.5000      8.0577      2.0579     -0.0087     35.8855    127.7790     22.4878
   476.6000      8.0577      2.0759      0.0346     34.7912    126.9745     23.8715
   476.7000      8.0577      2.1112      0.0140     32.6571    122.4736     25.0456
   476.8000      8.0796      2.1752      0.0513     28.7765    118.2569     25.9110
   476.9000      8.0796      2.2771      0.1635     22.6028    114.4896     26.3471
   477.0000      8.0226      2.3995      0.2581     15.1802    107.0488     26.4174
   477.1000      8.0226      2.5079      0.2958      8.6092    100.9703     26.4418
   477.2000      8.0226      2.5766      0.1920      4.4488    104.1862     26.6577
   477.3000      7.9866      2.6002      0.1644      3.0161    113.5911     26.6425
   477.4000      7.9866      2.5886      0.0367      3.7200    120.4787     26.0745
   477.5000      7.9697      2.5678      0.0095      4.9798    122.7388     25.4531
   477.6000      7.9697      2.5530      0.0390      5.8773    125.6960     25.0697
   477.7000      7.9697      2.5331      0.0436      7.0873    131.4958     24.9501
   477.8000      7.9676      2.5031      0.0152      8.9035    133.7447     24.7493
   477.9000      7.9676      2.4776     -0.0339     10.4515    128.7479     24.2076
   478.0000      7.9674      2.4664     -0.0018     11.1296    124.7748     23.6685
   478.1000      7.9674      2.4656      0.0247     11.1753    126.9377     23.2401
   478.2000      7.9674      2.4709      0.0318     10.8547    133.6651     23.2785
   478.3000      7.9666      2.4877      0.0114      9.8392    140.3036     24.3020
   478.4000      7.9666      2.5224      0.0474      7.7338    140.2351     25.3412
   478.5000      7.9667      2.5666      0.0851      5.0555    134.0566     25.4872
   478.6000      7.9667      2.6028      0.1502      2.8596    126.7277     25.1154
   478.7000      7.9667      2.6174      0.2079      1.9787    120.3029     24.7239
   478.8000      7.9697      2.6127      0.1685      2.2602    115.6015     24.5372
   478.9000      7.9697      2.6046      0.2015      2.7541    115.5431     24.3138
   479.0000      7.9659      2.5953      0.1696      3.3169    119.2823     23.4372
   479.1000      7.9659      2.5759      0.1514      4.4921    121.0615     22.1789
   479.2000      7.9659      2.5411      0.1010      6.5999    119.5115     21.5794
   479.3000      7.9665      2.4975      0.0256      9.2433    119.5631     21.9839
   479.4000      7.9665      2.4636     -0.0042     11.2970    123.2802     22.6257
   479.5000      7.9669      2.4445      0.0609     12.4546    127.6006     22.7522
   479.6000      7.9669      2.4217      0.0518     13.8391    131.6040     22.5216
   479.7000      7.9669      2.3895      0.0386     15.7901    137.0223     22.1673
   479.8000      7.9636      2.3689     -0.0000     17.0360    144.5161     21.8026
   479.9000      7.9636      2.3695      0.0895     17.0019    152.5997     22.0106
