~Version Information
VERS.                      2.0: CWLS Log ASCII Standard - VERSION 2.0
WRAP.                       NO: One line per depth step
~Well Information Block
STRT.FT                -7.5000: 
STOP.FT              1310.7500: 
STEP.FT                 0.2500: 
NULL.                -999.2500: 
COMP.          Pioneer Natural Resources: COMPANY
WELL.          Challenger 31-29: WELL
FLD.           Purgatorie River: FIELD
LOC.           51' FNL & 1923' FEL------: LOCATION
STAT.                       CO: State
CNTY.               Las Animas: COUNTY
CTRY. USA : Country
SECT. 29 : Section
TOWN. 33S : Township
RANG. 65W : Range
SRVC.          Patterson Wireline: SERVICE COMPANY
DATE.          Wed Sep 21 12:11:38 2005: LOG DATE
API.           05 071 08514 00: UNIQUE WELL ID
~Curve Information Block
DEPT.FT            0 000 00 00: Depth
CCL.                          : Casing Collar Locator
TT3.usec                      : CBL 3' Travel Time
AMP3.mV                       : CBL 3' Amplitude
GR.GAPI                       : Gamma Ray
~Parameter Information Block
~A  Depth       CCL         TT3         AMP3         GR     
# ...
   930.5000      0.0000    799.9101     13.9849     67.8501
   930.7500      0.0000    791.8206     14.6070     65.5669
   931.0000      0.0000    789.6230     14.9753     62.3392
   931.2500      0.0000    790.1202     15.1550     58.8177
   931.5000      0.0000    789.0215     15.1507     55.7291
   931.7500      0.0000    781.7587     14.8753     53.8230
   932.0000      0.0000    763.3395     14.2352     53.6516
   932.2500      0.0000    730.0558     13.2742     55.3199
   932.5000      0.0000    684.5950     12.2451     58.7367
   932.7500      0.0000    640.8077     11.4713     64.0851
   933.0000      0.0000    619.7267     11.1041     71.4996
   933.2500      0.0000    634.9854     11.0483     80.0827
   933.5000      0.0000    680.1838     11.1159     87.7687
   933.7500      0.0000    732.8354     11.1839     92.7173
   934.0000      0.0000    771.5889     11.2121     94.8429
   934.2500      2.0000    788.6954     11.1963     95.6513
   934.5000      0.0000    787.8267     11.1509     96.6200
   934.7500      0.0000    773.9757     11.1267     98.2777
   935.0000      0.0000    747.4676     11.2229    100.9199
   935.2500      0.0000    708.2110     11.5435    105.1219
   935.5000      0.0000    665.1290     12.1048    110.7439
   935.7500      0.0000    637.4162     12.7831    116.2020
   936.0000      0.0000    641.2764     13.3866    119.6019
   936.2500      0.0000    674.8262     13.7816    120.0705
   936.5000      0.0000    719.4399     13.9458    117.5657
   936.7500      0.0000    756.1151     13.9309    112.4723
   937.0000      0.0000    777.8994     13.8077    106.1117
   937.2500      0.0000    788.1833     13.6413    100.7076
   937.5000      0.0000    792.6130     13.4854     97.9254
   937.7500      0.0000    794.6020     13.3749     97.6831
   938.0000      0.0000    795.5071     13.3183     98.5749
   938.2500      0.0000    795.9127     13.3062     98.9542
   938.5000      0.0000    796.2617     13.3277     97.4496
   938.7500      0.0000    797.0121     13.3760     93.3123
   939.0000      0.0000    798.4962     13.4487     87.1063
   939.2500      0.0000    800.4818     13.5560     80.6797
   939.5000      0.0000    801.7956     13.7230     75.7342
   939.7500      0.0000    801.0275     13.9707     72.4878
   940.0000      0.0000    797.8235     14.2923     70.0093
   940.2500      0.0000    792.7328     14.6530     67.4593
   940.5000      0.0000    784.5250     15.0157     64.6580
   940.7500      0.0000    768.2990     15.3685     61.9022
   941.0000      0.0000    738.1043     15.7302     59.7622
   941.2500      0.0000    691.9142     16.1308     58.7833
   941.5000      0.0000    632.9034     16.5909     58.8850
   941.7500      0.0000    566.4609     17.1221     59.1563
   942.0000      0.0000    498.4250     17.7353     58.5958
   942.2500      0.0000    435.6137     18.4344     57.1470
   942.5000      0.0000    384.4359     19.1991     55.7877
   942.7500      0.0000    347.8857     19.9807     55.5004
   943.0000      0.0000    324.9124     20.7226     56.2998
   943.2500      0.0000    312.2611     21.3888     57.3380
   943.5000      0.0000    306.2838     21.9712     57.6878
   943.7500      0.0000    303.9431     22.4708     56.8763
   944.0000      0.0000    303.2504     22.8743     54.9911
   944.2500      0.0000    303.3203     23.1521     52.6983
   944.5000      0.0000    304.3084     23.2709     51.0212
   944.7500      0.0000    308.0291     23.2081     50.6410
   945.0000      0.0000    318.9689     22.9604     51.3956
   945.2500      0.0000    343.6480     22.5495     52.6763
   945.5000      0.0000    385.0791     22.0313     54.0656
   945.7500      0.0000    434.1487     21.4974     55.4195
   946.0000      0.0000    468.8301     21.0479     56.8139
   946.2500      0.0000    469.0650     20.7379     58.7854
   946.5000      0.0000    434.9698     20.5475     62.1493
   946.7500      0.0000    386.9627     20.4052     67.1419
   947.0000      0.0000    347.8857     20.2383     72.9126
   947.2500      0.0000    328.2947     20.0041     77.9977
   947.5000      0.0000    326.6137     19.6982     81.1307
   947.7500      0.0000    336.2812     19.3490     81.8527
   948.0000      0.0000    350.4054     19.0017     80.8265
   948.2500      0.0000    363.4903     18.7012     79.4686
   948.5000      0.0000    372.5916     18.4830     78.8839
   948.7500      0.0000    377.5995     18.3522     79.2234
   949.0000      0.0000    380.4304     18.2490     80.1946
   949.2500      0.0000    384.2380     18.0560     81.9050
   949.5000      0.0000    393.6258     17.6737     84.9371
   949.7500      0.0000    414.3845     17.0954     89.5676
   950.0000      0.0000    450.6318     16.4004     94.7588
   950.2500      0.0000    500.9163     15.6871     98.0713
   950.5000      0.0000    558.4595     15.0241     97.3178
   950.7500      0.0000    616.0942     14.4504     92.7885
   951.0000      0.0000    669.4972     13.9912     87.4517
   951.2500      0.0000    716.0784     13.6552     84.4503
   951.5000      0.0000    754.0243     13.4221     84.5710
   951.7500      0.0000    782.8456     13.2484     86.3724
   952.0000      0.0000    802.6892     13.0920     88.1905
   952.2500      0.0000    813.3351     12.9320     89.4516
   952.5000      0.0000    815.2543     12.7678     90.4560
   952.7500      0.0000    811.0320     12.6088     91.4809
   953.0000      0.0000    804.5600     12.4651     91.9864
   953.2500      0.0000    799.1053     12.3444     90.6977
   953.5000      0.0000    797.0810     12.2490     87.0056
   953.7500      0.0000    801.1124     12.1723     82.2166
   954.0000      0.0000    813.7228     12.0974     78.6071
   954.2500      0.0000    834.5047     12.0113     77.1626
   954.5000      0.0000    857.7045     11.9266     76.9786
   954.7500      0.0000    873.9305     11.8799     76.8452
   955.0000      0.0000    875.8342     11.9005     76.5461
   955.2500      0.0000    862.9396     11.9847     76.4111
   955.5000      0.0000    841.1470     12.1048     76.4484
   955.7500      0.0000    817.9295     12.2356     76.4114
   956.0000      0.0000    798.1233     12.3679     76.2261
   956.2500      0.0000    783.0093     12.5005     75.7651
   956.5000      0.0000    771.7877     12.6237     74.3956
   956.7500      0.0000    763.6348     12.7169     71.2555
   957.0000      0.0000    758.7346     12.7659     66.0594
   957.2500      0.0000    757.5143     12.7815     59.5224
   957.5000      0.0000    759.3126     12.7963     53.0626
   957.7500      0.0000    762.4191     12.8408     48.1604
   958.0000      0.0000    765.2933     12.9268     45.7561
   958.2500      0.0000    767.3480     13.0516     45.9330
   958.5000      0.0000    768.8236     13.2047     48.0999
   958.7500      0.0000    770.1229     13.3632     51.4716
   959.0000      0.0000    771.0364     13.4898     55.3438
   959.2500      0.0000    770.5787     13.5473     59.0874
   959.5000      0.0000    767.7687     13.5197     62.3055
   959.7500      0.0000    762.6023     13.4249     64.9970
   960.0000      0.0000    756.3470     13.3089     67.1601
   960.2500      0.0000    750.9962     13.2235     68.2978
   960.5000      0.0000    748.2614     13.1994     67.8577
   960.7500      0.0000    748.7128     13.2314     66.2150
   961.0000      0.0000    751.6251     13.2875     64.6739
   961.2500      0.0000    755.5828     13.3368     64.1964
   961.5000      0.0000    759.2632     13.3722     64.4128
   961.7500      0.0000    761.9357     13.4082     64.2130
   962.0000      0.0000    763.3121     13.4621     63.1240
   962.2500      0.0000    762.3549     13.5389     61.6427
   962.5000      0.0000    755.2943     13.6314     60.2644
   962.7500      0.0000    734.7264     13.7288     58.8258
   963.0000      0.0000    692.9614     13.8156     57.0930
   963.2500      0.0000    629.7421     13.8628     55.3774
   963.5000      0.0000    556.8570     13.8366     54.0091
   963.7500      0.0000    491.8212     13.7292     52.6027
