~Version Information
VERS.                      2.0: CWLS Log ASCII Standard - VERSION 2.0
WRAP.                       NO: One line per depth step
~Well Information Block
STRT.FT                -7.0000: 
STOP.FT              1239.2500: 
STEP.FT                 0.2500: 
NULL.                -999.2500: 
COMP.          Pioneer Natural Resources: COMPANY
WELL.              Julie 11-30: WELL
FLD.           Purgatorie River: FIELD
LOC.           672' FNL & 1052' FWL--: LOCATION
CNTY.               Las Animas: COUNTY
SRVC.          Patterson Wireline: SERVICE COMPANY
DATE.          Tue Apr 18 11:12:35 2006: LOG DATE
UWI.           05 071 08724 00: UNIQUE WELL ID
STAT.                       CO: STATE
~Curve Information Block
DEPT.FT            0 000 00 00: Depth
CCL.                          : Casing Collar Locator
TT3.usec                      : CBL 3' Travel Time
AMP3.mV                       : CBL 3' Amplitude
GR.GAPI                       : Gamma Ray
~Parameter Information Block
~A  Depth       CCL         TT3         AMP3         GR     
# ...
   730.0000      0.0000    336.7496     13.8102    110.7183
   730.2500      0.0000    336.9138     13.7803    102.8256
   730.5000      0.0000    337.1673     13.8088     91.6342
   730.7500      0.0000    337.5254     13.8215     80.0003
   731.0000      0.0000    338.1334     13.7467     71.0943
   731.2500      0.0000    339.6723     13.5576     66.9600
   731.5000      0.0000    344.3530     13.2684     68.1071
   731.7500      0.0000    357.2222     12.9003     73.9420
   732.0000      0.0000    385.9200     12.4596     83.2888
   732.2500      0.0000    436.2590     11.9496     94.6418
   732.5000      0.0000    504.9892     11.3902    106.2369
   732.7500      0.0000    577.6267     10.8181    116.1842
   733.0000      0.0000    636.9270     10.2651    122.8464
   733.2500      0.0000    674.4274      9.7355    125.4484
   733.5000      0.0000    692.4092      9.2090    124.4919
   733.7500      0.0000    696.3871      8.6651    121.6194
   734.0000      0.0000    689.3669      8.1058    118.9118
   734.2500      0.0000    673.0424      7.5570    117.9108
   734.5000      0.0000    650.7881      7.0509    118.8739
   734.7500      0.0000    627.4763      6.6096    120.7490
   735.0000      0.0000    607.5201      6.2440    121.9589
   735.2500      0.0000    594.4373      5.9611    121.6047
   735.5000      0.0000    591.1596      5.7570    120.1955
   735.7500      0.0000    598.6821      5.6017    119.1196
   736.0000      0.0000    614.0764      5.4472    119.3599
   736.2500      0.0000    631.0378      5.2677    120.9501
   736.5000      0.0000    643.2658      5.0829    123.5030
   736.7500      0.0000    647.5967      4.9316    126.6042
   737.0000      0.0000    644.9560      4.8322    129.6015
   737.2500      2.0000    639.6095      4.7786    131.9260
   737.5000     -2.0000    636.6725      4.7594    133.9445
   737.7500      0.0000    638.1476      4.7743    136.5487
   738.0000      0.0000    641.6704      4.8350    139.4212
   738.2500      0.0000    644.9755      4.9406    140.5964
   738.5000      0.0000    650.5496      5.0478    138.3922
   738.7500      0.0000    662.6503      5.0850    133.4353
   739.0000      0.0000    679.9739      5.0236    128.3927
   739.2500      0.0000    694.8081      4.9162    125.7572
   739.5000      0.0000    700.5162      4.8424    125.9751
   739.7500      0.0000    697.6551      4.8338    127.7187
   740.0000      0.0000    692.0558      4.8682    129.7354
   740.2500      0.0000    688.7123      4.9094    132.0664
   740.5000      0.0000    688.4642      4.9329    135.4818
   740.7500      0.0000    689.4323      4.9273    140.1339
   741.0000      0.0000    689.9124      4.8897    145.1008
   741.2500      0.0000    688.8278      4.8251    149.2601
   741.5000      0.0000    683.5356      4.7463    152.1908
   741.7500      0.0000    668.8839      4.6713    153.9233
   742.0000      0.0000    640.7447      4.6179    154.2758
   742.2500      0.0000    601.1771      4.5988    153.1590
   742.5000      0.0000    559.0143      4.6176    151.4652
   742.7500      0.0000    524.8228      4.6671    150.7761
   743.0000      0.0000    505.7343      4.7301    151.5882
   743.2500      0.0000    504.3234      4.7868    152.3214
   743.5000      0.0000    519.6541      4.8230    150.8628
   743.7500      0.0000    547.5367      4.8342    146.8082
   744.0000      0.0000    581.0229      4.8211    141.3351
   744.2500      0.0000    612.5296      4.7821    135.2411
   744.5000      0.0000    635.8735      4.7145    128.0875
   744.7500      0.0000    646.7268      4.6225    119.1250
   745.0000      0.0000    643.0499      4.5234    108.2148
   745.2500      0.0000    626.0530      4.4466     95.8550
   745.5000      0.0000    599.5205      4.4211     82.9323
   745.7500      0.0000    567.5728      4.4605     70.6353
   746.0000      0.0000    535.2017      4.5561     60.2020
   746.2500      0.0000    511.9734      4.6838     52.3695
   746.5000      0.0000    510.9335      4.8188     47.0914
   746.7500      0.0000    538.7474      4.9426     43.9297
   747.0000      0.0000    587.3998      5.0392     42.6649
   747.2500      0.0000    638.9760      5.0925     43.4904
   747.5000      0.0000    678.8129      5.0921     46.8739
   747.7500      0.0000    702.8132      5.0438     53.4874
   748.0000      0.0000    714.2335      4.9709     63.9351
   748.2500      0.0000    717.3655      4.9018     77.8842
   748.5000      0.0000    714.6210      4.8517     93.0836
   748.7500      0.0000    706.7441      4.8172    105.7688
   749.0000      0.0000    694.0845      4.7859    112.9518
   749.2500      0.0000    677.9634      4.7495    114.8029
   749.5000      0.0000    661.0703      4.7065    114.6186
   749.7500      0.0000    646.0045      4.6582    116.1776
   750.0000      0.0000    633.3893      4.6073    120.9065
   750.2500      0.0000    621.8386      4.5595    127.2431
   750.5000      0.0000    609.9317      4.5243    132.4578
   750.7500      0.0000    597.9376      4.5109    135.0029
   751.0000      0.0000    587.5207      4.5231    135.1428
   751.2500      0.0000    580.0982      4.5564    133.9380
   751.5000      0.0000    575.8082      4.6014    132.4205
   751.7500      0.0000    573.8256      4.6481    131.4119
   752.0000      0.0000    573.1951      4.6890    131.1170
   752.2500      0.0000    573.3403      4.7192    130.9207
   752.5000      0.0000    574.1832      4.7363    130.2043
   752.7500      0.0000    576.1649      4.7422    129.1936
   753.0000      0.0000    580.1421      4.7428    128.4384
   753.2500      0.0000    586.8117      4.7437    127.7873
   753.5000      0.0000    595.6500      4.7460    126.6251
   753.7500      0.0000    604.3883      4.7465    125.1150
   754.0000      0.0000    610.1080      4.7426    124.5172
   754.2500      0.0000    611.2377      4.7371    125.8268
   754.5000      0.0000    608.4200      4.7386    128.3664
   754.7500      0.0000    603.7098      4.7561    130.2084
   755.0000      0.0000    599.3998      4.7905    130.1288
   755.2500      0.0000    597.2133      4.8297    128.8168
   755.5000      0.0000    597.6514      4.8536    127.9449
   755.7500      0.0000    600.0144      4.8466    128.4195
   756.0000      0.0000    603.8220      4.8058    129.8726
   756.2500      0.0000    610.4823      4.7396    131.4761
   756.5000      0.0000    622.8434      4.6611    132.7422
   756.7500      0.0000    642.1049      4.5832    133.5305
   757.0000      0.0000    665.0168      4.5203    133.5584
   757.2500      0.0000    685.0385      4.4877    132.3508
   757.5000      0.0000    696.8754      4.4956    129.8549
   757.7500      0.0000    699.8666      4.5421    126.6321
   758.0000      0.0000    697.4825      4.6136    123.3349
   758.2500      0.0000    694.4327      4.6916    120.6034
   758.5000      0.0000    694.0121      4.7613    119.3426
   758.7500      0.0000    696.9620      4.8175    120.2431
   759.0000      0.0000    701.8845      4.8650    123.1499
   759.2500      0.0000    706.6885      4.9141    127.3602
   759.5000      0.0000    710.0308      4.9703    131.9952
   759.7500      0.0000    711.7916      5.0296    135.6048
   760.0000      0.0000    712.5786      5.0837    136.1283
   760.2500      0.0000    713.0476      5.1287    132.0510
   760.5000      0.0000    713.6042      5.1664    123.6493
   760.7500      0.0000    714.4318      5.1984    112.9092
   761.0000      0.0000    715.4628      5.2203    102.1735
   761.2500      0.0000    716.2107      5.2224     92.9759
   761.5000      0.0000    715.9066      5.1947     86.0453
   761.7500      0.0000    714.2802      5.1310     81.9598
   762.0000      0.0000    712.1990      5.0325     81.3914
   762.2500      0.0000    711.0145      4.9105     84.6336
   762.5000      0.0000    711.2211      4.7859     90.9927
   762.7500      0.0000    712.1828      4.6826     98.7259
   763.0000      0.0000    713.0369      4.6197    105.6668
   763.2500      0.0000    713.3652      4.6083    110.1655
