~Version Information
VERS.                      2.0: CWLS Log ASCII Standard - VERSION 2.0
WRAP.                       NO: One line per depth step
~Well Information Block
STRT.FT                 0.0000: 
STOP.FT              1193.0000: 
STEP.FT                 0.1000: 
NULL.                -999.2500: 
COMP.          Pioneer Natural Resources: COMPANY
WELL.          Big Pine 32-15 Tr: WELL
FLD.           Purgatorie River: FIELD
LOC.           2546' FNL & 1451' FEL: LOCATION
STAT.                 Colorado: State
CNTY.               Las Animas: COUNTY
CTRY. USA : Country
SECT. 15 : Section
TOWN. 33S : Township
RANG. 67W : Range
SRVC.                Patterson: SERVICE COMPANY
DATE.          Tue Nov 08 07:11:35 2005: LOG DATE
API. 05-071-08604                         : UNIQUE WELL ID
~Curve Information Block
DEPT.FT            0 000 00 00: Depth
DCAL.in                       : CDL Caliper
RHOB.g/cc                     : CDL Bulk Density
RHOC.g/cc                     : CDL Density Correction
DPOR.pu                       : CDL Density Porosity
GR.GAPI                       : Gamma Ray
NPOR.pu                       : Neutron Porosity
~Parameter Information Block
~A  Depth       DCAL        RHOB        RHOC        DPOR         GR         NPOR    
# ...
   624.0000     -2.8029      2.1570      2.0000     -0.0099    113.9789     30.3507
   624.1000     -2.8029      2.1371      2.0000     -0.0103    113.9351     30.1339
   624.2000     -2.8029      2.1088      2.0000     -0.0108    112.6846     29.1272
   624.3000     -2.8029      2.0801      2.0000     -0.0114    113.8145     27.4929
   624.4000     -2.8029      2.0660      2.0000     -0.0117    119.0841     26.1246
   624.5000     -2.8029      2.0731      2.0000     -0.0115    125.0252     25.8003
   624.6000     -2.8029      2.1029      2.0000     -0.0109    129.2465     26.3352
   624.7000     -2.8029      2.1572      2.0000     -0.0099    132.7100     26.6328
   624.8000     -2.8029      2.2328      2.0000     -0.0083    136.4203     26.3255
   624.9000     -2.8029      2.3110      2.0000     -0.0068    136.5691     26.1415
   625.0000     -2.8029      2.3670      2.0000     -0.0057    130.7615     26.4940
   625.1000     -2.8029      2.3873      2.0000     -0.0053    123.0025     27.0487
   625.2000     -2.8029      2.3799      2.0000     -0.0054    116.5076     27.1810
   625.3000     -2.8029      2.3666      2.0000     -0.0057    112.8761     26.5589
   625.4000     -2.8029      2.3577      2.0000     -0.0058    112.7194     25.5703
   625.5000     -2.8029      2.3496      2.0000     -0.0060    113.3344     24.8065
   625.6000     -2.8029      2.3447      2.0000     -0.0061    112.9898     24.6179
   625.7000     -2.8029      2.3478      2.0000     -0.0060    112.9898     25.0315
   625.8000     -2.8029      2.3563      2.0000     -0.0059    115.3786     25.6592
   625.9000     -2.8029      2.3653      2.0000     -0.0057    121.5832     26.0142
   626.0000     -2.8029      2.3684      2.0000     -0.0056    132.3587     25.9519
   626.1000     -2.8029      2.3616      2.0000     -0.0058    143.2853     25.7084
   626.2000     -2.8029      2.3523      2.0000     -0.0060    147.6480     25.4722
   626.3000     -2.8029      2.3528      2.0000     -0.0059    147.1001     25.1857
   626.4000     -2.8029      2.3645      2.0000     -0.0057    146.8996     24.8645
   626.5000     -2.8029      2.3833      2.0000     -0.0053    147.5092     24.6944
   626.6000     -2.8029      2.4063      2.0000     -0.0049    148.5852     24.9204
   626.7000     -2.8029      2.4280      2.0000     -0.0044    151.7664     25.5231
   626.8000     -2.8029      2.4443      2.0000     -0.0041    155.2662     25.9463
   626.9000     -2.8029      2.4498      2.0000     -0.0040    156.4414     25.8573
   627.0000     -2.8029      2.4408      2.0000     -0.0042    157.9382     25.8101
   627.1000     -2.8029      2.4212      2.0000     -0.0046    161.8264     26.1214
   627.2000     -2.8029      2.3963      2.0000     -0.0051    163.4103     26.5353
   627.3000     -2.8029      2.3721      2.0000     -0.0056    161.1715     26.8718
   627.4000     -2.8029      2.3564      2.0000     -0.0059    161.1945     27.0478
   627.5000     -2.8029      2.3499      2.0000     -0.0060    163.3585     27.0646
   627.6000     -2.8029      2.3473      2.0000     -0.0061    162.0261     26.9060
   627.7000     -2.8029      2.3398      2.0000     -0.0062    159.6041     26.5053
   627.8000     -2.8029      2.3186      2.0000     -0.0066    163.1554     26.1956
   627.9000     -2.8029      2.2895      2.0000     -0.0072    170.4459     26.3092
   628.0000     -2.8029      2.2722      2.0000     -0.0076    174.1155     26.6459
   628.1000     -2.8029      2.2795      2.0000     -0.0074    173.2636     27.0222
   628.2000     -2.8029      2.3107      2.0000     -0.0068    171.3058     27.2084
   628.3000     -2.8029      2.3609      2.0000     -0.0058    168.4097     26.9552
   628.4000     -2.8029      2.4174      2.0000     -0.0047    165.7568     26.5386
   628.5000     -2.8029      2.4558      2.0000     -0.0039    165.2162     26.3618
   628.6000     -2.8029      2.4533      2.0000     -0.0039    164.4355     26.2304
   628.7000     -2.8029      2.4108      2.0000     -0.0048    163.5332     25.7850
   628.8000     -2.8029      2.3566      2.0000     -0.0059    165.2469     25.2428
   628.9000     -2.8029      2.3144      2.0000     -0.0067    167.6113     25.1002
   629.0000     -2.8029      2.2828      2.0000     -0.0073    168.1084     25.4280
   629.1000     -2.8029      2.2566      2.0000     -0.0079    167.8777     25.8834
   629.2000     -2.8029      2.2372      2.0000     -0.0083    169.1707     26.2214
   629.3000     -2.8029      2.2224      2.0000     -0.0086    172.4438     26.3738
   629.4000     -2.8029      2.2086      2.0000     -0.0088    176.4467     26.4981
   629.5000     -2.8029      2.1944      2.0000     -0.0091    180.0357     26.9173
   629.6000     -2.8029      2.1732      2.0000     -0.0095    181.7706     27.4401
   629.7000     -2.8029      2.1427      2.0000     -0.0102    180.5441     27.5120
   629.8000     -2.8029      2.1114      2.0000     -0.0108    177.1780     27.1726
   629.9000     -2.8029      2.0757      2.0000     -0.0115    173.6461     26.8189
   630.0000     -2.8029      2.0303      2.0000     -0.0124    167.4756     26.4741
   630.1000     -2.8029      1.9914      2.0000     -0.0132    156.2133     26.0048
   630.2000     -2.8029      1.9718      2.0000     -0.0136    146.1262     25.7490
   630.3000     -2.8029      1.9641      2.0000     -0.0137    142.4260     26.0700
   630.4000     -2.8029      1.9609      2.0000     -0.0138    141.6139     26.5709
   630.5000     -2.8029      1.9648      2.0000     -0.0137    139.2639     26.7329
   630.6000     -2.8029      1.9795      2.0000     -0.0134    136.0691     26.4539
   630.7000     -2.8029      2.0061      2.0000     -0.0129    132.9590     25.9657
   630.8000     -2.8029      2.0382      2.0000     -0.0122    129.1718     25.7067
   630.9000     -2.8029      2.0671      2.0000     -0.0117    125.5393     25.7583
   631.0000     -2.8029      2.0928      2.0000     -0.0111    122.7344     25.7719
   631.1000     -2.8029      2.1152      2.0000     -0.0107    120.3590     25.6987
   631.2000     -2.8029      2.1287      2.0000     -0.0104    120.5209     25.6893
   631.3000     -2.8029      2.1311      2.0000     -0.0104    125.1818     25.5011
   631.4000     -2.8029      2.1283      2.0000     -0.0104    130.9571     25.1840
   631.5000     -2.8029      2.1318      2.0000     -0.0104    132.7226     25.3324
   631.6000     -2.8029      2.1452      2.0000     -0.0101    131.1910     25.8005
   631.7000     -2.8029      2.1608      2.0000     -0.0098    130.8197     25.7388
   631.8000     -2.8029      2.1696      2.0000     -0.0096    132.2914     25.1779
   631.9000     -2.8029      2.1689      2.0000     -0.0096    132.8723     24.9099
   632.0000     -2.8029      2.1652      2.0000     -0.0097    131.6921     25.0986
   632.1000     -2.8029      2.1709      2.0000     -0.0096    129.5883     25.2381
   632.2000     -2.8029      2.1891      2.0000     -0.0092    126.1894     25.1870
   632.3000     -2.8029      2.2024      2.0000     -0.0090    121.8620     25.3073
   632.4000     -2.8029      2.1961      2.0000     -0.0091    121.7411     25.8268
   632.5000     -2.8029      2.1798      2.0000     -0.0094    129.5007     26.6999
   632.6000     -2.8029      2.1692      2.0000     -0.0096    138.5462     27.6679
   632.7000     -2.8029      2.1720      2.0000     -0.0096    141.5002     28.4527
   632.8000     -2.8029      2.1864      2.0000     -0.0093    141.6078     29.0674
   632.9000     -2.8029      2.2017      2.0000     -0.0090    143.3026     29.8280
   633.0000     -2.8029      2.2104      2.0000     -0.0088    143.0695     31.1109
   633.1000     -2.8029      2.2158      2.0000     -0.0087    137.0781     32.4889
   633.2000     -2.8029      2.2260      2.0000     -0.0085    128.5209     33.1278
   633.3000     -2.8029      2.2388      2.0000     -0.0082    126.0522     33.0255
   633.4000     -2.8029      2.2365      2.0000     -0.0083    131.1049     32.4595
   633.5000     -2.8029      2.2107      2.0000     -0.0088    136.7028     31.6671
