~Version Information
VERS.                      2.0: CWLS Log ASCII Standard - VERSION 2.0
WRAP.                       NO: One line per depth step
~Well Information Block
STRT.FT               230.2000: 
STOP.FT              1518.7000: 
STEP.FT                 0.1000: 
NULL.                -999.2500: 
COMP.          Pioneer Natural Resources: COMPANY
WELL.          Mow 8-14-33-67 Tr: WELL
FLD.           Purgatoire River: FIELD
LOC.           2258' FNL & 929' FEL: LOCATION
PROV.                 Colorado: PROVINCE
CNTY.               Las Animas: COUNTRY
SRVC.                Patterson: SERVICE COMPANY
DATE.          Mon Jan 30 11:22:55 2006: LOG DATE
UWI.           05 071 08684 00: UNIQUE WELL ID
~Curve Information Block
DEPT.FT            0 000 00 00: Depth
DCAL.in                       : CDL Caliper
DPOR.pu                       : CDL Density Porosity
RHOB.g/cc                     : CDL Bulk Density
RHOC.g/cc                     : CDL Density Correction
GR.GAPI                       : Gamma Ray
~Parameter Information Block
~A  Depth       DCAL        DPOR        RHOB        RHOC         GR     
# ...
   599.8000      7.9073     10.1425      2.4826      0.1196     88.5776
   599.9000      7.9073      8.6012      2.5081      0.1403     89.1219
   600.0000      7.9079      8.8724      2.5036      0.0948     92.8860
   600.1000      7.9079     10.2161      2.4814      0.0712    102.3396
   600.2000      7.9079     10.9216      2.4698      0.0491    109.9643
   600.3000      7.9101     10.6214      2.4747      0.0778    111.0168
   600.4000      7.9101      9.9945      2.4851      0.0709    110.3874
   600.5000      7.9099      9.1081      2.4997      0.0472    107.9178
   600.6000      7.9099      8.0259      2.5176      0.0377    104.7690
   600.7000      7.9099      7.6423      2.5239      0.0295    107.3919
   600.8000      7.9077      8.3756      2.5118      0.0286    109.8329
   600.9000      7.9077      9.3050      2.4965      0.0322    106.2940
   601.0000      7.9055      9.4537      2.4940      0.0065    102.0732
   601.1000      7.9055      8.8610      2.5038      0.0464    101.7686
   601.2000      7.9055      8.0947      2.5164      0.0293    100.2573
   601.3000      7.9054      7.7212      2.5226      0.0778     92.4763
   601.4000      7.9054      8.1104      2.5162      0.0549     84.1268
   601.5000      7.9049      8.8255      2.5044      0.0476     79.3266
   601.6000      7.9049      9.1976      2.4982      0.0624     79.1108
   601.7000      7.9049      8.7789      2.5051      0.0390     86.3247
   601.8000      7.9035      7.6499      2.5238      0.0522     96.1349
   601.9000      7.9035      6.4412      2.5437      0.0403     95.7321
   602.0000      7.9064      5.5646      2.5582      0.0579     82.8846
   602.1000      7.9064      5.5509      2.5584      0.1133     74.3254
   602.2000      7.9064      6.5359      2.5422      0.0585     82.8914
   602.3000      7.9069      7.5095      2.5261      0.0377     97.2146
   602.4000      7.9069      7.6014      2.5246      0.0115     98.6272
   602.5000      7.8965      6.8582      2.5368      0.0013     86.8109
   602.6000      7.8965      5.7113      2.5558      0.0197     74.0567
   602.7000      7.8965      4.6081      2.5740      0.0522     70.0112
   602.8000      7.8842      3.8765      2.5860      0.0477     73.9036
   602.9000      7.8842      3.6369      2.5900      0.0720     75.3302
   603.0000      7.8770      4.3616      2.5780      0.1078     72.4852
   603.1000      7.8770      6.0624      2.5500      0.0355     73.8937
   603.2000      7.8770      7.3641      2.5285      0.0342     75.8121
   603.3000      7.8659      7.4663      2.5268      0.0644     70.1526
   603.4000      7.8659      6.9658      2.5351      0.0814     63.0741
   603.5000      7.8472      6.1242      2.5490      0.0465     65.0572
   603.6000      7.8472      5.1488      2.5650      0.1059     73.3581
   603.7000      7.8472      5.1994      2.5642      0.0954     78.6947
   603.8000      7.8320      6.6570      2.5402      0.0600     80.1325
   603.9000      7.8320      8.2572      2.5138      0.0604     81.1217
   604.0000      7.8274      9.1213      2.4995      0.0612     79.3657
   604.1000      7.8274      9.6217      2.4912      0.0716     72.5620
   604.2000      7.8274      9.8673      2.4872      0.0098     67.3122
   604.3000      7.8355      9.3909      2.4950      0.0696     65.9806
   604.4000      7.8355      8.4051      2.5113      0.0873     63.1481
   604.5000      7.8582      7.6552      2.5237      0.1111     60.0168
   604.6000      7.8582      7.5674      2.5251      0.0834     61.4307
   604.7000      7.8582      8.2148      2.5145      0.1320     67.1084
   604.8000      7.8838      9.2512      2.4974      0.0837     72.1737
   604.9000      7.8838      9.7768      2.4887      0.1244     75.0589
   605.0000      7.8990      9.2830      2.4968      0.0985     81.4067
   605.1000      7.8990      7.9805      2.5183      0.1082     93.8558
   605.2000      7.8990      6.3451      2.5453      0.0964    108.9594
   605.3000      7.9038      4.8518      2.5699      0.1175    123.5967
   605.4000      7.9038      3.5563      2.5913      0.0846    131.9914
   605.5000      7.8980      2.5908      2.6073      0.1743    128.6154
   605.6000      7.8980      2.8755      2.6026      0.1463    117.6142
   605.7000      7.8980      4.1940      2.5808      0.0667    104.8930
   605.8000      7.8833      4.8402      2.5701      0.0485     94.3705
   605.9000      7.8833      4.1549      2.5814      0.0709     87.3480
   606.0000      7.8682      2.9883      2.6007      0.0718     81.5186
   606.1000      7.8682      2.0568      2.6161      0.0619     79.4749
   606.2000      7.8682      1.8611      2.6193      0.1163     79.3284
   606.3000      7.8586      2.6131      2.6069      0.0906     73.9343
   606.4000      7.8586      3.2965      2.5956      0.0655     68.7459
   606.5000      7.8535      3.1790      2.5975      0.0792     68.7074
   606.6000      7.8535      3.0781      2.5992      0.1268     69.4316
   606.7000      7.8535      3.1377      2.5982      0.0126     70.6363
   606.8000      7.8483      2.4649      2.6093      0.0617     75.1097
   606.9000      7.8483      1.4305      2.6264      0.1017     80.1357
   607.0000      7.8397      0.7098      2.6383      0.0681     79.2167
   607.1000      7.8397      0.0731      2.6488      0.0574     69.7999
   607.2000      7.8397     -0.5045      2.6583      0.1057     58.0306
   607.3000      7.8276     -0.7158      2.6618      0.1083     52.3628
   607.4000      7.8276     -0.6776      2.6612      0.0914     52.5412
   607.5000      7.8154     -0.3163      2.6552      0.1047     53.4818
   607.6000      7.8154      0.7061      2.6383      0.0844     54.6342
   607.7000      7.8154      1.8921      2.6188      0.0469     57.2638
   607.8000      7.8083      2.4486      2.6096      0.0301     57.5570
   607.9000      7.8083      2.4192      2.6101      0.0713     52.1664
   608.0000      7.8122      1.9160      2.6184      0.0176     47.3849
   608.1000      7.8122      0.9017      2.6351      0.0484     50.0901
   608.2000      7.8122      0.3969      2.6435      0.1140     57.9701
   608.3000      7.8188      0.9734      2.6339      0.0277     67.8540
   608.4000      7.8188      1.4661      2.6258      0.0746     78.6736
   608.5000      7.8134      1.3094      2.6284      0.1050     86.1803
   608.6000      7.8134      1.0934      2.6320      0.1022     84.7668
   608.7000      7.8134      0.9604      2.6342      0.0712     74.8840
   608.8000      7.7945      0.7948      2.6369      0.1361     65.5218
   608.9000      7.7945      0.9128      2.6349      0.1075     62.0971
   609.0000      7.7768      1.3742      2.6273      0.0953     58.3933
   609.1000      7.7768      2.0782      2.6157      0.1148     51.7140
   609.2000      7.7768      3.1719      2.5977      0.0546     47.4271
   609.3000      7.7714      5.1126      2.5656      0.0838     46.6298
   609.4000      7.7714      7.7770      2.5217      0.0206     47.3354
   609.5000      7.7763      9.5402      2.4926      0.0046     49.6208
   609.6000      7.7763      9.5558      2.4923      0.0485     54.3893
   609.7000      7.7763      9.1813      2.4985      0.0893     64.1991
   609.8000      7.7813      9.7029      2.4899      0.0739     78.8720
   609.9000      7.7813     10.7068      2.4733      0.0344     88.7871
   610.0000      7.7735     11.2167      2.4649      0.0721     89.0141
   610.1000      7.7735     11.1377      2.4662      0.0701     90.0160
   610.2000      7.7735     11.0304      2.4680      0.0892     94.6762
   610.3000      7.7580     11.1195      2.4665      0.0468     90.9262
   610.4000      7.7580     11.1029      2.4668      0.0702     80.0707
   610.5000      7.7493     10.9344      2.4696      0.0755     78.4969
   610.6000      7.7493     10.9108      2.4700      0.1023     88.9992
   610.7000      7.7493     11.0339      2.4679      0.1239     99.9285
   610.8000      7.7455     11.3729      2.4623      0.1208    105.4767
   610.9000      7.7455     12.0652      2.4509      0.0803    105.6333
