~Version Information
VERS.                      2.0: CWLS Log ASCII Standard - VERSION 2.0
WRAP.                       NO: One line per depth step
~Well Information Block
STRT.FT                -9.0000: 
STOP.FT              1841.0000: 
STEP.FT                 0.2500: 
NULL.                -999.2500: 
COMP.          Pioneer Natural Resources: COMPANY
WELL.          Cooper 11-13 Tr: WELL
FLD.           Purgatorie River: FIELD
LOC.           476' FNL & 738' FWL: LOCATION
STAT.                       CO: State
CNTY.               Las Animas: COUNTY
CTRY. USA : Country
SECT. 13 : Section
TOWN. 32S : Township
RANG. 67W : Range
SRVC.          Patterson Wireline: SERVICE COMPANY
DATE.          Thu Sep 29 08:59:13 2005: LOG DATE
API.           05 071 08525 00: UNIQUE WELL ID
~Curve Information Block
DEPT.FT            0 000 00 00: Depth
CCL.                          : Casing Collar Locator
TT3.usec                      : CBL 3' Travel Time
AMP3.mV                       : CBL 3' Amplitude
GR.GAPI                       : Gamma Ray
~Parameter Information Block
~A  Depth       CCL         TT3         AMP3         GR     
# ...
  1431.5000      0.0000    752.9967      6.0811    116.1363
  1431.7500      0.0000    742.3090      6.1731    120.7289
  1432.0000      0.0000    736.5063      6.3018    123.7518
  1432.2500      0.0000    734.6146      6.4192    126.0918
  1432.5000      0.0000    736.4900      6.4786    129.1095
  1432.7500      0.0000    741.2150      6.4699    132.9014
  1433.0000      0.0000    746.1692      6.4030    136.4837
  1433.2500      0.0000    748.2932      6.2842    139.2893
  1433.5000      0.0000    746.0178      6.1255    141.6883
  1433.7500      0.0000    739.7225      5.9633    144.0164
  1434.0000      0.0000    731.0727      5.8425    145.8533
  1434.2500      0.0000    722.7356      5.7737    146.6522
  1434.5000      0.0000    718.0770      5.7236    146.5368
  1434.7500      0.0000    719.4130      5.6508    145.9061
  1435.0000      0.0000    725.6528      5.5481    144.5565
  1435.2500      0.0000    732.3982      5.4511    141.8890
  1435.5000      0.0000    735.4816      5.4111    137.8545
  1435.7500      0.0000    734.4162      5.4549    133.0865
  1436.0000      0.0000    731.9095      5.5638    128.3147
  1436.2500      0.0000    730.7654      5.6897    124.3726
  1436.5000      0.0000    732.0956      5.7968    122.3729
  1436.7500      0.0000    735.1635      5.8798    122.9225
  1437.0000      0.0000    737.6710      5.9393    125.4172
  1437.2500      0.0000    737.2408      5.9546    128.9235
  1437.5000      0.0000    733.5913      5.8983    133.1711
  1437.7500      0.0000    728.4554      5.7745    137.6949
  1438.0000      0.0000    723.5486      5.6312    140.6367
  1438.2500      0.0000    719.8937      5.5311    139.6359
  1438.5000      0.0000    718.3751      5.5090    134.2624
  1438.7500      0.0000    719.1932      5.5461    127.0377
  1439.0000      0.0000    721.1285      5.5818    121.4975
  1439.2500      0.0000    722.5367      5.5526    119.3661
  1439.5000      0.0000    722.7408      5.4289    119.9056
  1439.7500      0.0000    722.3842      5.2274    121.2592
  1440.0000      0.0000    723.5409      5.0023    121.5497
  1440.2500      0.0000    729.0336      4.8262    119.3206
  1440.5000      0.0000    739.8506      4.7568    114.1959
  1440.7500      0.0000    753.4759      4.7984    107.3222
  1441.0000      0.0000    766.2662      4.8962    100.7333
  1441.2500      0.0000    776.6349      4.9755     96.2833
  1441.5000      0.0000    784.0679      4.9917     95.0342
  1441.7500      0.0000    786.0684      4.9446     97.0660
  1442.0000      0.0000    778.8389      4.8588    101.4496
  1442.2500      0.0000    761.5874      4.7643    106.5189
  1442.5000      0.0000    738.8434      4.6980    110.6440
  1442.7500      0.0000    717.7072      4.7093    112.9937
  1443.0000      0.0000    702.9934      4.8380    113.4987
  1443.2500      0.0000    695.1349      5.0746    112.3439
  1443.5000      0.0000    691.8592      5.3547    110.1566
  1443.7500      0.0000    690.7910      5.6022    108.4259
  1444.0000      0.0000    690.5671      5.7759    108.6884
  1444.2500      0.0000    690.5814      5.8759    111.0370
  1444.5000      0.0000    690.5539      5.9257    114.2037
  1444.7500      0.0000    690.4109      5.9573    117.2751
  1445.0000      0.0000    690.1805      6.0015    120.4712
  1445.2500      0.0000    689.6691      6.0712    123.8389
  1445.5000      0.0000    687.9296      6.1544    125.9854
  1445.7500      0.0000    682.9576      6.2320    125.0701
  1446.0000      0.0000    671.9410      6.3019    120.9870
  1446.2500      0.0000    652.2650      6.3764    115.9345
  1446.5000      0.0000    623.4744      6.4559    112.7046
  1446.7500      0.0000    590.0282      6.5115    112.6658
  1447.0000      0.0000    562.4244      6.4999    115.1941
  1447.2500      0.0000    552.6071      6.3976    118.6890
  1447.5000      0.0000    564.9402      6.2198    122.0997
  1447.7500      0.0000    592.1332      6.0091    125.4696
  1448.0000      0.0000    622.0980      5.8013    129.0921
  1448.2500      0.0000    648.0942      5.6061    132.6018
  1448.5000      0.0000    670.8985      5.4271    135.1777
  1448.7500      0.0000    693.2867      5.2897    135.9845
  1449.0000      0.0000    715.5044      5.2241    133.8726
  1449.2500      0.0000    735.8803      5.2221    127.4898
  1449.5000      0.0000    753.6685      5.2284    116.6946
  1449.7500      0.0000    769.9646      5.1787    103.5066
  1450.0000      0.0000    785.7290      5.0426     90.9387
  1450.2500      0.0000    800.1008      4.8442     80.9257
  1450.5000      0.0000    811.4406      4.6507     73.6778
  1450.7500      0.0000    819.0016      4.5230     68.8814
  1451.0000      0.0000    822.5189      4.4653     66.9008
  1451.2500      0.0000    820.8080      4.4342     68.3303
  1451.5000      0.0000    811.8328      4.3948     72.7458
  1451.7500      0.0000    794.3999      4.3508     78.5818
  1452.0000      0.0000    770.0545      4.3274     84.3102
  1452.2500      0.0000    743.5403      4.3470     89.5250
  1452.5000      0.0000    720.7356      4.4201     95.0084
  1452.7500      0.0000    705.2983      4.5416    101.6989
  1453.0000      0.0000    697.1566      4.6894    109.4010
  1453.2500      0.0000    693.9623      4.8362    116.7552
  1453.5000      0.0000    693.4721      4.9613    122.6529
  1453.7500      0.0000    694.7804      5.0579    127.1820
  1454.0000      0.0000    698.0714      5.1455    130.7721
  1454.2500      0.0000    703.4465      5.2629    132.7497
  1454.5000      0.0000    709.8597      5.4237    131.4532
  1454.7500      0.0000    715.3763      5.5838    126.1918
  1455.0000      0.0000    718.5056      5.6746    118.7036
  1455.2500      0.0000    718.7031      5.6653    112.0879
  1455.5000      0.0000    715.7857      5.5796    108.5203
  1455.7500      0.0000    710.0196      5.4607    108.2810
  1456.0000      0.0000    702.7893      5.3324    110.2993
  1456.2500      0.0000    695.9848      5.1996    112.9692
  1456.5000      0.0000    690.5627      5.0793    115.0564
  1456.7500      0.0000    686.3975      5.0199    116.5118
  1457.0000      0.0000    683.4208      5.0740    118.1798
  1457.2500      0.0000    682.1598      5.2486    120.5712
  1457.5000      0.0000    683.0270      5.4988    123.4534
  1457.7500      0.0000    685.7936      5.7686    126.6455
  1458.0000      0.0000    690.3101      6.0205    130.5157
  1458.2500      0.0000    697.3943      6.2286    135.2490
  1458.5000      0.0000    708.0892      6.3680    139.7670
  1458.7500      0.0000    721.4545      6.4211    141.8092
  1459.0000      0.0000    733.4710      6.3904    139.2892
  1459.2500      0.0000    739.0923      6.2977    131.5867
  1459.5000      0.0000    735.6414      6.1746    119.8126
  1459.7500      0.0000    723.5800      6.0563    106.2281
  1460.0000      0.0000    703.4562      5.9826     93.3900
  1460.2500      0.0000    672.6203      5.9934     83.5404
  1460.5000      0.0000    626.6157      6.1151     78.4348
  1460.7500      0.0000    565.8675      6.3438     79.2039
  1461.0000      0.0000    500.9908      6.6354     85.7753
  1461.2500      0.0000    449.5573      6.9128     96.2615
  1461.5000      0.0000    426.2740      7.0954    107.3932
  1461.7500      0.0000    435.5043      7.1378    116.1960
  1462.0000      0.0000    470.9069      7.0494    121.6833
  1462.2500      0.0000    520.3089      6.8809    124.8667
  1462.5000      0.0000    571.7794      6.6953    126.8927
  1462.7500      0.0000    617.1204      6.5460    127.4277
  1463.0000      0.0000    652.0245      6.4634    125.2480
  1463.2500      0.0000    675.5952      6.4423    120.1613
  1463.5000      0.0000    690.2046      6.4451    113.7733
  1463.7500      0.0000    700.0117      6.4319    108.3924
  1464.0000      0.0000    708.3849      6.3981    105.7216
  1464.2500      0.0000    716.6397      6.3774    106.6109
  1464.5000      0.0000    724.6989      6.4049    111.2388
  1464.7500      0.0000    731.7744      6.4802    118.9073
