~Version Information
VERS.                      2.0: CWLS Log ASCII Standard - VERSION 2.0
WRAP.                       NO: One line per depth step
~Well Information Block
STRT.FT               570.0000: 
STOP.FT              2094.0000: 
STEP.FT                 0.2500: 
NULL.                -999.2500: 
COMP.          XTO Energy Inc.: COMPANY
WELL.          Golden Eagle 19-10: WELL
FLD.           Purgatoire River: FIELD
LOC.           2684' FSL & 1825' FEL: LOCATION
CNTY.               Las Animas: COUNTY
CTRY.                      USA: COUNTRY
API.               05 071 08697:  
SRVC.                Patterson: SERVICE COMPANY
DATE.          Sun Mar 05 02:13:24 2006: LOG DATE
UWI.           05 071 08697 00: UNIQUE WELL ID
STAT.                 Colorado: STATE
~Curve Information Block
DEPT.FT            0 000 00 00: Depth
SP.mV                         : DIL Spontaneous Potential
RILD.Ohm-m                    : DIL Deep Resistivity
RILM.Ohm-m                    : DIL Medium Resistivity
RLL3.Ohm-m                    : DIL Shallow Resistivity
GR.GAPI                       : Gamma Ray
~Parameter Information Block
~A  Depth        SP         RILD        RILM        RLL3         GR     
# ...
  1466.0000     35.7465     11.9241     15.3935     30.9000    115.9814
  1466.2500     35.7109     11.3789     14.2566     23.6069    121.7081
  1466.5000     35.6589     10.8229     13.1778     18.1311    129.6652
  1466.7500     35.5788     10.2698     12.1907     14.7432    134.0832
  1467.0000     35.4670      9.7345     11.3086     12.8602    138.6368
  1467.2500     35.3204      9.2307     10.5324     11.7647    139.9655
  1467.5000     35.1313      8.7694      9.8567     10.9848    139.3373
  1467.7500     34.8896      8.3587      9.2745     10.3181    137.5588
  1468.0000     34.5901      8.0035      8.7785      9.7268    134.1919
  1468.2500     34.2382      7.7060      8.3625      9.2410    132.4413
  1468.5000     33.8545      7.4644      8.0214      8.8934    131.7570
  1468.7500     33.4720      7.2740      7.7509      8.6767    132.5879
  1469.0000     33.1277      7.1284      7.5472      8.5422    134.3253
  1469.2500     32.8522      7.0215      7.4075      8.4418    134.6487
  1469.5000     32.6611      6.9487      7.3285      8.3757    132.7931
  1469.7500     32.5545      6.9064      7.3067      8.3948    130.2278
  1470.0000     32.5204      6.8901      7.3371      8.5600    125.5990
  1470.2500     32.5415      6.8934      7.4125      8.9051    122.6771
  1470.5000     32.6029      6.9088      7.5231      9.4228    119.4845
  1470.7500     32.6992      6.9303      7.6559     10.0543    118.6219
  1471.0000     32.8366      6.9551      7.7961     10.6808    119.5670
  1471.2500     33.0286      6.9843      7.9282     11.1503    121.3404
  1471.5000     33.2857      7.0202      8.0388     11.3436    124.3294
  1471.7500     33.6058      7.0638      8.1190     11.2285    125.7673
  1472.0000     33.9711      7.1139      8.1653     10.8597    126.7115
  1472.2500     34.3535      7.1665      8.1799     10.3417    126.8777
  1472.5000     34.7233      7.2161      8.1691      9.7969    127.2427
  1472.7500     35.0565      7.2573      8.1410      9.3449    127.8153
  1473.0000     35.3414      7.2859      8.1038      9.0722    129.2205
  1473.2500     35.5815      7.2989      8.0645      8.9967    130.4759
  1473.5000     35.7938      7.2955      8.0283      9.0620    132.7478
  1473.7500     35.9988      7.2775      7.9986      9.1777    134.4580
  1474.0000     36.2072      7.2502      7.9782      9.2734    137.0391
  1474.2500     36.4127      7.2217      7.9693      9.3257    138.3732
  1474.5000     36.5973      7.2013      7.9747      9.3457    138.8095
  1474.7500     36.7444      7.1963      7.9973      9.3545    137.7307
  1475.0000     36.8479      7.2106      8.0396      9.3702    134.6481
  1475.2500     36.9098      7.2446      8.1037      9.4110    132.5306
  1475.5000     36.9301      7.2966      8.1897      9.4980    130.8024
  1475.7500     36.9017      7.3639      8.2958      9.6550    130.8689
  1476.0000     36.8143      7.4418      8.4174      9.9016    131.5594
  1476.2500     36.6624      7.5229      8.5471     10.2379    131.1134
  1476.5000     36.4505      7.5980      8.6750     10.6350    127.7034
  1476.7500     36.1939      7.6588      8.7892     11.0444    123.9792
  1477.0000     35.9173      7.6998      8.8771     11.4212    118.4193
  1477.2500     35.6520      7.7196      8.9278     11.7281    116.0814
  1477.5000     35.4292      7.7210      8.9343     11.9169    115.7745
  1477.7500     35.2682      7.7108      8.8955     11.9178    117.4193
  1478.0000     35.1687      7.6980      8.8174     11.6625    120.7702
  1478.2500     35.1125      7.6913      8.7119     11.1336    122.1840
  1478.5000     35.0742      7.6956      8.5939     10.4051    121.4456
  1478.7500     35.0341      7.7106      8.4791      9.6339    119.0781
  1479.0000     34.9857      7.7320      8.3806      9.0005    114.4135
  1479.2500     34.9374      7.7536      8.3079      8.6351    111.9322
  1479.5000     34.9071      7.7704      8.2658      8.5735    110.7010
  1479.7500     34.9142      7.7790      8.2553      8.7596    111.4756
  1480.0000     34.9742      7.7788      8.2737      9.0880    113.4366
  1480.2500     35.0951      7.7721      8.3164      9.4639    114.1719
  1480.5000     35.2730      7.7639      8.3770      9.8462    113.7174
  1480.7500     35.4900      7.7599      8.4482     10.2450    112.8949
  1481.0000     35.7225      7.7649      8.5218     10.6758    112.2523
  1481.2500     35.9515      7.7802      8.5893     11.1119    112.4428
  1481.5000     36.1650      7.8042      8.6421     11.4859    112.6668
  1481.7500     36.3573      7.8337      8.6722     11.7413    112.0585
  1482.0000     36.5313      7.8652      8.6741     11.8632    110.0767
  1482.2500     36.7011      7.8953      8.6458     11.8402    108.8766
  1482.5000     36.8859      7.9214      8.5901     11.6252    108.5440
  1482.7500     37.0972      7.9413      8.5141     11.1763    109.2555
  1483.0000     37.3315      7.9534      8.4280     10.5407    110.6172
  1483.2500     37.5727      7.9582      8.3428      9.8727    111.1487
  1483.5000     37.8021      7.9589      8.2683      9.3538    111.1621
  1483.7500     38.0066      7.9616      8.2116      9.0939    110.8441
  1484.0000     38.1827      7.9741      8.1771      9.0964    110.4261
  1484.2500     38.3340      8.0046      8.1665      9.2876    110.5053
  1484.5000     38.4655      8.0605      8.1809      9.5661    111.4573
  1484.7500     38.5770      8.1489      8.2219      9.8417    112.5920
  1485.0000     38.6626      8.2779      8.2933     10.0511    114.5718
  1485.2500     38.7157      8.4557      8.4027     10.1598    115.7455
  1485.5000     38.7374      8.6887      8.5616     10.1626    117.1704
  1485.7500     38.7393      8.9794      8.7858     10.0848    118.1572
  1486.0000     38.7422      9.3251      9.0951      9.9799    119.8815
  1486.2500     38.7679      9.7187      9.5119      9.9322    120.7066
  1486.5000     38.8313     10.1524     10.0597     10.0801    120.0094
  1486.7500     38.9362     10.6218     10.7598     10.6532    117.6517
  1487.0000     39.0752     11.1300     11.6274     11.9911    111.3013
  1487.2500     39.2334     11.6881     12.6665     14.5083    105.8050
  1487.5000     39.3953     12.3136     13.8663     18.5730     97.0929
  1487.7500     39.5539     13.0276     15.2031     24.3075     91.4903
  1488.0000     39.7180     13.8529     16.6476     31.4533     83.4234
  1488.2500     39.9104     14.8124     18.1798     39.5393     78.1964
  1488.5000     40.1547     15.9265     19.8015     48.4341     70.9071
  1488.7500     40.4615     17.2049     21.5398     58.9650     66.6241
  1489.0000     40.8218     18.6358     23.4403     72.9602     60.9681
  1489.2500     41.2113     20.1771     25.5517     92.1285     57.5859
  1489.5000     41.5988     21.7585     27.9096    116.1040     53.1422
  1489.7500     41.9548     23.2968     30.5207    141.4847     50.5763
  1490.0000     42.2618     24.7087     33.3470    163.6291     46.7818
  1490.2500     42.5221     25.9084     36.2877    180.0297     43.8759
  1490.5000     42.7573     26.7899     39.1555    191.6210     38.7535
  1490.7500     42.9985     27.2293     41.6555    200.5717     35.1425
  1491.0000     43.2709     27.1284     43.3942    207.3774     30.3733
  1491.2500     43.5824     26.4789     43.9555    210.4853     28.1571
  1491.5000     43.9203     25.3880     43.0621    208.1345     26.9999
  1491.7500     44.2587     24.0390     40.7410    199.7249     28.0438
  1492.0000     44.5717     22.6200     37.3596    185.3658     32.9028
  1492.2500     44.8446     21.2674     33.4737    164.9152     38.5296
  1492.5000     45.0736     20.0503     29.6064    138.3795     50.3783
  1492.7500     45.2571     18.9846     26.1091    107.4971     60.0938
  1493.0000     45.3859     18.0579     23.1453     76.3912     76.0571
  1493.2500     45.4458     17.2487     20.7415     49.9551     86.6049
  1493.5000     45.4303     16.5322     18.8489     31.2707    100.2918
  1493.7500     45.3537     15.8777     17.3862     20.4336    106.9621
