~Version Information
VERS.                      2.0: CWLS Log ASCII Standard - VERSION 2.0
WRAP.                       NO: One line per depth step
~Well Information Block
STRT.FT                 0.0000: 
STOP.FT              2473.5000: 
STEP.FT                 0.2500: 
NULL.                -999.2500: 
COMP.          Petrogulf Corporation: COMPANY
WELL.          Montoya 18-11V-B: WELL
FLD.           Purgatorie River: FIELD
LOC.           848' FNL & 619' FWL: LOCATION
PROV.                 Colorado: PROVINCE
CNTY.               Las Animas: COUNTRY
SRVC.                Patterson: SERVICE COMPANY
DATE.          Wed Nov 09 10:15:13 2005: LOG DATE
UWI.                          : UNIQUE WELL ID
~Curve Information Block
DEPT.FT            0 000 00 00: Depth
CCL.                          : Casing Collar Locator
TT3.usec                      : CBL 3' Travel Time
AMP3.mV                       : CBL 3' Amplitude
GR.GAPI                       : Gamma Ray
~Parameter Information Block
~A  Depth       CCL         TT3         AMP3         GR     
# ...
   502.5000      0.0000    258.6032     80.0672     97.3842
   502.7500      0.0000    258.6222     80.2249     99.3589
   503.0000      0.0000    258.6189     80.4858    101.3542
   503.2500      0.0000    258.5750     80.7369    102.8003
   503.5000      0.0000    258.5015     80.8500    104.0608
   503.7500      0.0000    258.4495     80.7825    105.5326
   504.0000      0.0000    258.4626     80.6012    106.7571
   504.2500      0.0000    258.5259     80.4049    106.8972
   504.5000      0.0000    258.5874     80.2682    105.8071
   504.7500      0.0000    258.6084     80.2156    104.2548
   505.0000      0.0000    258.5903     80.2107    103.4204
   505.2500      0.0000    258.5674     80.2079    104.3315
   505.5000      0.0000    258.5692     80.2102    107.0844
   505.7500      0.0000    258.5920     80.2509    110.3744
   506.0000      0.0000    258.6093     80.3398    112.4527
   506.2500      0.0000    258.6013     80.4544    112.7358
   506.5000      0.0000    258.5713     80.5732    112.0770
   506.7500      0.0000    258.5389     80.6631    111.8146
   507.0000      0.0000    258.5137     80.6824    113.0455
   507.2500      0.0000    258.4902     80.6653    116.2077
   507.5000      0.0000    258.4760     80.6759    120.6510
   507.7500      0.0000    258.4808     80.7031    124.9210
   508.0000      0.0000    258.4914     80.7293    127.7899
   508.2500      0.0000    258.4994     80.7759    128.8109
   508.5000      0.0000    258.5133     80.8366    128.0698
   508.7500      0.0000    258.5258     80.8800    126.0294
   509.0000      0.0000    258.5194     80.8834    123.4936
   509.2500      0.0000    258.4970     80.8295    121.0930
   509.5000      0.0000    258.4746     80.7327    118.8084
   509.7500      0.0000    258.4601     80.6503    116.2779
   510.0000      0.0000    258.4497     80.6178    113.3270
   510.2500      0.0000    258.4379     80.6283    110.0621
   510.5000      0.0000    258.4208     80.6680    106.8446
   510.7500      0.0000    258.3946     80.7044    104.2887
   511.0000      0.0000    258.3641     80.6986    102.9348
   511.2500      0.0000    258.3412     80.6610    102.7784
   511.5000      0.0000    258.3353     80.6251    103.1280
   511.7500      0.0000    258.3524     80.5992    102.8084
   512.0000      0.0000    258.3809     80.6138    100.6708
   512.2500      0.0000    258.3882     80.7099     96.4185
   512.5000      0.0000    258.3589     80.8240     91.0666
   512.7500      0.0000    258.3189     80.8149     86.3793
   513.0000      0.0000    258.3013     80.6630     83.8024
   513.2500      0.0000    258.3108     80.5034     83.9165
   513.5000      0.0000    258.3269     80.4465     86.5758
   513.7500      0.0000    258.3331     80.4947     91.1261
   514.0000      0.0000    258.3424     80.5644     96.4270
   514.2500      0.0000    258.3703     80.5768    100.9708
   514.5000      0.0000    258.4019     80.5851    103.3267
   514.7500      0.0000    258.4177     80.6642    102.7580
   515.0000      0.0000    258.4173     80.7539     99.7547
   515.2500      0.0000    258.4048     80.7720     96.0577
   515.5000      0.0000    258.3826     80.7384     93.7277
   515.7500      0.0000    258.3539     80.7501     93.6781
   516.0000      0.0000    258.3215     80.8835     95.1866
   516.2500      0.0000    258.3059     81.0545     96.9189
   516.5000      0.0000    258.3391     81.0725     97.9531
   516.7500      0.0000    258.4192     80.9075     97.6007
   517.0000      0.0000    258.5081     80.7076     95.0583
   517.2500      0.0000    258.5756     80.5442     90.0842
   517.5000      0.0000    258.6123     80.4064     83.8204
   517.7500      0.0000    258.6151     80.3588     78.2527
   518.0000      0.0000    258.5885     80.4444     74.5732
   518.2500      0.0000    258.5550     80.5839     72.1852
   518.5000      0.0000    258.5402     80.6943     69.5700
   518.7500      0.0000    258.5534     80.7349     66.0943
   519.0000      0.0000    258.5862     80.6699     62.6203
   519.2500      0.0000    258.6206     80.5563     60.3592
   519.5000      0.0000    258.6430     80.5386     59.6517
   519.7500      0.0000    258.6561     80.6378     60.1179
   520.0000      0.0000    258.6700     80.7265     61.6227
   520.2500      0.0000    258.6860     80.7342     64.5969
   520.5000      0.0000    258.6964     80.7131     69.2581
   520.7500      0.0000    258.6868     80.7578     74.7980
   521.0000      0.0000    258.6428     80.9150     79.7723
   521.2500      0.0000    258.5710     81.1130     83.5108
   521.5000      0.0000    258.5082     81.1890     86.9085
   521.7500      0.0000    258.4925     81.0479     91.4222
   522.0000      0.0000    258.5205     80.7737     97.2411
   522.2500      0.0000    258.5580     80.4510    102.8163
   522.5000      0.0000    258.6057     79.9156    106.4116
   522.7500      0.0000    258.7750     78.8350    107.8659
   523.0000      0.0000    259.3170     76.8630    108.5449
   523.2500      0.0000    260.4375     73.4894    109.7338
   523.5000      0.0000    261.9897     68.4107    111.3935
   523.7500      0.0000    263.5047     62.8616    112.3949
   524.0000      0.0000    264.5832     59.2215    111.5949
   524.2500      0.0000    265.1537     58.2874    108.6517
   524.5000      0.0000    265.3801     58.6943    104.1327
   524.7500      0.0000    265.4518     59.0431     99.1554
   525.0000     -2.0000    265.4805     58.9327     94.9822
   525.2500      0.0000    265.4912     58.3798     92.6513
   525.5000      0.0000    265.4239     57.4722     92.5791
   525.7500      0.0000    265.1214     56.7555     94.5344
   526.0000      0.0000    264.3696     57.1238     98.1120
   526.2500      0.0000    263.1116     58.9093    103.0794
   526.5000      0.0000    261.6396     62.2547    109.3023
   526.7500      0.0000    260.3516     67.4571    116.5589
   527.0000      0.0000    259.4235     73.2908    124.3210
   527.2500      0.0000    258.8706     77.4759    131.5510
   527.5000      0.0000    258.6360     79.3361    136.9357
   527.7500      0.0000    258.5854     79.8280    139.7026
   528.0000      0.0000    258.5896     79.8786    140.1713
   528.2500      0.0000    258.5840     79.8731    139.1994
   528.5000      0.0000    258.5505     79.9075    137.2168
   528.7500      0.0000    258.4972     79.9891    134.1955
   529.0000      0.0000    258.4556     80.1088    130.4836
   529.2500      0.0000    258.4566     80.2473    127.0573
   529.5000      0.0000    258.4971     80.3763    124.4810
   529.7500      0.0000    258.5527     80.4396    121.7611
   530.0000      0.0000    258.5962     80.4091    116.7960
   530.2500      0.0000    258.5884     80.3862    108.2755
   530.5000      0.0000    258.5029     80.5190     97.0328
   530.7500      0.0000    258.3761     80.7966     85.3956
   531.0000      0.0000    258.2968     81.0399     75.4002
   531.2500      0.0000    258.3137     81.1122     67.8716
   531.5000      0.0000    258.3871     81.0456     62.8906
   531.7500      0.0000    258.4586     80.9455     60.3082
   532.0000      0.0000    258.5119     80.8473     59.4632
   532.2500      0.0000    258.5483     80.7186     59.0535
   532.5000      0.0000    258.5609     80.5568     58.0042
   532.7500      0.0000    258.5492     80.4115     56.3498
   533.0000      0.0000    258.5342     80.3315     54.9086
   533.2500      0.0000    258.5362     80.3548     54.1959
   533.5000      0.0000    258.5460     80.4908     54.0162
   533.7500      0.0000    258.5387     80.6580     54.1774
   534.0000      0.0000    258.5056     80.7345     55.0788
   534.2500      0.0000    258.4654     80.6834     57.1095
   534.5000      0.0000    258.4395     80.6050     59.8406
   534.7500      0.0000    258.4260     80.6037     62.4346
   535.0000      0.0000    258.4225     80.6236     64.6795
   535.2500      0.0000    258.4394     80.5576     67.1152
   535.5000      0.0000    258.4679     80.4371     70.1766
   535.7500      0.0000    258.4802     80.3859     73.5533
