~Version Information
VERS.                      2.0: CWLS Log ASCII Standard - VERSION 2.0
WRAP.                       NO: One line per depth step
~Well Information Block
STRT.FT               620.0000: 
STOP.FT              3067.2500: 
STEP.FT                 0.2500: 
NULL.                -999.2500: 
COMP.          Pioneer Natural Resources: COMPANY
WELL.          Interceptor 43-13 Kv: WELL
FLD.           Purgatoire River: FIELD
LOC.           2073' FSL & 519' FEL--: LOCATION
PROV.                 Colorado: PROVINCE
CNTY.               Las Animas: COUNTRY
SRVC.                Patterson: SERVICE COMPANY
DATE.          Sat Jan 14 19:35:17 2006: LOG DATE
UWI.           05 071 08655 00: UNIQUE WELL ID
~Curve Information Block
DEPT.FT            0 000 00 00: Depth
SN.Ohm-m                      : IEL Short Normal
SP.mV                         : IEL Spontaneous Potential
DIR.Ohm-m                     : IEL Induction Resistivity
GR.GAPI                       : Gamma Ray
~Parameter Information Block
~A  Depth        SN          SP         DIR          GR     
# ...
  2563.0000     24.6486     46.0333     22.5833     81.4639
  2563.2500     24.2167     46.2033     22.2319     89.9607
  2563.5000     23.7543     46.4260     21.8624    101.4218
  2563.7500     23.2648     46.6807     21.4862    107.0028
  2564.0000     22.7786     46.9423     21.1248    111.6746
  2564.2500     22.3465     47.1843     20.8011    112.7539
  2564.5000     22.0180     47.3838     20.5317    112.6860
  2564.7500     21.8196     47.5240     20.3232    112.0082
  2565.0000     21.7471     47.5973     20.1739    109.6503
  2565.2500     21.7765     47.6057     20.0792    106.4248
  2565.5000     21.8826     47.5606     20.0364     97.8871
  2565.7500     22.0530     47.4800     20.0443     89.6252
  2566.0000     22.2917     47.3851     20.0996     74.8409
  2566.2500     22.6087     47.2952     20.1948     64.9941
  2566.5000     23.0036     47.2246     20.3226     52.9190
  2566.7500     23.4531     47.1789     20.4819     47.4837
  2567.0000     23.9125     47.1543     20.6767     43.1175
  2567.2500     24.3328     47.1378     20.9108     42.0762
  2567.5000     24.6849     47.1100     21.1830     42.0227
  2567.7500     24.9735     47.0484     21.4880     42.5508
  2568.0000     25.2295     46.9318     21.8223     44.2898
  2568.2500     25.4913     46.7440     22.1897     46.3767
  2568.5000     25.7906     46.4772     22.6012     51.0033
  2568.7500     26.1500     46.1344     23.0688     54.7825
  2569.0000     26.5822     45.7292     23.5982     60.6184
  2569.2500     27.0876     45.2852     24.1838     63.9921
  2569.5000     27.6529     44.8335     24.8077     67.1440
  2569.7500     28.2550     44.4088     25.4409     67.6368
  2570.0000     28.8656     44.0453     26.0448     66.7015
  2570.2500     29.4521     43.7723     26.5725     66.0259
  2570.5000     29.9780     43.6103     26.9788     66.5218
  2570.7500     30.4101     43.5679     27.2383     67.9743
  2571.0000     30.7261     43.6410     27.3623     70.4675
  2571.2500     30.9191     43.8136     27.3956     71.1220
  2571.5000     30.9953     44.0601     27.3933     69.1035
  2571.7500     30.9699     44.3499     27.3912     65.6776
  2572.0000     30.8623     44.6521     27.3922     58.5313
  2572.2500     30.6906     44.9398     27.3743     53.4482
  2572.5000     30.4732     45.1935     27.3126     46.9108
  2572.7500     30.2338     45.4023     27.2002     43.6871
  2573.0000     30.0037     45.5631     27.0555     40.2478
  2573.2500     29.8159     45.6793     26.9110     38.4975
  2573.5000     29.6924     45.7579     26.7949     36.4626
  2573.7500     29.6314     45.8071     26.7164     35.6033
  2574.0000     29.6039     45.8350     26.6611     35.0696
  2574.2500     29.5618     45.8472     26.5941     35.1494
  2574.5000     29.4572     45.8460     26.4723     36.3624
  2574.7500     29.2651     45.8289     26.2645     38.5309
  2575.0000     28.9991     45.7881     25.9703     44.6583
  2575.2500     28.7096     45.7108     25.6252     50.5358
  2575.5000     28.4600     45.5814     25.2860     60.6005
  2575.7500     28.2917     45.3856     25.0070     66.7589
  2576.0000     28.2033     45.1157     24.8204     72.6324
  2576.2500     28.1557     44.7755     24.7258     73.3360
  2576.5000     28.0959     44.3846     24.6895     69.4417
  2576.7500     27.9825     43.9784     24.6538     64.1987
  2577.0000     27.7989     43.6058     24.5570     54.1528
  2577.2500     27.5492     43.3226     24.3577     47.2871
  2577.5000     27.2424     43.1836     24.0504     38.9738
  2577.7500     26.8791     43.2336     23.6599     35.6786
  2578.0000     26.4521     43.4996     23.2196     34.4886
  2578.2500     25.9547     43.9862     22.7492     35.8060
  2578.5000     25.3840     44.6745     22.2454     39.8133
  2578.7500     24.7382     45.5249     21.6893     43.2235
  2579.0000     24.0174     46.4839     21.0651     48.7644
  2579.2500     23.2331     47.4920     20.3783     52.5409
  2579.5000     22.4156     48.4929     19.6597     57.9343
  2579.7500     21.6112     49.4400     18.9537     60.8337
  2580.0000     20.8682     50.3006     18.3006     62.8880
  2580.2500     20.2239     51.0556     17.7266     62.2761
  2580.5000     19.6996     51.6972     17.2446     58.9522
  2580.7500     19.3029     52.2243     16.8608     56.1533
  2581.0000     19.0315     52.6376     16.5797     52.9675
  2581.2500     18.8746     52.9369     16.4045     52.1615
  2581.5000     18.8157     53.1193     16.3333     52.9343
  2581.7500     18.8392     53.1801     16.3571     54.3242
  2582.0000     18.9357     53.1155     16.4627     56.8302
  2582.2500     19.1018     52.9255     16.6398     58.4543
  2582.5000     19.3305     52.6174     16.8840     60.5488
  2582.7500     19.5985     52.2076     17.1935     61.4436
  2583.0000     19.8628     51.7224     17.5594     61.1255
  2583.2500     20.0692     51.1977     17.9584     59.4042
  2583.5000     20.1738     50.6762     18.3508     55.2669
  2583.7500     20.1614     50.2039     18.6863     52.8171
  2584.0000     20.0498     49.8249     18.9146     52.3496
  2584.2500     19.8754     49.5761     18.9951     55.2491
  2584.5000     19.6694     49.4814     18.9057     64.7530
  2584.7500     19.4428     49.5485     18.6484     73.9074
  2585.0000     19.1882     49.7665     18.2503     89.7006
  2585.2500     18.8930     50.1073     17.7553    100.0401
  2585.5000     18.5496     50.5301     17.2101    113.2116
  2585.7500     18.1594     50.9884     16.6512    119.9686
  2586.0000     17.7337     51.4372     16.1016    126.9525
  2586.2500     17.2937     51.8405     15.5758    129.4117
  2586.5000     16.8645     52.1761     15.0868    129.9135
  2586.7500     16.4654     52.4376     14.6475    128.7050
  2587.0000     16.1012     52.6333     14.2668    126.0866
  2587.2500     15.7609     52.7819     13.9464    124.4624
  2587.5000     15.4249     52.9082     13.6796    122.6970
  2587.7500     15.0725     53.0376     13.4533    122.1056
  2588.0000     14.6904     53.1915     13.2495    122.2146
  2588.2500     14.2805     53.3844     13.0479    122.7918
  2588.5000     13.8636     53.6232     12.8283    123.7826
  2588.7500     13.4709     53.9070     12.5758    124.3209
  2589.0000     13.1273     54.2295     12.2850    125.3960
  2589.2500     12.8420     54.5810     11.9610    126.7701
  2589.5000     12.6109     54.9510     11.6148    129.9333
  2589.7500     12.4221     55.3301     11.2561    132.1947
  2590.0000     12.2562     55.7110     10.8909    134.5409
  2590.2500     12.0876     56.0881     10.5232    135.1238
  2590.5000     11.8939     56.4564     10.1588    134.8798
  2590.7500     11.6673     56.8109      9.8071    134.2084
  2591.0000     11.4173     57.1450      9.4793    132.4149
  2591.2500     11.1606     57.4504      9.1844    152.3629
  2591.5000     10.9124     57.7180      8.9269    148.2293
  2591.7500     10.6836     57.9387      8.7076    145.1226
  2592.0000     10.4829     58.1050      8.5259    140.2737
  2592.2500     10.3189     58.2122      8.3823    156.3960
  2592.5000     10.1990     58.2589      8.2775    150.0549
  2592.7500     10.1263     58.2464      8.2100    145.8835
  2593.0000     10.0983     58.1775      8.1767    140.9314
  2593.2500     10.1112     58.0550      8.1749    139.0143
  2593.5000     10.1660     57.8801      8.2064    137.9671
  2593.7500     10.2694     57.6512      8.2780    137.6839
  2594.0000     10.4282     57.3642      8.3990    135.8887
  2594.2500     10.6464     57.0125      8.5777    132.7586
  2594.5000     10.9276     56.5893      8.8187    124.6814
  2594.7500     11.2777     56.0883      9.1237    117.6420
  2595.0000     11.7024     55.5064      9.4927    106.2682
  2595.2500     12.2015     54.8447      9.9250     98.8446
  2595.5000     12.7677     54.1106     10.4181     88.3416
  2595.7500     13.3926     53.3183     10.9680     81.8658
  2596.0000     14.0746     52.4895     11.5696     73.5965
  2596.2500     14.8173     51.6522     12.2190     69.6671
