~Version Information
VERS.                      2.0: CWLS Log ASCII Standard - VERSION 2.0
WRAP.                       NO: One line per depth step
~Well Information Block
STRT.FT               370.0000: 
STOP.FT              1282.5000: 
STEP.FT                 0.1000: 
NULL.                -999.2500: 
COMP.          Pioneer Natural Resources: COMPANY
WELL.          Irish Eyes 33-21: WELL
FLD.           Purgatoire River: FIELD
LOC.           1379' FSL & 2544' FEL: LOCATION
PROV.                 Colorado: PROVINCE
CNTY.               Las Animas: COUNTRY
SRVC.                Patterson: SERVICE COMPANY
DATE.          Mon Jan 16 13:31:01 2006: LOG DATE
UWI.           05 071 08658 00: UNIQUE WELL ID
~Curve Information Block
DEPT.FT            0 000 00 00: Depth
DCAL.in                       : CDL Caliper
RHOB.g/cc                     : CDL Bulk Density
RHOC.g/cc                     : CDL Density Correction
DPOR.pu                       : CDL Density Porosity
GR.GAPI                       : Gamma Ray
NPOR.pu                       : Neutron Porosity
~Parameter Information Block
~A  Depth       DCAL        RHOB        RHOC        DPOR         GR         NPOR    
# ...
   734.8000      7.9796      2.5465      0.0149      6.2734    125.8287     22.9927
   734.9000      7.9796      2.5494      0.0325      6.0946    123.1985     24.9063
   735.0000      7.9809      2.5700      0.0468      4.8477    122.5417     26.3737
   735.1000      7.9809      2.5939      0.0687      3.3986    123.1715     26.6246
   735.2000      7.9809      2.6151      0.0857      2.1124    122.3820     26.0802
   735.3000      7.9769      2.6247      0.1090      1.5326    118.4886     24.8017
   735.4000      7.9769      2.6191      0.0975      1.8726    115.4326     23.8127
   735.5000      7.9718      2.6208      0.0500      1.7697    114.1143     24.5342
   735.6000      7.9718      2.6443      0.0995      0.3455    110.5216     25.8670
   735.7000      7.9718      2.6680      0.0566     -1.0894    107.2663     26.2076
   735.8000      7.9454      2.6783      0.0706     -1.7130    107.5746     25.4026
   735.9000      7.9454      2.6883      0.0135     -2.3210    107.2254     24.5199
   736.0000      7.9458      2.7041      0.0772     -3.2774    102.8399     24.4493
   736.1000      7.9458      2.7059      0.0586     -3.3894     97.3053     24.5358
   736.2000      7.9458      2.6811      0.0122     -1.8860     92.7610     23.5687
   736.3000      7.9378      2.6500     -0.0296      0.0015     86.6406     21.5780
   736.4000      7.9378      2.6316     -0.0163      1.1123     78.5890     21.0744
   736.5000      7.9456      2.6197     -0.0474      1.8370     72.5047     23.0554
   736.6000      7.9456      2.6052     -0.0123      2.7125     71.0966     24.3873
   736.7000      7.9456      2.5911     -0.0216      3.5695     72.8462     24.0954
   736.8000      7.9638      2.5816      0.0044      4.1480     74.4894     23.2730
   736.9000      7.9638      2.5716      0.0564      4.7516     75.1580     23.1376
   737.0000      7.9967      2.5558      0.0309      5.7077     77.0994     23.8126
   737.1000      7.9967      2.5445     -0.0199      6.3948     81.1206     23.6076
   737.2000      7.9967      2.5515      0.0631      5.9709     84.6428     21.6092
   737.3000      7.9691      2.5732      0.0688      4.6547     85.2779     20.4379
   737.4000      7.9691      2.5979      0.1208      3.1596     83.9438     22.6785
   737.5000      7.9575      2.6163      0.1183      2.0398     83.4558     24.9964
   737.6000      7.9575      2.6272      0.1262      1.3829     84.2068     25.0706
   737.7000      7.9575      2.6391      0.1309      0.6599     86.1722     23.2310
   737.8000      7.9476      2.6558      0.1525     -0.3487     91.3102     21.3582
   737.9000      7.9476      2.6698      0.1408     -1.1977     97.4542     21.6827
   738.0000      7.9234      2.6762      0.1936     -1.5877     99.8222     23.3114
   738.1000      7.9234      2.6733      0.1731     -1.4117     99.4250     23.9529
   738.2000      7.9234      2.6701      0.1487     -1.2187     98.7749     23.3292
   738.3000      7.9248      2.6787      0.1428     -1.7414     99.6327     23.4102
   738.4000      7.9248      2.6852      0.2051     -2.1357    103.9394     24.8546
   738.5000      7.9365      2.6672      0.0707     -1.0428    108.2228     25.9520
   738.6000      7.9365      2.6362      0.0519      0.8364    107.2683     26.1557
   738.7000      7.9365      2.6218      0.0133      1.7067    103.2952     25.9845
   738.8000      7.9560      2.6341      0.0554      0.9641    102.6306     25.6456
   738.9000      7.9560      2.6547      0.0864     -0.2857    106.4774     24.7589
   739.0000      7.9472      2.6610      0.0350     -0.6646    112.5896     23.7750
   739.1000      7.9472      2.6430      0.0521      0.4259    116.8018     24.6574
   739.2000      7.9472      2.6106     -0.0036      2.3878    116.1788     26.9672
   739.3000      7.9694      2.5895     -0.0398      3.6655    116.3140     28.4210
   739.4000      7.9694      2.5827      0.0526      4.0803    124.7830     28.2094
   739.5000      8.0139      2.5830     -0.0180      4.0589    137.2009     27.1761
   739.6000      8.0139      2.6030     -0.0138      2.8456    144.1266     26.8625
   739.7000      8.0139      2.6332      0.0613      1.0174    147.1510     27.8119
   739.8000      8.0276      2.6416      0.0752      0.5061    153.1444     28.7961
   739.9000      8.0276      2.6269      0.0110      1.3993    161.4080     29.0530
   740.0000      8.0375      2.6058      0.0446      2.6776    165.4045     29.1779
   740.1000      8.0375      2.5866      0.0021      3.8448    162.5667     29.9076
   740.2000      8.0375      2.5782      0.0111      4.3499    156.5792     30.9792
   740.3000      8.0044      2.5835      0.0060      4.0277    152.3266     31.1393
   740.4000      8.0044      2.5923      0.0628      3.4978    150.3111     29.8614
   740.5000      7.9957      2.5956      0.0458      3.2995    148.0825     28.3918
   740.6000      7.9957      2.6021      0.0234      2.9017    147.1413     28.0044
   740.7000      7.9957      2.6158      0.0276      2.0724    150.2110     28.4133
   740.8000      7.9900      2.6147      0.0611      2.1382    155.2084     28.7300
   740.9000      7.9900      2.5891     -0.0015      3.6911    159.5418     29.0464
   741.0000      8.0048      2.5645     -0.0379      5.1816    162.0576     29.1181
   741.1000      8.0048      2.5563     -0.0240      5.6792    159.9490     28.1658
   741.2000      8.0048      2.5497     -0.0237      6.0775    153.0200     27.1943
   741.3000      8.0194      2.5357     -0.0276      6.9251    141.3720     28.0428
   741.4000      8.0194      2.5221     -0.0008      7.7490    126.2502     30.0034
   741.5000      8.0056      2.5186     -0.0062      7.9616    120.0126     31.2263
   741.6000      8.0056      2.5266      0.0406      7.4810    129.4835     31.0677
   741.7000      8.0056      2.5483     -0.0531      6.1620    143.0415     29.9534
   741.8000      8.0130      2.5902      0.0449      3.6234    151.0609     28.9545
   741.9000      8.0130      2.6374      0.1036      0.7633    153.6612     28.9770
   742.0000      8.0078      2.6626      0.0536     -0.7632    151.5058     29.5435
   742.1000      8.0078      2.6580      0.0516     -0.4854    147.4113     29.7294
   742.2000      8.0078      2.6381      0.0759      0.7230    145.9862     29.0033
   742.3000      8.0042      2.6194      0.0187      1.8550    147.6348     27.5802
   742.4000      8.0042      2.6066      0.0487      2.6307    149.6076     27.0105
   742.5000      8.0038      2.5957      0.0507      3.2892    151.7714     28.1410
   742.6000      8.0038      2.5916     -0.0020      3.5400    155.3244     29.4119
   742.7000      8.0038      2.5999      0.0084      3.0393    158.4165     29.3035
   742.8000      7.9937      2.6060      0.0819      2.6666    157.2923     28.0727
   742.9000      7.9937      2.5961      0.0400      3.2652    151.7612     27.4567
   743.0000      8.0068      2.5892     -0.0055      3.6849    146.3352     28.5561
   743.1000      8.0068      2.5994      0.0296      3.0680    144.3030     30.1628
   743.2000      8.0068      2.6065      0.0268      2.6354    144.0368     30.2695
   743.3000      8.0065      2.5882      0.0733      3.7466    146.1384     28.9964
   743.4000      8.0065      2.5502     -0.0103      6.0487    153.1532     28.3261
   743.5000      8.0076      2.5251     -0.0486      7.5690    161.4543     29.0515
   743.6000      8.0076      2.5271      0.0214      7.4508    165.8849     30.2176
   743.7000      8.0076      2.5363      0.0359      6.8930    165.3501     30.6520
   743.8000      8.0250      2.5455      0.0159      6.3316    163.2667     30.1405
   743.9000      8.0250      2.5685      0.0209      4.9374    163.8255     29.2119
   744.0000      8.0295      2.6045      0.0746      2.7562    167.9512     28.7378
   744.1000      8.0295      2.6335      0.1276      0.9998    174.8110     29.2964
   744.2000      8.0295      2.6383      0.1763      0.7078    178.7626     30.2867
   744.3000      8.0362      2.6196      0.1602      1.8440    174.6585     30.5913
