~Version Information
VERS.                      2.0: CWLS Log ASCII Standard - VERSION 2.0
WRAP.                       NO: One line per depth step
~Well Information Block
STRT.FT                -4.7500: 
STOP.FT              2723.2500: 
STEP.FT                 0.2500: 
NULL.                -999.2500: 
COMP.          Pioneer Natural Resources: COMPANY
WELL.           Dolzanie 34-12: WELL
FLD.           Purgatorie River: FIELD
LOC.           1001' FSL & 1750' FEL: LOCATION
PROV.                 Colorado: PROVINCE
CNTY.               Las Animas: COUNTRY
SRVC.                Patterson: SERVICE COMPANY
DATE.          Wed Jul 27 14:23:29 2005: LOG DATE
UWI.                          : UNIQUE WELL ID
~Curve Information Block
DEPT.FT            0 000 00 00: Depth
GR.GAPI                       : Gamma Ray
CCL.                          : Casing Collar Locator
TT3.usec                      : CBL 3' Travel Time
AMP3.mV                       : CBL 3' Amplitude
~Parameter Information Block
~A  Depth        GR         CCL         TT3         AMP3    
# ...
  2675.2500     74.0975      0.0000    306.2705     52.8672
  2675.5000     71.0481      0.0000    306.3696     52.7998
  2675.7500     69.9381      0.0000    306.4631     52.6350
  2676.0000     71.0362      0.0000    306.5193     52.4173
  2676.2500     72.9868      0.0000    306.5379     52.2481
  2676.5000     74.0873      0.0000    306.5346     52.1556
  2676.7500     73.8774      0.0000    306.5268     52.0796
  2677.0000     73.6427      0.0000    306.5349     51.9718
  2677.2500     75.1523      0.0000    306.5638     51.8442
  2677.5000     78.8391      0.0000    306.5903     51.7487
  2677.7500     83.4087      0.0000    306.5889     51.7382
  2678.0000     87.1028      0.0000    306.5622     51.8346
  2678.2500     88.9294      0.0000    306.5289     52.0250
  2678.5000     88.8458      0.0000    306.5004     52.2705
  2678.7500     87.5187      0.0000    306.4884     52.5235
  2679.0000     86.2463      0.0000    306.5045     52.7389
  2679.2500     86.4936      0.0000    306.5380     52.8683
  2679.5000     88.7624      0.0000    306.5696     52.8823
  2679.7500     91.9993      0.0000    306.5966     52.8029
  2680.0000     94.6504      0.0000    306.6215     52.6903
  2680.2500     96.3702      0.0000    306.6363     52.5967
  2680.5000     98.3864      0.0000    306.6310     52.5424
  2680.7500    102.1200      0.0000    306.6076     52.5137
  2681.0000    107.6586      0.0000    306.5732     52.4559
  2681.2500    113.6957      0.0000    306.5331     52.3190
  2681.5000    118.7369      0.0000    306.4983     52.1313
  2681.7500    122.0095      0.0000    306.4748     51.9560
  2682.0000    123.1461      0.0000    306.4506     51.8115
  2682.2500    121.5379      0.0000    306.4174     51.7056
  2682.5000    116.7010      0.0000    306.3743     51.6526
  2682.7500    109.2153      0.0000    306.3141     51.6299
  2683.0000    100.7268      0.0000    306.2497     51.6071
  2683.2500     92.9156      0.0000    306.2190     51.5802
  2683.5000     86.6945      0.0000    306.2337     51.5401
  2683.7500     82.2941      0.0000    306.2662     51.4445
  2684.0000     79.6655      0.0000    306.2848     51.2442
  2684.2500     78.4687      0.0000    306.2758     50.9606
  2684.5000     77.8015      0.0000    306.2529     50.7158
  2684.7500     76.4968      0.0000    306.2497     50.6561
  2685.0000     74.1697      0.0000    306.2851     50.8480
  2685.2500     71.8123      0.0000    306.3386     51.2301
  2685.5000     70.9068      0.0000    306.3681     51.6506
  2685.7500     71.9306      0.0000    306.3406     51.9744
  2686.0000     73.9641      0.0000    306.2215     52.1781
  2686.2500     75.7467      0.0000    305.8241     52.3740
  2686.5000     76.7923      0.0000    304.3948     52.7303
  2686.7500     77.3084      0.0000    300.3398     53.3304
  2687.0000     77.4406      0.0000    292.5430     54.1073
  2687.2500     77.1542      0.0000    282.7577     54.9133
  2687.5000     76.7037      0.0000    274.7672     55.6216
  2687.7500     76.5972      0.0000    270.4658     56.1631
  2688.0000     76.9949      0.0000    268.8834     56.5206
  2688.2500     77.5280      0.0000    268.4547     56.6928
  2688.5000     77.7864      0.0000    268.3882     56.6583
  2688.7500     77.6464      0.0000    268.5369     56.4145
  2689.0000     77.1126      0.0000    269.0912     56.0265
  2689.2500     76.2693      0.0000    270.7224     55.6160
  2689.5000     75.4500      0.0000    274.8652     55.2907
  2689.7500     75.0146      0.0000    282.5307     55.0618
  2690.0000     74.8483      0.0000    291.9739     54.8572
  2690.2500     74.4939      0.0000    299.5012     54.5701
  2690.5000     73.7789      0.0000    303.3377     54.0794
  2690.7500     72.8698      0.0000    304.5572     53.3229
  2691.0000     71.7990      0.0000    304.7780     52.3601
  2691.2500     70.4769      0.0000    304.8206     51.3199
  2691.5000     69.1247      0.0000    304.9037     50.3239
  2691.7500     68.2161      0.0000    305.0095     49.4511
  2692.0000     68.0396      0.0000    305.0726     48.6998
  2692.2500     68.5559      0.0000    305.1151     48.0106
  2692.5000     69.5587      0.0000    305.2531     47.3466
  2692.7500     70.9099      0.0000    305.5276     46.6917
  2693.0000     72.8268      0.0000    305.8216     45.9951
  2693.2500     75.8341      0.0000    306.0323     45.2085
  2693.5000     80.0600      0.0000    306.2033     44.3724
  2693.7500     84.6180      0.0000    306.4023     43.5940
  2694.0000     88.0678      0.0000    306.6120     42.9797
  2694.2500     89.5797      0.0000    306.7787     42.6387
  2694.5000     89.4393      0.0000    306.8363     42.6523
  2694.7500     88.4371      0.0000    306.7295     43.0055
  2695.0000     87.0317      0.0000    306.5092     43.6127
  2695.2500     85.1310      0.0000    306.3339     44.3681
  2695.5000     82.4911      0.0000    306.3022     45.1566
  2695.7500     79.2254      0.0000    306.3590     45.8948
  2696.0000     75.8907      0.0000    306.4073     46.5379
  2696.2500     73.0470      0.0000    306.3959     47.0459
  2696.5000     70.8555      0.0000    306.3007     47.4228
  2696.7500     69.1937      0.0000    306.1360     47.7643
  2697.0000     68.0457      0.0000    305.9435     48.1809
  2697.2500     67.6031      0.0000    305.7584     48.6847
  2697.5000     67.8975      0.0000    305.6264     49.1902
  2697.7500     68.4819      0.0000    305.5758     49.6076
  2698.0000     68.7130      0.0000    305.5824     49.9005
  2698.2500     68.3766      0.0000    305.6104     50.0691
  2698.5000     67.8216      0.0000    305.6470     50.1280
  2698.7500     67.4158      0.0000    305.6944     50.1289
  2699.0000     67.1237      0.0000    305.7443     50.1504
  2699.2500     66.8358      0.0000    305.7660     50.2318
  2699.5000     66.9061      0.0000    305.7359     50.3632
  2699.7500     67.9534      0.0000    305.6655     50.5499
  2700.0000     70.0655      0.0000    305.5923     50.8305
  2700.2500     72.4163      0.0000    305.5433     51.2039
  2700.5000     73.6814      0.0000    305.5122     51.5849
  2700.7500     72.8139      0.0000    305.4764     51.8668
  2701.0000     69.7357      0.0000    305.4174     51.9922
  2701.2500     65.5848      0.0000    305.3307     51.9635
  2701.5000     62.1629      0.0000    305.2418     51.7706
  2701.7500     60.9378      0.0000    305.1971     51.2209
  2702.0000     62.3854      0.0000    305.2296     49.9566
  2702.2500     65.9217      0.0000    305.3526     47.8526
  2702.5000     70.1624      0.0000    305.5742     45.2138
  2702.7500     73.5145      0.0000    305.9272     42.4432
  2703.0000     75.0180      0.0000    306.7520     39.7903
  2703.2500     74.7826      0.0000    310.3415     37.4217
  2703.5000     73.6246      0.0000    325.8173     35.4270
  2703.7500     72.3889      0.0000    373.1647     33.7214
  2704.0000     71.5542      0.0000    468.9826     32.1028
  2704.2500     71.2443      0.0000    594.3890     30.3984
  2704.5000     71.4764      0.0000    695.3623     28.4549
  2704.7500     72.2478      0.0000    735.0020     26.1718
  2705.0000     73.2785      0.0000    729.3312     23.8550
  2705.2500     73.9219      0.0000    721.0563     22.1687
  2705.5000     73.6236      0.0000    731.4207     21.1424
  2705.7500     72.4544      0.0000    748.3812     19.7924
  2706.0000     71.0234      0.0000    761.8951     17.7052
  2706.2500     69.8861      0.0000    792.2750     15.9956
  2706.5000     69.1415      0.0000    859.2302     15.5955
  2706.7500     68.5750      0.0000    933.4232     16.1215
  2707.0000     67.9744      0.0000    951.7928     16.9164
  2707.2500     67.3210      2.0000    883.1408     17.7468
  2707.5000     66.9117      0.0000    760.5092     18.4089
  2707.7500     67.2759      0.0000    655.8620     18.6130
  2708.0000     68.6900      0.0000    614.0046     18.6187
  2708.2500     70.7763      0.0000    600.6939     19.4954
  2708.5000     72.7967      0.0000    554.0116     21.8251
