~Version Information
VERS.                      2.0: CWLS Log ASCII Standard - VERSION 2.0
WRAP.                       NO: One line per depth step
~Well Information Block
STRT.FT               460.0000: 
STOP.FT              2824.0000: 
STEP.FT                 0.2500: 
NULL.                -999.2500: 
COMP.          Pioneer Natural Resources: COMPANY
WELL.           Dolzanie 34-12: WELL
FLD.           Purgatoire River: FIELD
LOC.           1001' FSL & 1750' FEL--: LOCATION
PROV.                 Colorado: PROVINCE
CNTY.               Las Animas: COUNTRY
SRVC.                Patterson: SERVICE COMPANY
DATE.          Wed Jul 20 07:51:58 2005: LOG DATE
UWI.           05 071 08439 00: UNIQUE WELL ID
~Curve Information Block
DEPT.FT            0 000 00 00: Depth
DIR.Ohm-m                     : IEL Induction Resistivity
SN.Ohm-m                      : IEL Short Normal
SP.mV                         : IEL Spontaneous Potential
GR.GAPI                       : Gamma Ray
~Parameter Information Block
~A  Depth       DIR          SN          SP          GR     
# ...
   929.0000     16.4880   2000.0000   2000.0000    133.5794
   929.2500     16.2656   2000.0000   2000.0000    135.8353
   929.5000     16.0158   2000.0000   2000.0000    138.1988
   929.7500     15.7538   2000.0000   2000.0000    138.9887
   930.0000     15.5062   2000.0000   2000.0000    138.9199
   930.2500     15.3034   2000.0000   2000.0000    138.1635
   930.5000     15.1697   2000.0000   2000.0000    136.3498
   930.7500     15.1169   2000.0000   2000.0000    134.8927
   931.0000     15.1437   2000.0000   2000.0000    132.5191
   931.2500     15.2396   2000.0000   2000.0000    130.8130
   931.5000     15.3909   2000.0000   2000.0000    127.9913
   931.7500     15.5861   2000.0000   2000.0000    125.9652
   932.0000     15.8193   2000.0000   2000.0000    123.1220
   932.2500     16.0892   2000.0000   2000.0000    121.8259
   932.5000     16.3974   2000.0000   2000.0000    121.5570
   932.7500     16.7455   2000.0000   2000.0000    122.5361
   933.0000     17.1361   2000.0000   2000.0000    124.6793
   933.2500     17.5728   2000.0000   2000.0000    125.4962
   933.5000     18.0575   2000.0000   2000.0000    124.2727
   933.7500     18.5856   2000.0000   2000.0000    121.5848
   934.0000     19.1436   2000.0000   2000.0000    115.5564
   934.2500     19.7138   2000.0000   2000.0000    111.0778
   934.5000     20.2816   2000.0000   2000.0000    105.1869
   934.7500     20.8415   2000.0000   2000.0000    102.5140
   935.0000     21.3954   2000.0000   2000.0000    101.0548
   935.2500     21.9457   2000.0000   2000.0000    101.7103
   935.5000     22.4853   2000.0000   2000.0000    104.2553
   935.7500     22.9930   2000.0000   2000.0000    106.3226
   936.0000     23.4352   2000.0000   2000.0000    109.1057
   936.2500     23.7714   2000.0000   2000.0000    110.4331
   936.5000     23.9596   2000.0000   2000.0000    111.3355
   936.7500     23.9636   2000.0000   2000.0000    111.3003
   937.0000     23.7670   2000.0000   2000.0000    111.0508
   937.2500     23.3892   2000.0000   2000.0000    111.2542
   937.5000     22.8843   2000.0000   2000.0000    112.2343
   937.7500     22.3174   2000.0000   2000.0000    112.9903
   938.0000     21.7358   2000.0000   2000.0000    114.0541
   938.2500     21.1569   2000.0000   2000.0000    115.1720
   938.5000     20.5799   2000.0000   2000.0000    118.3308
   938.7500     20.0039   2000.0000   2000.0000    121.2269
   939.0000     19.4364   2000.0000   2000.0000    125.3327
   939.2500     18.8866   2000.0000   2000.0000    127.3191
   939.5000     18.3540   2000.0000   2000.0000    129.5147
   939.7500     17.8269   2000.0000   2000.0000    130.9394
   940.0000     17.2944   2000.0000   2000.0000    132.8112
   940.2500     16.7581   2000.0000   2000.0000    133.1807
   940.5000     16.2347   2000.0000   2000.0000    131.8333
   940.7500     15.7460   2000.0000   2000.0000    130.2449
   941.0000     15.3075   2000.0000   2000.0000    128.5158
   941.2500     14.9251   2000.0000   2000.0000    128.3576
   941.5000     14.6013   2000.0000   2000.0000    129.3753
   941.7500     14.3420   2000.0000   2000.0000    130.4387
   942.0000     14.1577   2000.0000   2000.0000    132.0921
   942.2500     14.0597   2000.0000   2000.0000    133.0591
   942.5000     14.0510   2000.0000   2000.0000    133.6142
   942.7500     14.1202   2000.0000   2000.0000    132.7135
   943.0000     14.2404   2000.0000   2000.0000    128.8034
   943.2500     14.3739   2000.0000   2000.0000    124.9037
   943.5000     14.4805   2000.0000   2000.0000    118.9221
   943.7500     14.5259   2000.0000   2000.0000    115.9072
   944.0000     14.4877   2000.0000   2000.0000    113.7916
   944.2500     14.3604   2000.0000   2000.0000    113.9710
   944.5000     14.1561   2000.0000   2000.0000    115.9542
   944.7500     13.8988   2000.0000   2000.0000    117.9026
   945.0000     13.6141   2000.0000   2000.0000    121.1829
   945.2500     13.3217   2000.0000   2000.0000    123.5295
   945.5000     13.0351   2000.0000   2000.0000    127.0755
   945.7500     12.7661   2000.0000   2000.0000    129.0201
   946.0000     12.5277   2000.0000   2000.0000    130.4385
   946.2500     12.3339   2000.0000   2000.0000    130.2831
   946.5000     12.1966   2000.0000   2000.0000    128.9658
   946.7500     12.1225   2000.0000   2000.0000    127.6756
   947.0000     12.1120   2000.0000   2000.0000    125.1421
   947.2500     12.1639   2000.0000   2000.0000    123.0356
   947.5000     12.2816   2000.0000   2000.0000    119.7486
   947.7500     12.4795   2000.0000   2000.0000    118.0002
   948.0000     12.7826   2000.0000   2000.0000    116.6937
   948.2500     13.2197   2000.0000   2000.0000    116.6489
   948.5000     13.8136   2000.0000   2000.0000    116.8745
   948.7500     14.5717   2000.0000   2000.0000    116.3644
   949.0000     15.4834   2000.0000   2000.0000    113.5796
   949.2500     16.5266   2000.0000   2000.0000    110.6290
   949.5000     17.6823   2000.0000   2000.0000    106.5993
   949.7500     18.9477   2000.0000   2000.0000    105.5371
   950.0000     20.3346   2000.0000   2000.0000    107.1086
   950.2500     21.8487   2000.0000   2000.0000    109.4781
   950.5000     23.4640   2000.0000   2000.0000    112.8940
   950.7500     25.1061   2000.0000   2000.0000    114.2775
   951.0000     26.6581   2000.0000   2000.0000    114.9460
   951.2500     27.9962   2000.0000   2000.0000    114.9075
   951.5000     29.0445   2000.0000   2000.0000    114.9492
   951.7500     29.8187   2000.0000   2000.0000    115.1976
   952.0000     30.4157   2000.0000   2000.0000    115.4014
   952.2500     30.9524   2000.0000   2000.0000    114.9360
   952.5000     31.4968   2000.0000   2000.0000    112.9784
   952.7500     32.0386   2000.0000   2000.0000    111.1269
   953.0000     32.5163   2000.0000   2000.0000    108.4579
   953.2500     32.8805   2000.0000   2000.0000    107.1659
   953.5000     33.1390   2000.0000   2000.0000    106.3212
   953.7500     33.3464   2000.0000   2000.0000    106.6283
   954.0000     33.5473   2000.0000   2000.0000    108.5170
   954.2500     33.7315   2000.0000   2000.0000    110.5989
   954.5000     33.8411   2000.0000   2000.0000    114.3356
   954.7500     33.8212   2000.0000   2000.0000    116.7246
   955.0000     33.6644   2000.0000   2000.0000    119.1717
   955.2500     33.4117   2000.0000   2000.0000    119.4692
   955.5000     33.1215   2000.0000   2000.0000    117.1525
   955.7500     32.8493   2000.0000   2000.0000    113.7082
   956.0000     32.6498   2000.0000   2000.0000    106.6923
   956.2500     32.5816   2000.0000   2000.0000    101.9435
   956.5000     32.6959   2000.0000   2000.0000     96.9384
   956.7500     33.0182   2000.0000   2000.0000     95.8845
   957.0000     33.5355   2000.0000   2000.0000     97.6257
   957.2500     34.1963   2000.0000   2000.0000     99.9155
   957.5000     34.9114   2000.0000   2000.0000    102.3775
   957.7500     35.5552   2000.0000   2000.0000    102.3283
   958.0000     35.9779   2000.0000   2000.0000    100.1180
   958.2500     36.0498   2000.0000   2000.0000     98.4644
   958.5000     35.7254   2000.0000   2000.0000     97.6758
   958.7500     35.0761   2000.0000   2000.0000     98.5378
   959.0000     34.2578   2000.0000   2000.0000    101.1192
   959.2500     33.4371   2000.0000   2000.0000    103.2136
   959.5000     32.7297   2000.0000   2000.0000    106.7313
   959.7500     32.1819   2000.0000   2000.0000    109.3098
   960.0000     31.7859   2000.0000   2000.0000    112.8601
   960.2500     31.5103   2000.0000   2000.0000    114.3524
   960.5000     31.3258   2000.0000   2000.0000    114.6312
   960.7500     31.2166   2000.0000   2000.0000    113.7058
   961.0000     31.1784   2000.0000   2000.0000    111.5823
   961.2500     31.2122   2000.0000   2000.0000    110.2465
   961.5000     31.3190   2000.0000   2000.0000    109.1115
   961.7500     31.4951   2000.0000   2000.0000    109.1027
   962.0000     31.7243   2000.0000   2000.0000    109.6935
   962.2500     31.9693   2000.0000   2000.0000    109.8216
