~Version Information
VERS.                      2.0: CWLS Log ASCII Standard - VERSION 2.0
WRAP.                       NO: One line per depth step
~Well Information Block
STRT.FT                -3.2500: 
STOP.FT               989.2500: 
STEP.FT                 0.2500: 
NULL.                -999.2500: 
COMP.          Pioneer Natural Resources: COMPANY
WELL.                Doc 34-30: WELL
FLD.           Purgatoire River: FIELD
LOC.           454' FSL & 1386' FEL: LOCATION
CNTY.               Las Animas: COUNTY
SRVC.                         : SERVICE COMPANY
DATE.          Wed Mar 08 14:28:55 2006: LOG DATE
UWI.           05 071 08694 00: UNIQUE WELL ID
STAT.                       CO: STATE
~Curve Information Block
DEPT.FT            0 000 00 00: Depth
GR.GAPI                       : Gamma Ray
CCL.                          : Casing Collar Locator
TT3.usec                      : CBL 3' Travel Time
AMP3.mV                       : CBL 3' Amplitude
~Parameter Information Block
~A  Depth        GR         CCL         TT3         AMP3    
# ...
   197.7500     54.8930      0.0000    682.4508      3.4396
   198.0000     55.7624      0.0000    690.4764      3.4250
   198.2500     57.2400      0.0000    697.5453      3.4136
   198.5000     59.0919      0.0000    702.4069      3.4088
   198.7500     61.1283      0.0000    704.9545      3.4088
   199.0000     63.3355      0.0000    705.8774      3.4069
   199.2500     65.3637      0.0000    705.9903      3.3991
   199.5000     66.5382      0.0000    705.8640      3.3875
   199.7500     66.5583      0.0000    705.7951      3.3782
   200.0000     65.7698      0.0000    705.8839      3.3748
   200.2500     64.6839      0.0000    706.0945      3.3759
   200.5000     63.4643      0.0000    706.3078      3.3767
   200.7500     61.8844      0.0000    706.3867      3.3721
   201.0000     59.7824      0.0000    706.2425      3.3592
   201.2500     57.6057      0.0000    705.8431      3.3385
   201.5000     56.3298      0.0000    705.1531      3.3132
   201.7500     56.5668      0.0000    704.0470      3.2847
   202.0000     57.7916      0.0000    702.3528      3.2525
   202.2500     58.6689      0.0000    700.1680      3.2164
   202.5000     58.1511      0.0000    698.1910      3.1792
   202.7500     56.1265      0.0000    697.4484      3.1468
   203.0000     53.1264      0.0000    698.3824      3.1236
   203.2500     49.8000      0.0000    700.3369      3.1094
   203.5000     46.8087      0.0000    702.1586      3.1004
   203.7500     44.9304      0.0000    703.1705      3.0932
   204.0000     44.9058      0.0000    703.4503      3.0871
   204.2500     46.9977      0.0000    703.4368      3.0839
   204.5000     50.6056      0.0000    703.5110      3.0860
   204.7500     54.3052      0.0000    703.8496      3.0950
   205.0000     56.4600      0.0000    704.4325      3.1104
   205.2500     56.1454      0.0000    705.0818      3.1278
   205.5000     53.7907      0.0000    705.5164      3.1388
   205.7500     50.9991      0.0000    705.4199      3.1334
   206.0000     49.6163      0.0000    704.4902      3.1085
   206.2500     50.6617      0.0000    702.5054      3.0729
   206.5000     53.7492      0.0000    699.5225      3.0423
   206.7500     57.3138      0.0000    696.0278      3.0287
   207.0000     59.6523      0.0000    692.5970      3.0339
   207.2500     60.1262      0.0000    689.3013      3.0500
   207.5000     59.4162      0.0000    685.9460      3.0636
   207.7500     58.6252      0.0000    683.1806      3.0594
   208.0000     58.3372      0.0000    682.7320      3.0270
   208.2500     58.5072      0.0000    686.0052      2.9685
   208.5000     58.8754      0.0000    692.8990      2.8982
   208.7500     59.2293      0.0000    702.6039      2.8335
   209.0000     59.3298      0.0000    715.0657      2.7842
   209.2500     58.7716      0.0000    730.2770      2.7503
   209.5000     57.0534      0.0000    745.5580      2.7285
   209.7500     53.9492      0.0000    754.8958      2.7167
   210.0000     49.9753      0.0000    752.8510      2.7128
   210.2500     46.3981      0.0000    739.0308      2.7094
   210.5000     44.4906      0.0000    717.8834      2.6937
   210.7500     44.5944      0.0000    695.4528      2.6562
   211.0000     45.8829      0.0000    677.6956      2.6007
   211.2500     47.0479      0.0000    669.1520      2.5466
   211.5000     47.2903      0.0000    669.1604      2.5166
   211.7500     46.8167      0.0000    670.0557      2.5223
   212.0000     46.5876      0.0000    663.1741      2.5588
   212.2500     47.6889      0.0000    648.1045      2.6126
   212.5000     50.8236      0.0000    634.4064      2.6740
   212.7500     56.0723      0.0000    633.0295      2.7395
   213.0000     62.9659      0.0000    646.3363      2.8075
   213.2500     70.7746      0.0000    666.7852      2.8746
   213.5000     78.6315      0.0000    684.2067      2.9395
   213.7500     85.3296      0.0000    693.0606      3.0090
   214.0000     89.2645      0.0000    693.9116      3.0983
   214.2500     89.0503      0.0000    690.6617      3.2215
   214.5000     84.5889      0.0000    687.3086      3.3766
   214.7500     77.6737      0.0000    686.0471      3.5402
   215.0000     71.2739      0.0000    687.3274      3.6822
   215.2500     67.7230      0.0000    691.1816      3.7883
   215.5000     67.4514      0.0000    697.5725      3.8658
   215.7500     69.4607      0.0000    705.0190      3.9273
   216.0000     72.5699      0.0000    710.2547      3.9768
   216.2500     75.9498      0.0000    710.5880      4.0157
   216.5000     79.1001      0.0000    705.8014      4.0548
   216.7500     81.9534      0.0000    696.2463      4.1134
   217.0000     84.8356      0.0000    680.0593      4.2032
   217.2500     87.8990      0.0000    654.2477      4.3142
   217.5000     90.6183      0.0000    618.3417      4.4172
   217.7500     92.1141      0.0000    575.3340      4.4860
   218.0000     92.0811      0.0000    529.4133      4.5205
   218.2500     91.2489      0.0000    484.8529      4.5437
   218.5000     90.7740      0.0000    446.8203      4.5701
   218.7500     91.2138      0.0000    420.5160      4.5806
   219.0000     92.2696      0.0000    408.8321      4.5316
   219.2500     93.5495      0.0000    411.5254      4.3947
   219.5000     95.2401      0.0000    425.4518      4.1956
   219.7500     97.7038      0.0000    444.3380      4.0080
   220.0000    100.5799      0.0000    460.5726      3.8907
   220.2500    102.6355      0.0000    470.3159      3.8339
   220.5000    102.6217      0.0000    476.4870      3.7856
   220.7500    100.2552      0.0000    485.6848      3.7203
   221.0000     96.5472      0.0000    503.9840      3.6556
   221.2500     93.2446      0.0000    535.8129      3.6140
   221.5000     91.6793     -2.0000    582.0561      3.5943
   221.7500     91.8848      0.0000    635.9709      3.5807
   222.0000     92.7579      0.0000    683.8358      3.5709
   222.2500     93.1584      0.0000    713.1238      3.5982
   222.5000     92.9965      0.0000    720.7057      3.7159
   222.7500     93.2854      0.0000    713.5798      3.9401
   223.0000     95.0361      0.0000    702.6760      4.2114
   223.2500     98.0002      0.0000    695.5325      4.4384
   223.5000    100.5719      0.0000    693.3636      4.5762
   223.7500    101.0850      0.0000    693.4249      4.6441
   224.0000     99.1304      0.0000    693.1815      4.6836
   224.2500     95.4832      0.0000    692.3511      4.7199
   224.5000     91.0689      0.0000    692.0778      4.7554
   224.7500     86.3687      0.0000    693.2217      4.7808
   225.0000     81.6486      0.0000    695.4720      4.7904
   225.2500     77.2991      0.0000    697.6470      4.7918
   225.5000     73.8718      0.0000    698.5922      4.8002
   225.7500     72.0024      0.0000    698.0067      4.8234
   226.0000     72.1996      0.0000    696.6600      4.8551
   226.2500     74.3801      0.0000    695.7890      4.8808
   226.5000     77.5759      0.0000    696.0898      4.8897
   226.7500     80.3828      0.0000    697.2438      4.8810
   227.0000     81.9009      0.0000    698.4368      4.8621
   227.2500     82.2752      0.0000    699.1479      4.8436
   227.5000     82.3833      0.0000    699.3768      4.8323
   227.7500     83.1240      0.0000    699.3571      4.8285
   228.0000     84.8534      0.0000    699.2814      4.8296
   228.2500     87.0080      0.0000    699.2366      4.8355
   228.5000     88.1726      0.0000    699.2505      4.8497
   228.7500     86.9440      0.0000    699.3380      4.8744
   229.0000     83.0077      0.0000    699.5152      4.9064
   229.2500     77.3927      0.0000    699.7816      4.9417
   229.5000     71.8646      0.0000    700.1025      4.9805
   229.7500     68.1830      0.0000    700.4232      5.0274
   230.0000     67.5223      0.0000    700.7103      5.0855
   230.2500     70.1063      0.0000    700.9720      5.1503
   230.5000     75.3367      0.0000    701.2004      5.2095
   230.7500     82.2061      0.0000    701.2058      5.2477
   231.0000     89.2759      0.0000    700.4102      5.2560
