~Version Information
VERS.                      2.0: CWLS Log ASCII Standard - VERSION 2.0
WRAP.                       NO: One line per depth step
~Well Information Block
STRT.FT                -7.2500: 
STOP.FT              1273.5000: 
STEP.FT                 0.2500: 
NULL.                -999.2500: 
COMP.          Pioneer Natural Resources: COMPANY
WELL.            Keiko 14-6 Tr: WELL
FLD.           Purgatorie River: FIELD
LOC.           462' FSL & 1202' FWL--: LOCATION
PROV.                       CO: PROVINCE
CNTY.               Las Animas: COUNTRY
SRVC.          Patterson Wireline: SERVICE COMPANY
DATE.          Wed Jan 04 09:22:19 2006: LOG DATE
UWI.           05 071 08629 00: UNIQUE WELL ID
~Curve Information Block
DEPT.FT            0 000 00 00: Depth
CCL.                          : Casing Collar Locator
TT3.usec                      : CBL 3' Travel Time
AMP3.mV                       : CBL 3' Amplitude
GR.GAPI                       : Gamma Ray
~Parameter Information Block
~A  Depth       CCL         TT3         AMP3         GR     
# ...
   227.2500      0.0000    673.1207     13.0832     89.9379
   227.5000      0.0000    690.9714     13.0627     94.5964
   227.7500      0.0000    717.9984     12.9489     99.8662
   228.0000      0.0000    742.5215     12.7511    105.1974
   228.2500      0.0000    758.6427     12.5065    109.9802
   228.5000      0.0000    769.1696     12.2572    113.2325
   228.7500      0.0000    780.4416     12.0342    113.9450
   229.0000      0.0000    796.4944     11.8546    112.0133
   229.2500      0.0000    817.2613     11.7306    108.4527
   229.5000      0.0000    839.7162     11.6763    104.4434
   229.7500      0.0000    859.4064     11.7014    100.4779
   230.0000      0.0000    872.2139     11.7948     96.5088
   230.2500      0.0000    876.5872     11.9170     92.5490
   230.5000      0.0000    874.6584     12.0151     89.0465
   230.7500      0.0000    870.8287     12.0520     86.7701
   231.0000      0.0000    869.1391     12.0265     86.1178
   231.2500      0.0000    871.5944     11.9680     86.6390
   231.5000      0.0000    877.8782     11.9126     87.7027
   231.7500      0.0000    885.9413     11.8846     89.3228
   232.0000      0.0000    893.2202     11.8945     91.6499
   232.2500      0.0000    898.0404     11.9438     93.8829
   232.5000      0.0000    899.8878     12.0282     94.4235
   232.7500      0.0000    898.2252     12.1373     92.2891
   233.0000      0.0000    890.8810     12.2598     88.2368
   233.2500      0.0000    874.5890     12.3920     84.4797
   233.5000      0.0000    849.5773     12.5360     83.1630
   233.7500      0.0000    824.7005     12.6821     84.7784
   234.0000      0.0000    814.3295     12.7959     88.0146
   234.2500      0.0000    826.0509     12.8367     91.2436
   234.5000      0.0000    853.1169     12.7965     93.9050
   234.7500      0.0000    881.6469     12.7091     96.2916
   235.0000      0.0000    902.6339     12.6180     98.4945
   235.2500      0.0000    915.1230     12.5426    100.0440
   235.5000      0.0000    921.6509     12.4816    100.3596
   235.7500      0.0000    924.3537     12.4386     99.2175
   236.0000      0.0000    924.7030     12.4333     96.9461
   236.2500      0.0000    924.3328     12.4835     94.3125
   236.5000      0.0000    924.3133     12.5760     92.0115
   236.7500      0.0000    923.2979     12.6554     90.0604
   237.0000      0.0000    917.0480     12.6554     87.8093
   237.2500      0.0000    901.1390     12.5507     84.6201
   237.5000      0.0000    875.1202     12.3739     80.6358
   237.7500      0.0000    844.2591     12.1765     76.9207
   238.0000      0.0000    816.5141     11.9814     74.6960
   238.2500      0.0000    797.2771     11.7810     74.4213
   238.5000      0.0000    786.9064     11.5645     75.7481
   238.7500      0.0000    782.5214     11.3350     78.1072
   239.0000      0.0000    781.0460     11.1101     80.8728
   239.2500      0.0000    780.7394     10.9127     83.1696
   239.5000      0.0000    781.2792     10.7609     84.2339
   239.7500      0.0000    783.6147     10.6596     84.1257
   240.0000      0.0000    790.1458     10.5982     83.7028
   240.2500      0.0000    804.5903     10.5537     83.6242
   240.5000      0.0000    830.6171     10.4966     83.3664
   240.7500      0.0000    869.2190     10.4038     81.3166
   241.0000      0.0000    916.6343     10.2713     75.9478
   241.2500      0.0000    964.6318     10.1156     67.0505
   241.5000      0.0000   1003.4410      9.9646     56.1387
   241.7500      0.0000   1025.7278      9.8487     45.8343
   242.0000      0.0000   1028.8876      9.7944     38.5534
   242.2500      0.0000   1014.1453      9.8181     35.2924
   242.5000      0.0000    984.6771      9.9199     35.3458
   242.7500      0.0000    945.7572     10.0755     37.1144
   243.0000      0.0000    905.1168     10.2367     39.2619
   243.2500      0.0000    870.1483     10.3567     41.4535
   243.5000      0.0000    844.0648     10.4298     44.3799
   243.7500      0.0000    825.5772     10.5020     49.1113
   244.0000      0.0000    811.8621     10.6232     56.0356
   244.2500      0.0000    801.0424     10.7879     64.2593
   244.5000      0.0000    792.5455     10.9394     72.3513
   244.7500      0.0000    786.3704     11.0372     79.6155
   245.0000      0.0000    782.4645     11.1019     86.0466
   245.2500      0.0000    780.4368     11.1829     91.1734
   245.5000      0.0000    779.6562     11.3001     93.8984
   245.7500      0.0000    779.5204     11.4306     93.6805
   246.0000      0.0000    779.6676     11.5420     91.2299
   246.2500      0.0000    779.9816     11.6233     87.9420
   246.5000      0.0000    780.4189     11.6838     85.1773
   246.7500      0.0000    780.8704     11.7284     84.0692
   247.0000      0.0000    781.1844     11.7378     85.2417
   247.2500      0.0000    781.3035     11.6806     88.1035
   247.5000      0.0000    781.3180     11.5530     90.6616
   247.7500      0.0000    781.3873     11.4049     90.7949
   248.0000      0.0000    781.7344     11.3098     88.0189
   248.2500      0.0000    782.9056     11.3073     83.7376
   248.5000      0.0000    786.2520     11.3800     79.7608
   248.7500      0.0000    793.9837     11.4851     76.9580
   249.0000      0.0000    807.7885     11.5897     75.2918
   249.2500      0.0000    826.0871     11.6722     74.4983
   249.5000      0.0000    842.5811     11.7087     74.2864
   249.7500      0.0000    849.2198     11.6777     74.1786
   250.0000      0.0000    842.2648     11.5777     73.7937
   250.2500      0.0000    825.5723     11.4313     73.3254
   250.5000      0.0000    807.4871     11.2709     73.2804
   250.7500      0.0000    794.7751     11.1209     73.5869
   251.0000      0.0000    789.2841     10.9913     73.2801
   251.2500      0.0000    788.6481     10.8889     71.3427
   251.5000      0.0000    788.6445     10.8302     67.8421
   251.7500      0.0000    785.7264     10.8371     64.0220
   252.0000      0.0000    779.1342     10.9206     61.2399
   252.2500      0.0000    771.0494     11.0692     60.0697
   252.5000      0.0000    764.3578     11.2541     60.4457
   252.7500      0.0000    760.3725     11.4392     62.0927
   253.0000      0.0000    758.5218     11.5833     64.4768
   253.2500      0.0000    757.3127     11.6359     66.6921
   253.5000      0.0000    755.0257     11.5451     67.6663
   253.7500      0.0000    750.2760     11.3096     66.4176
   254.0000      0.0000    743.4163     11.0510     62.3908
   254.2500      0.0000    738.5375     10.9902     56.0207
   254.5000      0.0000    743.1332     11.2662     48.9769
   254.7500      0.0000    762.8950     11.7837     43.4547
   255.0000      0.0000    794.8769     12.3040     40.9228
   255.2500      0.0000    827.1621     12.6669     41.3420
   255.5000      0.0000    846.4714     12.8646     43.3831
   255.7500      0.0000    845.0604     12.9552     45.4107
   256.0000     -2.0000    820.5461     13.0049     46.6310
   256.2500      0.0000    772.9540     13.1149     47.5751
   256.5000      0.0000    704.0848     13.4556     49.4378
   256.7500      0.0000    619.0154     14.2197     52.9297
   257.0000      0.0000    528.0881     15.4678     57.9310
   257.2500      0.0000    445.9626     16.9754     64.1036
   257.5000      0.0000    385.0523     18.3085     71.2798
   257.7500      0.0000    348.9269     19.1347     79.0041
   258.0000      0.0000    332.8760     19.4230     86.0688
   258.2500      0.0000    329.5728     19.3263     90.8769
   258.5000      0.0000    333.3878     18.9827     92.3880
   258.7500      0.0000    342.1379     18.4708     90.8869
   259.0000      0.0000    358.2202     17.8508     88.0109
   259.2500      0.0000    388.2977     17.1769     85.8342
   259.5000      0.0000    438.6481     16.4872     85.5852
   259.7500      0.0000    507.6115     15.8095     87.0840
   260.0000      0.0000    582.5494     15.1727     89.2971
   260.2500      0.0000    646.9212     14.6028     91.3326
   260.5000      0.0000    691.3725     14.1149     92.9964
