~Version Information
VERS.                      2.0: CWLS Log ASCII Standard - VERSION 2.0
WRAP.                       NO: One line per depth step
~Well Information Block
STRT.FT                10.0000: 
STOP.FT               907.0000: 
STEP.FT                 0.1000: 
NULL.                -999.2500: 
COMP.          Pioneer Natural Resources: COMPANY
WELL.           Hartford 31-18: WELL
FLD.           Purgatorie River: FIELD
LOC.           375' FNL & 1660' FEL: LOCATION
PROV.                 Colorado: PROVINCE
CNTY.               Las Animas: COUNTRY
SRVC.                Patterson: SERVICE COMPANY
DATE.          Mon Nov 21 07:39:41 2005: LOG DATE
UWI.            05-071-08555              : UNIQUE WELL ID
~Curve Information Block
DEPT.FT            0 000 00 00: Depth
DCAL.in                       : CDL Caliper
RHOB.g/cc                     : CDL Bulk Density
RHOC.g/cc                     : CDL Density Correction
DPOR.pu                       : CDL Density Porosity
GR.GAPI                       : Gamma Ray
NPOR.pu                       : Neutron Porosity
~Parameter Information Block
~A  Depth       DCAL        RHOB        RHOC        DPOR         GR         NPOR    
# ...
   893.2000      7.8336      2.6543      0.0673     -0.2623     68.7384   -999.2500
   893.3000      7.8180      2.6578      0.0836     -0.4748     34.7285   -999.2500
   893.4000      7.8180      2.6628      0.1356     -0.7757     10.8735   -999.2500
   893.5000      7.8099      2.6573      0.1101     -0.4419      1.9677   -999.2500
   893.6000      7.8099      2.6391      0.0584      0.6579      0.1973   -999.2500
   893.7000      7.8099      2.6202      0.0189      1.8088      0.0104   -999.2500
   893.8000      7.8512      2.6096      0.0611      2.4511      0.0000   -999.2500
   893.9000      7.8512      2.5988      0.0682      3.1035   -999.2500   -999.2500
   894.0000      7.8962      2.5789      0.0315      4.3100   -999.2500   -999.2500
   894.1000      7.8962      2.5584      0.0116      5.5530   -999.2500   -999.2500
   894.2000      7.8962      2.5477      0.0390      6.1974   -999.2500   -999.2500
   894.3000      7.8841      2.5523     -0.0097      5.9210   -999.2500   -999.2500
   894.4000      7.8841      2.5682      0.0533      4.9578   -999.2500   -999.2500
   894.5000      7.8863      2.5745      0.0726      4.5743   -999.2500   -999.2500
   894.6000      7.8863      2.5675      0.0105      5.0021   -999.2500   -999.2500
   894.7000      7.8863      2.5667      0.0361      5.0469   -999.2500   -999.2500
   894.8000      7.8861      2.5804      0.0615      4.2212   -999.2500   -999.2500
   894.9000      7.8861      2.6014      0.0818      2.9480   -999.2500   -999.2500
   895.0000      7.9083      2.6204      0.0589      1.7935   -999.2500   -999.2500
   895.1000      7.9083      2.6301      0.0787      1.2033   -999.2500   -999.2500
   895.2000      7.9083      2.6270      0.1084      1.3923   -999.2500   -999.2500
   895.3000      7.9134      2.6170      0.0816      1.9991   -999.2500   -999.2500
   895.4000      7.9134      2.6132      0.1135      2.2299   -999.2500   -999.2500
   895.5000      7.9092      2.6152      0.1329      2.1074   -999.2500   -999.2500
   895.6000      7.9092      2.6095      0.0803      2.4573   -999.2500   -999.2500
   895.7000      7.9092      2.5950      0.0581      3.3306   -999.2500   -999.2500
   895.8000      7.8451      2.5850      0.0378      3.9374   -999.2500   -999.2500
   895.9000      7.8451      2.5865      0.0591      3.8469   -999.2500   -999.2500
   896.0000      7.8916      2.5937      0.0697      3.4139   -999.2500   -999.2500
   896.1000      7.8916      2.5981      0.0556      3.1444   -999.2500   -999.2500
   896.2000      7.8916      2.5942      0.0901      3.3833   -999.2500   -999.2500
   896.3000      7.9328      2.5878      0.0127      3.7669   -999.2500   -999.2500
   896.4000      7.9328      2.5883      0.0990      3.7415   -999.2500   -999.2500
   896.5000      7.8802      2.5821      0.0770      4.1160   -999.2500   -999.2500
   896.6000      7.8802      2.5665      0.0175      5.0589   -999.2500   -999.2500
   896.7000      7.8802      2.5593      0.0246      5.4952   -999.2500   -999.2500
   896.8000      7.8855      2.5600      0.0466      5.4530   -999.2500   -999.2500
   896.9000      7.8855      2.5638      0.0295      5.2238   -999.2500   -999.2500
   897.0000      7.9052      2.5806      0.0335      4.2043   -999.2500   -999.2500
   897.1000      7.9052      2.6086      0.0497      2.5073   -999.2500   -999.2500
   897.2000      7.9052      2.6288      0.1299      1.2844   -999.2500   -999.2500
   897.3000      7.8979      2.6363      0.0412      0.8279   -999.2500   -999.2500
   897.4000      7.8979      2.6391      0.1043      0.6581   -999.2500   -999.2500
   897.5000      7.9068      2.6357      0.0691      0.8637   -999.2500   -999.2500
   897.6000      7.9068      2.6325      0.0658      1.0592   -999.2500   -999.2500
   897.7000      7.9068      2.6436      0.0752      0.3885   -999.2500   -999.2500
   897.8000      7.8683      2.6670      0.0969     -1.0316   -999.2500   -999.2500
   897.9000      7.8683      2.6869      0.1218     -2.2349   -999.2500   -999.2500
   898.0000      7.7996      2.6909      0.1101     -2.4761   -999.2500   -999.2500
   898.1000      7.7996      2.6781      0.1041     -1.7005   -999.2500   -999.2500
   898.2000      7.7996      2.6561      0.0759     -0.3669   -999.2500   -999.2500
   898.3000      7.8466      2.6357      0.0838      0.8672   -999.2500   -999.2500
   898.4000      7.8466      2.6222      0.0583      1.6853   -999.2500   -999.2500
   898.5000      7.8173      2.6158      0.0486      2.0752   -999.2500   -999.2500
   898.6000      7.8173      2.6190      0.0645      1.8803   -999.2500   -999.2500
   898.7000      7.8173      2.6353      0.0572      0.8922   -999.2500   -999.2500
   898.8000      7.8409      2.6570      0.0351     -0.4236   -999.2500   -999.2500
   898.9000      7.8409      2.6636      0.0766     -0.8232   -999.2500   -999.2500
   899.0000      7.8774      2.6464      0.0447      0.2210   -999.2500   -999.2500
   899.1000      7.8774      2.6302     -0.0209      1.1980   -999.2500   -999.2500
   899.2000      7.8774      2.6423      0.0237      0.4654   -999.2500   -999.2500
   899.3000      7.9097      2.6679      0.0880     -1.0847   -999.2500   -999.2500
   899.4000      7.9097      2.6735      0.0539     -1.4232   -999.2500   -999.2500
   899.5000      7.9045      2.6550      0.0429     -0.3053   -999.2500   -999.2500
   899.6000      7.9045      2.6316      0.0364      1.1141   -999.2500   -999.2500
   899.7000      7.9045      2.6129      0.0507      2.2494   -999.2500   -999.2500
   899.8000      7.8876      2.5945      0.0168      3.3628   -999.2500   -999.2500
   899.9000      7.8876      2.5804     -0.0156      4.2166   -999.2500   -999.2500
   900.0000      7.9026      2.5801      0.0043      4.2373   -999.2500   -999.2500
   900.1000      7.9026      2.5864      0.0429      3.8540   -999.2500   -999.2500
   900.2000      7.9026      2.5818      0.0527      4.1363   -999.2500   -999.2500
   900.3000      7.8951      2.5659      0.0160      5.0987   -999.2500   -999.2500
   900.4000      7.8951      2.5616     -0.0075      5.3560   -999.2500   -999.2500
   900.5000      7.8807      2.5811      0.0316      4.1771   -999.2500   -999.2500
   900.6000      7.8807      2.6088      0.0724      2.4953   -999.2500   -999.2500
   900.7000      7.8807      2.6327      0.0519      1.0487   -999.2500   -999.2500
   900.8000      7.8848      2.6490      0.0940      0.0615   -999.2500   -999.2500
   900.9000      7.8848      2.6453      0.0869      0.2847   -999.2500   -999.2500
   901.0000      7.8623      2.6252      0.0168      1.5040   -999.2500   -999.2500
   901.1000      7.8623      2.6052      0.0744      2.7156   -999.2500   -999.2500
   901.2000      7.8623      2.5890     -0.0064      3.6997   -999.2500   -999.2500
   901.3000      7.8599      2.5852      0.0149      3.9270   -999.2500   -999.2500
   901.4000      7.8599      2.6219      0.0166      1.7031   -999.2500   -999.2500
   901.5000      7.8573      2.7296      0.0558     -4.8255   -999.2500   -999.2500
   901.6000      7.8573      2.7737      0.0439     -7.4942   -999.2500   -999.2500
   901.7000      7.8573      2.3216      0.5020     19.9052   -999.2500   -999.2500
   901.8000      7.8622      1.3172      0.0000     80.7778   -999.2500   -999.2500
   901.9000      7.8622      0.4463      0.0000    133.5571   -999.2500   -999.2500
   902.0000      6.7100      0.0847   -999.2500    155.4721   -999.2500   -999.2500
   902.1000      6.7100      0.0087   -999.2500    160.0770   -999.2500   -999.2500
   902.2000      6.7100      0.0005   -999.2500    160.5773   -999.2500   -999.2500
   902.3000     -1.7547      0.0000   -999.2500    160.6061   -999.2500   -999.2500
   902.4000     -1.7547      0.0000   -999.2500    160.6061   -999.2500   -999.2500
   902.5000     -2.9001   -999.2500   -999.2500   -999.2500   -999.2500   -999.2500
   902.6000     -2.9001   -999.2500   -999.2500   -999.2500   -999.2500   -999.2500
   902.7000     -2.9001   -999.2500   -999.2500   -999.2500   -999.2500   -999.2500
