~Version Information
VERS.                      2.0: CWLS Log ASCII Standard - VERSION 2.0
WRAP.                       NO: One line per depth step
~Well Information Block
STRT.FT               520.0000: 
STOP.FT              1373.0000: 
STEP.FT                 0.1000: 
NULL.                -999.2500: 
COMP.          Pioneer Natural Resources: COMPANY
WELL.            Gamma 13-3 Tr: WELL
FLD.           Purgatoire River: FIELD
LOC.           2127' FSL & 738' FWL: LOCATION
STAT.                 Colorado: State
CNTY.               Las Animas: COUNTY
CTRY.                      USA: Country
SECT.                        3: Section
TOWN.                       33S: Township
RANG.                       67W: Range
SRVC.                Patterson: SERVICE COMPANY
DATE.          Mon Sep 19 09:58:04 2005: LOG DATE
API.           05 071 08524 00: API
~Curve Information Block
DEPT.FT            0 000 00 00: Depth
DPOR.pu                       : CDL Density Porosity
GR.GAPI                       : Gamma Ray
NPOR.pu                       : Neutron Porosity
RHOB.g/cc                     : CDL Bulk Density
RHOC.g/cc                     : CDL Density Correction
DCAL.in                       : CDL Caliper
~Parameter Information Block
~A  Depth       DPOR         GR         NPOR        RHOB        RHOC        DCAL    
# ...
  1192.0000      7.7870    144.4440     28.2665      2.5215      0.0700      8.2975
  1192.1000      7.1198    146.6044     28.6051      2.5325      0.0807      8.2975
  1192.2000      7.3384    149.8188     28.6823      2.5289      0.0973      8.2975
  1192.3000      8.4113    151.7305     28.5740      2.5112      0.0546      8.2296
  1192.4000      9.6425    151.3767     28.7268      2.4909      0.0692      8.2296
  1192.5000     10.6649    149.5420     28.8320      2.4740      0.0299      8.1640
  1192.6000     11.3134    146.8999     28.1188      2.4633      0.0414      8.1640
  1192.7000     11.6270    144.9576     27.2453      2.4582      0.0310      8.1640
  1192.8000     11.6173    146.8696     27.4561      2.4583      0.0297      8.1376
  1192.9000     11.1615    151.0831     28.2613      2.4658      0.0171      8.1376
  1193.0000     10.3770    152.3170     28.5721      2.4788      0.0220      8.1201
  1193.1000      9.5705    150.1557     28.4131      2.4921      0.0589      8.1201
  1193.2000      9.1767    146.8181     28.5974      2.4986      0.0645      8.1201
  1193.3000      9.2760    142.2712     29.0999      2.4969      0.0594      8.1116
  1193.4000      9.6333    140.9852     28.9650      2.4911      0.0417      8.1116
  1193.5000     10.2681    144.9799     28.2529      2.4806      0.0720      8.1226
  1193.6000     11.0536    150.1754     28.2219      2.4676      0.0677      8.1226
  1193.7000     11.5626    155.2102     29.1418      2.4592      0.0184      8.1226
  1193.8000     11.7005    158.6619     29.7377      2.4569      0.0265      8.1239
  1193.9000     11.8336    156.7838     29.4330      2.4547      0.0208      8.1239
  1194.0000     11.7322    150.0058     29.0409      2.4564     -0.0139      8.0963
  1194.1000     11.1495    145.2137     29.0925      2.4660      0.0395      8.0963
  1194.2000     11.5957    147.1453     29.3833      2.4587      0.0605      8.0963
  1194.3000     14.1685    152.4187     29.5403      2.4162      0.0075      8.0758
  1194.4000     16.6866    152.5241     29.4825      2.3747     -0.0741      8.0758
  1194.5000     16.8510    144.0022     29.3221      2.3720     -0.0086      8.0662
  1194.6000     15.8786    133.7640     28.7794      2.3880      0.0617      8.0662
  1194.7000     15.3496    126.4227     27.7495      2.3967      0.0123      8.0662
  1194.8000     14.3516    122.8880     27.0842      2.4132      0.0075      8.0469
  1194.9000     12.3878    128.9882     27.5219      2.4456      0.1074      8.0469
  1195.0000     10.6371    142.8559     28.3454      2.4745      0.1230      8.0309
  1195.1000      9.5611    150.6201     28.4611      2.4922      0.1385      8.0309
  1195.2000      8.6574    148.7345     28.2327      2.5072      0.1446      8.0309
  1195.3000      7.4720    145.0571     28.6790      2.5267      0.1685      8.0243
  1195.4000      6.2589    140.6987     29.8987      2.5467      0.2267      8.0243
  1195.5000      5.8339    135.7047     30.8171      2.5537      0.2334      8.0051
  1195.6000      6.0655    136.5923     30.4450      2.5499      0.1602      8.0051
  1195.7000      5.8294    141.6916     29.0423      2.5538      0.1674      8.0051
  1195.8000      5.1148    142.1183     27.9415      2.5656      0.2060      7.9725
  1195.9000      5.1355    139.7211     27.8188      2.5653      0.2098      7.9725
  1196.0000      6.5361    142.0972     28.1298      2.5422      0.1701      7.9503
  1196.1000      8.5100    145.4173     28.2038      2.5096      0.1279      7.9503
  1196.2000      9.7692    143.7145     27.8096      2.4888      0.1155      7.9503
  1196.3000      9.8276    141.6772     27.3588      2.4878      0.0763      7.9599
  1196.4000      9.1687    142.6308     27.6633      2.4987      0.1222      7.9599
  1196.5000      8.6236    142.9403     28.6448      2.5077      0.1165      7.9974
  1196.6000      8.6960    142.6326     30.0051      2.5065      0.1183      7.9974
  1196.7000      9.5343    146.2460     31.7414      2.4927      0.1486      7.9974
  1196.8000     10.7609    151.6666     32.9161      2.4724      0.1181      8.0372
  1196.9000     11.4205    153.6632     32.5791      2.4616      0.1220      8.0372
  1197.0000     11.0220    154.5735     31.4841      2.4681      0.1500      8.0461
  1197.1000      9.8231    157.3788     30.9331      2.4879      0.1640      8.0461
  1197.2000      8.2310    158.0997     30.5965      2.5142      0.1231      8.0461
  1197.3000      6.4365    152.8330     29.9397      2.5438      0.1163      8.0240
  1197.4000      4.0129    146.2952     29.4044      2.5838      0.1150      8.0240
  1197.5000      0.7880    144.9557     29.0311      2.6370      0.2044      7.9952
  1197.6000     -2.0614    143.8559     28.7123      2.6840      0.2070      7.9952
  1197.7000     -3.7392    137.5147     29.1756      2.7117      0.2294      7.9952
  1197.8000     -5.2567    132.0076     30.3437      2.7367      0.2145      7.9924
  1197.9000     -7.4516    131.9078     30.6810      2.7730      0.1843      7.9924
  1198.0000     -9.2446    133.8866     29.7750      2.8025      0.2095      8.0297
  1198.1000     -9.2072    132.6026     28.5627      2.8019      0.1466      8.0297
  1198.2000     -7.7293    128.9911     27.4615      2.7775      0.0482      8.0297
  1198.3000     -6.3496    127.1870     26.9404      2.7548      0.0127      8.0761
  1198.4000     -5.1840    123.7764     27.3740      2.7355      0.0505      8.0761
  1198.5000     -3.1733    118.5509     27.4403      2.7024     -0.0273      8.0966
  1198.6000     -0.4922    117.3929     26.3243      2.6581     -0.1241      8.0966
  1198.7000      2.2836    120.5814     25.0060      2.6123     -0.0669      8.0966
  1198.8000      5.1759    122.9298     24.3186      2.5646     -0.0691      8.1017
  1198.9000      7.2702    121.7021     24.5332      2.5300     -0.0690      8.1017
  1199.0000      7.5488    122.5752     25.6691      2.5254     -0.0226      8.0971
  1199.1000      6.8089    129.6081     27.0050      2.5377      0.0016      8.0971
  1199.2000      6.6849    138.5623     27.5664      2.5397      0.0256      8.0971
  1199.3000      7.4888    144.2878     27.3157      2.5264      0.0011      8.0863
  1199.4000      8.4654    143.0902     27.1850      2.5103      0.0259      8.0863
  1199.5000      9.1866    138.1422     27.8043      2.4984      0.0338      8.0788
  1199.6000      9.0490    138.7081     28.4471      2.5007      0.0418      8.0788
  1199.7000      7.5964    146.4286     28.1307      2.5247      0.0433      8.0788
  1199.8000      5.8368    154.7191     27.7554      2.5537      0.1021      8.0660
  1199.9000      4.8672    158.3074     28.5333      2.5697      0.0660      8.0660
  1200.0000      4.2437    154.3169     29.2626      2.5800      0.0859      8.0441
  1200.1000      3.1732    144.9153     28.8341      2.5976      0.1129      8.0441
  1200.2000      1.5645    140.2949     28.1489      2.6242      0.1822      8.0441
  1200.3000     -0.0386    142.3169     28.0891      2.6506      0.1431      8.0183
  1200.4000     -1.1869    142.6953     28.4426      2.6696      0.1187      8.0183
  1200.5000     -1.6098    141.8730     28.1882      2.6766      0.1153      8.0020
  1200.6000     -1.2751    144.2048     27.1506      2.6710      0.0787      8.0020
  1200.7000     -0.9471    147.7016     26.1460      2.6656      0.0730      8.0020
  1200.8000     -1.2933    150.5447     25.8927      2.6713      0.0683      8.0023
  1200.9000     -1.5934    151.7459     26.4522      2.6763      0.0787      8.0023
  1201.0000     -1.2863    150.1343     27.2321      2.6712      0.0264      8.0108
  1201.1000     -1.1331    145.5989     27.6928      2.6687      0.0422      8.0108
  1201.2000     -1.2655    142.3646     27.6339      2.6709      0.0598      8.0108
  1201.3000     -1.1656    141.1726     27.2874      2.6692      0.0275      8.0161
  1201.4000     -1.1860    137.5782     26.8823      2.6696      0.0222      8.0161
  1201.5000     -2.1026    133.4122     26.2572      2.6847      0.0299      8.0216
