~Version Information
VERS.                      2.0: CWLS Log ASCII Standard - VERSION 2.0
WRAP.                       NO: One line per depth step
~Well Information Block
STRT.FT               330.0000: 
STOP.FT              1923.5000: 
STEP.FT                 0.1000: 
NULL.                -999.2500: 
COMP.          Pioneer Natural Resources: COMPANY
WELL.          State Wildlife 32-16 Tr: WELL
FLD.           Purgatoire River: FIELD
LOC.           1838' FNL & 1850' FEL: LOCATION
STAT.                 Colorado: State
CNTY.               Las Animas: COUNTY
CTRY. USA : Country
SECT. 16 : Section
TOWN. 32S : Township
RANG. 66W : Range
SRVC.                Patterson: SERVICE COMPANY
DATE.          Mon Nov 14 07:20:48 2005: LOG DATE
API.           05 071 08568 00: UNIQUE WELL ID
~Curve Information Block
DEPT.FT            0 000 00 00: Depth
DCAL.in                       : CDL Caliper
RHOB.g/cc                     : CDL Bulk Density
RHOC.g/cc                     : CDL Density Correction
DPOR.pu                       : CDL Density Porosity
GR.GAPI                       : Gamma Ray
NPOR.pu                       : Neutron Porosity
~Parameter Information Block
~A  Depth       DCAL        RHOB        RHOC        DPOR         GR         NPOR    
# ...
   752.4000      8.1161      2.5635      0.0242      5.2412    143.7892     24.9925
   752.5000      8.1380      2.5586      0.0269      5.5407    152.0793     24.4123
   752.6000      8.1380      2.5376      0.0044      6.8140    154.8965     24.0884
   752.7000      8.1380      2.5142      0.0149      8.2333    150.3967     23.9761
   752.8000      8.1718      2.4958      0.0038      9.3474    148.8154     23.8763
   752.9000      8.1718      2.4801     -0.0036     10.2963    156.1908     23.6682
   753.0000      8.1728      2.4644     -0.0021     11.2467    164.5300     23.4540
   753.1000      8.1728      2.4546     -0.0450     11.8454    163.5554     23.4166
   753.2000      8.1728      2.4635     -0.0063     11.3022    153.1619     23.8016
   753.3000      8.1695      2.4896      0.0646      9.7187    142.7626     24.5737
   753.4000      8.1695      2.5154      0.0812      8.1569    139.4172     25.2567
   753.5000      8.1785      2.5344      0.0812      7.0057    140.9138     25.7400
   753.6000      8.1785      2.5537      0.1199      5.8361    143.9615     26.1959
   753.7000      8.1785      2.5677      0.1772      4.9901    146.8484     26.3387
   753.8000      8.2124      2.5676      0.1039      4.9927    148.1970     26.0199
   753.9000      8.2124      2.5679      0.0730      4.9754    146.3092     25.6688
   754.0000      8.2791      2.5735      0.1653      4.6360    141.4513     25.6976
   754.1000      8.2791      2.5692      0.1298      4.8952    138.0359     26.1155
   754.2000      8.2791      2.5668      0.0877      5.0408    138.5191     26.7634
   754.3000      8.3014      2.5880      0.0915      3.7585    140.6604     27.4405
   754.4000      8.3014      2.6120      0.1434      2.3015    141.5523     27.9679
   754.5000      8.2675      2.6115      0.0497      2.3343    138.9714     28.3509
   754.6000      8.2675      2.5975      0.0495      3.1827    133.2768     28.5854
   754.7000      8.2675      2.5889      0.0028      3.7055    132.4535     28.5049
   754.8000      8.1917      2.5891      0.0232      3.6913    140.6461     28.1613
   754.9000      8.1917      2.6061      0.0066      2.6601    147.5410     27.7525
   755.0000      8.1679      2.6463      0.0609      0.2222    147.7060     27.3426
   755.1000      8.1679      2.6808      0.1117     -1.8669    148.2976     27.0088
   755.2000      8.1679      2.6675      0.0598     -1.0620    152.8117     26.9083
   755.3000      8.1539      2.6185     -0.0254      1.9063    157.5641     27.1903
   755.4000      8.1539      2.5906     -0.0134      3.5984    155.8447     27.5438
   755.5000      8.1645      2.6027      0.0047      2.8663    144.9937     27.5140
   755.6000      8.1645      2.6252      0.0362      1.5010    132.1029     27.4149
   755.7000      8.1645      2.6279      0.0304      1.3414    126.5788     27.5863
   755.8000      8.1453      2.6057      0.0039      2.6839    130.2047     27.5206
   755.9000      8.1453      2.5769      0.0039      4.4297    134.8529     26.8544
   756.0000      8.1376      2.5529      0.0190      5.8827    134.2273     26.2743
   756.1000      8.1376      2.5367     -0.0255      6.8669    132.1405     26.3196
   756.2000      8.1376      2.5371     -0.0042      6.8441    133.1198     26.6490
   756.3000      8.1363      2.5501     -0.0182      6.0570    134.9643     26.8469
   756.4000      8.1363      2.5569      0.0291      5.6447    137.7973     26.4630
   756.5000      8.1123      2.5580     -0.0239      5.5779    142.0425     25.7083
   756.6000      8.1123      2.5744     -0.0045      4.5830    142.6238     25.3283
   756.7000      8.1123      2.5992      0.0632      3.0779    139.8520     25.0862
   756.8000      8.0924      2.6040      0.0230      2.7878    137.3916     24.5973
   756.9000      8.0924      2.5860      0.0177      3.8814    134.3457     24.2472
   757.0000      8.0930      2.5631      0.0544      5.2649    129.6133     24.2873
   757.1000      8.0930      2.5521      0.0108      5.9361    126.0787     24.4611
   757.2000      8.0930      2.5568      0.0105      5.6493    126.4040     24.3109
   757.3000      8.0820      2.5635      0.0457      5.2398    129.5395     23.8546
   757.4000      8.0820      2.5615     -0.0124      5.3646    134.8347     23.6222
   757.5000      8.0901      2.5550      0.0240      5.7562    142.2798     23.8031
   757.6000      8.0901      2.5457      0.0056      6.3222    149.0629     24.1480
   757.7000      8.0901      2.5332     -0.0017      7.0784    155.3324     24.6420
   757.8000      8.0980      2.5225      0.0302      7.7290    162.6503     25.2309
   757.9000      8.0980      2.5153      0.0215      8.1614    169.1015     25.4168
   758.0000      8.1041      2.5069      0.0329      8.6706    172.3843     25.0863
   758.1000      8.1041      2.4956     -0.0212      9.3547    169.3731     25.0856
   758.2000      8.1041      2.4827      0.0270     10.1375    159.8888     25.8020
   758.3000      8.0927      2.4710     -0.0201     10.8475    149.5733     26.4520
   758.4000      8.0927      2.4702     -0.0009     10.8987    140.0657     26.6970
   758.5000      8.0981      2.4833      0.0251     10.1034    131.8718     26.7157
   758.6000      8.0981      2.5012      0.0747      9.0207    128.6701     26.4774
   758.7000      8.0981      2.5117      0.0796      8.3828    131.4959     26.1909
   758.8000      8.0981      2.5106      0.0750      8.4488    137.0155     26.0021
   758.9000      8.0981      2.5081      0.0864      8.6020    138.8310     25.7666
   759.0000      8.0913      2.5189      0.0713      7.9468    136.5827     25.2852
   759.1000      8.0913      2.5417      0.1665      6.5659    134.5440     24.6942
   759.2000      8.0913      2.5594      0.1669      5.4915    133.3169     24.4945
   759.3000      8.0903      2.5660      0.1536      5.0914    132.5377     24.7662
   759.4000      8.0903      2.5688      0.1750      4.9194    133.0664     25.0407
   759.5000      8.0705      2.5699      0.1928      4.8530    136.8554     25.0821
   759.6000      8.0705      2.5691      0.0886      4.9036    140.1808     24.8796
   759.7000      8.0705      2.5702      0.0980      4.8374    138.0649     24.5841
   759.8000      8.0783      2.5718      0.1170      4.7406    137.6097     24.5358
   759.9000      8.0783      2.5763      0.0306      4.4646    144.1678     24.8307
   760.0000      8.0928      2.5896      0.0634      3.6622    150.6895     25.2080
   760.1000      8.0928      2.6010      0.0832      2.9688    151.9454     25.0269
   760.2000      8.0928      2.5996      0.0742      3.0571    154.0944     24.2807
   760.3000      8.0991      2.5918      0.0337      3.5280    159.9746     23.8391
   760.4000      8.0991      2.5884      0.0074      3.7316    161.4769     24.0460
   760.5000      8.1169      2.5878      0.0666      3.7668    157.3678     24.2642
   760.6000      8.1169      2.5858      0.0277      3.8937    153.1106     23.9698
   760.7000      8.1169      2.5887      0.0196      3.7158    148.0347     23.5536
   760.8000      8.1268      2.5935      0.0545      3.4254    144.8931     23.3110
   760.9000      8.1268      2.5889      0.0463      3.7039    149.0825     23.2036
   761.0000      8.1415      2.5854      0.0291      3.9170    154.2796     23.2936
   761.1000      8.1415      2.5886      0.0863      3.7220    151.9453     23.4091
   761.2000      8.1415      2.5793      0.0131      4.2822    144.8668     23.2229
   761.3000      8.1426      2.5589     -0.0079      5.5236    140.9644     22.7888
   761.4000      8.1426      2.5490     -0.0200      6.1229    141.6847     22.5173
   761.5000      8.1559      2.5538      0.0136      5.8301    143.1741     22.7671
   761.6000      8.1559      2.5528      0.0449      5.8910    141.8521     23.2545
   761.7000      8.1559      2.5322      0.0117      7.1367    137.7048     23.5784
   761.8000      8.1490      2.5098     -0.0805      8.4997    133.5403     23.8021
   761.9000      8.1490      2.5034     -0.0114      8.8875    131.9505     24.0207
