~Version Information
VERS.                      2.0: CWLS Log ASCII Standard - VERSION 2.0
WRAP.                       NO: One line per depth step
~Well Information Block
STRT.FT               390.0000: 
STOP.FT              1434.5000: 
STEP.FT                 0.1000: 
NULL.                -999.2500: 
COMP.          Pioneer Natural Resources: COMPANY
WELL.             John K 12-28: WELL
FLD.           Purgatoire River: FIELD
LOC.           1476' FNL & 465' FWL: LOCATION
CNTY.               Las Animas: COUNTY
SRVC.                Patterson: SERVICE COMPANY
DATE.          Mon Apr 10 06:53:47 2006: LOG DATE
UWI.           05 071 08723 00: UNIQUE WELL ID
STAT.                 Colorado: STATE
~Curve Information Block
DEPT.FT            0 000 00 00: Depth
DCAL.in                       : CDL Caliper
RHOB.g/cc                     : CDL Bulk Density
RHOC.g/cc                     : CDL Density Correction
DPOR.pu                       : CDL Density Porosity
GR.GAPI                       : Gamma Ray
NPOR.pu                       : Neutron Porosity
~Parameter Information Block
~A  Depth       DCAL        RHOB        RHOC        DPOR         GR         NPOR    
# ...
  1081.2000      7.9208      2.4808      0.0178     10.2517     56.1681     17.9360
  1081.3000      7.9305      2.4605      0.0455     11.4833     49.7071     17.9265
  1081.4000      7.9305      2.4397     -0.0212     12.7448     48.3924     17.0189
  1081.5000      7.9394      2.4356     -0.0012     12.9962     52.5607     15.6909
  1081.6000      7.9394      2.4358      0.0167     12.9811     59.2906     14.6703
  1081.7000      7.9394      2.4236     -0.0103     13.7242     62.3561     14.2780
  1081.8000      7.9440      2.4068     -0.0086     14.7373     58.2222     14.6684
  1081.9000      7.9440      2.3934     -0.0010     15.5517     50.9609     15.4785
  1082.0000      7.9451      2.3772      0.0254     16.5326     46.4438     15.9288
  1082.1000      7.9451      2.3575      0.0039     17.7288     46.3200     15.8225
  1082.2000      7.9451      2.3467     -0.0140     18.3799     46.9053     15.4346
  1082.3000      7.9447      2.3526     -0.0163     18.0267     45.5656     14.9399
  1082.4000      7.9447      2.3605      0.0550     17.5431     44.1104     14.5301
  1082.5000      7.9443      2.3507      0.0278     18.1379     42.5125     14.2156
  1082.6000      7.9443      2.3298     -0.0082     19.4063     39.6025     14.0668
  1082.7000      7.9443      2.3201     -0.0090     19.9964     36.4271     14.1552
  1082.8000      7.9417      2.3254      0.0224     19.6700     33.6601     14.2665
  1082.9000      7.9417      2.3317      0.0381     19.2903     32.4868     14.3619
  1083.0000      7.9378      2.3284      0.0170     19.4914     33.5276     14.5696
  1083.1000      7.9378      2.3131      0.0435     20.4152     34.2363     14.6837
  1083.2000      7.9378      2.2917     -0.0150     21.7148     33.0317     14.3867
  1083.3000      7.9351      2.2775     -0.0299     22.5775     31.4371     13.8298
  1083.4000      7.9351      2.2756      0.0305     22.6928     31.7508     13.5049
  1083.5000      7.9330      2.2792      0.0004     22.4735     32.9875     13.6477
  1083.6000      7.9330      2.2823      0.0214     22.2832     33.0333     14.1371
  1083.7000      7.9330      2.2896     -0.0109     21.8433     34.2757     14.6266
  1083.8000      7.9315      2.3098      0.0159     20.6194     38.7031     14.9163
  1083.9000      7.9315      2.3251      0.0911     19.6909     42.7493     15.1688
  1084.0000      7.9313      2.3103      0.0621     20.5854     43.1925     15.4440
  1084.1000      7.9313      2.2850     -0.0164     22.1183     42.9003     15.5822
  1084.2000      7.9313      2.2864      0.0146     22.0373     45.4632     15.6051
  1084.3000      7.9311      2.3200      0.0469     19.9995     52.0246     15.8091
  1084.4000      7.9311      2.3680      0.0782     17.0935     60.4013     16.2298
  1084.5000      7.9300      2.4099      0.1164     14.5521     64.3595     16.8413
  1084.6000      7.9300      2.4338      0.1126     13.1042     62.5639     17.6195
  1084.7000      7.9300      2.4408      0.0950     12.6787     61.1998     17.9246
  1084.8000      7.9298      2.4467      0.0740     12.3193     64.8488     17.5462
  1084.9000      7.9298      2.4638      0.0958     11.2830     69.9911     17.1776
  1085.0000      7.9301      2.4785      0.1370     10.3936     69.8929     17.0529
  1085.1000      7.9301      2.4716      0.0802     10.8119     64.7233     16.8428
  1085.2000      7.9301      2.4429      0.0645     12.5540     59.3044     16.5387
  1085.3000      7.9295      2.4015      0.0077     15.0580     55.3349     16.2948
  1085.4000      7.9295      2.3580     -0.0127     17.6977     51.5714     16.0323
  1085.5000      7.9293      2.3262     -0.0589     19.6213     49.3622     15.8739
  1085.6000      7.9293      2.3151     -0.0242     20.2998     50.4340     16.0433
  1085.7000      7.9293      2.3197     -0.0084     20.0168     52.4633     16.1994
  1085.8000      7.9322      2.3291      0.0448     19.4460     52.4367     16.1108
  1085.9000      7.9322      2.3295      0.0124     19.4257     51.2910     16.2194
  1086.0000      7.9364      2.3193      0.0101     20.0434     52.4565     16.4121
  1086.1000      7.9364      2.3155     -0.0111     20.2714     55.9296     16.1543
  1086.2000      7.9364      2.3305      0.0341     19.3642     60.2616     15.7699
  1086.3000      7.9386      2.3564      0.0542     17.7945     65.1160     15.8326
  1086.4000      7.9386      2.3835      0.0353     16.1491     68.3558     16.4431
  1086.5000      7.9402      2.4111      0.0395     14.4806     69.0640     17.2547
  1086.6000      7.9402      2.4335      0.0662     13.1193     68.2361     17.8323
  1086.7000      7.9402      2.4509      0.0430     12.0644     67.6910     17.7953
  1086.8000      7.9415      2.4689      0.0770     10.9760     69.9789     17.2298
  1086.9000      7.9415      2.4740      0.0927     10.6680     73.5147     17.0148
  1087.0000      7.9399      2.4561      0.0222     11.7535     74.8425     17.6333
  1087.1000      7.9399      2.4263      0.0396     13.5583     75.3167     18.5829
  1087.2000      7.9399      2.3938     -0.0106     15.5262     76.9775     19.4042
  1087.3000      7.9360      2.3678     -0.0804     17.1028     80.3993     20.0049
  1087.4000      7.9360      2.3586     -0.0543     17.6604     86.5929     20.1937
  1087.5000      7.9337      2.3715     -0.0344     16.8789     91.6982     19.9383
  1087.6000      7.9337      2.4078     -0.0248     14.6780     92.7492     19.6393
  1087.7000      7.9337      2.4487      0.0771     12.1996     94.3459     19.6663
  1087.8000      7.9299      2.4714      0.0426     10.8232     97.0880     19.8075
  1087.9000      7.9299      2.4848      0.0547     10.0130     95.8697     19.6770
  1088.0000      7.9227      2.5040      0.0852      8.8507     90.4962     19.3352
  1088.1000      7.9227      2.5253      0.0849      7.5560     87.6022     19.0005
  1088.2000      7.9227      2.5416      0.1113      6.5685     89.4865     18.9312
  1088.3000      7.9168      2.5523      0.1056      5.9239     88.7985     19.2326
  1088.4000      7.9168      2.5541      0.1623      5.8093     81.9820     19.5227
  1088.5000      7.9168      2.5359      0.1475      6.9135     74.6737     19.2219
  1088.6000      7.9168      2.4980      0.0660      9.2105     72.4771     18.2628
  1088.7000      7.9168      2.4579      0.0268     11.6433     74.9685     17.2069
  1088.8000      7.9238      2.4336     -0.0062     13.1150     76.0991     16.4595
  1088.9000      7.9238      2.4270      0.0515     13.5158     71.8259     16.0705
  1089.0000      7.9292      2.4251      0.0407     13.6316     64.5904     16.1421
  1089.1000      7.9292      2.4223      0.0521     13.8030     57.8367     16.5997
  1089.2000      7.9292      2.4178      0.0591     14.0749     52.7936     17.2008
  1089.3000      7.9310      2.4086      0.0726     14.6275     49.6825     17.8014
  1089.4000      7.9310      2.4036      0.0449     14.9345     47.8248     18.1024
  1089.5000      7.9335      2.4105      0.1070     14.5138     46.1332     17.8792
  1089.6000      7.9335      2.4171      0.0957     14.1130     45.6841     17.4352
  1089.7000      7.9335      2.4137      0.0901     14.3220     47.4239     17.0325
  1089.8000      7.9391      2.4022      0.0539     15.0177     49.1761     16.3857
  1089.9000      7.9391      2.3860      0.0233     15.9970     49.6236     15.5820
  1090.0000      7.9466      2.3696     -0.0009     16.9925     49.5071     15.2593
  1090.1000      7.9466      2.3558      0.0043     17.8295     49.4832     15.6209
  1090.2000      7.9466      2.3445      0.0172     18.5130     48.5988     16.2555
  1090.3000      7.9506      2.3380     -0.0198     18.9080     45.5512     16.5704
  1090.4000      7.9506      2.3350      0.0439     19.0917     43.6647     16.6174
  1090.5000      7.9513      2.3333     -0.0229     19.1942     45.4844     16.9313
  1090.6000      7.9513      2.3388      0.0304     18.8631     47.0500     17.3454
  1090.7000      7.9513      2.3516      0.0111     18.0834     46.9854     17.4242
