~Version Information
VERS.                      2.0: CWLS Log ASCII Standard - VERSION 2.0
WRAP.                       NO: One line per depth step
~Well Information Block
STRT.FT                 0.0000: 
STOP.FT              1201.0000: 
STEP.FT                 0.2500: 
NULL.                -999.2500: 
COMP.          Pioneer Natural Resources: COMPANY
WELL.             Margaux 11-1: WELL
FLD.           Purgatoire River: FIELD
LOC.           1154' FNL & 472' FWL --------: LOCATION
PROV.                 Colorado: PROVINCE
CNTY.               Las Animas: COUNTRY
SRVC.                         : SERVICE COMPANY
DATE.          Thu Jan 05 11:16:55 2006: LOG DATE
UWI.                          : UNIQUE WELL ID
~Curve Information Block
DEPT.FT            0 000 00 00: Depth
CCL.                          : Casing Collar Locator
TT3.usec                      : CBL 3' Travel Time
AMP3.mV                       : CBL 3' Amplitude
AMP5.mV                       : CBL 5' Amplitude
GR.GAPI                       : Gamma Ray
~Parameter Information Block
~A  Depth       CCL         TT3         AMP3        AMP5         GR     
# ...
   868.0000      0.0000    651.3953      6.6448      1.4694     64.8669
   868.2500      0.0000    619.9095      6.5119      1.4361     66.8869
   868.5000      0.0000    592.8218      6.3976      1.3858     66.3811
   868.7500      0.0000    574.7640      6.3151      1.3101     63.4481
   869.0000      0.0000    565.2000      6.2674      1.2080     59.6102
   869.2500      0.0000    561.1025      6.2399      1.0965     56.8060
   869.5000      0.0000    560.3226      6.2106      0.9911     56.0902
   869.7500      0.0000    562.1583      6.1683      0.8928     57.3753
   870.0000      0.0000    566.2808      6.1183      0.8067     60.0641
   870.2500      0.0000    572.4291      6.0736      0.7610     63.4807
   870.5000      0.0000    581.0750      6.0433      0.7880     66.7908
   870.7500      0.0000    593.8063      6.0276      0.8814     69.0204
   871.0000      0.0000    612.4295      6.0192      0.9823     69.4748
   871.2500      0.0000    636.7635      6.0086      1.0196     68.1786
   871.5000      0.0000    663.1212      5.9872      0.9663     65.8741
   871.7500      0.0000    685.9157      5.9472      0.8568     63.5634
   872.0000      0.0000    701.3934      5.8860      0.7573     62.0291
   872.2500      0.0000    709.5820      5.8157      0.7200     61.6289
   872.5000      0.0000    712.9387      5.7643      0.7562     62.2379
   872.7500      0.0000    713.9659      5.7592      0.8438     63.3057
   873.0000      0.0000    714.1098      5.8076      0.9546     64.2659
   873.2500      0.0000    713.9624      5.8953      1.0681     65.0639
   873.5000      0.0000    713.7577      6.0026      1.1613     66.1584
   873.7500      0.0000    713.6011      6.1135      1.2032     68.0997
   874.0000      0.0000    713.5154      6.2113      1.1713     71.3370
   874.2500      0.0000    713.4850      6.2764      1.0736     76.1344
   874.5000      0.0000    713.5096      6.2957      0.9531     82.1385
   874.7500      0.0000    713.5703      6.2756      0.8630     88.1429
   875.0000      0.0000    713.4796      6.2422      0.8317     92.8012
   875.2500      0.0000    712.6909      6.2263      0.8502     95.7280
   875.5000      0.0000    710.1499      6.2449      0.8959     97.7114
   875.7500      0.0000    704.6061      6.2939      0.9610     99.7153
   876.0000      0.0000    695.9273      6.3536      1.0478    101.6918
   876.2500      0.0000    686.6757      6.4012      1.1387    102.3789
   876.5000      0.0000    681.4671      6.4204      1.1919    100.3747
   876.7500      0.0000    683.3073      6.4064      1.1761     95.5906
   877.0000      0.0000    690.5089      6.3693      1.1053     89.6116
   877.2500      0.0000    698.0377      6.3365      1.0322     84.5048
   877.5000      0.0000    701.6825      6.3461      1.0065     81.2067
   877.7500      0.0000    700.5128      6.4278      1.0362     78.9389
   878.0000      0.0000    696.1835      6.5804      1.0886     76.1107
   878.2500      0.0000    691.1652      6.7605      1.1201     71.8817
   878.5000      0.0000    687.7659      6.9007      1.1047     66.9560
   878.7500      0.0000    687.6858      6.9476      1.0492     62.9550
   879.0000      0.0000    691.2274      6.8873      0.9919     61.1237
   879.2500      0.0000    696.7316      6.7382      0.9774     61.6276
   879.5000      0.0000    701.4743      6.5329      1.0211     63.8147
   879.7500      0.0000    703.7072      6.3115      1.0935     66.8232
   880.0000      0.0000    703.8961      6.1184      1.1449     69.9141
   880.2500      0.0000    703.9243      5.9921      1.1409     72.4008
   880.5000      0.0000    705.1528      5.9462      1.0787     73.4811
   880.7500      0.0000    707.3712      5.9587      0.9810     72.3921
   881.0000      0.0000    709.4682      5.9819      0.8790     68.8767
   881.2500      0.0000    710.6709      5.9684      0.7968     63.5166
   881.5000      0.0000    710.9606      5.8964      0.7468     57.6925
   881.7500      0.0000    710.6558      5.7776      0.7346     53.2314
   882.0000      0.0000    709.9012      5.6505      0.7639     51.7473
   882.2500      0.0000    708.4357      5.5677      0.8350     53.7693
   882.5000      0.0000    705.6546      5.5800      0.9435     58.2064
   882.7500      0.0000    701.0445      5.7153      1.0842     62.8613
   883.0000      0.0000    694.9719      5.9595      1.2485     65.7627
   883.2500      0.0000    689.1075      6.2569      1.4110     66.2759
   883.5000      0.0000    685.6669      6.5414      1.5302     65.3079
   883.7500      0.0000    685.9100      6.7727      1.5716     64.7031
   884.0000      0.0000    689.4554      6.9439      1.5304     66.2914
   884.2500      0.0000    694.9420      7.0613      1.4401     71.1572
   884.5000      0.0000    700.9308      7.1339      1.3578     79.4318
   884.7500      0.0000    706.2166      7.1810      1.3267     90.4023
   885.0000      0.0000    709.7239      7.2319      1.3415    102.7036
   885.2500      0.0000    710.1050      7.3057      1.3547    114.7863
   885.5000      0.0000    704.8483      7.3937      1.3209    125.6561
   885.7500      0.0000    689.8159      7.4652      1.2380    134.9825
   886.0000      0.0000    661.1423      7.4913      1.1487    142.1086
   886.2500      0.0000    619.6793      7.4646      1.1062    145.4061
   886.5000      0.0000    573.8986      7.4026      1.1358    143.6161
   886.7500      0.0000    536.7748      7.3338      1.2230    137.9100
   887.0000      0.0000    518.1863      7.2832      1.3255    131.6508
   887.2500      0.0000    519.0648      7.2665      1.3919    127.7524
   887.5000      0.0000    531.3542      7.2904      1.3816    126.8118
   887.7500      0.0000    543.6544      7.3518      1.2891    127.7063
   888.0000      0.0000    549.3748      7.4396      1.1563    129.0686
   888.2500      0.0000    550.8625      7.5383      1.0429    129.9863
   888.5000      0.0000    555.4430      7.6339      0.9767    130.1866
   888.7500      0.0000    568.2346      7.7164      0.9496    130.1375
   889.0000      0.0000    589.4501      7.7798      0.9582    130.5722
   889.2500      0.0000    616.5316      7.8184      1.0190    131.5695
   889.5000      0.0000    645.9056      7.8259      1.1328    132.4044
   889.7500      0.0000    673.0445      7.8014      1.2578    132.3521
   890.0000      0.0000    693.4640      7.7555      1.3372    131.3088
   890.2500      0.0000    704.9863      7.7048      1.3438    129.6634
   890.5000      0.0000    708.9040      7.6576      1.2818    127.9208
   890.7500      0.0000    709.0717      7.6073      1.1649    126.4473
   891.0000      0.0000    708.8542      7.5442      1.0168    125.3103
   891.2500      0.0000    707.3951      7.4731      0.8835    124.2287
   891.5000      0.0000    699.7316      7.4139      0.8223    122.8055
   891.7500      0.0000    682.9923      7.3826      0.8670    121.0287
   892.0000      0.0000    662.2108      7.3720      1.0037    119.5848
   892.2500      0.0000    647.5187      7.3525      1.1788    119.2921
   892.5000      0.0000    645.0850      7.2922      1.3291    119.8521
   892.7500      0.0000    652.2014      7.1709      1.4155    119.4826
   893.0000      0.0000    661.2700      6.9781      1.4371    116.3827
   893.2500      0.0000    666.8091      6.7061      1.4135    110.4921
   893.5000      0.0000    668.0634      6.3629      1.3545    103.2767
   893.7500      0.0000    666.9053      5.9912      1.2552     95.8788
   894.0000      0.0000    665.1774      5.6603      1.1143     88.2139
   894.2500      0.0000    663.9197      5.4200      0.9483     80.0178
   894.5000      0.0000    663.8342      5.2661      0.7883     71.9965
   894.7500      0.0000    665.8772      5.1605      0.6701     65.3572
   895.0000      0.0000    671.2388      5.0760      0.6224     60.5070
   895.2500      0.0000    680.3629      5.0116      0.6520     56.7012
   895.5000      0.0000    691.8545      4.9711      0.7421     53.0123
   895.7500      0.0000    703.2001      4.9413      0.8699     49.4384
