~Version Information
VERS.                      2.0: CWLS Log ASCII Standard - VERSION 2.0
WRAP.                       NO: One line per depth step
~Well Information Block
STRT.FT               550.0000: 
STOP.FT              1500.5000: 
STEP.FT                 0.2500: 
NULL.                -999.2500: 
COMP.          Pioneer Natural Resources: COMPANY
WELL.          Surtees 23-34 Tr: WELL
FLD.           Purgatoire River: FIELD
LOC.           1559' FSL & 1997' FWL: LOCATION
PROV.                 Colorado: PROVINCE
CNTY.               Las Animas: COUNTRY
SRVC.                Patterson: SERVICE COMPANY
DATE.          Tue Jul 26 23:47:42 2005: LOG DATE
UWI.           05 071 08449 00: UNIQUE WELL ID
~Curve Information Block
DEPT.FT            0 000 00 00: Depth
SN.Ohm-m                      : IEL Short Normal
SP.mV                         : IEL Spontaneous Potential
DIR.Ohm-m                     : IEL Induction Resistivity
GR.GAPI                       : Gamma Ray
~Parameter Information Block
~A  Depth        SN          SP         DIR          GR     
# ...
   918.5000   2000.0000   2000.0000     32.7057     95.4535
   918.7500   2000.0000   2000.0000     32.7327     91.1490
   919.0000   2000.0000   2000.0000     32.9644     85.7039
   919.2500   2000.0000   2000.0000     33.4117     83.3884
   919.5000   2000.0000   2000.0000     34.0283     81.7993
   919.7500   2000.0000   2000.0000     34.7411     81.4235
   920.0000   2000.0000   2000.0000     35.4611     80.9484
   920.2500   2000.0000   2000.0000     36.0797     80.6291
   920.5000   2000.0000   2000.0000     36.4880     80.7065
   920.7500   2000.0000   2000.0000     36.6390     81.2880
   921.0000   2000.0000   2000.0000     36.6044     82.2969
   921.2500   2000.0000   2000.0000     36.5547     82.3679
   921.5000   2000.0000   2000.0000     36.6627     80.7169
   921.7500   2000.0000   2000.0000     37.0111     78.3122
   922.0000   2000.0000   2000.0000     37.5581     72.9000
   922.2500   2000.0000   2000.0000     38.1596     68.3167
   922.5000   2000.0000   2000.0000     38.6135     60.7304
   922.7500   2000.0000   2000.0000     38.7089     55.8143
   923.0000   2000.0000   2000.0000     38.2785     49.6193
   923.2500   2000.0000   2000.0000     37.2552     46.5775
   923.5000   2000.0000   2000.0000     35.7030     43.5924
   923.7500   2000.0000   2000.0000     33.7964     42.4146
   924.0000   2000.0000   2000.0000     31.7507     41.6857
   924.2500   2000.0000   2000.0000     29.7449     42.2211
   924.5000   2000.0000   2000.0000     27.8807     45.8369
   924.7500   2000.0000   2000.0000     26.1879     50.9186
   925.0000   2000.0000   2000.0000     24.6615     63.1110
   925.2500   2000.0000   2000.0000     23.2992     73.8490
   925.5000   2000.0000   2000.0000     22.1164     91.9750
   925.7500   2000.0000   2000.0000     21.1356    104.0165
   926.0000   2000.0000   2000.0000     20.3650    119.8481
   926.2500   2000.0000   2000.0000     19.7790    127.9556
   926.5000   2000.0000   2000.0000     19.3136    135.3626
   926.7500   2000.0000   2000.0000     18.8860    136.8814
   927.0000   2000.0000   2000.0000     18.4369    134.7082
   927.2500   2000.0000   2000.0000     17.9652    131.4769
   927.5000   2000.0000   2000.0000     17.5234    126.4465
   927.7500   2000.0000   2000.0000     17.1782    123.8584
   928.0000   2000.0000   2000.0000     16.9745    121.2491
   928.2500   2000.0000   2000.0000     16.9267    120.0858
   928.5000   2000.0000   2000.0000     17.0285    118.7749
   928.7500   2000.0000   2000.0000     17.2635    117.9621
   929.0000   2000.0000   2000.0000     17.6123    116.6398
   929.2500   2000.0000   2000.0000     18.0531    115.7944
   929.5000   2000.0000   2000.0000     18.5617    114.7673
   929.7500   2000.0000   2000.0000     19.1085    114.1156
   930.0000   2000.0000   2000.0000     19.6573    112.7529
   930.2500   2000.0000   2000.0000     20.1657    111.4440
   930.5000   2000.0000   2000.0000     20.5913    108.9307
   930.7500   2000.0000   2000.0000     20.9023    106.9920
   931.0000   2000.0000   2000.0000     21.0880    103.8214
   931.2500   2000.0000   2000.0000     21.1574    101.5694
   931.5000   2000.0000   2000.0000     21.1274     98.2622
   931.7500   2000.0000   2000.0000     21.0074     96.5885
   932.0000   2000.0000   2000.0000     20.7931     96.0087
   932.2500   2000.0000   2000.0000     20.4695     97.1329
   932.5000   2000.0000   2000.0000     20.0190     99.8442
   932.7500   2000.0000   2000.0000     19.4342    101.0656
   933.0000   2000.0000   2000.0000     18.7307    100.8893
   933.2500   2000.0000   2000.0000     17.9507     99.9976
   933.5000   2000.0000   2000.0000     17.1513     99.7357
   933.7500   2000.0000   2000.0000     16.3818    101.4400
   934.0000   2000.0000   2000.0000     15.6668    107.5925
   934.2500   2000.0000   2000.0000     15.0032    113.7617
   934.5000   2000.0000   2000.0000     14.3714    124.5761
   934.7500   2000.0000   2000.0000     13.7531    131.7118
   935.0000   2000.0000   2000.0000     13.1451    140.6807
   935.2500   2000.0000   2000.0000     12.5600    144.9139
   935.5000   2000.0000   2000.0000     12.0174    148.3628
   935.7500   2000.0000   2000.0000     11.5335    148.9886
   936.0000   2000.0000   2000.0000     11.1162    148.3511
   936.2500   2000.0000   2000.0000     10.7659    147.4134
   936.5000   2000.0000   2000.0000     10.4768    145.6181
   936.7500   2000.0000   2000.0000     10.2398    144.0936
   937.0000   2000.0000   2000.0000     10.0451    141.4209
   937.2500   2000.0000   2000.0000      9.8861    139.8257
   937.5000   2000.0000   2000.0000      9.7609    138.4830
   937.7500   2000.0000   2000.0000      9.6710    138.1629
   938.0000   2000.0000   2000.0000      9.6158    137.3967
   938.2500   2000.0000   2000.0000      9.5890    136.2161
   938.5000   2000.0000   2000.0000      9.5764    134.0799
   938.7500   2000.0000   2000.0000      9.5566    133.4345
   939.0000   2000.0000   2000.0000      9.5068    134.7821
   939.2500   2000.0000   2000.0000      9.4131    136.7818
   939.5000   2000.0000   2000.0000      9.2815    139.1731
   939.7500   2000.0000   2000.0000      9.1381    139.1865
   940.0000   2000.0000   2000.0000      9.0168    136.6185
   940.2500   2000.0000   2000.0000      8.9417    134.1712
   940.5000   2000.0000   2000.0000      8.9186    131.8674
   940.7500   2000.0000   2000.0000      8.9372    132.2608
   941.0000   2000.0000   2000.0000      8.9803    135.6909
   941.2500   2000.0000   2000.0000      9.0323    138.9597
   941.5000   2000.0000   2000.0000      9.0821    143.6231
   941.7500   2000.0000   2000.0000      9.1221    146.0439
   942.0000   2000.0000   2000.0000      9.1455    148.3949
   942.2500   2000.0000   2000.0000      9.1465    149.0351
   942.5000   2000.0000   2000.0000      9.1228    148.6641
   942.7500   2000.0000   2000.0000      9.0795    147.8447
   943.0000   2000.0000   2000.0000      9.0296    146.4634
   943.2500   2000.0000   2000.0000      8.9918    145.6401
   943.5000   2000.0000   2000.0000      8.9845    144.4465
   943.7500   2000.0000   2000.0000      9.0209    143.4813
   944.0000   2000.0000   2000.0000      9.1040    141.5287
   944.2500   2000.0000   2000.0000      9.2253    140.0401
   944.5000   2000.0000   2000.0000      9.3673    138.2506
   944.7500   2000.0000   2000.0000      9.5100    137.5632
   945.0000   2000.0000   2000.0000      9.6378    136.6307
   945.2500   2000.0000   2000.0000      9.7431    135.4303
   945.5000   2000.0000   2000.0000      9.8234    132.4122
   945.7500   2000.0000   2000.0000      9.8770    130.0726
   946.0000   2000.0000   2000.0000      9.9023    127.3854
   946.2500   2000.0000   2000.0000      9.9018    126.6144
   946.5000   2000.0000   2000.0000      9.8838    126.8587
   946.7500   2000.0000   2000.0000      9.8610    127.6015
   947.0000   2000.0000   2000.0000      9.8446    129.3629
   947.2500   2000.0000   2000.0000      9.8390    131.2445
   947.5000   2000.0000   2000.0000      9.8391    135.6960
   947.7500   2000.0000   2000.0000      9.8317    139.6285
   948.0000   2000.0000   2000.0000      9.8022    145.7593
   948.2500   2000.0000   2000.0000      9.7413    149.0271
   948.5000   2000.0000   2000.0000      9.6488    151.2158
   948.7500   2000.0000   2000.0000      9.5339    150.2844
   949.0000   2000.0000   2000.0000      9.4116    145.1698
   949.2500   2000.0000   2000.0000      9.2986    139.9382
   949.5000   2000.0000   2000.0000      9.2078    131.5688
   949.7500   2000.0000   2000.0000      9.1445    127.0453
   950.0000   2000.0000   2000.0000      9.1050    123.4753
   950.2500   2000.0000   2000.0000      9.0787    123.4949
   950.5000   2000.0000   2000.0000      9.0517    126.3625
   950.7500   2000.0000   2000.0000      9.0112    129.2623
   951.0000   2000.0000   2000.0000      8.9490    133.5384
   951.2500   2000.0000   2000.0000      8.8628    135.6909
   951.5000   2000.0000   2000.0000      8.7550    137.1436
   951.7500   2000.0000   2000.0000      8.6329    136.7981
