~Version Information
VERS.                      2.0: CWLS Log ASCII Standard - VERSION 2.0
WRAP.                       NO: One line per depth step
~Well Information Block
STRT.FT               745.0000: 
STOP.FT              1985.0000: 
STEP.FT                 0.1000: 
NULL.                -999.2500: 
COMP.          Pioneer Natural Resources: COMPANY
WELL.          Lorencito 15-36-33-67: WELL
FLD.           Purgatoire River: FIELD
LOC.           38' FSL & 1446' FEL: LOCATION
STAT.                 Colorado: State
CNTY.               Las Animas: COUNTY
CTRY. USA : Country
SECT. 36 : Section
TOWN. 33S : Township
RANG. 67W : Range
SRVC.                Patterson: SERVICE COMPANY
DATE.          Thu Oct 13 10:16:17 2005: LOG DATE
API.           05 071 08515 00: UNIQUE WELL ID
~Curve Information Block
DEPT.FT            0 000 00 00: Depth
DCAL.in                       : CDL Caliper
RHOB.g/cc                     : CDL Bulk Density
RHOC.g/cc                     : CDL Density Correction
DPOR.pu                       : CDL Density Porosity
GR.GAPI                       : Gamma Ray
NPOR.pu                       : Neutron Porosity
~Parameter Information Block
~A  Depth       DCAL        RHOB        RHOC        DPOR         GR         NPOR    
# ...
   831.4000      8.2256      2.4827      0.0704     10.1379    136.3246     26.2893
   831.5000      8.2214      2.4524      0.0328     11.9762    129.3421     26.1870
   831.6000      8.2214      2.4436      0.0793     12.5067    125.5638     25.6194
   831.7000      8.2214      2.4438      0.0926     12.4984    129.6442     25.0820
   831.8000      8.1915      2.4399      0.0285     12.7315    133.1723     24.8755
   831.9000      8.1915      2.4396      0.0679     12.7517    129.4746     24.9635
   832.0000      8.2107      2.4379      0.0936     12.8560    122.5186     24.8289
   832.1000      8.2107      2.4174      0.0746     14.0951    119.0773     24.0022
   832.2000      8.2107      2.3809      0.0436     16.3108    125.4866     22.5019
   832.3000      8.2296      2.3425      0.0536     18.6370    141.0476     20.4459
   832.4000      8.2296      2.3013      0.0820     21.1332    150.5528     18.5681
   832.5000      8.2686      2.2524      0.0611     24.0994    144.6754     17.3813
   832.6000      8.2686      2.1984      0.0671     27.3710    137.1833     16.2198
   832.7000      8.2686      2.1288      0.0870     31.5900    138.4075     14.7247
   832.8000      8.3338      2.0198      0.0732     38.1942    140.4091     13.3347
   832.9000      8.3338      1.8775     -0.0284     46.8196    136.5377     12.3516
   833.0000      8.4040      1.7498     -0.0881     54.5555    131.8484     11.9296
   833.1000      8.4040      1.6650      0.0630     59.6950    131.8161     11.9061
   833.2000      8.4040      1.6023      0.0906     63.4962    131.3142     11.8469
   833.3000      8.5352      1.5415      0.1317     67.1837    123.6782     11.6157
   833.4000      8.5352      1.4834      0.1227     70.7003    112.5189     11.8777
   833.5000      8.6895      1.4376      0.0820     73.4766    104.4126     13.3344
   833.6000      8.6895      1.4179      0.0962     74.6713     97.4088     15.5691
   833.7000      8.6895      1.4319      0.1384     73.8261     89.8086     17.3590
   833.8000      8.7382      1.4788      0.1499     70.9843     87.0290     18.4152
   833.9000      8.7382      1.5624      0.1488     65.9140     90.0066     19.6822
   834.0000      8.7292      1.6801      0.1803     58.7806     95.1422     21.5648
   834.1000      8.7292      1.8077      0.2387     51.0476    101.5635     23.7708
   834.2000      8.7292      1.9227      0.2369     44.0800    105.5407     26.2810
   834.3000      8.5671      2.0211      0.2475     38.1126    102.7832     28.8789
   834.4000      8.5671      2.1072      0.2235     32.8980     97.8689     30.5647
   834.5000      8.3092      2.1938      0.2307     27.6506     99.8137     30.8759
   834.6000      8.3092      2.2911      0.2631     21.7496    110.7006     30.7632
   834.7000      8.3092      2.3825      0.2087     16.2111    123.0073     31.0258
   834.8000      8.1202      2.4352      0.2176     13.0209    129.7522     31.2618
   834.9000      8.1202      2.4427      0.1011     12.5659    132.8237     31.0374
   835.0000      8.0955      2.4359      0.0480     12.9761    135.3371     30.4979
   835.1000      8.0955      2.4348      0.0642     13.0414    136.7418     29.9698
   835.2000      8.0955      2.4308      0.1165     13.2847    137.8583     29.6343
   835.3000      8.0942      2.4251      0.0449     13.6283    139.8425     29.4697
   835.4000      8.0942      2.4315      0.0608     13.2405    141.2605     29.4407
   835.5000      8.0946      2.4378      0.0840     12.8585    140.4315     29.6309
   835.6000      8.0946      2.4246      0.0267     13.6635    138.6215     29.7602
   835.7000      8.0946      2.4039      0.0182     14.9151    138.0337     29.5286
   835.8000      8.0939      2.3978      0.0789     15.2874    139.3430     29.2369
   835.9000      8.0939      2.4037      0.1287     14.9298    142.1727     29.2158
   836.0000      8.0944      2.4164      0.1003     14.1575    145.6438     29.3386
   836.1000      8.0944      2.4496      0.1040     12.1466    151.0875     29.4582
   836.2000      8.0944      2.5021      0.1817      8.9662    157.4852     30.0998
   836.3000      8.0929      2.5462      0.1518      6.2916    160.7236     31.5207
   836.4000      8.0929      2.5712      0.1051      4.7785    160.9903     32.8828
   836.5000      8.0939      2.5877      0.1489      3.7734    160.6974     33.1142
   836.6000      8.0939      2.5979      0.1330      3.1554    159.1538     32.4257
   836.7000      8.0939      2.6041      0.0878      2.7836    156.7294     32.0176
   836.8000      8.0936      2.6140      0.0846      2.1821    153.4425     31.9862
   836.9000      8.0936      2.6211      0.0987      1.7500    147.4290     31.5747
   837.0000      8.0863      2.6206      0.0424      1.7826    140.7819     30.7648
   837.1000      8.0863      2.6165      0.0828      2.0292    136.7749     29.8606
   837.2000      8.0863      2.6035      0.0390      2.8155    135.8610     28.8926
   837.3000      8.0901      2.5865      0.0253      3.8473    134.2464     27.9984
   837.4000      8.0901      2.5858      0.0032      3.8926    125.8628     27.5163
   837.5000      8.0893      2.6070      0.0223      2.6033    109.2025     27.5908
   837.6000      8.0893      2.6330      0.0660      1.0277     95.3970     27.8944
   837.7000      8.0893      2.6533      0.0732     -0.2008     93.2660     28.1202
   837.8000      8.0858      2.6779      0.0903     -1.6927     96.3267     28.2092
   837.9000      8.0858      2.7102      0.0963     -3.6475     99.2385     28.0703
   838.0000      8.0770      2.7308      0.1529     -4.8978    104.4510     27.8941
   838.1000      8.0770      2.7258      0.1150     -4.5948    111.1021     28.0759
   838.2000      8.0770      2.7061      0.1428     -3.3972    116.4932     28.5654
   838.3000      8.0517      2.6841      0.1172     -2.0695    118.2650     28.8636
   838.4000      8.0517      2.6628      0.0970     -0.7774    116.0294     29.0133
   838.5000      8.0473      2.6444      0.0092      0.3378    116.5492     29.4038
   838.6000      8.0473      2.6353      0.0203      0.8883    117.3183     29.7611
   838.7000      8.0473      2.6426      0.0037      0.4462    110.4051     29.7150
   838.8000      8.0433      2.6645      0.0955     -0.8790    102.8277     29.2897
   838.9000      8.0433      2.6786      0.1281     -1.7332    104.5500     28.7490
   839.0000      8.0744      2.6558      0.1729     -0.3503    113.0533     28.6917
   839.1000      8.0744      2.5985      0.0635      3.1226    121.0086     29.0441
   839.2000      8.0744      2.5419      0.0328      6.5523    129.5404     28.7232
   839.3000      8.1169      2.5015      0.0117      9.0000    139.0710     27.2712
   839.4000      8.1169      2.4689     -0.0173     10.9757    141.5055     25.3194
   839.5000      8.1483      2.4362      0.0313     12.9583    135.9214     23.4336
   839.6000      8.1483      2.3950      0.0293     15.4521    129.5812     21.5887
   839.7000      8.1483      2.3347     -0.0510     19.1085    129.3424     19.9901
   839.8000      8.1545      2.2454     -0.0215     24.5221    133.7151     18.7152
   839.9000      8.1545      2.1336     -0.1040     31.2980    133.3064     17.2263
   840.0000      8.1735      2.0126     -0.0328     38.6275    127.9111     15.6568
   840.1000      8.1735      1.8723     -0.0575     47.1335    125.7346     14.5317
   840.2000      8.1735      1.7160     -0.1208     56.6071    126.1830     13.7103
   840.3000      8.2815      1.5801     -0.1298     64.8450    123.5838     12.7749
   840.4000      8.2815      1.4781     -0.1080     71.0261    118.8406     11.7993
   840.5000      8.5090      1.3919     -0.0673     76.2479    115.5829     11.1807
   840.6000      8.5090      1.3228     -0.0930     80.4361    113.6968     11.0658
   840.7000      8.5090      1.2988     -0.0462     81.8886    109.3412     11.2507
   840.8000      8.7496      1.3240      0.2331     80.3640     99.8358     11.5972
   840.9000      8.7496      1.3726      0.2987     77.4153     88.5053     12.3887
