~Version Information
VERS.                      2.0: CWLS Log ASCII Standard - VERSION 2.0
WRAP.                       NO: One line per depth step
~Well Information Block
STRT.FT               230.0000: 
STOP.FT               706.5000: 
STEP.FT                 0.1000: 
NULL.                -999.2500: 
COMP.          Pioneer Natural Resources: COMPANY
WELL.          Razor Clam 23-27: WELL
FLD.           Purgatoire River: FIELD
LOC.           2499' FSL & 2636' FWL: LOCATION
CNTY.               Las Animas: COUNTY
SRVC.                Patterson: SERVICE COMPANY
DATE.          Mon Feb 13 07:31:47 2006: LOG DATE
UWI.           05 071 08667 00: UNIQUE WELL ID
STAT.                 Colorado: STATE
~Curve Information Block
DEPT.FT            0 000 00 00: Depth
DCAL.in                       : CDL Caliper
RHOB.g/cc                     : CDL Bulk Density
RHOC.g/cc                     : CDL Density Correction
DPOR.pu                       : CDL Density Porosity
GR.GAPI                       : Gamma Ray
NPOR.pu                       : Neutron Porosity
~Parameter Information Block
~A  Depth       DCAL        RHOB        RHOC        DPOR         GR         NPOR    
# ...
   326.0000      8.0167      2.4987     -0.0122      9.1686    110.3295     25.3534
   326.1000      8.0167      2.5217      0.0501      7.7773    110.6836     25.9072
   326.2000      8.0167      2.5342      0.0377      7.0201    106.0559     26.2409
   326.3000      8.0164      2.5399      0.0226      6.6749    103.2702     25.8925
   326.4000      8.0164      2.5484      0.0557      6.1574    104.4094     24.6401
   326.5000      8.0120      2.5547      0.0654      5.7760    102.6472     23.5014
   326.6000      8.0120      2.5478      0.0537      6.1947     95.8072     23.1891
   326.7000      8.0120      2.5350      0.0356      6.9691     90.7475     23.1412
   326.8000      8.0188      2.5346      0.0422      6.9916     94.5277     22.9022
   326.9000      8.0188      2.5499      0.0262      6.0649    106.3912     22.6912
   327.0000      8.0166      2.5647      0.0674      5.1708    116.1687     22.6738
   327.1000      8.0166      2.5599      0.0645      5.4601    115.4184     22.3149
   327.2000      8.0166      2.5365      0.0042      6.8792    107.3188     21.2798
   327.3000      8.0173      2.5183     -0.0102      7.9809     99.1216     20.2635
   327.4000      8.0173      2.5223     -0.0201      7.7390     94.1087     20.1056
   327.5000      8.0187      2.5361     -0.0112      6.9018     89.9714     20.8355
   327.6000      8.0187      2.5380      0.0096      6.7905     85.8678     21.7060
   327.7000      8.0187      2.5276      0.0069      7.4203     86.5228     22.0287
   327.8000      8.0201      2.5182     -0.0019      7.9899     91.8663     21.6986
   327.9000      8.0201      2.5139     -0.0271      8.2474     93.4037     21.0316
   328.0000      8.0218      2.5132     -0.0192      8.2934     86.9385     20.4535
   328.1000      8.0218      2.5138      0.0128      8.2531     78.6826     20.5438
   328.2000      8.0218      2.5208     -0.0463      7.8313     75.3276     21.1811
   328.3000      8.0203      2.5413      0.0301      6.5906     76.4028     21.1765
   328.4000      8.0203      2.5648      0.0133      5.1655     77.2870     20.4812
   328.5000      8.0209      2.5721      0.0349      4.7188     75.6913     20.0089
   328.6000      8.0209      2.5535      0.0408      5.8502     73.9714     19.6982
   328.7000      8.0209      2.5214      0.0235      7.7942     72.5477     19.6046
   328.8000      8.0205      2.5059     -0.0458      8.7320     71.8886     20.0791
   328.9000      8.0205      2.5190     -0.0007      7.9390     73.3555     20.7673
   329.0000      8.0206      2.5402      0.0097      6.6526     76.0216     21.1752
   329.1000      8.0206      2.5541     -0.0165      5.8123     79.7860     21.2090
   329.2000      8.0206      2.5686      0.0012      4.9348     81.5792     20.8908
   329.3000      8.0195      2.5876      0.0262      3.7822     82.4892     20.5142
   329.4000      8.0195      2.5980      0.0330      3.1521     88.5029     20.3595
   329.5000      8.0187      2.5850      0.0556      3.9404     96.9957     20.1524
   329.6000      8.0187      2.5487      0.0174      6.1413    100.2352     19.8159
   329.7000      8.0187      2.5102     -0.0426      8.4708     96.0121     20.0595
   329.8000      8.0218      2.4985     -0.0041      9.1790     89.6869     20.9466
   329.9000      8.0218      2.5152      0.0413      8.1717     88.0919     21.4551
   330.0000      8.0170      2.5301      0.0310      7.2675     89.9376     21.4807
   330.1000      8.0170      2.5252      0.0269      7.5661     88.9285     21.8608
   330.2000      8.0170      2.5167     -0.0129      8.0768     83.7575     22.5757
   330.3000      8.0151      2.5191      0.0025      7.9347     75.8183     22.7262
   330.4000      8.0151      2.5207      0.0135      7.8377     68.9786     21.6819
   330.5000      8.0158      2.5178     -0.0143      8.0134     68.7149     20.3575
   330.6000      8.0158      2.5241      0.0262      7.6304     71.6756     19.6222
   330.7000      8.0158      2.5403      0.0312      6.6502     71.5681     19.3865
   330.8000      8.0175      2.5451      0.0624      6.3587     70.9959     19.5844
   330.9000      8.0175      2.5256     -0.0044      7.5421     72.4882     20.2451
   331.0000      8.0167      2.5066     -0.0267      8.6910     71.7579     21.3062
   331.1000      8.0167      2.5139      0.0295      8.2512     66.7640     22.5319
   331.2000      8.0167      2.5323      0.0369      7.1313     60.7358     23.0799
   331.3000      8.0194      2.5304      0.0544      7.2508     57.5934     22.4544
   331.4000      8.0194      2.5017      0.0125      8.9887     61.3808     20.9655
   331.5000      8.0184      2.4728     -0.0027     10.7412     69.5318     19.3015
   331.6000      8.0184      2.4653      0.0026     11.1954     72.6582     18.3254
   331.7000      8.0184      2.4757      0.0257     10.5616     70.8782     18.3287
   331.8000      8.0147      2.4977      0.0528      9.2326     71.9461     18.9353
   331.9000      8.0147      2.5333      0.0682      7.0701     76.4367     19.4308
   332.0000      8.0145      2.5733      0.1312      4.6508     78.7024     19.5933
   332.1000      8.0145      2.5961      0.1330      3.2683     76.9623     19.6393
   332.2000      8.0145      2.6007      0.0824      2.9856     75.2107     19.6932
   332.3000      8.0124      2.6036      0.1200      2.8093     78.7955     20.1861
   332.4000      8.0124      2.6010      0.1128      2.9698     85.7853     21.0882
   332.5000      8.0124      2.5830      0.0974      4.0633     87.9144     21.4072
   332.6000      8.0124      2.5642      0.0777      5.2015     86.5680     20.8246
   332.7000      8.0124      2.5556      0.0869      5.7189     89.1023     20.1211
   332.8000      8.0143      2.5491      0.0623      6.1154     90.9327     19.6577
   332.9000      8.0143      2.5410      0.0465      6.6033     84.6205     18.9565
   333.0000      8.0153      2.5328      0.0087      7.1011     76.5881     18.1243
   333.1000      8.0153      2.5285      0.0167      7.3642     73.6445     17.8448
   333.2000      8.0153      2.5364     -0.0017      6.8838     74.3128     18.0999
   333.3000      8.0166      2.5519      0.0353      5.9483     77.6146     18.5225
   333.4000      8.0166      2.5618      0.0105      5.3451     81.7881     18.9271
   333.5000      8.0185      2.5619      0.0586      5.3415     84.8608     19.1663
   333.6000      8.0185      2.5495      0.0351      6.0910     86.2923     19.5027
   333.7000      8.0185      2.5370      0.0140      6.8482     84.4706     19.9997
   333.8000      8.0184      2.5431     -0.0049      6.4784     79.1970     20.2725
   333.9000      8.0184      2.5567      0.0464      5.6564     71.8648     20.3183
   334.0000      8.0175      2.5510      0.0126      6.0026     67.3374     20.3153
   334.1000      8.0175      2.5301      0.0124      7.2644     69.7571     20.3130
   334.2000      8.0175      2.5165     -0.0171      8.0908     72.7724     20.4617
   334.3000      8.0135      2.5134      0.0100      8.2802     71.8494     20.5042
   334.4000      8.0135      2.5121      0.0008      8.3546     72.7087     20.2031
   334.5000      8.0150      2.5127      0.0112      8.3226     76.3465     20.2293
   334.6000      8.0150      2.5161      0.0190      8.1151     77.6872     20.5473
   334.7000      8.0150      2.5193     -0.0097      7.9233     79.0799     20.2750
   334.8000      8.0129      2.5230     -0.0073      7.6950     83.3895     19.7213
   334.9000      8.0129      2.5247      0.0470      7.5927     85.3317     19.7057
   335.0000      8.0146      2.5168     -0.0000      8.0747     82.1642     20.3761
   335.1000      8.0146      2.5029      0.0328      8.9126     77.6911     21.2627
   335.2000      8.0146      2.4956     -0.0086      9.3585     77.8713     21.6132
   335.3000      8.0127      2.5042      0.0383      8.8343     83.1530     21.5545
   335.4000      8.0127      2.5247      0.0326      7.5926     86.3064     21.4197
   335.5000      8.0144      2.5456      0.0420      6.3284     81.7954     20.8774
