~Version Information
VERS.                      2.0: CWLS Log ASCII Standard - VERSION 2.0
WRAP.                       NO: One line per depth step
~Well Information Block
STRT.FT               452.0000: 
STOP.FT              1726.5000: 
STEP.FT                 0.1000: 
NULL.                -999.2500: 
COMP.          Pioneer Natural Resources: COMPANY
WELL.          Parrothead 31-31 Tr: WELL
FLD.           Purgatoire River: FIELD
LOC.           496' FNL & 1546' FEL: LOCATION
PROV.                 Colorado: PROVINCE
CNTY.               Las Animas: COUNTRY
SRVC.                Patterson: SERVICE COMPANY
DATE.          Thu Nov 10 07:29:36 2005: LOG DATE
UWI.           05 071 08610 00: UNIQUE WELL ID
~Curve Information Block
DEPT.FT            0 000 00 00: Depth
DCAL.in                       : CDL Caliper
RHOB.g/cc                     : CDL Bulk Density
RHOC.g/cc                     : CDL Density Correction
DPOR.pu                       : CDL Density Porosity
GR.GAPI                       : Gamma Ray
NPOR.pu                       : Neutron Porosity
~Parameter Information Block
~A  Depth       DCAL        RHOB        RHOC        DPOR         GR         NPOR    
# ...
   538.4000      7.9877      2.5313      0.1452      7.1953    155.9709     26.6883
   538.5000      7.9832      2.5117      0.1601      8.3815    154.7459     27.5629
   538.6000      7.9832      2.4810      0.0557     10.2419    158.2854     28.3089
   538.7000      7.9832      2.4570      0.0348     11.6998    158.9532     28.6980
   538.8000      7.9645      2.4600      0.0416     11.5163    154.9351     28.7597
   538.9000      7.9645      2.4857      0.0257      9.9550    151.7717     28.5049
   539.0000      8.0000      2.5154      0.1355      8.1582    150.9903     28.3180
   539.1000      8.0000      2.5386      0.1103      6.7531    149.5893     28.2390
   539.2000      8.0000      2.5601      0.1432      5.4483    145.1915     28.1043
   539.3000      8.0091      2.5772      0.1215      4.4111    137.4483     27.9651
   539.4000      8.0091      2.5779      0.1191      4.3713    130.5924     27.7016
   539.5000      8.0289      2.5653      0.1208      5.1313    129.3977     27.3466
   539.6000      8.0289      2.5598      0.0605      5.4691    134.7835     27.1253
   539.7000      8.0289      2.5673      0.1009      5.0102    142.9986     27.0460
   539.8000      8.0170      2.5742      0.1398      4.5941    146.1814     26.9942
   539.9000      8.0170      2.5753      0.0937      4.5283    142.9020     26.8904
   540.0000      8.0052      2.5689      0.1244      4.9129    140.8992     26.7157
   540.1000      8.0052      2.5534      0.1079      5.8550    139.8411     26.4496
   540.2000      8.0052      2.5421      0.1080      6.5410    132.8023     26.1592
   540.3000      8.0108      2.5434      0.1596      6.4611    123.6444     25.9655
   540.4000      8.0108      2.5491      0.0787      6.1125    116.7794     25.7529
   540.5000      8.0123      2.5494      0.1290      6.0962    110.3694     25.3754
   540.6000      8.0123      2.5381      0.0827      6.7833    108.7308     24.8691
   540.7000      8.0123      2.5223      0.0621      7.7368    115.6835     24.5905
   540.8000      8.0198      2.5208      0.0442      7.8322    124.0293     25.0949
   540.9000      8.0198      2.5371      0.1343      6.8400    126.5443     25.9038
   541.0000      8.0180      2.5541      0.0944      5.8091    122.4206     25.8921
   541.1000      8.0180      2.5563      0.1306      5.6781    116.9742     25.1789
   541.2000      8.0180      2.5423      0.0613      6.5301    117.5092     24.8025
   541.3000      7.9957      2.5269      0.0994      7.4632    122.4454     25.0502
   541.4000      7.9957      2.5282      0.1029      7.3809    124.2773     25.4845
   541.5000      7.9856      2.5571      0.0908      5.6304    120.4390     25.6621
   541.6000      7.9856      2.6091      0.1000      2.4803    114.2581     25.5823
   541.7000      7.9856      2.6607      0.1675     -0.6498    110.7680     25.4925
   541.8000      7.9728      2.6917      0.1345     -2.5247    114.1626     25.4291
   541.9000      7.9728      2.6920      0.1757     -2.5433    120.8551     25.4169
   542.0000      7.9652      2.6500      0.1839     -0.0011    122.3784     25.5266
   542.1000      7.9652      2.5877      0.0545      3.7776    117.7948     25.8432
   542.2000      7.9652      2.5551      0.0190      5.7507    110.9275     26.1586
   542.3000      7.9500      2.5490      0.1114      6.1223    104.0556     26.0400
   542.4000      7.9500      2.5278      0.0625      7.4074     98.5314     25.5465
   542.5000      7.9369      2.4996     -0.0069      9.1181     95.0887     25.3380
   542.6000      7.9369      2.5034     -0.0172      8.8864     92.2357     25.7138
   542.7000      7.9369      2.5347      0.0579      6.9874     89.8027     26.0684
   542.8000      7.9496      2.5543      0.0600      5.7985     91.5328     25.8027
   542.9000      7.9496      2.5484      0.0367      6.1547     97.8406     25.1464
   543.0000      7.9742      2.5407     -0.0183      6.6225    101.0467     24.6129
   543.1000      7.9742      2.5582      0.0379      5.5665     95.0808     24.1987
   543.2000      7.9742      2.5960      0.0521      3.2701     85.5932     23.8320
   543.3000      7.9508      2.6255      0.1119      1.4865     78.3476     23.7756
   543.4000      7.9508      2.6319      0.0817      1.0973     72.2384     24.0160
   543.5000      7.9219      2.6216      0.0729      1.7220     68.1520     24.0584
   543.6000      7.9219      2.5984      0.0556      3.1267     68.2833     23.6458
   543.7000      7.9219      2.5592      0.0673      5.5034     71.0640     23.0797
   543.8000      7.9214      2.5130     -0.0027      8.3008     73.4906     22.7725
   543.9000      7.9214      2.4876      0.0299      9.8404     72.8285     22.8980
   544.0000      7.9188      2.4948      0.0499      9.4038     70.0108     22.9385
   544.1000      7.9188      2.5169      0.0748      8.0695     68.4419     22.2773
   544.2000      7.9188      2.5282      0.0655      7.3846     69.4126     21.4411
   544.3000      7.9140      2.5176      0.0866      8.0236     74.2799     21.2178
   544.4000      7.9140      2.4964      0.0468      9.3121     83.0305     21.4287
   544.5000      7.9175      2.4878      0.0240      9.8276     88.1503     21.5429
   544.6000      7.9175      2.4923      0.1167      9.5590     86.7054     21.6078
   544.7000      7.9175      2.4809      0.1123     10.2488     87.1899     21.6325
   544.8000      7.9306      2.4534      0.0719     11.9131     92.4979     21.4761
   544.9000      7.9306      2.4462      0.0861     12.3509     94.6332     21.4708
   545.0000      7.9030      2.4744      0.1299     10.6409     90.9818     21.6949
   545.1000      7.9030      2.5210      0.1349      7.8187     89.2756     21.7501
   545.2000      7.9030      2.5663      0.1861      5.0724     91.6812     21.9504
   545.3000      7.8854      2.5967      0.2054      3.2293     92.9555     22.7327
   545.4000      7.8854      2.6074      0.1972      2.5824     93.9513     23.5287
   545.5000      7.8760      2.6018      0.2143      2.9216     98.4708     23.8584
   545.6000      7.8760      2.5885      0.1220      3.7248    103.7569     23.8013
   545.7000      7.8760      2.5740      0.1382      4.6072    102.5886     23.5196
   545.8000      7.8992      2.5610      0.0713      5.3951     95.8269     23.4472
   545.9000      7.8992      2.5649      0.0661      5.1546     92.1721     23.7565
   546.0000      7.9082      2.5944      0.0819      3.3726     95.4343     24.2457
   546.1000      7.9082      2.6313      0.1131      1.1329    100.7501     24.8723
   546.2000      7.9082      2.6551      0.0951     -0.3113    104.2856     25.3299
   546.3000      7.9063      2.6581      0.1182     -0.4899    108.2775     25.0852
   546.4000      7.9063      2.6360      0.1137      0.8493    115.8066     24.4221
   546.5000      7.9361      2.5978      0.0233      3.1662    125.0309     23.7442
   546.6000      7.9361      2.5631      0.0337      5.2670    128.4179     23.0079
   546.7000      7.9361      2.5320      0.0226      7.1540    122.7353     22.4916
   546.8000      7.9622      2.5012     -0.0387      9.0170    115.2620     22.6191
   546.9000      7.9622      2.4912     -0.0758      9.6230    113.1522     23.2129
   547.0000      8.0158      2.5113     -0.0088      8.4074    114.2975     23.5922
   547.1000      8.0158      2.5361      0.0633      6.9024    114.0517     23.5769
   547.2000      8.0158      2.5433      0.0271      6.4644    113.2587     23.8146
   547.3000      8.0203      2.5362      0.0444      6.8988    114.9805     24.5274
   547.4000      8.0203      2.5238      0.0182      7.6504    119.2708     24.8599
   547.5000      8.0222      2.5135      0.0701      8.2708    120.9062     24.3168
   547.6000      8.0222      2.5138      0.0493      8.2525    116.7560     23.6984
   547.7000      8.0222      2.5326      0.0329      7.1161    113.1830     23.7055
   547.8000      7.9944      2.5590      0.1295      5.5167    112.6054     23.9185
   547.9000      7.9944      2.5681      0.1305      4.9661    111.9747     23.9214
