~Version Information
VERS.                      2.0: CWLS Log ASCII Standard - VERSION 2.0
WRAP.                       NO: One line per depth step
~Well Information Block
STRT.FT                -8.2500: 
STOP.FT              1118.7500: 
STEP.FT                 0.2500: 
NULL.                -999.2500: 
COMP.          Pioneer Natural Resources: COMPANY
WELL.             Croc 42-9 Tr: WELL
FLD.           Purgatorie River: FIELD
LOC.           --2429' FNL & 315' FEL------: LOCATION
STAT.                       CO: State
CNTY.               Las Animas: COUNTY
CTRY. USA : Country
SECT. 9 : Section
TOWN. 32S : Township
RANG. 66W : Range
SRVC.          Patterson Wireline: SERVICE COMPANY
DATE.          Tue Oct 18 14:14:43 2005: LOG DATE
API.           05 071 08550 00: UNIQUE WELL ID
~Curve Information Block
DEPT.FT            0 000 00 00: Depth
CCL.                          : Casing Collar Locator
TT3.usec                      : CBL 3' Travel Time
AMP3.mV                       : CBL 3' Amplitude
GR.GAPI                       : Gamma Ray
~Parameter Information Block
~A  Depth       CCL         TT3         AMP3         GR     
# ...
   661.7500      0.0000    812.9131     16.2124    125.4749
   662.0000      0.0000    815.0972     16.2711    127.2284
   662.2500      0.0000    822.1545     16.3392    124.1718
   662.5000      0.0000    832.5730     16.3793    118.5913
   662.7500      0.0000    846.0048     16.3588    112.0271
   663.0000      0.0000    861.0897     16.2748    104.7801
   663.2500      0.0000    875.1011     16.1522     97.1175
   663.5000      0.0000    885.0116     16.0272     90.0132
   663.7500      0.0000    889.0361     15.9336     84.5344
   664.0000      0.0000    887.2125     15.8920     81.0484
   664.2500      0.0000    880.4118     15.9024     79.2089
   664.5000      0.0000    870.2062     15.9486     78.3491
   664.7500      0.0000    860.3793     16.0107     77.7131
   665.0000      0.0000    856.2905     16.0694     76.6777
   665.2500      0.0000    860.5212     16.1000     75.1270
   665.5000      0.0000    869.9205     16.0740     73.6371
   665.7500      0.0000    878.4744     15.9769     73.1079
   666.0000      0.0000    882.8783     15.8226     74.1610
   666.2500      0.0000    884.6832     15.6428     76.7937
   666.5000      0.0000    887.2539     15.4648     80.3184
   666.7500      0.0000    891.4284     15.2982     83.5051
   667.0000      0.0000    894.4839     15.1410     85.0071
   667.2500      0.0000    893.2126     14.9898     83.9824
   667.5000      0.0000    887.8590     14.8392     80.5884
   667.7500      0.0000    882.4321     14.6735     76.0955
   668.0000      0.0000    880.2534     14.4684     72.3875
   668.2500      0.0000    879.8537     14.2090     70.8556
   668.5000      0.0000    876.6870     13.9060     71.4717
   668.7500      0.0000    868.5837     13.5957     73.0424
   669.0000      0.0000    858.1432     13.3275     74.4137
   669.2500      0.0000    849.8848     13.1425     75.3181
   669.5000      0.0000    846.2454     13.0547     76.2301
   669.7500      0.0000    846.5774     13.0464     77.8285
   670.0000      0.0000    849.0191     13.0787     80.6539
   670.2500      0.0000    852.4268     13.1092     85.1268
   670.5000      0.0000    856.6829     13.1103     91.7303
   670.7500      0.0000    861.9221     13.0803    100.7127
   671.0000      0.0000    867.9537     13.0342    111.2671
   671.2500      0.0000    873.9470     12.9728    121.5038
   671.5000      0.0000    877.9737     12.8576    129.6104
   671.7500      0.0000    878.2710     12.6299    134.6453
   672.0000      0.0000    878.0059     12.2746    136.2040
   672.2500      0.0000    888.0990     11.8628    134.3566
   672.5000      0.0000    919.2025     11.5059    130.2917
   672.7500      0.0000    967.5304     11.2642    126.1638
   673.0000      0.0000   1012.9955     11.1268    123.8356
   673.2500      0.0000   1034.6948     11.0668    124.0582
   673.5000      0.0000   1025.8397     11.0717    126.8311
   673.7500     -2.0000    993.9104     11.1202    132.1413
   674.0000      2.0000    952.9088     11.1673    140.1526
   674.2500      0.0000    917.4023     11.1610    150.5676
   674.5000      0.0000    896.4388     11.0799    161.8529
   674.7500      0.0000    887.2460     10.9784    171.5014
   675.0000      0.0000    878.1083     10.9922    177.1423
   675.2500      0.0000    860.8039     11.2547    177.2713
   675.5000      0.0000    838.0785     11.7805    171.4801
   675.7500      0.0000    818.6335     12.4540    160.9097
   676.0000      0.0000    808.8699     13.1231    148.3474
   676.2500      0.0000    810.0814     13.6762    136.9709
   676.5000      0.0000    818.5435     14.0563    128.5031
   676.7500      0.0000    825.8279     14.2525    122.7844
   677.0000      0.0000    822.9240     14.2818    118.9430
   677.2500      0.0000    807.3597     14.1670    116.2692
   677.5000      0.0000    785.2451     13.9354    114.0370
   677.7500      0.0000    765.3195     13.6327    111.3497
   678.0000      0.0000    752.2792     13.3240    107.5620
   678.2500      0.0000    745.6877     13.0731    102.7533
   678.5000      0.0000    742.9606     12.9179     97.9333
   678.7500      0.0000    741.9513     12.8560     94.8168
   679.0000      0.0000    741.6056     12.8549     94.9927
   679.2500      0.0000    741.5518     12.8820     99.1067
   679.5000      0.0000    741.6299     12.9222    106.8642
   679.7500      0.0000    741.7026     12.9625    117.3212
   680.0000      0.0000    741.6711     12.9710    128.6573
   680.2500      0.0000    741.5297     12.9074    138.4127
   680.5000      0.0000    741.3614     12.7513    145.0197
   680.7500      0.0000    741.2725     12.5151    148.9048
   681.0000      0.0000    741.3271     12.2344    151.4600
   681.2500      0.0000    741.5236     11.9502    153.3337
   681.5000      0.0000    741.8017     11.6933    154.2471
   681.7500      0.0000    742.0687     11.4806    153.6987
   682.0000      0.0000    742.2455     11.3226    151.0543
   682.2500      0.0000    742.3106     11.2265    145.6975
   682.5000      0.0000    742.3028     11.1883    138.1975
   682.7500      0.0000    742.2858     11.1855    131.1026
   683.0000      0.0000    742.3114     11.1836    127.6219
   683.2500      0.0000    742.3972     11.1549    129.2097
   683.5000      0.0000    742.5200     11.0942    134.6068
   683.7500      0.0000    742.6307     11.0207    141.0873
   684.0000      0.0000    742.6955     10.9688    146.4621
   684.2500      0.0000    742.7338     10.9726    149.8515
   684.5000      0.0000    742.8156     11.0518    150.9164
   684.7500      0.0000    743.0460     11.2016    149.3293
   685.0000      0.0000    743.5845     11.3923    145.4115
   685.2500      0.0000    744.6952     11.5829    140.4151
   685.5000      0.0000    746.6548     11.7428    135.6487
   685.7500      0.0000    749.3657     11.8662    131.8577
   686.0000      0.0000    751.9671     11.9715    129.6003
   686.2500      0.0000    753.1566     12.0929    129.3481
   686.5000      0.0000    752.2789     12.2623    130.9467
   686.7500      0.0000    750.0451     12.4905    133.7158
   687.0000      0.0000    748.0200     12.7611    137.2606
   687.2500      0.0000    747.6313     13.0413    141.7071
   687.5000      0.0000    749.7679     13.2919    147.1544
   687.7500      0.0000    754.7326     13.4690    153.3857
   688.0000      0.0000    761.8469     13.5388    160.1188
   688.2500      0.0000    769.0553     13.5044    167.1495
   688.5000      0.0000    773.5170     13.4143    174.0782
   688.7500      0.0000    773.1996     13.3311    179.9242
   689.0000      0.0000    768.2626     13.2908    183.3219
   689.2500      0.0000    761.1017     13.2934    183.4361
   689.5000      0.0000    755.0166     13.3242    180.4617
   689.7500      0.0000    752.4733     13.3722    175.0841
   690.0000      0.0000    753.9921     13.4282    167.9173
   690.2500      0.0000    758.0164     13.4722    159.6522
   690.5000      0.0000    761.8874     13.4731    151.3599
   690.7500      0.0000    763.7359     13.4125    144.3366
   691.0000      0.0000    763.8928     13.3158    139.7446
   691.2500      0.0000    764.2773     13.2507    138.6333
   691.5000      0.0000    766.4631     13.2738    141.8170
   691.7500      0.0000    770.5262     13.3686    148.6893
   692.0000      0.0000    775.2629     13.4459    156.0260
   692.2500      0.0000    778.8684     13.4088    159.2625
   692.5000      0.0000    779.6369     13.2180    156.0224
   692.7500      0.0000    776.7480     12.9081    148.0102
   693.0000      0.0000    770.9721     12.5603    138.7447
   693.2500      0.0000    764.6641     12.2577    129.7849
   693.5000      0.0000    760.5789     12.0457    119.6805
   693.7500      0.0000    760.1857     11.9158    106.2530
   694.0000      0.0000    763.0022     11.8168     89.2916
   694.2500      0.0000    767.3180     11.6840     71.0807
   694.5000      0.0000    771.2905     11.4799     54.7874
   694.7500      0.0000    773.7856     11.2260     42.6333
   695.0000      0.0000    775.1702     10.9973     35.4879
