~Version Information
VERS.                      2.0: CWLS Log ASCII Standard - VERSION 2.0
WRAP.                       NO: One line per depth step
~Well Information Block
STRT.FT               550.0000: 
STOP.FT              1500.5000: 
STEP.FT                 0.2500: 
NULL.                -999.2500: 
COMP.          Pioneer Natural Resources: COMPANY
WELL.          Surtees 23-34 Tr: WELL
FLD.           Purgatoire River: FIELD
LOC.           1559' FSL & 1997' FWL: LOCATION
PROV.                 Colorado: PROVINCE
CNTY.               Las Animas: COUNTRY
SRVC.                Patterson: SERVICE COMPANY
DATE.          Tue Jul 26 23:47:42 2005: LOG DATE
UWI.           05 071 08449 00: UNIQUE WELL ID
~Curve Information Block
DEPT.FT            0 000 00 00: Depth
SN.Ohm-m                      : IEL Short Normal
SP.mV                         : IEL Spontaneous Potential
DIR.Ohm-m                     : IEL Induction Resistivity
GR.GAPI                       : Gamma Ray
~Parameter Information Block
~A  Depth        SN          SP         DIR          GR     
# ...
  1086.0000     38.2519    -55.7433 100000.0000     94.9951
  1086.2500     36.7985    -62.6808 100000.0000    102.2993
  1086.5000     35.1133    -71.1045 100000.0000    110.9220
  1086.7500     33.2778    -81.3974 100000.0000    114.5511
  1087.0000     31.4287    -94.0485     27.7252    117.6175
  1087.2500     29.7670   -109.6123      2.6395    119.0478
  1087.5000     28.3846   -128.5952      1.2167    122.0810
  1087.7500     27.1215   -151.2441      0.7775    125.5142
  1088.0000     25.6339   -177.2314      0.6066    133.0940
  1088.2500     23.5355   -205.3204      0.5648    139.2064
  1088.5000     20.5500   -233.1778      0.6279    148.1418
  1088.7500     16.6522   -257.6681      0.8392    152.5682
  1089.0000     12.2030   -275.9436      1.4019    154.2743
  1089.2500      7.9792   -286.8823      3.5475    150.9026
  1089.5000      4.8154   -291.5190 100000.0000    138.8729
  1089.7500      3.0532   -291.8561 100000.0000    127.4315
  1090.0000      2.3970   -289.4359 100000.0000    108.3821
  1090.2500      2.3107   -285.1712 100000.0000     95.9826
  1090.5000      2.4139   -279.9378 100000.0000     79.1557
  1090.7500      2.5068   -274.7305 100000.0000     69.4618
  1091.0000      2.4735   -270.3540 100000.0000     57.7387
  1091.2500      2.2849   -267.1582 100000.0000     51.9545
  1091.5000      2.0339   -264.8615 100000.0000     45.8767
  1091.7500      1.8540   -262.3956 100000.0000     43.0519
  1092.0000      1.7728   -257.9765 100000.0000     40.1755
  1092.2500      1.7316   -249.5694 100000.0000     39.4046
  1092.5000      1.7018   -235.6037 100000.0000     41.0330
  1092.7500      1.6755   -215.6688 100000.0000     44.4109
  1093.0000      1.6399   -190.8763 100000.0000     52.3129
  1093.2500      1.6217   -163.6306     11.0570     58.4387
  1093.5000      1.6703   -136.8199      2.3905     67.4138
  1093.7500      1.8179   -112.8440      1.0118     73.1646
  1094.0000      2.0824    -93.0023      0.5181     82.3257
  1094.2500      2.4483    -77.4592      0.2814     89.2634
  1094.5000      2.8765    -65.6272      0.1554    100.8140
  1094.7500      3.4537    -56.6549      0.0909    108.6829
  1095.0000      4.5034    -49.7864      0.0613    119.3654
  1095.2500      6.3164    -44.5054      0.0514    125.1269
  1095.5000      8.6745    -40.5091      0.0559    131.4221
  1095.7500     10.8849    -37.6033      0.0788    134.2219
  1096.0000     12.4234    -35.6114      0.1376    136.8221
  1096.2500     13.3294    -34.3387      0.2696    137.9117
  1096.5000     13.9688    -33.5794      0.5522    139.6758
  1096.7500     14.6852    -33.1381      1.2588    141.4324
  1097.0000     15.6386    -32.8538      4.2161    144.3011
  1097.2500     16.7621    -32.6271 100000.0000    145.1003
  1097.5000     17.7840    -32.4399 100000.0000    142.7339
  1097.7500     18.2718    -32.3448 100000.0000    138.8633
  1098.0000     17.8631    -32.4120 100000.0000    131.8626
  1098.2500     16.6322    -32.6615 100000.0000    128.0828
  1098.5000     15.0938    -33.0371 100000.0000    125.4771
  1098.7500     13.8051    -33.4464 100000.0000    125.7023
  1099.0000     13.0548    -33.8330 100000.0000    127.5624
  1099.2500     12.8239    -34.2141 100000.0000    128.9217
  1099.5000     12.8807    -34.6540 100000.0000    130.4141
  1099.7500     12.9527    -35.2068 100000.0000    131.2730
  1100.0000     12.9301    -35.8852 100000.0000    133.4982
  1100.2500     12.9194    -36.6659 100000.0000    136.0491
  1100.5000     13.0918    -37.5096 100000.0000    140.8235
  1100.7500     13.4854    -38.3727 100000.0000    143.6191
  1101.0000     13.9642    -39.2126 100000.0000    145.6006
  1101.2500     14.3818    -40.0000 100000.0000    145.0677
  1101.5000     14.7204    -40.7406 100000.0000    142.3042
  1101.7500     15.0481    -41.4894 100000.0000    140.3711
  1102.0000     15.4124    -42.3368 100000.0000    139.3884
  1102.2500     15.8024    -43.3656 100000.0000    140.2643
  1102.5000     16.1804    -44.6084 100000.0000    142.2401
  1102.7500     16.5277    -46.0481 100000.0000    142.5087
  1103.0000     16.8567    -47.6607     94.2717    139.6151
  1103.2500     17.1800    -49.4566     24.1635    135.4718
  1103.5000     17.4943    -51.4833     15.4996    127.4129
  1103.7500     17.8169    -53.7807     12.5879    122.0623
  1104.0000     18.2191    -56.3229     11.4195    115.9844
  1104.2500     18.7619    -58.9843     10.9816    113.9315
  1104.5000     19.3895    -61.5537     10.8842    114.0771
  1104.7500     19.9431    -63.7758     10.9478    115.8069
  1105.0000     20.2826    -65.3833     11.0862    119.2066
  1105.2500     20.4061    -66.0857     11.2501    121.1231
  1105.5000     20.4163    -65.5074     11.3912    122.8651
  1105.7500     20.3960    -63.1370     11.4562    123.4779
  1106.0000     20.3677    -58.4308     11.4095    124.3880
  1106.2500     20.2999    -51.1661     11.2628    125.3507
  1106.5000     20.1567    -41.8858     11.0775    127.1674
  1106.7500     19.9290    -32.0074     10.9407    128.1553
  1107.0000     19.6011    -23.2983     10.9471    128.7518
  1107.2500     19.2006    -17.0074     11.2071    128.7429
  1107.5000     18.8646    -13.3519     11.8910    128.9255
  1107.7500     18.7407    -11.7213     13.3405    129.5004
  1108.0000     18.8249    -11.2706     16.4220    130.9957
  1108.2500     18.9626    -11.3586     24.2230    132.1054
  1108.5000     19.0442    -11.6403     61.5886    133.1934
  1108.7500     19.1473    -11.9712 100000.0000    133.1296
  1109.0000     19.4446    -12.3065 100000.0000    131.3509
  1109.2500     20.0239    -12.6495 100000.0000    128.8915
  1109.5000     20.8248    -13.0281 100000.0000    123.4103
  1109.7500     21.7576    -13.4774 100000.0000    119.0189
  1110.0000     22.8129    -14.0213 100000.0000    112.8955
  1110.2500     23.9924    -14.6556 100000.0000    110.1835
  1110.5000     25.2563    -15.3394 100000.0000    109.0596
  1110.7500     26.5476    -16.0100 100000.0000    109.7677
  1111.0000     27.7391    -16.6251 100000.0000    110.7738
  1111.2500     28.6707    -17.2137 100000.0000    110.0930
  1111.5000     29.3430    -17.8913 100000.0000    106.1469
  1111.7500     29.9074    -18.8158 100000.0000    102.0043
  1112.0000     30.4601    -20.1191 100000.0000     95.2188
  1112.2500     31.0000    -21.8732 100000.0000     91.2959
  1112.5000     31.5070    -24.1117 100000.0000     87.1806
  1112.7500     31.9930    -26.8707 100000.0000     85.4978
  1113.0000     32.5388    -30.2188 100000.0000     83.7288
  1113.2500     33.1840    -34.2778 100000.0000     82.6599
  1113.5000     33.7376    -39.2374 100000.0000     81.3035
  1113.7500     33.9061    -45.3608 100000.0000     81.0325
  1114.0000     33.5994    -52.9741 100000.0000     82.4656
  1114.2500     32.8989    -62.4315      7.7734     84.8313
  1114.5000     31.8204    -74.0431      2.0920     90.1579
  1114.7500     30.3070    -87.9690      0.9513     94.5987
  1115.0000     28.3477   -104.1176      0.5038    102.0016
  1115.2500     25.9866   -122.0610      0.2779    106.7128
  1115.5000     23.3491   -140.9436      0.1540    111.4396
  1115.7500     20.6021   -159.4392      0.0889    111.8819
  1116.0000     17.6638   -175.9397      0.0569    107.6143
  1116.2500     14.2379   -189.0531      0.0418    101.8564
  1116.5000     10.4209   -198.1302      0.0348     90.5889
  1116.7500      6.8967   -203.3710      0.0313     82.4184
  1117.0000      4.3325   -205.4237      0.0288     70.3779
  1117.2500      2.8588   -204.8768      0.0262     62.8798
  1117.5000      2.1939   -202.0779      0.0232     53.1599
  1117.7500      1.9775   -197.2850      0.0203     48.2100
  1118.0000      1.9107   -190.8686      0.0180     43.6388
  1118.2500      1.8328   -183.3470      0.0166     42.5297
  1118.5000      1.7343   -175.2460      0.0165     43.7004
  1118.7500      1.6326   -166.8805      0.0184     46.3409
  1119.0000      1.5395   -158.2196      0.0239     52.4662
  1119.2500      1.5221   -148.9733      0.0363     56.9053
