~Version Information
VERS.                      2.0: CWLS Log ASCII Standard - VERSION 2.0
WRAP.                       NO: One line per depth step
~Well Information Block
STRT.FT               239.2000: 
STOP.FT              1618.0000: 
STEP.FT                 0.1000: 
NULL.                -999.2500: 
COMP.          Pioneer Natural Resources: COMPANY
WELL.          Daytona 31-14 Tr: WELL
FLD.           Purgatoire River: FIELD
LOC.           683' FNL & 1943' FEL: LOCATION
CNTY.               Las Animas: COUNTY
SRVC.                         : SERVICE COMPANY
DATE.          Fri Jan 27 14:32:28 2006: LOG DATE
UWI.           05 071 08681 00: UNIQUE WELL ID
STAT.                 Colorado: STATE
~Curve Information Block
DEPT.FT            0 000 00 00: Depth
DCAL.in                       : CDL Caliper
RHOB.g/cc                     : CDL Bulk Density
RHOC.g/cc                     : CDL Density Correction
DPOR.pu                       : CDL Density Porosity
GR.GAPI                       : Gamma Ray
~Parameter Information Block
~A  Depth       DCAL        RHOB        RHOC        DPOR         GR     
# ...
   340.0000      8.0042      2.6491      0.2307      0.0575    100.0701
   340.1000      8.0042      2.6828      0.2809     -1.9897    101.3543
   340.2000      8.0042      2.6883      0.2321     -2.3206    100.3544
   340.3000      8.0027      2.6644      0.2054     -0.8732     96.0144
   340.4000      8.0027      2.6237      0.1589      1.5960     92.7167
   340.5000      8.0021      2.5858      0.1424      3.8933     93.8443
   340.6000      8.0021      2.5616      0.1192      5.3578     95.0394
   340.7000      8.0021      2.5507      0.0424      6.0155     92.3185
   340.8000      8.0002      2.5509      0.0826      6.0068     86.6788
   340.9000      8.0002      2.5538      0.1302      5.8300     81.0024
   341.0000      8.0004      2.5530      0.0470      5.8771     77.5716
   341.1000      8.0004      2.5509      0.0836      6.0073     77.4628
   341.2000      8.0004      2.5513      0.0772      5.9798     80.5544
   341.3000      7.9979      2.5641      0.0856      5.2068     83.3496
   341.4000      7.9979      2.5887      0.1085      3.7138     83.1421
   341.5000      7.9864      2.6052      0.1495      2.7128     81.2679
   341.6000      7.9864      2.6008      0.1215      2.9805     81.2652
   341.7000      7.9864      2.5881      0.1164      3.7517     83.4901
   341.8000      7.9797      2.5881      0.0977      3.7496     82.5285
   341.9000      7.9797      2.6012      0.1340      2.9567     78.5821
   342.0000      7.9869      2.6060      0.1316      2.6681     78.1123
   342.1000      7.9869      2.5904      0.1238      3.6101     78.7537
   342.2000      7.9869      2.5657      0.0620      5.1105     74.6894
   342.3000      7.9992      2.5514      0.0692      5.9735     68.8403
   342.4000      7.9992      2.5490      0.0808      6.1238     66.6321
   342.5000      7.9983      2.5442      0.0886      6.4093     67.1435
   342.6000      7.9983      2.5355      0.0483      6.9393     65.5280
   342.7000      7.9983      2.5293      0.0807      7.3146     61.5836
   342.8000      7.9916      2.5301      0.0603      7.2662     58.6928
   342.9000      7.9916      2.5420      0.0696      6.5444     59.0198
   343.0000      7.9751      2.5599      0.1272      5.4586     62.0744
   343.1000      7.9751      2.5729      0.1098      4.6717     65.7272
   343.2000      7.9751      2.5797      0.1367      4.2595     68.8743
   343.3000      7.9595      2.5873      0.1088      3.7986     69.6374
   343.4000      7.9595      2.5984      0.1525      3.1258     67.3814
   343.5000      7.9494      2.6047      0.1627      2.7483     65.7535
   343.6000      7.9494      2.5995      0.1478      3.0583     66.7205
   343.7000      7.9494      2.5880      0.1122      3.7555     67.2539
   343.8000      7.9620      2.5760      0.1018      4.4822     66.4200
   343.9000      7.9620      2.5605      0.0998      5.4222     66.1464
   344.0000      8.0036      2.5432      0.0619      6.4725     66.7419
   344.1000      8.0036      2.5367      0.0173      6.8642     68.3728
   344.2000      8.0036      2.5431      0.0893      6.4813     70.7840
   344.3000      8.0054      2.5509      0.0446      6.0090     71.0826
   344.4000      8.0054      2.5490      0.0756      6.1225     69.7307
   344.5000      8.0094      2.5365      0.0314      6.8759     70.5296
   344.6000      8.0094      2.5295      0.0449      7.3008     72.4965
   344.7000      8.0094      2.5360      0.0592      6.9086     72.9962
   344.8000      8.0102      2.5437      0.0875      6.4403     73.0710
   344.9000      8.0102      2.5412      0.0548      6.5922     72.7538
   345.0000      8.0125      2.5305      0.0404      7.2421     70.3449
   345.1000      8.0125      2.5165      0.0474      8.0935     66.4232
   345.2000      8.0125      2.5091      0.0377      8.5384     62.8311
   345.3000      8.0047      2.5203      0.0678      7.8613     61.9598
   345.4000      8.0047      2.5428      0.0968      6.4952     64.3380
   345.5000      8.0009      2.5547      0.1263      5.7785     65.8547
   345.6000      8.0009      2.5411      0.1376      6.6001     65.6763
   345.7000      8.0009      2.5129      0.0456      8.3110     65.1784
   345.8000      7.9936      2.4968      0.1041      9.2851     63.8377
   345.9000      7.9936      2.5036      0.0896      8.8707     64.8508
   346.0000      7.9879      2.5249      0.1095      7.5824     68.6318
   346.1000      7.9879      2.5477      0.1160      6.1979     71.9361
   346.2000      7.9879      2.5630      0.1360      5.2741     76.9236
   346.3000      7.9967      2.5639      0.1540      5.2196     85.6204
   346.4000      7.9967      2.5483      0.1413      6.1613     93.3255
   346.5000      8.0001      2.5302      0.0966      7.2609     95.3485
   346.6000      8.0001      2.5255      0.1128      7.5452     92.4789
   346.7000      8.0001      2.5244      0.1055      7.6127     87.5638
   346.8000      8.0107      2.5135      0.0730      8.2749     83.1709
   346.9000      8.0107      2.5083      0.0434      8.5864     80.4569
   347.0000      8.0123      2.5274      0.0634      7.4278     78.9137
   347.1000      8.0123      2.5605      0.0839      5.4216     75.8709
   347.2000      8.0123      2.5804      0.0990      4.2194     68.3532
   347.3000      8.0114      2.5679      0.0896      4.9784     59.3026
   347.4000      8.0114      2.5322      0.0019      7.1382     55.0694
   347.5000      8.0107      2.5063      0.0239      8.7063     55.7884
   347.6000      8.0107      2.5080      0.0202      8.6030     57.8238
   347.7000      8.0107      2.5245      0.0620      7.6078     60.4146
   347.8000      8.0093      2.5336      0.0641      7.0569     63.8329
   347.9000      8.0093      2.5306      0.0365      7.2355     66.9992
   348.0000      8.0106      2.5264      0.0291      7.4919     68.8506
   348.1000      8.0106      2.5206      0.0512      7.8430     70.0769
   348.2000      8.0106      2.5044      0.0482      8.8225     72.4139
   348.3000      8.0098      2.4855      0.0198      9.9678     73.4891
   348.4000      8.0098      2.4799      0.0020     10.3077     69.7197
   348.5000      8.0097      2.4907      0.0057      9.6564     62.9485
   348.6000      8.0097      2.5116      0.0192      8.3859     57.4199
   348.7000      8.0097      2.5308      0.0944      7.2218     56.2521
   348.8000      8.0116      2.5331      0.0697      7.0877     60.3588
   348.9000      8.0116      2.5229      0.0224      7.7035     69.6814
   349.0000      8.0086      2.5190      0.0413      7.9408     80.3398
   349.1000      8.0086      2.5257      0.0314      7.5325     82.0174
   349.2000      8.0086      2.5370      0.0391      6.8505     72.3695
   349.3000      8.0106      2.5489      0.0151      6.1298     63.0388
   349.4000      8.0106      2.5588      0.0449      5.5251     60.9721
   349.5000      8.0084      2.5636      0.0234      5.2377     64.8295
   349.6000      8.0084      2.5584      0.0480      5.5506     72.2101
   349.7000      8.0084      2.5437      0.0299      6.4405     78.4008
   349.8000      8.0075      2.5283      0.0192      7.3779     81.5076
   349.9000      8.0075      2.5109      0.0351      8.4303     85.7147
   350.0000      8.0056      2.4839      0.0133     10.0669     95.2223
   350.1000      8.0056      2.4589      0.0102     11.5819    109.7972
   350.2000      8.0056      2.4523     -0.0080     11.9838    125.3126
   350.3000      8.0040      2.4597      0.0516     11.5363    138.5763
   350.4000      8.0040      2.4709      0.0394     10.8535    149.5165
   350.5000      7.9924      2.4951      0.0489      9.3866    154.9254
   350.6000      7.9924      2.5421      0.1336      6.5371    151.2305
   350.7000      7.9924      2.5999      0.1877      3.0377    143.4192
   350.8000      7.9481      2.6436      0.2588      0.3851    138.6326
   350.9000      7.9481      2.6564      0.2284     -0.3898    139.7178
   351.0000      7.9647      2.6445      0.2191      0.3352    148.0971
   351.1000      7.9647      2.6239      0.2103      1.5812    159.2025
