~Version Information
VERS.                      2.0: CWLS Log ASCII Standard - VERSION 2.0
WRAP.                       NO: One line per depth step
~Well Information Block
STRT.FT                10.0000: 
STOP.FT               743.5000: 
STEP.FT                 0.1000: 
NULL.                -999.2500: 
COMP.          Pioneer Natural Resources: COMPANY
WELL.                Mia 21-18: WELL
FLD.           Purgatorie River: FIELD
LOC.           1067' FNL & 1824' FWL: LOCATION
PROV.                 Colorado: PROVINCE
CNTY.               Las Animas: COUNTRY
SRVC.                Patterson: SERVICE COMPANY
DATE.          Tue Nov 22 15:40:03 2005: LOG DATE
UWI.           05-071-08559               : UNIQUE WELL ID
~Curve Information Block
DEPT.FT            0 000 00 00: Depth
DCAL.in                       : CDL Caliper
RHOB.g/cc                     : CDL Bulk Density
RHOC.g/cc                     : CDL Density Correction
DPOR.pu                       : CDL Density Porosity
GR.GAPI                       : Gamma Ray
NPOR.pu                       : Neutron Porosity
~Parameter Information Block
~A  Depth       DCAL        RHOB        RHOC        DPOR         GR         NPOR    
# ...
   634.0000      8.0181      2.4337     -0.0013     13.1106     73.3630     24.0564
   634.1000      8.0181      2.4330     -0.0270     13.1495     74.9216     23.8620
   634.2000      8.0181      2.4394      0.0070     12.7616     74.2421     23.8275
   634.3000      8.0079      2.4421      0.0093     12.6012     73.0133     23.9958
   634.4000      8.0079      2.4422      0.0219     12.5937     73.8044     24.2792
   634.5000      8.0115      2.4525     -0.0034     11.9671     74.8546     24.6711
   634.6000      8.0115      2.4698      0.0684     10.9202     74.4796     25.2156
   634.7000      8.0115      2.4774      0.0604     10.4598     73.6257     25.6572
   634.8000      8.0188      2.4744      0.0744     10.6400     72.7055     25.7874
   634.9000      8.0188      2.4684      0.0339     11.0044     72.4844     25.6240
   635.0000      8.0040      2.4625      0.0313     11.3652     73.3246     25.1619
   635.1000      8.0040      2.4557      0.0295     11.7769     74.1097     24.4189
   635.2000      8.0040      2.4515      0.0224     12.0303     74.3785     23.7465
   635.3000      8.0179      2.4627      0.0051     11.3538     74.1184     23.5430
   635.4000      8.0179      2.4855      0.0863      9.9669     72.8535     23.6847
   635.5000      8.0052      2.4946      0.0777      9.4153     72.2504     23.8290
   635.6000      8.0052      2.4866     -0.0235      9.9057     73.3034     23.8841
   635.7000      8.0052      2.4839      0.0258     10.0686     73.1802     23.9700
   635.8000      8.0077      2.4950      0.0307      9.3919     71.7390     24.2556
   635.9000      8.0077      2.5183      0.0135      7.9847     72.1619     24.6934
   636.0000      8.0013      2.5480      0.0545      6.1827     73.4102     24.8759
   636.1000      8.0013      2.5589      0.1026      5.5199     71.7110     24.6167
   636.2000      8.0013      2.5370      0.0190      6.8462     68.2345     24.2873
   636.3000      7.9894      2.5122      0.0017      8.3495     67.3059     24.0250
   636.4000      7.9894      2.5089      0.0599      8.5523     69.2119     23.5255
   636.5000      8.0045      2.5079      0.0614      8.6113     71.1088     22.9327
   636.6000      8.0045      2.4906      0.0141      9.6629     71.1527     22.6885
   636.7000      8.0045      2.4696     -0.0108     10.9337     69.6181     22.8511
   636.8000      8.0109      2.4606      0.0016     11.4766     66.9630     23.0615
   636.9000      8.0109      2.4583      0.0354     11.6177     65.3599     22.9067
   637.0000      7.9939      2.4563     -0.0392     11.7400     67.8192     22.5139
   637.1000      7.9939      2.4518      0.0376     12.0098     72.0208     22.3467
   637.2000      7.9939      2.4382     -0.0259     12.8371     73.3936     22.5367
   637.3000      7.9887      2.4270     -0.0161     13.5181     72.9049     22.8890
   637.4000      7.9887      2.4318     -0.0065     13.2268     72.8108     23.4048
   637.5000      8.0053      2.4447      0.0613     12.4444     72.2378     24.2412
   637.6000      8.0053      2.4536      0.0215     11.9047     70.5733     25.0895
   637.7000      8.0053      2.4596      0.0268     11.5384     69.2056     25.5424
   637.8000      7.9989      2.4672      0.0127     11.0794     70.2601     25.7052
   637.9000      7.9989      2.4769      0.0401     10.4938     73.0652     25.6368
   638.0000      8.0025      2.4891      0.0482      9.7538     73.8986     25.1449
   638.1000      8.0025      2.5046      0.0200      8.8116     70.8625     24.5270
   638.2000      8.0025      2.5157      0.0698      8.1391     66.2385     24.3901
   638.3000      8.0173      2.5162      0.0170      8.1061     63.7102     24.7039
   638.4000      8.0173      2.5206     -0.0234      7.8436     63.5800     24.9025
   638.5000      8.0081      2.5323      0.0619      7.1342     65.3429     24.5157
   638.6000      8.0081      2.5294      0.0469      7.3068     68.9295     23.8734
   638.7000      8.0081      2.5111     -0.0014      8.4192     71.6690     23.6813
   638.8000      8.0005      2.4996     -0.0159      9.1175     71.8786     23.8905
   638.9000      8.0005      2.4980      0.0278      9.2137     71.0247     23.9224
   639.0000      7.9906      2.4879     -0.0138      9.8249     69.1546     23.6018
   639.1000      7.9906      2.4642     -0.0181     11.2599     65.8491     23.3146
   639.2000      7.9906      2.4498     -0.0515     12.1310     64.8694     23.3226
   639.3000      7.9726      2.4641      0.0122     11.2691     68.6078     23.4755
   639.4000      7.9726      2.4891      0.0453      9.7507     73.6219     23.6632
   639.5000      7.9812      2.4953      0.0395      9.3774     75.4350     23.9661
   639.6000      7.9812      2.4792      0.0063     10.3513     74.4492     24.3275
   639.7000      7.9812      2.4580     -0.0211     11.6350     74.8052     24.4367
   639.8000      7.9868      2.4442     -0.0189     12.4750     76.2411     24.0910
   639.9000      7.9868      2.4383     -0.0032     12.8325     75.2992     23.5276
   640.0000      7.9894      2.4391     -0.0262     12.7824     74.1144     23.2563
   640.1000      7.9894      2.4459      0.0053     12.3711     75.6756     23.5265
   640.2000      7.9894      2.4522      0.0444     11.9886     77.0117     24.1404
   640.3000      7.9942      2.4534      0.0012     11.9171     74.9353     24.6229
   640.4000      7.9942      2.4559      0.0101     11.7647     70.0395     24.8351
   640.5000      7.9903      2.4623      0.0299     11.3783     66.1144     25.0937
   640.6000      7.9903      2.4621      0.0331     11.3871     65.3717     25.5723
   640.7000      7.9903      2.4518     -0.0037     12.0105     66.0209     26.0272
   640.8000      7.9945      2.4412     -0.0159     12.6525     66.8092     26.0507
   640.9000      7.9945      2.4384      0.0062     12.8232     66.2425     25.5277
   641.0000      7.9904      2.4428     -0.0137     12.5586     62.9093     24.9722
   641.1000      7.9904      2.4433      0.0267     12.5244     59.9664     24.8567
   641.2000      7.9904      2.4297      0.0095     13.3499     60.7388     25.0147
   641.3000      7.9774      2.4131      0.0059     14.3572     63.8268     25.2682
   641.4000      7.9774      2.4162      0.0064     14.1673     65.9746     25.5986
   641.5000      7.9950      2.4444      0.0025     12.4614     65.9996     25.7580
   641.6000      7.9950      2.4796      0.0611     10.3255     66.1623     25.7578
   641.7000      7.9950      2.4968      0.0795      9.2878     68.8063     25.8333
   641.8000      7.9722      2.4889      0.0041      9.7652     71.3715     25.8578
   641.9000      7.9722      2.4760     -0.0015     10.5447     70.3806     25.6885
   642.0000      7.9973      2.4784     -0.0054     10.3982     67.8014     25.3702
   642.1000      7.9973      2.4898      0.0593      9.7104     67.0343     24.8712
   642.2000      7.9973      2.4883      0.0299      9.8007     67.6422     24.2417
   642.3000      7.9718      2.4705      0.0069     10.8780     68.4562     23.8400
   642.4000      7.9718      2.4535     -0.0160     11.9094     69.0637     23.9740
   642.5000      7.9644      2.4522     -0.0183     11.9864     68.1174     24.4967
   642.6000      7.9644      2.4646     -0.0162     11.2345     65.5388     24.8793
   642.7000      7.9644      2.4763      0.0351     10.5300     62.7655     24.7168
   642.8000      7.9768      2.4770      0.0210     10.4877     61.8823     24.0282
   642.9000      7.9768      2.4707      0.0299     10.8656     64.5795     23.1804
   643.0000      7.9779      2.4679      0.0000     11.0336     67.6649     22.7173
   643.1000      7.9779      2.4691      0.0347     10.9649     68.2488     22.9020
   643.2000      7.9779      2.4663     -0.0207     11.1348     69.3870     23.4099
   643.3000      7.9824      2.4604      0.0267     11.4918     73.0871     23.6411
   643.4000      7.9824      2.4616     -0.0124     11.4205     76.5312     23.5491
   643.5000      7.9790      2.4751      0.0446     10.6027     76.6165     23.8190
