~Version Information
VERS.                      2.0: CWLS Log ASCII Standard - VERSION 2.0
WRAP.                       NO: One line per depth step
~Well Information Block
STRT.FT               460.0000: 
STOP.FT              2311.7500: 
STEP.FT                 0.2500: 
NULL.                -999.2500: 
COMP.          Pioneer Natural Resources: COMPANY
WELL.          McDonald 33-31 R: WELL
FLD.           Purgatoire River: FIELD
LOC.           1386' FSL & 1926' FEL: LOCATION
STAT.                 Colorado: State
CNTY.               Las Animas: COUNTY
CTRY.                      USA: Country
SECT.                       31: Section
TOWN.                      32S: Township
RANG.                      66W: Range
SRVC.                Patterson: SERVICE COMPANY
DATE.          Fri Sep 23 00:08:18 2005: LOG DATE
API.           05 071 08533 00: API#
~Curve Information Block
DEPT.FT            0 000 00 00: Depth
SN.Ohm-m                      : IEL Short Normal
SP.mV                         : IEL Spontaneous Potential
DIR.Ohm-m                     : IEL Induction Resistivity
GR.GAPI                       : Gamma Ray
~Parameter Information Block
~A  Depth        SN          SP         DIR          GR     
# ...
  1800.0000      2.0981   -373.7373      8.1903    118.2815
  1800.2500      2.1185   -374.3137      8.0984    120.0728
  1800.5000      2.1467   -374.8373      8.0125    122.1472
  1800.7500      2.1684   -375.3091      7.9332    122.8494
  1801.0000      2.1728   -375.7328      7.8601    122.3475
  1801.2500      2.1593   -376.1107      7.7919    120.8200
  1801.5000      2.1333   -376.4408      7.7274    117.2802
  1801.7500      2.0996   -376.7168      7.6663    114.9232
  1802.0000      2.0602   -376.9305      7.6095    112.9874
  1802.2500      2.0152   -377.0719      7.5599    113.1874
  1802.5000      1.9661   -377.1296      7.5219    115.0313
  1802.7500      1.9163   -377.0891      7.5023    116.3873
  1803.0000      1.8710   -376.9313      7.5091    117.3713
  1803.2500      1.8348   -376.6338      7.5506    117.0747
  1803.5000      1.8133   -376.1750      7.6329    115.2779
  1803.7500      1.8141   -375.5416      7.7586    113.4130
  1804.0000      1.8474   -374.7356      7.9259    110.4701
  1804.2500      1.9178   -373.7797      8.1282    108.9657
  1804.5000      2.0094   -372.7178      8.3547    107.4912
  1804.7500      2.0834   -371.6108      8.5923    106.3944
  1805.0000      2.1036   -370.5289      8.8294    103.2691
  1805.2500      2.0678   -369.5428      9.0598    100.1081
  1805.5000      2.0095   -368.7157      9.2858     95.2480
  1805.7500      1.9648   -368.0971      9.5152     93.1476
  1806.0000      1.9458   -367.7185      9.7549     92.6590
  1806.2500      1.9425   -367.5908     10.0029     93.6993
  1806.5000      1.9412   -367.7009     10.2446     95.9459
  1806.7500      1.9364   -368.0141     10.4554     97.3714
  1807.0000      1.9308   -368.4763     10.6100     99.2714
  1807.2500      1.9301   -369.0219     10.6919    100.5237
  1807.5000      1.9379   -369.5825     10.7004    102.4633
  1807.7500      1.9541   -370.0963     10.6513    103.5960
  1808.0000      1.9754   -370.5146     10.5707    104.4946
  1808.2500      1.9964   -370.8034     10.4862    104.4148
  1808.5000      2.0106   -370.9430     10.4192    103.6708
  1808.7500      2.0137   -370.9250     10.3809    103.2291
  1809.0000      2.0087   -370.7498     10.3730    103.3293
  1809.2500      2.0062   -370.4276     10.3908    104.0229
  1809.5000      2.0173   -369.9812     10.4282    105.5510
  1809.7500      2.0460   -369.4486     10.4808    106.2862
  1810.0000      2.0882   -368.8856     10.5466    105.9628
  1810.2500      2.1353   -368.3619     10.6245    104.7115
  1810.5000      2.1770   -367.9507     10.7116    102.0989
  1810.7500      2.2040   -367.7123     10.8041    100.4347
  1811.0000      2.2111   -367.6751     10.9014     98.5421
  1811.2500      2.2006   -367.8221     11.0088     97.8282
  1811.5000      2.1798   -368.0885     11.1361     97.9582
  1811.7500      2.1549   -368.3743     11.2912     99.0242
  1812.0000      2.1246   -368.5687     11.4698    101.8322
  1812.2500      2.0829   -368.5795     11.6486    103.8562
  1812.5000      2.0294   -368.3559     11.7865    105.1844
  1812.7500      1.9750   -367.8997     11.8378    103.7603
  1813.0000      1.9369   -367.2590     11.7740     97.6604
  1813.2500      1.9297   -366.5110     11.5987     92.1458
  1813.5000      1.9583   -365.7408     11.3451     85.4218
  1813.7500      2.0119   -365.0246     11.0562     83.7738
  1814.0000      2.0633   -364.4212     10.7652     86.2119
  1814.2500      2.0801   -363.9721     10.4857     90.2893
  1814.5000      2.0411   -363.7065     10.2150     98.1473
  1814.7500      1.9459   -363.6466      9.9450    103.5738
  1815.0000      1.8133   -363.8071      9.6719    110.5959
  1815.2500      1.6712   -364.1917      9.4015    113.9312
  1815.5000      1.5463   -364.7866      9.1472    116.4937
  1815.7500      1.4571   -365.5568      8.9235    116.6042
  1816.0000      1.4098   -366.4465      8.7405    114.7951
  1816.2500      1.4020   -367.3865      8.6004    112.9185
  1816.5000      1.4281   -368.3042      8.4991    110.6594
  1816.7500      1.4820   -369.1358      8.4284    110.0081
  1817.0000      1.5561   -369.8347      8.3801    109.6598
  1817.2500      1.6431   -370.3755      8.3469    109.1613
  1817.5000      1.7404   -370.7529      8.3214    107.8146
  1817.7500      1.8465   -370.9769      8.2954    106.9692
  1818.0000      1.9520   -371.0666      8.2588    106.2369
  1818.2500      2.0401   -371.0448      8.2022    105.8324
  1818.5000      2.1002   -370.9340      8.1193    104.8150
  1818.7500      2.1369   -370.7526      8.0091    104.0795
  1819.0000      2.1641   -370.5116      7.8760    103.9012
  1819.2500      2.1939   -370.2135      7.7279    104.7417
  1819.5000      2.2300   -369.8511      7.5735    107.1205
  1819.7500      2.2693   -369.4114      7.4204    109.0208
  1820.0000      2.3053   -368.8833      7.2741    111.7097
  1820.2500      2.3321   -368.2700      7.1395    113.0880
  1820.5000      2.3454   -367.5997      7.0215    114.0159
  1820.7500      2.3443   -366.9321      6.9252    113.6826
  1821.0000      2.3325   -366.3535      6.8550    111.9902
  1821.2500      2.3184   -365.9609      6.8128    110.5699
  1821.5000      2.3130   -365.8366      6.7964    108.8570
  1821.7500      2.3228   -366.0230      6.8012    108.0636
  1822.0000      2.3434   -366.5060      6.8220    106.9607
  1822.2500      2.3584   -367.2156      6.8554    106.2462
  1822.5000      2.3477   -368.0443      6.9012    105.7264
  1822.7500      2.3004   -368.8770      6.9610    105.9155
  1823.0000      2.2222   -369.6228      7.0379    106.6451
  1823.2500      2.1292   -370.2372      7.1341    107.1887
  1823.5000      2.0356   -370.7294      7.2499    108.0898
  1823.7500      1.9489   -371.1524      7.3818    108.7811
  1824.0000      1.8732   -371.5811      7.5217    109.6585
  1824.2500      1.8113   -372.0868      7.6563    109.8132
  1824.5000      1.7624   -372.7140      7.7696    108.8331
  1824.7500      1.7234   -373.4622      7.8464    107.1834
  1825.0000      1.6928   -374.2770      7.8765    103.6263
  1825.2500      1.6721   -375.0486      7.8576    101.3931
  1825.5000      1.6610   -375.6235      7.7956    100.2899
  1825.7500      1.6551   -375.8288      7.7020    101.8983
  1826.0000      1.6501   -375.5099      7.5891    107.6073
  1826.2500      1.6479   -374.5727      7.4661    112.4551
  1826.5000      1.6570   -373.0208      7.3369    118.6309
  1826.7500      1.6878   -370.9727      7.2017    120.9847
  1827.0000      1.7458   -368.6498      7.0611    121.8350
  1827.2500      1.8258   -366.3320      6.9205    121.2427
  1827.5000      1.9104   -364.2950      6.7904    119.6780
  1827.7500      1.9743   -362.7479      6.6841    118.6049
  1828.0000      1.9978   -361.7915      6.6136    117.4565
  1828.2500      1.9772   -361.4083      6.5865    117.0881
  1828.5000      1.9278   -361.4857      6.6043    116.7607
  1828.7500      1.8761   -361.8591      6.6618    116.3442
  1829.0000      1.8465   -362.3578      6.7486    115.1297
  1829.2500      1.8491   -362.8422      6.8507    114.0358
  1829.5000      1.8770   -363.2213      6.9543    112.4172
  1829.7500      1.9174   -363.4539      7.0479    111.5565
  1830.0000      1.9668   -363.5385      7.1238    110.6340
  1830.2500      2.0336   -363.4989      7.1785    110.1880
  1830.5000      2.1246   -363.3691      7.2121    109.7737
  1830.7500      2.2284   -363.1847      7.2277    109.7233
  1831.0000      2.3140   -362.9772      7.2308    109.8813
  1831.2500      2.3467   -362.7715      7.2286    109.9575
  1831.5000      2.3125   -362.5855      7.2298    109.8713
  1831.7500      2.2274   -362.4299      7.2439    109.8262
  1832.0000      2.1216   -362.3103      7.2807    110.2548
  1832.2500      2.0129   -362.2291      7.3496    111.0297
  1832.5000      1.8963   -362.1867      7.4591    112.5480
  1832.7500      1.7629   -362.1844      7.6167    113.1638
  1833.0000      1.6211   -362.2268      7.8279    112.2444
  1833.2500      1.4966   -362.3236      8.0953    110.0403
