~Version Information
VERS.                      2.0: CWLS Log ASCII Standard - VERSION 2.0
WRAP.                       NO: One line per depth step
~Well Information Block
STRT.FT               235.0000: 
STOP.FT              1271.0000: 
STEP.FT                 0.1000: 
NULL.                -999.2500: 
COMP.          Pioneer Natural Resources: COMPANY
WELL.              Julie 11-30: WELL
FLD.           Purgatoire River: FIELD
LOC.           672' FNL & 1052' FWL: LOCATION
CNTY.               Las Animas: COUNTY
SRVC.                Patterson: SERVICE COMPANY
DATE.          Fri Apr 14 07:21:24 2006: LOG DATE
UWI.           05 071 08724 00: UNIQUE WELL ID
STAT.                 Colorado: STATE
~Curve Information Block
DEPT.FT            0 000 00 00: Depth
DCAL.in                       : CDL Caliper
RHOB.g/cc                     : CDL Bulk Density
RHOC.g/cc                     : CDL Density Correction
DPOR.pu                       : CDL Density Porosity
GR.GAPI                       : Gamma Ray
NPOR.pu                       : Neutron Porosity
~Parameter Information Block
~A  Depth       DCAL        RHOB        RHOC        DPOR         GR         NPOR    
# ...
  1118.2000      7.8711      2.4209      0.0920     13.8858     79.1437     20.0504
  1118.3000      7.8727      2.4178      0.0592     14.0725     80.3431     20.0910
  1118.4000      7.8727      2.4094      0.0605     14.5790     76.9159     20.1433
  1118.5000      7.8731      2.3971      0.0660     15.3260     76.6531     20.2748
  1118.6000      7.8731      2.3853      0.0145     16.0433     80.2050     20.5083
  1118.7000      7.8731      2.3788      0.0349     16.4371     83.2297     20.5911
  1118.8000      7.8707      2.3694      0.0345     17.0087     86.1989     20.1017
  1118.9000      7.8707      2.3553     -0.0161     17.8595     88.7501     19.2805
  1119.0000      7.8716      2.3494      0.0068     18.2203     86.3296     18.8104
  1119.1000      7.8716      2.3600      0.0406     17.5762     78.9082     18.8735
  1119.2000      7.8716      2.3874      0.0059     15.9158     71.5767     19.0542
  1119.3000      7.8722      2.4133      0.0610     14.3452     68.8910     19.0503
  1119.4000      7.8722      2.4125      0.0201     14.3923     71.1335     19.1320
  1119.5000      7.8734      2.4050      0.0323     14.8471     74.3795     19.5278
  1119.6000      7.8734      2.4245      0.0463     13.6675     76.5375     20.0183
  1119.7000      7.8734      2.4478      0.1289     12.2518     79.3432     20.3269
  1119.8000      7.8736      2.4379      0.0858     12.8553     84.0179     20.3063
  1119.9000      7.8736      2.4098      0.0506     14.5590     88.5023     20.1090
  1120.0000      7.8722      2.3978      0.0071     15.2828     88.9974     20.0549
  1120.1000      7.8722      2.4082      0.0682     14.6569     84.6673     20.3062
  1120.2000      7.8722      2.4198      0.0611     13.9529     79.3688     20.5886
  1120.3000      7.8718      2.4216      0.0461     13.8424     77.9981     20.5367
  1120.4000      7.8718      2.4269      0.0327     13.5238     81.3152     20.4971
  1120.5000      7.8701      2.4437      0.0775     12.5008     85.4137     20.9457
  1120.6000      7.8701      2.4571      0.0710     11.6881     86.2046     21.4734
  1120.7000      7.8701      2.4579      0.0524     11.6394     84.3657     21.4438
  1120.8000      7.8726      2.4561      0.0206     11.7511     81.7063     20.9274
  1120.9000      7.8726      2.4472      0.0831     12.2915     76.9985     20.4723
  1121.0000      7.8722      2.4190      0.0525     14.0018     72.3483     20.3816
  1121.1000      7.8722      2.3901      0.0099     15.7500     72.7304     20.1248
  1121.2000      7.8722      2.3812      0.0506     16.2882     78.0490     19.4724
  1121.3000      7.8725      2.3837      0.0115     16.1376     83.2887     18.9963
  1121.4000      7.8725      2.3809      0.0416     16.3107     84.6120     18.9831
  1121.5000      7.8706      2.3674     -0.0098     17.1269     83.5592     19.4088
  1121.6000      7.8706      2.3523      0.0150     18.0411     83.8426     19.9510
  1121.7000      7.8706      2.3438      0.0033     18.5596     85.7154     20.0997
  1121.8000      7.8693      2.3466     -0.0012     18.3893     86.4273     19.7728
  1121.9000      7.8693      2.3608      0.0111     17.5290     86.6500     19.2688
  1122.0000      7.8746      2.3786     -0.0058     16.4508     89.4618     18.8487
  1122.1000      7.8746      2.3946      0.0104     15.4810     95.3840     18.7146
  1122.2000      7.8746      2.4135      0.0256     14.3336     99.8400     19.1197
  1122.3000      7.8748      2.4379      0.0205     12.8542     98.6098     19.7765
  1122.4000      7.8748      2.4554      0.0710     11.7923     95.4323     20.1128
  1122.5000      7.8710      2.4568      0.0551     11.7095     92.3959     20.0833
  1122.6000      7.8710      2.4511      0.0351     12.0548     85.8762     19.8156
  1122.7000      7.8710      2.4512      0.0017     12.0468     78.9119     19.5361
  1122.8000      7.8742      2.4524      0.1100     11.9729     77.7659     19.4666
  1122.9000      7.8742      2.4387      0.0431     12.8083     81.2458     19.5235
  1123.0000      7.8733      2.4089      0.0458     14.6095     81.9291     19.5732
  1123.1000      7.8733      2.3832     -0.0328     16.1694     76.7592     19.5343
  1123.2000      7.8733      2.3819     -0.0098     16.2511     70.6180     19.3675
  1123.3000      7.8729      2.3960      0.0066     15.3966     66.4131     19.1906
  1123.4000      7.8729      2.4034      0.0593     14.9449     64.5418     19.2497
  1123.5000      7.8737      2.4001      0.0421     15.1442     68.6637     19.3857
  1123.6000      7.8737      2.3990      0.0067     15.2102     77.0054     19.3049
  1123.7000      7.8737      2.4048      0.0117     14.8576     81.2528     19.3077
  1123.8000      7.8729      2.4060      0.0261     14.7902     81.0767     19.5217
  1123.9000      7.8729      2.3990      0.0062     15.2116     83.0351     19.4680
  1124.0000      7.8725      2.3929      0.0018     15.5790     87.0566     19.2241
  1124.1000      7.8725      2.3912      0.0716     15.6858     88.1090     19.1466
  1124.2000      7.8725      2.3955      0.0113     15.4237     86.0774     18.9719
  1124.3000      7.8731      2.4081      0.0389     14.6582     83.6662     18.6987
  1124.4000      7.8731      2.4211      0.0442     13.8736     79.2371     18.6860
  1124.5000      7.8737      2.4266      0.0356     13.5370     72.5766     18.7758
  1124.6000      7.8737      2.4207      0.1027     13.8994     68.1211     18.7028
  1124.7000      7.8737      2.4050      0.0571     14.8496     66.2153     18.6880
  1124.8000      7.8774      2.3878      0.0553     15.8928     63.5822     18.9036
  1124.9000      7.8774      2.3771      0.0104     16.5403     59.8923     18.9887
  1125.0000      7.8729      2.3877     -0.0041     15.8950     56.8465     18.7447
  1125.1000      7.8729      2.4169      0.0630     14.1296     56.2190     18.6127
  1125.2000      7.8729      2.4404      0.0767     12.7007     59.9936     18.5636
  1125.3000      7.8708      2.4559      0.0359     11.7636     65.7542     18.0938
  1125.4000      7.8708      2.4721      0.0773     10.7838     68.2598     17.5386
  1125.5000      7.8728      2.4784      0.0647     10.3982     67.2612     17.5042
  1125.6000      7.8728      2.4622      0.1132     11.3845     66.4205     17.8783
  1125.7000      7.8728      2.4334      0.0380     13.1274     68.2570     18.1981
  1125.8000      7.8881      2.4162      0.0511     14.1724     73.2173     18.3478
  1125.9000      7.8881      2.4122      0.0732     14.4113     79.9459     18.4953
  1126.0000      7.8783      2.4066      0.0749     14.7534     85.9016     18.6096
  1126.1000      7.8783      2.3933      0.0330     15.5593     87.6524     18.6259
  1126.2000      7.8783      2.3797     -0.0152     16.3818     84.5025     18.6760
  1126.3000      7.8713      2.3715     -0.0109     16.8805     81.4429     18.7481
  1126.4000      7.8713      2.3630      0.0075     17.3931     81.4097     18.7787
  1126.5000      7.8732      2.3558      0.0073     17.8287     81.8771     19.0092
  1126.6000      7.8732      2.3588      0.0359     17.6477     80.9423     19.5571
  1126.7000      7.8732      2.3722      0.0076     16.8365     79.9810     20.0851
  1126.8000      7.8757      2.3939     -0.0089     15.5240     81.9510     20.2128
  1126.9000      7.8757      2.4221      0.0664     13.8106     85.6400     20.0866
  1127.0000      7.8714      2.4433      0.0625     12.5272     87.5499     20.0616
  1127.1000      7.8714      2.4378      0.0496     12.8576     86.9863     19.9142
  1127.2000      7.8714      2.4078      0.0024     14.6784     83.8974     19.4573
  1127.3000      7.8763      2.3784     -0.0228     16.4619     79.7506     19.0938
  1127.4000      7.8763      2.3692     -0.0117     17.0208     77.5664     19.0501
  1127.5000      7.8738      2.3775      0.0145     16.5135     79.0843     19.1246
  1127.6000      7.8738      2.3913      0.0598     15.6769     83.7301     19.2293
  1127.7000      7.8738      2.4013      0.0445     15.0707     87.6934     19.3388
