~Version Information
VERS.                      2.0: CWLS Log ASCII Standard - VERSION 2.0
WRAP.                       NO: One line per depth step
~Well Information Block
STRT.FT                -9.5000: 
STOP.FT              1401.5000: 
STEP.FT                 0.2500: 
NULL.                -999.2500: 
COMP.          Pioneer Natural Resources: COMPANY
WELL.             John K 12-28: WELL
FLD.           Purgatorie River: FIELD
LOC.           1476' FNL & 465' FWL--: LOCATION
CNTY.               Las Animas: COUNTY
SRVC.          Patterson Wireline: SERVICE COMPANY
DATE.          Fri Apr 28 08:36:46 2006: LOG DATE
UWI.           05 071 08723 00: UNIQUE WELL ID
STAT.                       CO: STATE
~Curve Information Block
DEPT.FT            0 000 00 00: Depth
CCL.                          : Casing Collar Locator
TT3.usec                      : CBL 3' Travel Time
AMP3.mV                       : CBL 3' Amplitude
GR.GAPI                       : Gamma Ray
~Parameter Information Block
~A  Depth       CCL         TT3         AMP3         GR     
# ...
   359.0000      0.0000    356.5342     12.5653     75.4605
   359.2500      0.0000    350.4992     12.5115     73.9136
   359.5000      0.0000    350.6725     12.3341     75.5675
   359.7500      0.0000    354.3819     11.9751     78.9900
   360.0000      0.0000    359.6852     11.4449     82.4249
   360.2500      0.0000    364.0368     10.8718     85.4475
   360.5000      0.0000    365.1402     10.4496     88.5734
   360.7500      0.0000    362.6899     10.3018     91.6468
   361.0000      0.0000    358.5213     10.3950     93.3537
   361.2500      0.0000    354.8739     10.5873     92.4938
   361.5000      2.0000    352.9247     10.7507     89.4139
   361.7500      0.0000    352.9787     10.8444     85.7796
   362.0000     -2.0000    355.5349     10.9081     83.0992
   362.2500      0.0000    361.5239     11.0284     81.8873
   362.5000      0.0000    370.8375     11.3047     81.9878
   362.7500      0.0000    380.4311     11.7814     82.9610
   363.0000      0.0000    385.0502     12.3746     84.1051
   363.2500      0.0000    381.3663     12.8992     84.6711
   363.5000      0.0000    371.2431     13.2078     84.3229
   363.7500      0.0000    359.9879     13.2917     83.4197
   364.0000      0.0000    351.7935     13.2449     83.0407
   364.2500      0.0000    347.5144     13.1669     84.6009
   364.5000      0.0000    345.8718     13.1079     88.6979
   364.7500      0.0000    345.4156     13.0729     93.9761
   365.0000      0.0000    345.3274     13.0511     97.7369
   365.2500      0.0000    345.2842     13.0385     98.1941
   365.5000      0.0000    345.1878     13.0415     95.9255
   365.7500      0.0000    345.0319     13.0629     93.0438
   366.0000      0.0000    344.8590     13.0907     91.3686
   366.2500      0.0000    344.7144     13.1010     91.2956
   366.5000      0.0000    344.6254     13.0718     91.8516
   366.7500      0.0000    344.6096     12.9960     91.7647
   367.0000      0.0000    344.6836     12.8855     90.5936
   367.2500      0.0000    344.8530     12.7622     88.6562
   367.5000      0.0000    345.0906     12.6443     86.0755
   367.7500      0.0000    345.3241     12.5414     82.4663
   368.0000      0.0000    345.4546     12.4621     77.5580
   368.2500      0.0000    345.4065     12.4203     71.7596
   368.5000      0.0000    345.1736     12.4253     66.0781
   368.7500      0.0000    344.8269     12.4665     61.5395
   369.0000      0.0000    344.4759     12.5170     58.4772
   369.2500      0.0000    344.2051     12.5543     56.3025
   369.5000      0.0000    344.0313     12.5751     54.2059
   369.7500      0.0000    343.9141     12.5895     52.1701
   370.0000      0.0000    343.8051     12.6072     51.0431
   370.2500      0.0000    343.6855     12.6291     51.4350
   370.5000      0.0000    343.5656     12.6510     52.7966
   370.7500      0.0000    343.4988     12.6700     53.8196
   371.0000      0.0000    343.6499     12.6862     53.5720
   371.2500      0.0000    344.6584     12.6935     52.0670
   371.5000      0.0000    348.3129     12.6695     49.9129
   371.7500      0.0000    358.3275     12.5817     47.7146
   372.0000      0.0000    379.8268     12.4102     45.8498
   372.2500      0.0000    416.3792     12.1670     44.6826
   372.5000      0.0000    466.5063     11.8950     44.7072
   372.7500      0.0000    523.8978     11.6470     46.0738
   373.0000      0.0000    581.1871     11.4617     47.8820
   373.2500      0.0000    632.2234     11.3484     48.4932
   373.5000      0.0000    671.8764     11.2867     47.1049
   373.7500      0.0000    697.3365     11.2420     44.8815
   374.0000      0.0000    710.3740     11.1893     44.0115
   374.2500      0.0000    716.3090     11.1269     45.5562
   374.5000      0.0000    720.1794     11.0685     48.4752
   374.7500      0.0000    724.1875     11.0245     50.8408
   375.0000      0.0000    727.9879     10.9940     51.7833
   375.2500      0.0000    730.3629     10.9704     51.9581
   375.5000      0.0000    730.5715     10.9484     52.2900
   375.7500      0.0000    728.9618     10.9264     52.8023
   376.0000      0.0000    726.8809     10.9047     52.7670
   376.2500      0.0000    725.9325     10.8812     51.4965
   376.5000      0.0000    726.7083     10.8488     48.7173
   376.7500      0.0000    728.1194     10.8026     44.6265
   377.0000      0.0000    728.1959     10.7501     40.1357
   377.2500      0.0000    725.7703     10.7119     36.8266
   377.5000      0.0000    721.6558     10.7057     35.9115
   377.7500      0.0000    718.3239     10.7322     37.1619
   378.0000      0.0000    718.0572     10.7746     39.4022
   378.2500      0.0000    721.0835     10.8126     41.9002
   378.5000      0.0000    725.6050     10.8345     44.5688
   378.7500      0.0000    729.5594     10.8380     47.0890
   379.0000      0.0000    732.0563     10.8217     48.8746
   379.2500      0.0000    733.3318     10.7796     50.0106
   379.5000      0.0000    733.9669     10.7040     51.3357
   379.7500      0.0000    734.3693     10.5902     53.3278
   380.0000      0.0000    734.7003     10.4378     55.5378
   380.2500      0.0000    734.9787     10.2492     57.2748
   380.5000      0.0000    735.1954     10.0331     58.2357
   380.7500      0.0000    735.3859      9.8087     58.2491
   381.0000      0.0000    735.6140      9.6053     56.9367
   381.2500      0.0000    735.8835      9.4570     54.1252
   381.5000      0.0000    736.0917      9.3878     50.5825
   381.7500      0.0000    736.0787      9.3965     47.9378
   382.0000      0.0000    735.6765      9.4566     47.6225
   382.2500      0.0000    734.6468      9.5368     50.0344
   382.5000      0.0000    732.7054      9.6223     54.8033
   382.7500      0.0000    729.9131      9.7149     61.2310
   383.0000      0.0000    727.1259      9.8153     67.9610
   383.2500      0.0000    725.7056      9.9147     72.7822
   383.5000      0.0000    726.4772     10.0029     73.7692
   383.7500      0.0000    729.1636     10.0780     70.9923
   384.0000      0.0000    732.9643     10.1406     66.8844
   384.2500      0.0000    737.1773     10.1838     64.6957
   384.5000      0.0000    740.8914     10.1941     66.3560
   384.7500      0.0000    742.7483     10.1620     71.4996
   385.0000      0.0000    742.1302     10.0887     78.3127
   385.2500      0.0000    740.5845      9.9865     85.3418
   385.5000      0.0000    740.8494      9.8738     92.2950
   385.7500      0.0000    744.1475      9.7692     98.8523
   386.0000      0.0000    749.8115      9.6853    103.5063
   386.2500      0.0000    758.7104      9.6255    104.8111
   386.5000      0.0000    775.4628      9.5855    103.4351
   386.7500      0.0000    804.7681      9.5555    101.6170
   387.0000      0.0000    845.4658      9.5230    100.6264
   387.2500      0.0000    889.3869      9.4754     99.6729
   387.5000      0.0000    925.6456      9.4051     97.2406
   387.7500      0.0000    945.1565      9.3130     92.7828
   388.0000      0.0000    943.3815      9.2085     87.1191
   388.2500      0.0000    922.0783      9.1025     81.6331
   388.5000      0.0000    888.6453      9.0005     77.2689
   388.7500      0.0000    853.2054      8.9045     74.1905
   389.0000      0.0000    825.3266      8.8204     72.2000
   389.2500      0.0000    809.8992      8.7592     71.3975
   389.5000      0.0000    803.7032      8.7281     72.4714
   389.7500      0.0000    798.3068      8.7220     76.1561
   390.0000      0.0000    788.8412      8.7243     82.0577
   390.2500      0.0000    779.2661      8.7176     88.2106
   390.5000      0.0000    778.2087      8.6947     92.4276
   390.7500      0.0000    790.7275      8.6632     94.2824
   391.0000      0.0000    813.4752      8.6415     95.2664
   391.2500      0.0000    835.5927      8.6482     96.8179
   391.5000      0.0000    844.9187      8.6924     98.6560
   391.7500      0.0000    836.0203      8.7696     99.1477
   392.0000      0.0000    813.4867      8.8643     96.9777
   392.2500      0.0000    787.6296      8.9571     92.3208
