~Version Information
VERS.                      2.0: CWLS Log ASCII Standard - VERSION 2.0
WRAP.                       NO: One line per depth step
~Well Information Block
STRT.FT               440.0000: 
STOP.FT              1300.5000: 
STEP.FT                 0.1000: 
NULL.                -999.2500: 
COMP.          Pioneer Natural Resources: COMPANY
WELL.              Yoshi 14-30: WELL
FLD.           Purgatoire River: FIELD
LOC.           993' FSL & 823' FWL: LOCATION
CNTY.               Las Animas: COUNTY
SRVC.                Patterson: SERVICE COMPANY
DATE.          Fri Feb 17 14:59:28 2006: LOG DATE
UWI.           05 071 08699 00: UNIQUE WELL ID
STAT.                 Colorado: STATE
~Curve Information Block
DEPT.FT            0 000 00 00: Depth
DCAL.in                       : CDL Caliper
RHOB.g/cc                     : CDL Bulk Density
RHOC.g/cc                     : CDL Density Correction
DPOR.pu                       : CDL Density Porosity
GR.GAPI                       : Gamma Ray
NPOR.pu                       : Neutron Porosity
~Parameter Information Block
~A  Depth       DCAL        RHOB        RHOC        DPOR         GR         NPOR    
# ...
   555.2000      8.0230      2.4890      0.0585      9.7571     90.6449     21.9848
   555.3000      8.0237      2.4852      0.0389      9.9855     88.7803     22.5420
   555.4000      8.0237      2.4963      0.0560      9.3176     89.9479     23.1363
   555.5000      8.0250      2.5058      0.0632      8.7406     93.8231     23.0307
   555.6000      8.0250      2.5027      0.0400      8.9279     97.8661     22.3687
   555.7000      8.0250      2.4933      0.0490      9.4988     96.4668     21.6642
   555.8000      8.0255      2.4853      0.0421      9.9827     90.0591     21.0975
   555.9000      8.0255      2.4772      0.0533     10.4750     86.3469     20.6808
   556.0000      8.0251      2.4621      0.0601     11.3903     89.5420     20.4065
   556.1000      8.0251      2.4440      0.0067     12.4853     98.2207     20.3585
   556.2000      8.0251      2.4440     -0.0117     12.4852    106.5930     20.6538
   556.3000      8.0249      2.4659      0.0444     11.1597    106.1679     21.0534
   556.4000      8.0249      2.4858      0.0209      9.9485     96.7726     21.2538
   556.5000      8.0254      2.4903      0.0362      9.6804     88.0835     21.3571
   556.6000      8.0254      2.4837      0.0431     10.0794     83.8957     21.3422
   556.7000      8.0254      2.4744      0.0234     10.6449     85.2214     21.0460
   556.8000      8.0256      2.4662      0.0477     11.1382     90.9230     20.7630
   556.9000      8.0256      2.4600     -0.0285     11.5138     96.3644     20.6270
   557.0000      8.0261      2.4563      0.0089     11.7364     99.1352     20.5991
   557.1000      8.0261      2.4532     -0.0260     11.9264     96.2054     20.8002
   557.2000      8.0261      2.4517      0.0226     12.0184     88.4145     21.0446
   557.3000      8.0288      2.4543      0.0243     11.8623     82.5618     21.0294
   557.4000      8.0288      2.4619      0.0220     11.4001     82.7839     20.6631
   557.5000      8.0309      2.4693      0.0413     10.9541     87.3027     20.4459
   557.6000      8.0309      2.4687      0.0188     10.9861     89.4458     21.0110
   557.7000      8.0309      2.4624      0.0017     11.3689     86.4960     21.9770
   557.8000      8.0280      2.4563     -0.0147     11.7368     85.1154     22.1221
   557.9000      8.0280      2.4534      0.0006     11.9145     86.4359     21.5142
   558.0000      8.0246      2.4604     -0.0284     11.4914     84.0142     21.4088
   558.1000      8.0246      2.4786     -0.0077     10.3909     80.2811     22.0986
   558.2000      8.0246      2.4903      0.0239      9.6758     82.9838     23.0052
   558.3000      8.0234      2.4850      0.0225     10.0030     90.7121     23.4575
   558.4000      8.0234      2.4765      0.0182     10.5147     97.1001     23.3084
   558.5000      8.0226      2.4824     -0.0049     10.1559    101.7027     23.2157
   558.6000      8.0226      2.4999      0.0304      9.0979    106.0712     23.5105
   558.7000      8.0226      2.5106      0.0456      8.4458    110.1363     23.7017
   558.8000      8.0218      2.5105      0.0053      8.4570    113.1918     23.6181
   558.9000      8.0218      2.5104     -0.0002      8.4588    111.1680     23.7017
   559.0000      8.0213      2.5122      0.0121      8.3488    103.0408     23.9723
   559.1000      8.0213      2.5129     -0.0155      8.3105     95.1537     23.8131
   559.2000      8.0213      2.5143      0.0149      8.2258     92.3993     23.1057
   559.3000      8.0208      2.5163     -0.0109      8.1019     93.2024     22.3673
   559.4000      8.0208      2.5206     -0.0244      7.8421     92.3395     21.8989
   559.5000      8.0199      2.5231      0.0124      7.6921     88.1868     21.5231
   559.6000      8.0199      2.5163     -0.0188      8.1053     83.8907     21.1693
   559.7000      8.0199      2.5073     -0.0007      8.6462     78.6468     21.0873
   559.8000      8.0193      2.5037      0.0338      8.8649     70.4622     21.3246
   559.9000      8.0193      2.5046      0.0295      8.8141     64.7260     21.6123
   560.0000      8.0189      2.5141     -0.0038      8.2391     67.0255     21.7093
   560.1000      8.0189      2.5338      0.0828      7.0429     73.0250     21.8697
   560.2000      8.0189      2.5541      0.0667      5.8103     76.5391     22.3623
   560.3000      8.0178      2.5638      0.1253      5.2264     76.6570     22.8368
   560.4000      8.0178      2.5620      0.0882      5.3363     73.2973     23.1645
   560.5000      8.0168      2.5687      0.0735      4.9285     69.2508     23.8963
   560.6000      8.0168      2.5904      0.1417      3.6105     71.4494     25.2570
   560.7000      8.0168      2.6082      0.1209      2.5315     81.0564     26.6680
   560.8000      8.0155      2.6188      0.0900      1.8921     89.7438     27.6349
   560.9000      8.0155      2.6341      0.0723      0.9649     91.3605     28.5798
   561.0000      8.0134      2.6540      0.0847     -0.2433     89.1413     29.5125
   561.1000      8.0134      2.6705      0.0892     -1.2454     89.2928     29.6920
   561.2000      8.0134      2.6840      0.1168     -2.0593     92.1672     29.2156
   561.3000      8.0108      2.7061      0.0653     -3.4012     91.9223     28.7882
   561.4000      8.0108      2.7483      0.0795     -5.9556     88.7972     28.4669
   561.5000      8.0062      2.7993      0.1576     -9.0481     87.7563     27.8420
   561.6000      8.0062      2.8324      0.1286    -11.0554     86.7874     26.7472
   561.7000      8.0062      2.8312      0.1534    -10.9807     83.4671     25.5006
   561.8000      8.0009      2.8015      0.1033     -9.1831     82.9244     24.4066
   561.9000      8.0009      2.7607      0.0411     -6.7082     86.3970     23.7221
   562.0000      8.0018      2.7121      0.0358     -3.7666     90.1749     23.5969
   562.1000      8.0018      2.6579     -0.0157     -0.4818     95.0608     23.8419
   562.2000      8.0018      2.6196     -0.0102      1.8424    102.7388     24.1893
   562.3000      8.0137      2.6003      0.0238      3.0128    112.1422     24.5898
   562.4000      8.0137      2.5744      0.0141      4.5807    121.8495     24.7576
   562.5000      8.0346      2.5385     -0.0307      6.7581    132.6501     24.5212
   562.6000      8.0346      2.5149      0.0018      8.1902    145.8548     24.4259
   562.7000      8.0346      2.5084      0.0010      8.5798    159.7086     24.7388
   562.8000      8.0465      2.5048      0.0189      8.8029    166.5162     24.7781
   562.9000      8.0465      2.4979      0.0175      9.2153    160.8577     24.2514
   563.0000      8.0482      2.4970      0.0174      9.2716    146.2319     23.9164
   563.1000      8.0482      2.5031      0.0192      8.9004    132.6377     23.9861
   563.2000      8.0482      2.5024      0.0084      8.9427    130.3649     23.8389
   563.3000      8.0478      2.4902     -0.0390      9.6845    138.9313     23.1875
   563.4000      8.0478      2.4743     -0.0268     10.6462    146.7693     22.6305
   563.5000      8.0473      2.4588     -0.0503     11.5871    145.8569     22.8369
   563.6000      8.0473      2.4482     -0.0283     12.2297    139.7468     23.2254
   563.7000      8.0473      2.4473     -0.0511     12.2875    136.7134     22.8456
   563.8000      8.0472      2.4528     -0.0270     11.9528    140.3916     22.0131
   563.9000      8.0472      2.4530      0.0040     11.9387    148.9975     21.6565
   564.0000      8.0469      2.4457     -0.0159     12.3813    156.5393     22.3230
   564.1000      8.0469      2.4463     -0.0210     12.3457    158.5391     23.7577
   564.2000      8.0469      2.4571      0.0336     11.6884    156.0761     24.9978
   564.3000      8.0465      2.4597      0.0242     11.5308    154.0654     25.5098
   564.4000      8.0465      2.4463      0.0004     12.3461    159.5771     25.8759
   564.5000      8.0466      2.4257      0.0175     13.5939    170.7054     26.3281
   564.6000      8.0466      2.4110     -0.0254     14.4852    178.1402     26.4963
   564.7000      8.0466      2.4142      0.0012     14.2899    178.7308     26.6688
