~Version Information
VERS.                      2.0: CWLS Log ASCII Standard - VERSION 2.0
WRAP.                       NO: One line per depth step
~Well Information Block
STRT.FT               350.0000: 
STOP.FT              2803.2000: 
STEP.FT                 0.1000: 
NULL.                -999.2500: 
COMP.          Pioneer Natural Resources: COMPANY
WELL.          Grey Goose 33-30: WELL
FLD.           Purgatoire River: FIELD
LOC.           2136' FSL & 2065' FEL--: LOCATION
STAT.                 Colorado: State
CNTY.               Las Animas: COUNTY
CTRY. USA : Country
SECT. 30 : Section
TOWN. 32S : Township
RANG. 67W : Range
SRVC.                Patterson: SERVICE COMPANY
DATE.          Fri Nov 04 09:27:53 2005: LOG DATE
API.           05 071 08546 00: UNIQUE WELL ID
~Curve Information Block
DEPT.FT            0 000 00 00: Depth
DCAL.in                       : CDL Caliper
DPOR.pu                       : CDL Density Porosity
NPOR.pu                       : Neutron Porosity
RHOB.g/cc                     : CDL Bulk Density
RHOC.g/cc                     : CDL Density Correction
GR.GAPI                       : Gamma Ray
~Parameter Information Block
~A  Depth       DCAL        DPOR        NPOR        RHOB        RHOC         GR     
# ...
  2145.2000      8.0860      1.5692     24.0357      2.6241      0.0399     87.2294
  2145.3000      8.0874      4.0107     23.8382      2.5838      0.0004     84.8697
  2145.4000      8.0874      4.7380     23.3777      2.5718     -0.0094     81.2875
  2145.5000      8.0878      4.7792     22.7091      2.5711      0.0209     76.1661
  2145.6000      8.0878      5.0861     21.8128      2.5661      0.0027     71.1213
  2145.7000      8.0878      5.3156     21.1021      2.5623      0.0013     66.2337
  2145.8000      8.0887      5.1601     20.7171      2.5649      0.0276     62.4180
  2145.9000      8.0887      4.8048     20.2868      2.5707      0.0246     61.1570
  2146.0000      8.0907      4.5290     19.9500      2.5753      0.0409     59.2713
  2146.1000      8.0907      4.6525     19.9271      2.5732      0.0366     55.4812
  2146.2000      8.0907      4.8344     20.0949      2.5702      0.0132     52.8804
  2146.3000      8.0903      4.5893     20.3549      2.5743      0.0115     53.6985
  2146.4000      8.0903      4.7428     20.4306      2.5717      0.0426     56.2177
  2146.5000      8.0878      5.9614     20.0089      2.5516     -0.0069     57.4472
  2146.6000      8.0878      7.3895     19.2829      2.5281      0.0176     56.4851
  2146.7000      8.0878      7.8469     18.9133      2.5205      0.0048     55.1672
  2146.8000      8.0858      6.7792     19.1943      2.5381      0.0246     56.2189
  2146.9000      8.0858      5.1034     19.5219      2.5658      0.0408     58.1795
  2147.0000      8.0847      4.6848     19.3933      2.5727      0.0708     57.7211
  2147.1000      8.0847      5.6689     19.1311      2.5565     -0.0060     54.4490
  2147.2000      8.0847      6.6171     18.9398      2.5408      0.0124     50.2108
  2147.3000      8.0862      7.5159     18.8602      2.5260      0.0202     47.7472
  2147.4000      8.0862      8.6246     19.2217      2.5077     -0.0165     48.7996
  2147.5000      8.0894      8.6311     20.1743      2.5076      0.0034     52.0709
  2147.6000      8.0894      6.9746     21.1716      2.5349      0.0499     55.0435
  2147.7000      8.0894      4.9080     21.3367      2.5690      0.0395     56.4086
  2147.8000      8.0908      3.8595     20.4858      2.5863      0.0632     56.3697
  2147.9000      8.0908      4.3547     19.4008      2.5781      0.0662     56.2710
  2148.0000      8.0898      5.7207     19.0213      2.5556      0.0220     57.3279
  2148.1000      8.0898      6.7395     19.4560      2.5388      0.0228     59.7883
  2148.2000      8.0898      7.2145     20.2179      2.5310      0.0369     63.3459
  2148.3000      8.0893      7.4151     20.8795      2.5277      0.0121     65.5193
  2148.4000      8.0893      6.9295     21.0277      2.5357      0.0371     65.6285
  2148.5000      8.0882      5.8799     20.5429      2.5530      0.0596     67.8663
  2148.6000      8.0882      5.1829     20.0775      2.5645      0.0454     72.0096
  2148.7000      8.0882      5.1644     20.2313      2.5648      0.0373     76.2286
  2148.8000      8.0857      5.4458     20.9912      2.5601      0.0317     82.6462
  2148.9000      8.0857      5.9003     22.0644      2.5526      0.0574     86.5064
  2149.0000      8.0875      7.0718     22.9267      2.5333      0.0567     80.7159
  2149.1000      8.0875      9.9864     23.2610      2.4852      0.0720     72.8697
  2149.2000      8.0875     15.1926     23.8318      2.3993      0.0328     72.8497
  2149.3000      8.0965     21.3695     25.5019      2.2974     -0.0583     77.5253
  2149.4000      8.0965     26.2010     27.5903      2.2177     -0.0800     79.9531
  2149.5000      8.1085     29.1571     28.8548      2.1689     -0.0524     78.9541
  2149.6000      8.1085     31.8303     29.1789      2.1248     -0.0294     78.6222
  2149.7000      8.1085     34.8349     29.2370      2.0752     -0.1202     82.7612
  2149.8000      8.1182     36.2965     29.5911      2.0511     -0.1096     90.8240
  2149.9000      8.1182     34.4128     30.1163      2.0822     -0.0104     99.0216
  2150.0000      8.1314     29.6868     30.3773      2.1602      0.0865    104.4237
  2150.1000      8.1314     24.5531     30.5227      2.2449      0.1973    107.7055
  2150.2000      8.1314     21.3330     30.9176      2.2980      0.2316    112.0504
  2150.3000      8.1558     19.8311     31.3289      2.3228      0.1792    116.1907
  2150.4000      8.1558     18.6861     31.4120      2.3417      0.2031    118.6462
  2150.5000      8.1800     18.3574     31.4190      2.3471      0.1652    121.0929
  2150.6000      8.1800     19.2936     31.5766      2.3317      0.0658    122.2844
  2150.7000      8.1800     20.0787     31.7023      2.3187      0.0245    120.7500
  2150.8000      8.1924     19.6294     31.4984      2.3261      0.0606    119.3988
  2150.9000      8.1924     18.1350     30.7661      2.3508      0.0688    123.5024
  2151.0000      8.1953     16.0667     29.8141      2.3849      0.0961    132.2831
  2151.1000      8.1953     14.1835     29.0014      2.4160      0.1371    140.1232
  2151.2000      8.1953     13.2290     28.4865      2.4317      0.1487    144.3029
  2151.3000      8.1965     12.8831     28.4208      2.4374      0.1293    141.4668
  2151.4000      8.1965     12.3561     28.4691      2.4461      0.1261    134.9812
  2151.5000      8.1997     11.2921     28.1804      2.4637      0.1188    135.7977
  2151.6000      8.1997      9.7000     27.9176      2.4899      0.1649    142.5039
  2151.7000      8.1997      8.1851     28.2182      2.5149      0.1808    142.3233
  2151.8000      8.2038      7.3332     28.7479      2.5290      0.1079    131.7995
  2151.9000      8.2038      7.0481     28.8065      2.5337      0.1384    120.1482
  2152.0000      8.2052      7.0904     28.3042      2.5330      0.1008    114.0003
  2152.1000      8.2052      7.4291     27.8572      2.5274      0.0750    110.1448
  2152.2000      8.2052      8.0461     27.6647      2.5172      0.0909    106.2682
  2152.3000      8.2054      8.7159     27.6605      2.5062      0.0889    107.3918
  2152.4000      8.2054      9.4420     28.0753      2.4942      0.1078    115.7975
  2152.5000      8.2112     10.8754     28.7022      2.4706      0.0437    126.3014
  2152.6000      8.2112     13.3328     29.1176      2.4300      0.0256    133.3602
  2152.7000      8.2112     15.5492     29.2899      2.3934     -0.0507    137.3458
  2152.8000      8.2221     15.9962     29.5441      2.3861      0.0018    140.9074
  2152.9000      8.2221     15.2759     30.1334      2.3979      0.0299    142.8136
  2153.0000      8.2446     14.6849     30.6371      2.4077      0.0586    137.7297
  2153.1000      8.2446     14.0462     30.7092      2.4182      0.0131    126.2230
  2153.2000      8.2446     12.6713     30.8455      2.4409      0.1026    118.8455
  2153.3000      8.3072     10.8744     31.3179      2.4706      0.1574    121.7462
  2153.4000      8.3072      9.5128     31.9554      2.4930      0.1684    126.9370
  2153.5000      8.3854      9.1254     32.7226      2.4994      0.1725    127.8336
  2153.6000      8.3854      9.9220     33.3414      2.4863      0.1679    126.1003
  2153.7000      8.3854     11.9381     33.5481      2.4530      0.1763    123.7663
  2153.8000      8.3893     14.7623     33.4411      2.4064      0.1202    121.9208
  2153.9000      8.3893     17.7527     33.2029      2.3571      0.1117    120.9627
  2154.0000      8.3370     20.4911     32.9444      2.3119      0.0741    121.0798
  2154.1000      8.3370     22.4275     32.6157      2.2799      0.0250    123.3168
  2154.2000      8.3370     23.2524     32.2748      2.2663      0.0117    126.0808
  2154.3000      8.3420     23.0506     32.2796      2.2697     -0.0241    127.5819
  2154.4000      8.3420     21.4842     32.7266      2.2955     -0.0183    127.6842
  2154.5000      8.4772     18.4549     33.2368      2.3455      0.0863    124.4300
  2154.6000      8.4772     14.9457     33.6081      2.4034      0.1768    117.3243
  2154.7000      8.4772     12.0510     33.8276      2.4512      0.2440    111.4950
