~Version Information
VERS.                      2.0: CWLS Log ASCII Standard - VERSION 2.0
WRAP.                       NO: One line per depth step
~Well Information Block
STRT.FT                -8.2500: 
STOP.FT              1118.7500: 
STEP.FT                 0.2500: 
NULL.                -999.2500: 
COMP.          Pioneer Natural Resources: COMPANY
WELL.             Croc 42-9 Tr: WELL
FLD.           Purgatorie River: FIELD
LOC.           --2429' FNL & 315' FEL------: LOCATION
STAT.                       CO: State
CNTY.               Las Animas: COUNTY
CTRY. USA : Country
SECT. 9 : Section
TOWN. 32S : Township
RANG. 66W : Range
SRVC.          Patterson Wireline: SERVICE COMPANY
DATE.          Tue Oct 18 14:14:43 2005: LOG DATE
API.           05 071 08550 00: UNIQUE WELL ID
~Curve Information Block
DEPT.FT            0 000 00 00: Depth
CCL.                          : Casing Collar Locator
TT3.usec                      : CBL 3' Travel Time
AMP3.mV                       : CBL 3' Amplitude
GR.GAPI                       : Gamma Ray
~Parameter Information Block
~A  Depth       CCL         TT3         AMP3         GR     
# ...
   226.2500      0.0000    749.1471     12.9187     85.6294
   226.5000      0.0000    749.2163     12.8929     88.5139
   226.7500      0.0000    749.3044     12.8520     91.6789
   227.0000      0.0000    749.4016     12.8095     94.0976
   227.2500      0.0000    749.5043     12.7770     94.6380
   227.5000      0.0000    749.6213     12.7628     92.7427
   227.7500      0.0000    749.7659     12.7704     88.8062
   228.0000      0.0000    749.9395     12.7953     84.1486
   228.2500      0.0000    750.1183     12.8238     80.4392
   228.5000      0.0000    750.2557     12.8376     78.8699
   228.7500      0.0000    750.3015     12.8241     79.8569
   229.0000      0.0000    750.2220     12.7845     83.3306
   229.2500      0.0000    749.9465     12.7298     88.7730
   229.5000      0.0000    749.1751     12.6646     94.8477
   229.7500      0.0000    747.1160     12.5691     99.6173
   230.0000      0.0000    742.7661     12.3976    101.6644
   230.2500      0.0000    736.6105     12.1052    101.0438
   230.5000      0.0000    733.3561     11.6821     99.0453
   230.7500      0.0000    741.9042     11.1704     96.9917
   231.0000      0.0000    768.5970     10.6595     95.2278
   231.2500      0.0000    808.2264     10.2632     93.2756
   231.5000      0.0000    845.5161     10.0650     90.8566
   231.7500      0.0000    869.5268     10.0647     88.5532
   232.0000      0.0000    883.2990     10.1870     87.4954
   232.2500      0.0000    895.0679     10.3490     88.4842
   232.5000     -2.0000    904.3871     10.5094     91.1738
   232.7500      0.0000    902.8377     10.6745     94.0176
   233.0000      0.0000    884.7313     10.8849     95.2886
   233.2500      0.0000    851.1574     11.1905     94.3569
   233.5000      0.0000    805.8475     11.6137     91.9731
   233.7500      0.0000    752.9443     12.1462     89.4164
   234.0000      0.0000    699.8489     12.7960     87.5312
   234.2500      0.0000    659.0276     13.5750     86.4521
   234.5000      0.0000    642.8609     14.4028     85.8625
   234.7500      0.0000    654.0244     15.0989     85.2994
   235.0000      0.0000    681.9945     15.5219     84.3706
   235.2500      0.0000    711.0448     15.6734     82.9800
   235.5000      0.0000    731.2377     15.6451     81.2505
   235.7500      0.0000    741.5733     15.5158     79.0312
   236.0000      0.0000    745.6628     15.3192     75.7762
   236.2500      0.0000    747.0288     15.0739     71.4109
   236.5000      0.0000    747.5352     14.8083     67.2329
   236.7500      0.0000    747.8516     14.5510     65.5137
   237.0000      0.0000    748.1731     14.3101     67.9387
   237.2500      0.0000    748.6790     14.0716     74.2734
   237.5000      0.0000    749.6932     13.8191     82.2603
   237.7500      0.0000    751.5854     13.5474     88.8316
   238.0000      0.0000    754.3198     13.2639     91.9072
   238.2500      0.0000    757.0297     12.9825     91.5157
   238.5000      0.0000    758.4027     12.7204     89.4385
   238.7500      0.0000    757.8965     12.4908     87.7581
   239.0000      0.0000    756.4850     12.2955     87.4130
   239.2500      0.0000    755.8919     12.1266     87.8212
   239.5000      0.0000    757.0586     11.9780     87.7776
   239.7500      0.0000    759.4440     11.8495     86.6426
   240.0000      0.0000    761.7261     11.7421     84.6277
   240.2500      0.0000    762.9983     11.6539     82.2581
   240.5000      0.0000    763.1608     11.5825     79.8761
   240.7500      0.0000    762.5630     11.5267     77.4996
   241.0000      0.0000    761.8878     11.4837     74.8992
   241.2500      0.0000    762.1079     11.4501     71.8863
   241.5000      0.0000    763.7645     11.4311     68.4715
   241.7500      0.0000    766.3297     11.4422     64.6064
   242.0000      0.0000    768.9597     11.4935     60.0242
   242.2500      0.0000    771.8679     11.5693     54.7974
   242.5000      0.0000    776.3453     11.6344     49.8214
   242.7500      0.0000    783.0826     11.6685     46.0692
   243.0000      0.0000    790.9637     11.6888     43.4382
   243.2500      0.0000    798.1462     11.7281     41.0492
   243.5000      0.0000    804.0255     11.7950     38.6878
   243.7500      0.0000    809.4406     11.8615     37.3298
   244.0000      0.0000    815.2972     11.8936     38.1883
   244.2500      0.0000    821.6853     11.8956     41.6972
   244.5000      0.0000    828.0089     11.9227     47.3376
   244.7500      0.0000    833.3413     12.0367     53.8944
   245.0000      0.0000    836.6473     12.2413     59.7759
   245.2500      0.0000    836.8483     12.4713     63.7383
   245.5000      0.0000    832.8126     12.6533     65.8281
   245.7500      0.0000    823.9690     12.7658     67.3622
   246.0000      0.0000    811.6240     12.8339     69.4034
   246.2500      0.0000    799.2225     12.8854     71.3055
   246.5000      0.0000    790.3492     12.9282     71.2032
   246.7500      0.0000    786.5298     12.9603     68.0144
   247.0000      0.0000    787.1190     12.9823     62.6888
   247.2500      0.0000    790.0165     12.9997     57.5193
   247.5000      0.0000    791.9982     13.0172     54.5341
   247.7500      0.0000    790.5300     13.0341     54.5547
   248.0000      0.0000    786.7629     13.0418     57.2812
   248.2500      0.0000    785.1669     13.0256     61.8814
   248.5000      0.0000    788.9196     12.9724     67.5174
   248.7500      0.0000    796.8215     12.8817     73.4686
   249.0000      0.0000    805.6032     12.7720     79.1930
   249.2500      0.0000    813.7164     12.6732     84.9300
   249.5000      0.0000    821.4606     12.6111     91.9015
   249.7500      0.0000    828.6778     12.5983    100.7020
   250.0000      0.0000    834.1111     12.6346    109.5089
   250.2500      0.0000    836.5359     12.7094    115.1321
   250.5000      0.0000    835.1171     12.8018    115.9539
   250.7500      0.0000    828.7476     12.8855    113.0605
   251.0000      0.0000    816.4633     12.9375    108.8689
   251.2500      0.0000    799.7053     12.9477    105.6332
   251.5000      0.0000    783.8130     12.9212    105.0419
   251.7500      0.0000    775.5867     12.8752    107.9637
   252.0000      0.0000    778.3439     12.8312    113.5877
   252.2500      0.0000    789.7778     12.8038    118.9868
   252.5000      0.0000    804.5449     12.7940    120.6237
   252.7500      0.0000    817.8224     12.7894    117.1313
   253.0000      0.0000    826.6182     12.7711    110.4913
   253.2500      0.0000    829.4427     12.7247    104.1114
   253.5000      0.0000    826.0565     12.6507     99.8730
   253.7500      0.0000    817.6741     12.5666     97.2217
   254.0000      0.0000    806.8358     12.4939     94.7991
   254.2500      0.0000    796.2747     12.4428     92.3254
   254.5000      0.0000    787.6583     12.4089     90.5494
   254.7500      0.0000    781.4772     12.3835     89.7768
   255.0000      0.0000    777.4476     12.3625     89.2724
   255.2500      0.0000    774.4684     12.3459     88.1701
   255.5000      0.0000    771.1722     12.3344     86.2002
   255.7500      0.0000    767.5342     12.3268     83.4175
   256.0000      0.0000    765.3704     12.3231     80.0231
   256.2500      0.0000    766.4095     12.3258     76.5479
   256.5000      0.0000    770.1603     12.3387     73.5125
   256.7500      0.0000    774.2615     12.3602     70.8181
   257.0000      0.0000    776.6653     12.3814     67.8568
   257.2500      0.0000    776.7054     12.3935     64.1550
   257.5000      0.0000    774.5098     12.3975     59.8075
   257.7500      0.0000    770.7333     12.4032     55.5598
   258.0000      0.0000    766.7206     12.4240     52.5447
   258.2500      0.0000    763.5652     12.4737     51.6168
   258.5000      0.0000    761.0235     12.5621     52.8544
   258.7500      0.0000    758.2036     12.6880     55.8221
   259.0000      0.0000    754.9960     12.8365     60.0961
   259.2500      0.0000    752.1462     12.9863     65.2163
   259.5000      0.0000    750.2600     13.1194     70.4325
