~Version Information
VERS.                      2.0: CWLS Log ASCII Standard - VERSION 2.0
WRAP.                       NO: One line per depth step
~Well Information Block
STRT.FT               530.0000: 
STOP.FT              1298.0000: 
STEP.FT                 0.1000: 
NULL.                -999.2500: 
COMP.          Pioneer Natural Resources: COMPANY
WELL.            Keiko 14-6 Tr: WELL
FLD.           Purgatoire River: FIELD
LOC.           462' FSL & 1202' FWL: LOCATION
PROV.                 Colorado: PROVINCE
CNTY.               Las Animas: COUNTRY
SRVC.                Patterson: SERVICE COMPANY
DATE.          Fri Dec 30 07:26:03 2005: LOG DATE
UWI.           05 071 08629 00: UNIQUE WELL ID
~Curve Information Block
DEPT.FT            0 000 00 00: Depth
DCAL.in                       : CDL Caliper
RHOB.g/cc                     : CDL Bulk Density
RHOC.g/cc                     : CDL Density Correction
DPOR.pu                       : CDL Density Porosity
GR.GAPI                       : Gamma Ray
~Parameter Information Block
~A  Depth       DCAL        RHOB        RHOC        DPOR         GR     
# ...
   989.2000      8.0909      2.5392      0.0206      6.7175    125.4263
   989.3000      8.0993      2.5569      0.0409      5.6396    134.2535
   989.4000      8.0993      2.5715      0.0750      4.7549    135.6852
   989.5000      8.0952      2.5881      0.0698      3.7496    132.1395
   989.6000      8.0952      2.6096      0.0902      2.4485    128.9321
   989.7000      8.0952      2.6220      0.1612      1.6943    128.3633
   989.8000      8.0727      2.6173      0.1135      1.9843    131.7183
   989.9000      8.0727      2.6061      0.0626      2.6603    135.0570
   990.0000      8.0821      2.5937      0.0855      3.4150    132.4135
   990.1000      8.0821      2.5783      0.0326      4.3426    124.7527
   990.2000      8.0821      2.5691      0.0534      4.9009    120.8652
   990.3000      8.0916      2.5702      0.0430      4.8371    127.7170
   990.4000      8.0916      2.5767      0.0311      4.4434    136.9030
   990.5000      8.0983      2.5870      0.0348      3.8170    133.6572
   990.6000      8.0983      2.5983      0.0512      3.1306    120.1696
   990.7000      8.0983      2.6009      0.0485      2.9728    114.4244
   990.8000      8.0979      2.5891      0.0520      3.6898    117.2886
   990.9000      8.0979      2.5739      0.0406      4.6126    114.7797
   991.0000      8.0803      2.5713      0.0308      4.7707    109.2286
   991.1000      8.0803      2.5809      0.0964      4.1875    111.6745
   991.2000      8.0803      2.5926      0.0316      3.4801    120.9451
   991.3000      8.0763      2.5996      0.0560      3.0539    128.0466
   991.4000      8.0763      2.5986      0.0386      3.1163    129.1531
   991.5000      8.0759      2.5959      0.0515      3.2811    125.9333
   991.6000      8.0759      2.6025      0.0542      2.8775    120.3342
   991.7000      8.0759      2.6183      0.0773      1.9233    114.1092
   991.8000      8.0822      2.6344      0.0698      0.9466    110.0678
   991.9000      8.0822      2.6488      0.0958      0.0739    107.9819
   992.0000      8.0949      2.6639      0.0789     -0.8412    105.6802
   992.1000      8.0949      2.6804      0.0788     -1.8432    104.9845
   992.2000      8.0949      2.6911      0.0718     -2.4895    107.4539
   992.3000      8.0902      2.6842      0.0597     -2.0703    111.0966
   992.4000      8.0902      2.6576      0.0574     -0.4620    113.7876
   992.5000      8.0858      2.6263     -0.0008      1.4376    113.8992
   992.6000      8.0858      2.6093      0.0332      2.4648    113.3785
   992.7000      8.0858      2.6096      0.0351      2.4509    114.0311
   992.8000      8.0851      2.6189      0.0447      1.8854    113.1418
   992.9000      8.0851      2.6294      0.0423      1.2500    111.7488
   993.0000      8.0844      2.6365      0.0873      0.8182    114.3659
   993.1000      8.0844      2.6425      0.0136      0.4529    120.6644
   993.2000      8.0844      2.6534      0.0330     -0.2048    122.7379
   993.3000      8.1062      2.6692      0.0571     -1.1649    116.7497
   993.4000      8.1062      2.6860      0.0833     -2.1842    111.2455
   993.5000      8.1037      2.6999      0.0835     -3.0246    112.2645
   993.6000      8.1037      2.7070      0.0851     -3.4528    116.2083
   993.7000      8.1037      2.7039      0.0425     -3.2659    117.3747
   993.8000      8.0943      2.6920      0.0486     -2.5436    113.5367
   993.9000      8.0943      2.6811      0.0244     -1.8846    108.9658
   994.0000      8.0727      2.6768      0.0553     -1.6240    108.3653
   994.1000      8.0727      2.6703      0.0563     -1.2293    111.8011
   994.2000      8.0727      2.6531      0.0251     -0.1854    117.1668
   994.3000      8.0884      2.6263     -0.0062      1.4376    118.3893
   994.4000      8.0884      2.5920     -0.0058      3.5154    112.7158
   994.5000      8.0833      2.5580     -0.0302      5.5758    107.4850
   994.6000      8.0833      2.5349     -0.0042      6.9738    103.8087
   994.7000      8.0833      2.5105      0.0249      8.4547     97.8896
   994.8000      8.0830      2.4696     -0.0239     10.9306     93.8990
   994.9000      8.0830      2.4304     -0.0419     13.3098     94.9788
   995.0000      8.0869      2.4182     -0.0620     14.0476     97.2338
   995.1000      8.0869      2.4297     -0.0063     13.3498     98.9818
   995.2000      8.0869      2.4450      0.0002     12.4255    100.5783
   995.3000      8.0765      2.4599      0.0307     11.5193    100.7832
   995.4000      8.0765      2.4843      0.0549     10.0444    100.0630
   995.5000      8.0705      2.5191      0.1264      7.9338    100.8645
   995.6000      8.0705      2.5567      0.1884      5.6534    104.8983
   995.7000      8.0705      2.5918      0.2807      3.5291    113.9644
   995.8000      8.0708      2.6149      0.3371      2.1266    127.6526
   995.9000      8.0708      2.6169      0.2459      2.0033    137.7986
   996.0000      8.1435      2.6031      0.1869      2.8453    138.2781
   996.1000      8.1435      2.5817      0.1908      4.1406    131.2058
   996.2000      8.1435      2.5574      0.1180      5.6100    124.3748
   996.3000      8.1573      2.5340      0.0959      7.0325    125.6655
   996.4000      8.1573      2.5039      0.0814      8.8561    132.7885
   996.5000      8.1481      2.4668      0.0010     11.1019    137.4147
   996.6000      8.1481      2.4401      0.0198     12.7214    135.6080
   996.7000      8.1481      2.4194      0.0300     13.9751    129.0391
   996.8000      8.1347      2.3791     -0.0007     16.4209    124.7963
   996.9000      8.1347      2.3064     -0.0309     20.8239    131.9465
   997.0000      8.1361      2.2081     -0.0630     26.7813    146.0421
   997.1000      8.1361      2.1008     -0.0707     33.2830    149.1892
   997.2000      8.1361      1.9938     -0.0718     39.7692    135.9274
   997.3000      8.1807      1.8873     -0.1155     46.2246    121.5089
   997.4000      8.1807      1.7834     -0.0659     52.5210    119.0297
   997.5000      8.1916      1.6700     -0.0320     59.3952    126.5344
   997.6000      8.1916      1.5364     -0.1163     67.4904    135.2185
   997.7000      8.1916      1.4161     -0.1465     74.7832    137.3916
   997.8000      8.2136      1.3571     -0.1374     78.3596    129.1628
   997.9000      8.2136      1.3720     -0.0738     77.4550    113.7897
   998.0000      8.2424      1.4423      0.0367     73.1946    100.0131
   998.1000      8.2424      1.5500      0.0384     66.6657     93.6793
   998.2000      8.2424      1.6881      0.1496     58.2958     94.3492
   998.3000      8.2487      1.8408      0.2731     49.0436     99.1367
   998.4000      8.2487      1.9859      0.3285     40.2508    106.7906
   998.5000      8.3337      2.1162      0.3961     32.3538    115.0469
   998.6000      8.3337      2.2370      0.3705     25.0303    119.7529
   998.7000      8.3337      2.3448      0.3509     18.4987    122.4253
   998.8000      8.1803      2.4220      0.2598     13.8178    127.4185
   998.9000      8.1803      2.4641      0.1297     11.2687    132.6248
   999.0000      8.1513      2.4838      0.1180     10.0738    135.4791
   999.1000      8.1513      2.4964      0.0691      9.3121    138.2084
   999.2000      8.1513      2.5125      0.1080      8.3336    144.5853
   999.3000      8.1480      2.5203      0.1374      7.8587    154.9927
   999.4000      8.1480      2.5043      0.0792      8.8284    162.8232
   999.5000      8.1541      2.4740      0.0461     10.6652    160.3708
   999.6000      8.1541      2.4390      0.0547     12.7905    151.2506
   999.7000      8.1541      2.3875      0.0278     15.9078    146.6243
   999.8000      8.1583      2.2970      0.0198     21.3935    150.3419
   999.9000      8.1583      2.1543     -0.0820     30.0426    153.2481
  1000.0000      8.1634      1.9766     -0.1260     40.8105    147.0564
  1000.1000      8.1634      1.8071     -0.1744     51.0874    135.4480
  1000.2000      8.1634      1.6832     -0.1922     58.5927    125.1806
  1000.3000      8.1621      1.6216     -0.2049     62.3290    119.5914
