~Version Information
VERS.                      2.0: CWLS Log ASCII Standard - VERSION 2.0
WRAP.                       NO: One line per depth step
~Well Information Block
STRT.FT               440.0000: 
STOP.FT              1702.7500: 
STEP.FT                 0.2500: 
NULL.                -999.2500: 
COMP.          Pioneer Natural Resources: COMPANY
WELL.          Culver 14-12 Tr: WELL
FLD.           Purgatoire River: FIELD
LOC.           915' FSL & 1048' FWL--: LOCATION
STAT.                 Colorado: State
CNTY.               Las Animas: COUNTY
CTRY. USA : Country
SECT. 12 : Section
TOWN. 32S : Township
RANG. 66W : Range
SRVC.                Patterson: SERVICE COMPANY
DATE.          Tue Sep 27 23:38:23 2005: LOG DATE
API.           05 071 08520 00: UNIQUE WELL ID
~Curve Information Block
DEPT.FT            0 000 00 00: Depth
SN.Ohm-m                      : IEL Short Normal
SP.mV                         : IEL Spontaneous Potential
DIR.Ohm-m                     : IEL Induction Resistivity
GR.GAPI                       : Gamma Ray
~Parameter Information Block
~A  Depth        SN          SP         DIR          GR     
# ...
   942.5000   2000.0000   2014.0000     11.1914    112.1231
   942.7500   2000.0000   2014.0000     10.6270    118.3166
   943.0000   2000.0000   2014.0000     10.0505    127.7130
   943.2500   2000.0000   2014.0000      9.4878    132.8159
   943.5000   2000.0000   2014.0000      8.9668    137.2312
   943.7500   2000.0000   2014.0000      8.5046    137.9140
   944.0000   2000.0000   2014.0000      8.1045    136.3042
   944.2500   2000.0000   2014.0000      7.7587    134.1916
   944.5000   2000.0000   2014.0000      7.4551    131.0695
   944.7500   2000.0000   2014.0000      7.1835    130.0231
   945.0000   2000.0000   2014.0000      6.9391    130.9973
   945.2500   2000.0000   2014.0000      6.7229    133.1364
   945.5000   2000.0000   2014.0000      6.5395    137.0586
   945.7500   2000.0000   2014.0000      6.3931    139.0213
   946.0000   2000.0000   2014.0000      6.2847    139.6181
   946.2500   2000.0000   2014.0000      6.2119    138.3988
   946.5000   2000.0000   2014.0000      6.1700    135.3559
   946.7500   2000.0000   2014.0000      6.1539    133.4166
   947.0000   2000.0000   2014.0000      6.1589    131.2235
   947.2500   2000.0000   2014.0000      6.1806    129.8404
   947.5000   2000.0000   2014.0000      6.2145    126.8049
   947.7500   2000.0000   2014.0000      6.2575    123.9595
   948.0000   2000.0000   2014.0000      6.3099    119.3802
   948.2500   2000.0000   2014.0000      6.3765    116.8723
   948.5000   2000.0000   2014.0000      6.4660    114.1489
   948.7500   2000.0000   2014.0000      6.5878    140.5666
   949.0000   2000.0000   2014.0000      6.7481    136.5145
   949.2500   2000.0000   2014.0000      6.9479    133.2795
   949.5000   2000.0000   2014.0000      7.1833    128.3359
   949.7500   2000.0000   2014.0000      7.4481    150.4169
   950.0000   2000.0000   2014.0000      7.7363    146.3940
   950.2500   2000.0000   2014.0000      8.0437    145.2217
   950.5000   2000.0000   2014.0000      8.3679    146.3441
   950.7500   2000.0000   2014.0000      8.7079    148.6852
   951.0000   2000.0000   2014.0000      9.0631    152.8345
   951.2500   2000.0000   2014.0000      9.4338    154.7949
   951.5000   2000.0000   2014.0000      9.8219    155.2948
   951.7500   2000.0000   2014.0000     10.2296    154.0739
   952.0000   2000.0000   2014.0000     10.6554    150.5307
   952.2500   2000.0000   2014.0000     11.0862    147.0309
   952.5000   2000.0000   2014.0000     11.4933    139.5831
   952.7500   2000.0000   2014.0000     11.8331    133.2021
   953.0000   2000.0000   2014.0000     12.0591    122.8789
   953.2500   2000.0000   2014.0000     12.1365    116.8528
   953.5000   2000.0000   2014.0000     12.0544    111.4185
   953.7500   2000.0000   2014.0000     11.8264    111.0033
   954.0000   2000.0000   2014.0000     11.4827    115.3302
   954.2500   2000.0000   2014.0000     11.0599    121.1475
   954.5000   2000.0000   2014.0000     10.5942    133.0762
   954.7500   2000.0000   2014.0000     10.1182    141.8494
   955.0000   2000.0000   2014.0000      9.6602    153.0797
   955.2500   2000.0000   2014.0000      9.2430    157.8143
   955.5000   2000.0000   2014.0000      8.8826    160.5822
   955.7500   2000.0000   2014.0000      8.5879    160.5882
   956.0000   2000.0000   2014.0000      8.3602    159.6825
   956.2500   2000.0000   2014.0000      8.1940    158.7382
   956.5000   2000.0000   2014.0000      8.0790    156.0439
   956.7500   2000.0000   2014.0000      8.0029    152.8614
   957.0000   2000.0000   2014.0000      7.9554    145.9767
   957.2500   2000.0000   2014.0000      7.9309    140.7029
   957.5000   2000.0000   2014.0000      7.9290    133.7428
   957.7500   2000.0000   2014.0000      7.9514    130.6077
   958.0000   2000.0000   2014.0000      7.9990    128.2491
   958.2500   2000.0000   2014.0000      8.0699    127.6513
   958.5000   2000.0000   2014.0000      8.1596    127.1538
   958.7500   2000.0000   2014.0000      8.2648    126.8507
   959.0000   2000.0000   2014.0000      8.3858    126.6458
   959.2500   2000.0000   2014.0000      8.5278    126.7700
   959.5000   2000.0000   2014.0000      8.6998    126.9087
   959.7500   2000.0000   2014.0000      8.9127    126.6000
   960.0000   2000.0000   2014.0000      9.1793    125.4954
   960.2500     20.9030   2014.0000      9.5160    124.5257
   960.5000     19.1648   2014.0000      9.9431    122.4620
   960.7500     18.3245   2014.0000     10.4826    120.1711
   961.0000     18.1388   2014.0000     11.1513    115.0501
   961.2500     18.3774   2014.0000     11.9511    111.0128
   961.5000     18.8111   2014.0000     12.8598    105.2352
   961.7500     19.2761    -48.2639     13.8314    101.9822
   962.0000     19.7596    -47.3323     14.8116     98.4814
   962.2500     20.4137    -46.4931     15.7641     97.5464
   962.5000     21.4447    -45.7070     16.6894     98.8791
   962.7500     22.9317    -45.0171     17.6182    101.2667
   963.0000     24.7205    -44.5151     18.5841    105.3175
   963.2500     26.4990    -44.2975     19.5958    107.1947
   963.5000     28.0024    -44.4249     20.6273    107.7256
   963.7500     29.1713    -44.8982     21.6286    106.5479
   964.0000     30.1391    -45.6553     22.5462    102.9489
   964.2500     31.0845    -46.5887     23.3391     99.6170
   964.5000     32.0798    -47.5727     23.9806     93.8555
   964.7500     33.0440    -48.4919     24.4480     90.1273
   965.0000     33.8029    -49.2596     24.7156     85.9268
   965.2500     34.1863    -49.8246     24.7625     84.4317
   965.5000     34.0973    -50.1695     24.5871     83.9184
   965.7500     33.5368    -50.3020     24.2115     84.4515
   966.0000     32.5954    -50.2440     23.6713     86.5998
   966.2500     31.4173    -50.0245     22.9999     89.1817
   966.5000     30.1447    -49.6724     22.2213     94.9489
   966.7500     28.8716    -49.2134     21.3540     99.8313
   967.0000     27.6342    -48.6676     20.4201    107.7607
   967.2500     26.4324    -48.0474     19.4505    112.5361
   967.5000     25.2595    -47.3505     18.4817    117.1082
   967.7500     24.1205    -46.5618     17.5487    117.9021
   968.0000     23.0388    -45.6500     16.6810    116.9307
   968.2500     22.0537    -44.5759     15.9037    116.5683
   968.5000     21.2095    -43.3061     15.2388    119.1328
   968.7500     20.5386    -41.8340     14.7036    123.3180
   969.0000     20.0489    -40.1994     14.3071    131.7275
   969.2500     19.7266    -38.4969     14.0502    137.0704
   969.5000     19.5549    -36.8679     13.9282    141.9633
   969.7500     19.5332    -35.4740     13.9351    142.3246
   970.0000     19.6725    -34.4575     14.0675    138.8512
   970.2500     19.9711    -33.9043     14.3252    134.6650
   970.5000     20.3970    -33.8205     14.7107    126.7373
   970.7500     20.8985    -34.1325     15.2256    120.6379
   971.0000     21.4315    -34.7090     15.8667    110.7081
   971.2500     21.9793    -35.3978     16.6210    104.1518
   971.5000     22.5532    -36.0636     17.4634     95.7981
   971.7500     23.1760    -36.6159     18.3549     91.9118
   972.0000     23.8581    -37.0193     19.2422     89.2486
   972.2500     24.5756    -37.2877     20.0615     89.5748
   972.5000     25.2593    -37.4669     20.7465     92.3619
   972.7500     25.8026    -37.6124     21.2406     94.7715
   973.0000     26.0855    -37.7704     21.5062     97.5657
   973.2500     26.0157    -37.9653     21.5295     98.5925
   973.5000     25.5723    -38.1967     21.3216     99.6937
   973.7500     24.8271    -38.4419     20.9188    100.8197
   974.0000     23.9223    -38.6662     20.3787    103.8132
   974.2500     23.0162    -38.8342     19.7723    106.8486
   974.5000     22.2256    -38.9192     19.1713    112.8763
   974.7500     21.5963    -38.9102     18.6331    117.4006
   975.0000     21.1067    -38.8116     18.1868    123.3503
   975.2500     20.6971    -38.6375     17.8251    125.8626
   975.5000     20.3029    -38.4029     17.5086    127.1217
   975.7500     19.8797    -38.1165     17.1856    126.8729
