~Version Information
VERS.                      2.0: CWLS Log ASCII Standard - VERSION 2.0
WRAP.                       NO: One line per depth step
~Well Information Block
STRT.FT               335.0000: 
STOP.FT              1013.5000: 
STEP.FT                 0.1000: 
NULL.                -999.2500: 
COMP.          Pioneer Natural Resources: COMPANY
WELL.             Giggle 21-22: WELL
FLD.           Purgatoire River: FIELD
LOC.           950' FNL & 2094' FWL: LOCATION
CNTY.               Las Animas: COUNTY
SRVC.                Patterson: SERVICE COMPANY
DATE.          Thu Apr 13 09:31:38 2006: LOG DATE
UWI.           05 071 08726 00: UNIQUE WELL ID
STAT.                 Colorado: STATE
~Curve Information Block
DEPT.FT            0 000 00 00: Depth
DCAL.in                       : CDL Caliper
RHOB.g/cc                     : CDL Bulk Density
RHOC.g/cc                     : CDL Density Correction
DPOR.pu                       : CDL Density Porosity
GR.GAPI                       : Gamma Ray
NPOR.pu                       : Neutron Porosity
~Parameter Information Block
~A  Depth       DCAL        RHOB        RHOC        DPOR         GR         NPOR    
# ...
   776.6000      7.9994      1.3038     -0.0463     81.5880     64.0484     11.8021
   776.7000      7.9994      1.2436      0.0173     85.2362     66.6977     11.5464
   776.8000      7.9986      1.2082      0.0108     87.3807     64.5706     11.1630
   776.9000      7.9986      1.2183      0.0249     86.7682     62.2556     11.3282
   777.0000      7.9967      1.2855      0.0577     82.6955     65.0356     12.0126
   777.1000      7.9967      1.4052      0.0689     75.4410     71.8762     12.9708
   777.2000      7.9967      1.5597      0.1554     66.0790     81.5551     14.2089
   777.3000      7.9975      1.7184      0.2231     56.4600     91.1811     15.4966
   777.4000      7.9975      1.8623      0.2120     47.7380     96.1835     16.3781
   777.5000      7.9953      1.9945      0.2680     39.7290     95.9184     17.0431
   777.6000      7.9953      2.1160      0.2863     32.3632     96.9164     17.7171
   777.7000      7.9953      2.2216      0.2617     25.9624    103.3322     18.2176
   777.8000      7.9986      2.3095      0.2362     20.6366    109.6505     18.9719
   777.9000      7.9986      2.3782      0.1832     16.4738    112.2391     20.4797
   778.0000      7.9984      2.4301      0.1058     13.3270    114.1275     22.0117
   778.1000      7.9984      2.4771      0.1173     10.4774    116.4480     22.7934
   778.2000      7.9984      2.5245      0.0862      7.6066    115.5444     22.9901
   778.3000      7.9965      2.5573      0.1142      5.6196    111.2090     22.9535
   778.4000      7.9965      2.5597      0.1241      5.4714    107.6325     22.9661
   778.5000      7.9889      2.5443      0.0996      6.4085    107.1284     23.1987
   778.6000      7.9889      2.5349      0.1172      6.9781    108.5583     23.5448
   778.7000      7.9889      2.5380      0.1099      6.7878    109.4627     23.9341
   778.8000      7.9823      2.5411      0.1119      6.6024    109.0499     24.3344
   778.9000      7.9823      2.5233      0.0771      7.6791    109.9332     24.5494
   779.0000      7.9830      2.4845      0.0642     10.0330    111.9799     24.4109
   779.1000      7.9830      2.4514      0.0114     12.0389    111.7745     24.3762
   779.2000      7.9830      2.4444      0.0068     12.4608    109.2510     24.9709
   779.3000      7.9777      2.4601      0.0180     11.5069    106.8514     25.4560
   779.4000      7.9777      2.4849      0.0608     10.0054    105.8399     24.8357
   779.5000      7.9747      2.5077      0.1289      8.6271    106.8565     23.4130
   779.6000      7.9747      2.5277      0.0776      7.4131    109.3763     22.1051
   779.7000      7.9747      2.5456      0.1147      6.3295    112.2878     21.4314
   779.8000      7.9636      2.5514      0.1150      5.9777    116.3019     21.4499
   779.9000      7.9636      2.5480      0.1105      6.1845    120.6576     21.7388
   780.0000      7.9592      2.5403      0.2030      6.6503    126.4079     21.8444
   780.1000      7.9592      2.5231      0.1171      7.6902    134.4808     21.6287
   780.2000      7.9592      2.5107      0.0808      8.4406    140.1889     21.0436
   780.3000      7.9662      2.5202      0.0895      7.8650    142.4055     20.2961
   780.4000      7.9662      2.5402      0.0905      6.6537    144.9229     19.9213
   780.5000      7.9957      2.5430      0.1094      6.4866    148.9494     20.1568
   780.6000      7.9957      2.5150      0.1129      8.1822    149.0191     20.6195
   780.7000      7.9957      2.4733      0.0174     10.7084    141.4599     20.8867
   780.8000      7.9984      2.4470      0.0396     12.3030    134.5494     20.8890
   780.9000      7.9984      2.4468      0.0533     12.3153    132.8651     20.8462
   781.0000      8.0014      2.4621      0.1153     11.3905    129.9539     21.1207
   781.1000      8.0014      2.4718      0.0856     10.7977    125.9435     21.7787
   781.2000      8.0014      2.4686      0.0560     10.9970    126.9427     22.5284
   781.3000      7.9994      2.4687      0.0521     10.9899    131.6815     22.9651
   781.4000      7.9994      2.4825      0.1009     10.1513    136.2049     22.9879
   781.5000      7.9968      2.4985      0.1017      9.1806    139.0889     22.8396
   781.6000      7.9968      2.5099      0.0525      8.4930    138.5653     22.7533
   781.7000      7.9968      2.5210      0.0574      7.8211    135.2682     23.1036
   781.8000      7.9995      2.5258      0.0467      7.5254    132.9117     23.8115
   781.9000      7.9995      2.5176      0.0823      8.0260    134.9295     23.9476
   782.0000      7.9930      2.5071      0.0709      8.6580    142.0642     23.1756
   782.1000      7.9930      2.5035      0.0770      8.8797    148.3174     22.2238
   782.2000      7.9930      2.5035      0.0843      8.8785    149.7729     21.8786
   782.3000      7.9931      2.5100      0.0865      8.4831    148.3977     22.1995
   782.4000      7.9931      2.5204      0.1479      7.8533    145.2783     22.4330
   782.5000      7.9919      2.5184      0.1545      7.9745    142.2318     22.2483
   782.6000      7.9919      2.4995      0.1548      9.1219    142.8558     21.8037
   782.7000      7.9919      2.4795      0.0857     10.3330    147.8941     21.1646
   782.8000      8.0003      2.4738      0.1018     10.6814    153.6772     20.7728
   782.9000      8.0003      2.4740      0.1744     10.6692    157.2066     20.8751
   783.0000      8.0040      2.4658      0.1055     11.1619    157.2376     21.1773
   783.1000      8.0040      2.4549      0.0826     11.8230    155.1948     21.3987
   783.2000      8.0040      2.4481      0.0754     12.2355    150.2142     21.3305
   783.3000      8.0191      2.4423      0.0864     12.5853    139.7319     21.2527
   783.4000      8.0191      2.4394      0.0789     12.7627    130.4311     21.6544
   783.5000      8.0225      2.4449      0.0860     12.4312    128.5164     22.1706
   783.6000      8.0225      2.4619      0.0439     11.3975    130.9007     22.1752
   783.7000      8.0225      2.4962      0.1057      9.3196    132.9963     22.0220
   783.8000      8.0216      2.5369      0.1864      6.8561    133.7751     22.1309
   783.9000      8.0216      2.5593      0.2023      5.4970    138.0046     22.2232
   784.0000      8.0190      2.5571      0.1799      5.6326    144.7580     22.2199
   784.1000      8.0190      2.5375      0.1438      6.8192    146.2100     22.3340
   784.2000      8.0190      2.5073      0.1121      8.6499    141.3911     22.5492
   784.3000      8.0261      2.4804      0.0853     10.2818    134.3931     22.7251
   784.4000      8.0261      2.4670      0.0807     11.0905    127.3863     22.6920
   784.5000      8.0322      2.4584      0.0931     11.6139    122.9618     22.3228
   784.6000      8.0322      2.4533      0.0381     11.9182    124.3625     21.9973
   784.7000      8.0322      2.4655      0.0295     11.1789    129.1463     22.0984
   784.8000      8.0396      2.4826      0.1527     10.1434    131.4621     22.3129
   784.9000      8.0396      2.4784      0.1070     10.3981    131.1936     22.4653
   785.0000      8.0319      2.4590      0.1587     11.5754    131.6601     22.6400
   785.1000      8.0319      2.4446      0.1209     12.4461    132.8943     22.4255
   785.2000      8.0319      2.4434      0.0873     12.5218    135.4458     21.7552
   785.3000      8.0337      2.4459      0.1707     12.3713    139.1125     21.4376
   785.4000      8.0337      2.4382      0.1367     12.8379    138.9847     21.5829
   785.5000      8.0292      2.4275      0.1193     13.4873    134.7511     21.3343
   785.6000      8.0292      2.4224      0.1231     13.7945    134.1897     20.6730
   785.7000      8.0292      2.4131      0.1430     14.3605    136.6589     20.2253
   785.8000      8.0273      2.3960      0.1006     15.3959    131.4571     20.1242
   785.9000      8.0273      2.3905      0.1283     15.7257    119.7001     20.3863
   786.0000      8.0271      2.4106      0.1329     14.5080    111.6564     21.0636
   786.1000      8.0271      2.4508      0.1921     12.0731    107.2380     21.8772
