~Version Information
VERS.                      2.0: CWLS Log ASCII Standard - VERSION 2.0
WRAP.                       NO: One line per depth step
~Well Information Block
STRT.FT               665.0000: 
STOP.FT              2193.5000: 
STEP.FT                 0.1000: 
NULL.                -999.2500: 
COMP.          Pioneer Natural Resources: COMPANY
WELL.          Bear Cub Federal 11-23: WELL
FLD.           Purgatoire River: FIELD
LOC.           1225' FNL & 1268' FWL--: LOCATION
CNTY.               Las Animas: COUNTY
SRVC.                Patterson: SERVICE COMPANY
DATE.          Tue Jun 20 09:14:02 2006: LOG DATE
UWI.           05 071 08509 00: UNIQUE WELL ID
STAT.                 Colorado: STATE
~Curve Information Block
DEPT.FT            0 000 00 00: Depth
DCAL.in                       : CDL Caliper
RHOB.g/cc                     : CDL Bulk Density
RHOC.g/cc                     : CDL Density Correction
DPOR.pu                       : CDL Density Porosity
NPOR.pu                       : Neutron Porosity
GR.GAPI                       : Gamma Ray
~Parameter Information Block
~A  Depth       DCAL        RHOB        RHOC        DPOR        NPOR         GR     
# ...
  1058.6000      8.1789      2.3836      0.1881     16.1467     19.9312    131.8095
  1058.7000      8.1789      2.3993      0.1839     15.1950     20.0552    132.6012
  1058.8000      8.1778      2.4135      0.1714     14.3335     20.2846    131.1249
  1058.9000      8.1778      2.4247      0.1679     13.6569     20.3922    129.8211
  1059.0000      8.1771      2.4307      0.1238     13.2919     20.4052    131.0067
  1059.1000      8.1771      2.4332      0.1140     13.1390     20.6840    132.3063
  1059.2000      8.1771      2.4335      0.1118     13.1242     21.3016    127.9323
  1059.3000      8.1772      2.4244      0.1087     13.6737     21.7481    119.5226
  1059.4000      8.1772      2.4017      0.0755     15.0456     21.8505    115.9676
  1059.5000      8.1784      2.3832     -0.0141     16.1703     21.8881    118.9522
  1059.6000      8.1784      2.3886      0.0345     15.8435     21.9244    121.3913
  1059.7000      8.1784      2.4034      0.0861     14.9474     21.7734    120.5037
  1059.8000      8.1788      2.4058      0.0744     14.8006     21.5230    121.7664
  1059.9000      8.1788      2.4010      0.0555     15.0928     21.6372    126.7452
  1060.0000      8.1787      2.4008      0.0657     15.1058     22.2343    127.2667
  1060.1000      8.1787      2.4054      0.0862     14.8213     22.6856    121.5104
  1060.2000      8.1787      2.4125      0.1120     14.3961     22.2895    117.1205
  1060.3000      8.1785      2.4203      0.1451     13.9242     21.2910    117.5952
  1060.4000      8.1785      2.4301      0.1069     13.3257     20.8053    119.5643
  1060.5000      8.1773      2.4523      0.0966     11.9844     21.3071    118.9650
  1060.6000      8.1773      2.4847      0.1289     10.0180     21.9936    119.0316
  1060.7000      8.1773      2.5074      0.1252      8.6416     22.1896    123.7951
  1060.8000      8.1766      2.5070      0.1391      8.6695     22.0319    128.5690
  1060.9000      8.1766      2.4912      0.0730      9.6246     21.8623    127.4655
  1061.0000      8.1759      2.4883      0.0433      9.8030     21.8855    120.3281
  1061.1000      8.1759      2.5162      0.0891      8.1096     22.1674    109.5861
  1061.2000      8.1759      2.5578      0.1275      5.5905     22.8694     99.8902
  1061.3000      8.1748      2.5851      0.0901      3.9358     24.0558     93.9380
  1061.4000      8.1748      2.5910      0.0770      3.5765     25.3162     91.4026
  1061.5000      8.1764      2.5837      0.0275      4.0185     26.1838     94.2542
  1061.6000      8.1764      2.5693      0.0402      4.8888     26.6153    102.2877
  1061.7000      8.1764      2.5478     -0.0142      6.1922     27.0223    110.0142
  1061.8000      8.1792      2.5215     -0.0063      7.7887     27.7441    113.0040
  1061.9000      8.1792      2.4974     -0.0236      9.2473     28.2945    110.8178
  1062.0000      8.1786      2.4796      0.0066     10.3268     28.0601    109.2972
  1062.1000      8.1786      2.4691     -0.0378     10.9650     27.3449    114.6140
  1062.2000      8.1786      2.4678      0.0091     11.0445     26.5840    123.3385
  1062.3000      8.1764      2.4627      0.0472     11.3497     25.7952    127.8167
  1062.4000      8.1764      2.4441      0.0269     12.4772     25.0369    125.9039
  1062.5000      8.1764      2.4306      0.0181     13.2950     24.2923    122.5032
  1062.6000      8.1764      2.4361      0.0613     12.9608     23.3410    123.3089
  1062.7000      8.1764      2.4494      0.0860     12.1552     22.3051    125.5340
  1062.8000      8.1798      2.4621      0.1116     11.3894     21.7000    125.9148
  1062.9000      8.1798      2.4768      0.1475     10.4942     21.6799    129.8930
  1063.0000      8.1865      2.4922      0.1546      9.5658     21.6951    136.8078
  1063.1000      8.1865      2.5022      0.1233      8.9593     21.4253    139.0536
  1063.2000      8.1865      2.5058      0.1278      8.7364     21.3012    134.7240
  1063.3000      8.1914      2.5082      0.1014      8.5969     21.7871    126.2843
  1063.4000      8.1914      2.5132      0.1206      8.2931     22.9122    118.4595
  1063.5000      8.1950      2.5159      0.0806      8.1296     24.1811    115.1793
  1063.6000      8.1950      2.5140      0.0570      8.2433     24.8352    116.3111
  1063.7000      8.1950      2.5135      0.0523      8.2748     24.8234    117.6271
  1063.8000      8.1974      2.5177      0.0517      8.0168     24.7332    115.4881
  1063.9000      8.1974      2.5247      0.0693      7.5967     24.6775    112.4768
  1064.0000      8.1983      2.5306      0.0632      7.2368     24.6167    113.2521
  1064.1000      8.1983      2.5327      0.0290      7.1100     24.9344    114.4114
  1064.2000      8.1983      2.5265      0.0590      7.4847     25.5905    111.9257
  1064.3000      8.1994      2.5099      0.0597      8.4934     26.0714    110.1924
  1064.4000      8.1994      2.4983      0.0061      9.1933     26.2588    112.5157
  1064.5000      8.2017      2.5117      0.0278      8.3838     26.3876    117.1911
  1064.6000      8.2017      2.5355      0.0946      6.9366     26.3972    120.7480
  1064.7000      8.2017      2.5419      0.0777      6.5499     26.0801    122.2763
  1064.8000      8.2058      2.5354      0.0395      6.9444     25.4480    123.5931
  1064.9000      8.2058      2.5317      0.0676      7.1672     24.8171    125.9720
  1065.0000      8.2100      2.5287      0.0660      7.3498     24.3148    129.7188
  1065.1000      8.2100      2.5266      0.0835      7.4782     23.7030    132.6442
  1065.2000      8.2100      2.5294      0.1158      7.3097     22.9858    132.1985
  1065.3000      8.2134      2.5286      0.1054      7.3600     22.4943    130.4632
  1065.4000      8.2134      2.5202      0.0918      7.8666     22.3962    129.2103
  1065.5000      8.2177      2.5150      0.0945      8.1817     22.6591    127.4603
  1065.6000      8.2177      2.5157      0.0709      8.1382     23.1520    127.9478
  1065.7000      8.2177      2.5104      0.0726      8.4618     23.7043    130.4273
  1065.8000      8.2227      2.4913      0.0607      9.6177     24.0159    129.0553
  1065.9000      8.2227      2.4614      0.0350     11.4273     23.8044    122.7450
  1066.0000      8.2235      2.4322      0.0105     13.2023     23.4183    116.1798
  1066.1000      8.2235      2.4210      0.0410     13.8771     23.4653    113.6308
  1066.2000      8.2235      2.4287      0.0633     13.4147     23.9279    114.3853
  1066.3000      8.2224      2.4353      0.0411     13.0096     24.3311    115.9392
  1066.4000      8.2224      2.4267      0.0532     13.5313     24.2523    117.3402
  1066.5000      8.2227      2.4016      0.0082     15.0559     23.6349    118.3266
  1066.6000      8.2227      2.3536      0.0519     17.9635     22.8333    118.2560
  1066.7000      8.2227      2.2657      0.0016     23.2920     22.0228    117.3460
  1066.8000      8.2211      2.1478     -0.0527     30.4352     21.0477    117.2293
  1066.9000      8.2211      2.0267     -0.0582     37.7773     19.7920    116.3689
  1067.0000      8.2170      1.9003     -0.0656     45.4337     18.3971    111.4314
  1067.1000      8.2170      1.7648     -0.1390     53.6459     16.9359    104.4091
  1067.2000      8.2170      1.6443     -0.1181     60.9487     15.2761     98.7095
  1067.3000      8.2137      1.5606     -0.0894     66.0247     13.4541     91.9094
  1067.4000      8.2137      1.5281     -0.1032     67.9916     11.8972     84.5912
  1067.5000      8.2125      1.5655     -0.0064     65.7246     11.0241     82.1955
  1067.6000      8.2125      1.6681      0.1580     59.5105     10.8055     84.9939
  1067.7000      8.2125      1.8018      0.2899     51.4067     11.0431     88.9172
  1067.8000      8.2151      1.9309      0.3607     43.5802     11.6896     92.9041
  1067.9000      8.2151      2.0407      0.3533     36.9274     12.7216     97.4702
  1068.0000      8.2200      2.1431      0.3369     30.7210     14.1364    102.5573
  1068.1000      8.2200      2.2415      0.3839     24.7575     15.8866    108.2290
