~Version Information
 VERS.                                  2.0 : CWLS LAS VERSION
 WRAP.                                   NO : WRAPING MODE
 SWARE .                 MController 2.5.0N : SOFTWARE VERSION
~Well Information
 WELL.                 Flying Horse 12-11Tr : WELL
 COMP.    Pioneer Natural Resources USA Inc : COMPANY
 FLD.                      Purgatoire River : FIELD
 LOC.                 SW/NW SEC11 T32S R66W : LOCATION
 DATE.                             09/03/05 : DATE(S) LOGGED
 SRVC.       Blanco Geological Services LLC : SERVICE COMPANY
 STAT.                             Colorado : STATE
 CNTY.                           Las Animas : COUNTY
 CTRY.                                 USA : COUNTRY
 API.                       05-071-08485-00 : API NUMBER
 STRT.FT                             565.00 : START DEPTH
 STOP.FT                            1978.00 : STOP DEPTH
 STEP.FT                               1.00 : DEPTH INCREMENT
 NULL.                                -9999 : NULL VALUE
~Curve information
 DEPTH.FT                                   :
 ROP.MIN/FT                                 :
 GAS.UNITS                                  :
~ASCII Log data
# ...
       965.0         0.23         10.0 
       966.0         0.17          9.4 
       967.0         0.13          9.9 
       968.0         0.20          9.6 
       969.0         0.33          9.7 
       970.0         0.33         10.2 
       971.0         0.23          9.8 
       972.0         0.20         10.0 
       973.0         0.23          8.5 
       974.0         0.25          8.5 
       975.0         0.27          9.0 
       976.0         0.27          9.4 
       977.0         0.23          9.0 
       978.0         0.20          8.6 
       979.0         0.17          9.2 
       980.0         0.17          9.2 
       981.0         0.23          8.8 
       982.0         0.23          8.9 
       983.0         0.17          8.7 
       984.0         0.20          9.2 
       985.0         0.20          9.0 
       986.0         1.58         12.3 
       987.0         0.17          9.5 
       988.0         0.40          9.1 
       989.0         0.33          9.2 
       990.0         0.30          8.6 
       991.0         0.33          8.7 
       992.0         0.37          9.2 
       993.0         0.33          8.9 
       994.0         0.27          8.7 
       995.0         0.28          9.4 
       996.0         0.23          8.8 
       997.0         0.23          8.7 
       998.0         0.27          8.7 
       999.0         0.27          9.0 
      1000.0         0.43         10.2 
      1001.0         0.13         10.2 
      1002.0         0.27         11.5 
      1003.0         0.23         11.5 
      1004.0         0.20         10.9 
      1005.0         0.23         10.3 
      1006.0         0.23          9.5 
      1007.0         0.17          9.4 
      1008.0         0.17          9.4 
      1009.0         0.32          8.8 
      1010.0         0.20          8.5 
      1011.0         0.13          8.5 
      1012.0         0.10          8.5 
      1013.0         0.13          8.8 
      1014.0         0.30          8.9 
      1015.0         0.27         14.4 
      1016.0         1.98         15.3 
      1017.0         0.17         10.2 
      1018.0         0.37         10.1 
      1019.0         0.27         10.1 
      1020.0         0.27         13.2 
      1021.0         0.27         35.9 
      1022.0         0.27         49.9 
      1023.0         0.23         50.3 
      1024.0         0.37         44.0 
      1025.0         0.27         38.0 
      1026.0         0.13         34.8 
      1027.0         0.17         33.4 
      1028.0         0.17         32.0 
      1029.0         0.17         30.8 
      1030.0         0.18         28.5 
      1031.0         0.27         27.4 
      1032.0         0.23         24.5 
      1033.0         0.23         23.8 
      1034.0         0.23         21.7 
      1035.0         0.20         20.4 
      1036.0         0.27         17.0 
      1037.0         0.20         16.2 
      1038.0         0.23         14.3 
      1039.0         0.27         14.0 
      1040.0         0.17         12.2 
      1041.0         0.17         11.4 
      1042.0         0.13         11.2 
      1043.0         0.13         11.7 
      1044.0         0.17         11.8 
      1045.0         0.20         11.8 
      1046.0         0.25         16.4 
      1047.0         2.37         65.8 
      1048.0         0.20         22.6 
      1049.0         0.17         21.3 
      1050.0         0.20         20.4 
      1051.0         0.30         19.1 
      1052.0         0.25         19.1 
      1053.0         0.07         19.1 
      1054.0         0.27         23.9 
      1055.0         0.33         31.8 
      1056.0         0.27         35.6 
      1057.0         0.30         35.9 
      1058.0         0.23         37.7 
      1059.0         0.20         48.2 
      1060.0         0.23         46.4 
      1061.0         0.27         43.2 
      1062.0         0.43         36.2 
      1063.0         0.23         24.6 
      1064.0         0.20         24.6 
      1065.0         0.22         18.7 
      1066.0         0.13         18.3 
      1067.0         0.20         13.4 
      1068.0         0.37         12.8 
      1069.0         0.23         12.1 
      1070.0         0.23         12.0 
      1071.0         0.27         10.9 
      1072.0         0.20         11.7 
      1073.0         1.07         58.7 
      1074.0         0.92         98.4 
      1075.0         0.63         51.3 
      1076.0         0.73         31.1 
      1077.0         0.30         28.2 
      1078.0         0.27         24.6 
      1079.0         0.23         23.6 
      1080.0         0.30         22.1 
      1081.0         0.23         22.3 
      1082.0         0.20         23.8 
      1083.0         0.22         44.9 
      1084.0         0.23         65.2 
      1085.0         0.23         79.8 
      1086.0         0.23         79.8 
      1087.0         0.33         80.6 
      1088.0         0.23         72.1 
      1089.0         0.20         53.5 
      1090.0         0.13         53.5 
      1091.0         0.13         52.9 
      1092.0         0.10         52.3 
      1093.0         0.27         44.6 
      1094.0         0.23         39.2 
      1095.0         0.27         28.3 
      1096.0         0.23         22.9 
      1097.0         0.17         20.9 
      1098.0         0.13         20.9 
      1099.0         0.12         20.4 
      1100.0         0.13         19.2 
      1101.0         0.17         19.5 
      1102.0         0.20         19.6 
      1103.0         0.73         34.8 
      1104.0         0.73        147.6 
      1105.0         0.30        136.0 
      1106.0         1.12        179.9 
      1107.0         0.33        309.1 
      1108.0         0.33        373.1 
      1109.0         0.20        376.9 
      1110.0         0.17        380.5 
      1111.0         0.20        369.6 
      1112.0         0.17        355.8 
      1113.0         0.27        354.9 
      1114.0         0.23        349.2 
      1115.0         0.33        340.6 
      1116.0         0.27        326.1 
      1117.0         0.30        320.3 
      1118.0         0.30        313.8 
      1119.0         0.25        310.6 
      1120.0         0.23        308.3 
      1121.0         0.23        303.2 
      1122.0         0.23        312.1 
      1123.0         0.23        304.1 
      1124.0         0.23        285.7 
      1125.0         0.27        268.5 
      1126.0         0.30        245.3 
      1127.0         0.23        241.0 
      1128.0         0.23        198.6 
      1129.0         0.23        152.0 
      1130.0         0.30        118.4 
      1131.0         0.23         99.4 
      1132.0         0.25         93.9 
      1133.0         0.27        116.0 
      1134.0         0.20        170.2 
      1135.0         0.20        268.9 
      1136.0         2.10       1168.7 
      1137.0         0.40        814.8 
      1138.0         0.45        599.2 
      1139.0         0.37        547.0 
      1140.0         0.30        523.2 
      1141.0         0.33        480.7 
      1142.0         0.27        440.0 
      1143.0         0.33        198.2 
      1144.0         0.27        187.4 
      1145.0         0.47        180.0 
      1146.0         0.23        181.5 
      1147.0         0.20        177.8 
      1148.0         0.18        175.1 
      1149.0         0.17        161.2 
      1150.0         0.17        159.5 
      1151.0         0.17        156.8 
      1152.0         0.30        175.9 
      1153.0         0.13        175.9 
      1154.0         0.23        177.4 
      1155.0         0.27        176.8 
      1156.0         0.17        169.5 
      1157.0         0.13        159.7 
      1158.0         0.13        156.6 
      1159.0         0.13        130.9 
      1160.0         0.13        124.5 
      1161.0         0.13        104.4 
      1162.0         0.30         89.1 
      1163.0         0.23         70.4 
      1164.0         0.27         62.7 
