~Version Information
VERS.                      2.0: CWLS Log ASCII Standard - VERSION 2.0
WRAP.                       NO: One line per depth step
~Well Information Block
STRT.FT                10.0000: 
STOP.FT              1187.0000: 
STEP.FT                 0.1000: 
NULL.                -999.2500: 
COMP.          Pioneer Natural Resources: COMPANY
WELL.          Whitecoat 14-36: WELL
FLD.           Purgatorie River: FIELD
LOC.           606' FSL & 260' FWL: LOCATION
PROV.                 Colorado: PROVINCE
CNTY.               Las Animas: COUNTRY
SRVC.                Patterson: SERVICE COMPANY
DATE.          Tue Dec 06 07:14:37 2005: LOG DATE
UWI.                          : UNIQUE WELL ID
~Curve Information Block
DEPT.FT            0 000 00 00: Depth
DCAL.in                       : CDL Caliper
RHOB.g/cc                     : CDL Bulk Density
RHOC.g/cc                     : CDL Density Correction
DPOR.pu                       : CDL Density Porosity
GR.GAPI                       : Gamma Ray
NPOR.pu                       : Neutron Porosity
~Parameter Information Block
~A  Depth       DCAL        RHOB        RHOC        DPOR         GR         NPOR    
# ...
   240.4000     -3.1029      1.9698      1.4482     -0.0136     76.3798     26.8902
   240.5000      8.1943      1.9734      1.5146     -0.0135     78.0510     27.4629
   240.6000      8.1943      1.9843      1.4747     -0.0133     79.2859     27.6038
   240.7000      8.1943      2.0007      1.5269     -0.0130     79.4912     27.4314
   240.8000      8.1961      2.0130      1.5458     -0.0127     77.9698     27.1668
   240.9000      8.1961      2.0140      1.5260     -0.0127     77.1657     26.9557
   241.0000      8.1903      2.0130      1.4629     -0.0127     79.2104     26.8635
   241.1000      8.1903      2.0191      1.5211     -0.0126     82.7689     26.7838
   241.2000      8.1903      2.0270      1.4941     -0.0125     84.4374     26.4996
   241.3000      8.1932      2.0294      1.4865     -0.0124     83.0912     26.0552
   241.4000      8.1932      2.0276      1.5066     -0.0125     81.3041     25.7094
   241.5000      8.1923      2.0302      1.4875     -0.0124     81.1192     25.6122
   241.6000      8.1923      2.0432      1.5256     -0.0121     82.1028     25.7223
   241.7000      8.1923      2.0506      1.6281     -0.0120     83.1454     26.0594
   241.8000      8.1926      2.0322      1.5055     -0.0124     83.2092     26.4458
   241.9000      8.1926      2.0013      1.4869     -0.0130     82.0622     26.4490
   242.0000      8.2049      1.9793      1.4935     -0.0134     80.2224     26.0121
   242.1000      8.2049      1.9698      1.4395     -0.0136     77.0563     25.6276
   242.2000      8.2049      1.9689      1.4668     -0.0136     73.0841     25.6697
   242.3000      8.2007      1.9709      1.4406     -0.0136     70.9128     25.8694
   242.4000      8.2007      1.9679      1.4954     -0.0136     71.1709     25.9499
   242.5000      8.1952      1.9576      1.4362     -0.0139     71.6483     26.0370
   242.6000      8.1952      1.9482      1.4714     -0.0140     70.1783     26.2446
   242.7000      8.1952      1.9373      1.4713     -0.0143     67.4563     26.4099
   242.8000      8.1983      1.9071      1.4930     -0.0149     66.3512     26.3935
   242.9000      8.1983      1.8501      1.4291     -0.0160     67.7231     26.4001
   243.0000      8.1977      1.7832      1.3689     -0.0173     69.2672     26.6658
   243.1000      8.1977      1.7267      1.3610     -0.0185     67.8035     27.0682
   243.2000      8.1977      1.6771      1.3916     -0.0195     63.9820     27.3133
   243.3000      8.1990      1.6301      1.2234     -0.0204     61.0771     27.2490
   243.4000      8.1990      1.5996      1.2926     -0.0210     60.6712     27.0776
   243.5000      8.2002      1.5915      1.2152     -0.0212     61.0013     27.0019
   243.6000      8.2002      1.5984      1.3465     -0.0210     59.7227     26.9621
   243.7000      8.2002      1.6160      1.2453     -0.0207     58.3825     27.0500
   243.8000      8.1975      1.6503      1.2995     -0.0200     59.3514     27.2226
   243.9000      8.1975      1.6983      1.3433     -0.0190     61.6141     27.3166
   244.0000      8.1962      1.7510      1.3244     -0.0180     62.8498     27.4333
   244.1000      8.1962      1.8119      1.3205     -0.0168     63.3645     27.5774
   244.2000      8.1962      1.8900      1.2852     -0.0152     64.4700     27.6673
   244.3000      8.1990      1.9831      1.3928     -0.0133     66.0296     27.5974
   244.4000      8.1990      2.0720      1.4019     -0.0116     66.3706     27.2481
   244.5000      8.2027      2.1442      1.4163     -0.0101     66.2611     26.6487
   244.6000      8.2027      2.1893      1.5438     -0.0092     68.5297     25.9930
   244.7000      8.2027      2.1955      1.4306     -0.0091     72.3433     25.5167
   244.8000      8.2061      2.1850      1.4253     -0.0093     76.1239     25.2939
   244.9000      8.2061      2.1923      1.4560     -0.0092     80.3604     24.9722
   245.0000      8.1897      2.2156      1.5632     -0.0087     83.2956     24.3919
   245.1000      8.1897      2.2359      1.5080     -0.0083     82.1796     23.7865
   245.2000      8.1897      2.2523      1.4935     -0.0080     78.0613     23.1413
   245.3000      8.1892      2.2639      1.5313     -0.0077     74.6904     22.6379
   245.4000      8.1892      2.2576      1.5613     -0.0079     74.6562     22.6513
   245.5000      8.1912      2.2335      1.5043     -0.0083     75.9267     22.9344
   245.6000      8.1912      2.2168      1.4814     -0.0087     74.6182     23.0072
   245.7000      8.1912      2.2241      1.5207     -0.0085     71.4999     22.7882
   245.8000      8.1768      2.2486      1.5160     -0.0080     70.4944     22.5598
   245.9000      8.1768      2.2762      1.6142     -0.0075     71.9885     22.5245
   246.0000      8.1812      2.2898      1.6277     -0.0072     72.9695     22.5579
   246.1000      8.1812      2.2822      1.5998     -0.0074     72.0048     22.4970
   246.2000      8.1812      2.2652      1.5210     -0.0077     71.6371     22.2362
   246.3000      8.1827      2.2545      1.5487     -0.0079     73.8918     21.9022
   246.4000      8.1827      2.2536      1.5405     -0.0079     76.7446     21.7088
   246.5000      8.1849      2.2565      1.5549     -0.0079     77.5665     21.6689
   246.6000      8.1849      2.2592      1.5832     -0.0078     75.1525     21.7064
   246.7000      8.1849      2.2609      1.5838     -0.0078     70.7301     21.8224
   246.8000      8.1734      2.2611      1.5364     -0.0078     68.4746     21.9933
   246.9000      8.1734      2.2627      1.5577     -0.0078     70.2613     22.2005
   247.0000      8.1803      2.2656      1.6198     -0.0077     73.5956     22.5005
   247.1000      8.1803      2.2718      1.5343     -0.0076     77.4682     22.5920
   247.2000      8.1803      2.2857      1.5898     -0.0073     80.8810     22.2208
   247.3000      8.1781      2.2918      1.6257     -0.0072     81.3779     21.8562
   247.4000      8.1781      2.2747      1.5638     -0.0075     79.2899     22.0550
   247.5000      8.1827      2.2497      1.5458     -0.0080     76.2506     22.7237
   247.6000      8.1827      2.2384      1.5789     -0.0082     73.4078     23.2715
   247.7000      8.1827      2.2393      1.5517     -0.0082     72.8828     23.1908
   247.8000      8.1899      2.2432      1.5609     -0.0081     76.5252     22.6832
   247.9000      8.1899      2.2491      1.5703     -0.0080     82.4727     22.5452
   248.0000      8.1828      2.2576      1.5385     -0.0079     86.1622     22.9249
   248.1000      8.1828      2.2655      1.5587     -0.0077     86.4146     23.2276
   248.2000      8.1828      2.2625      1.5771     -0.0078     85.9419     23.2233
   248.3000      8.1891      2.2443      1.5131     -0.0081     85.2957     23.2116
   248.4000      8.1891      2.2298      1.5066     -0.0084     82.8075     23.4761
   248.5000      8.1859      2.2308      1.5169     -0.0084     79.7326     23.7703
   248.6000      8.1859      2.2321      1.5722     -0.0084     78.4845     23.7738
   248.7000      8.1859      2.2335      1.5046     -0.0083     77.3889     23.6963
   248.8000      8.1740      2.2650      1.5223     -0.0077     74.3365     23.6382
   248.9000      8.1740      2.3376      1.6224     -0.0063     71.0624     23.3462
   249.0000      8.1748      2.4279      1.6351     -0.0044     69.2795     22.8332
   249.1000      8.1748      2.5172      1.6175     -0.0027     67.1706     22.5108
   249.2000      8.1748      2.6117      1.5768     -0.0008     63.2852     22.6044
   249.3000      8.1730      2.7167      1.6874      0.0013     60.2072     23.0289
   249.4000      8.1730      2.8167      1.7368      0.0033     59.7921     23.5662
   249.5000      8.1665      2.8914      1.7889      0.0048     60.4675     24.1059
   249.6000      8.1665      2.9286      1.7787      0.0056     59.5615     24.5887
   249.7000      8.1665      2.9312      1.7516      0.0056     56.8378     24.7370
   249.8000      8.1674      2.9058      1.7378      0.0051     54.7127     24.4905
   249.9000      8.1674      2.8451      1.7395      0.0039     54.3151     24.2477
