~Version Information
VERS.                      2.0: CWLS Log ASCII Standard - VERSION 2.0
WRAP.                       NO: One line per depth step
~Well Information Block
STRT.FT                -8.0000: 
STOP.FT              2135.0000: 
STEP.FT                 0.2500: 
NULL.                -999.2500: 
COMP.          Pioneer Natural Resources: COMPANY
WELL.             AMX 13-13 Tr: WELL
FLD.           Purgatorie River: FIELD
LOC.           2401' FSL & 895' FWL--: LOCATION
PROV.                       CO: PROVINCE
CNTY.               Las Animas: COUNTRY
SRVC.          Patterson Wireline: SERVICE COMPANY
DATE.          Thu Jan 05 10:37:28 2006: LOG DATE
UWI.           05 071 08631 00: UNIQUE WELL ID
~Curve Information Block
DEPT.FT            0 000 00 00: Depth
CCL.                          : Casing Collar Locator
TT3.usec                      : CBL 3' Travel Time
AMP3.mV                       : CBL 3' Amplitude
GR.GAPI                       : Gamma Ray
~Parameter Information Block
~A  Depth       CCL         TT3         AMP3         GR     
# ...
   829.5000      0.0000    402.7113     14.9811    131.0717
   829.7500      0.0000    430.2983     14.9371    120.5333
   830.0000      0.0000    447.5896     14.8887    110.0259
   830.2500      0.0000    446.4429     14.8498    102.0411
   830.5000      0.0000    434.1223     14.8190     98.7186
   830.7500      0.0000    427.1796     14.7812    100.5098
   831.0000      0.0000    434.1585     14.7234    105.7160
   831.2500      0.0000    446.3528     14.6452    111.7882
   831.5000      0.0000    447.0624     14.5566    116.9687
   831.7500      0.0000    428.9478     14.4684    120.6674
   832.0000      0.0000    400.3408     14.3832    123.0063
   832.2500      0.0000    375.7941     14.2955    124.3630
   832.5000      0.0000    364.4464     14.1983    124.9332
   832.7500      0.0000    367.9488     14.0924    124.4881
   833.0000      0.0000    384.4752     13.9873    122.7139
   833.2500      0.0000    409.7753     13.8924    119.8245
   833.5000      0.0000    434.8979     13.8115    116.9259
   833.7500      0.0000    448.2449     13.7450    115.8308
   834.0000      0.0000    444.3880     13.6922    117.9946
   834.2500      0.0000    430.1731     13.6490    123.0371
   834.5000      0.0000    420.5676     13.6055    128.4394
   834.7500      0.0000    429.6666     13.5514    131.1112
   835.0000      0.0000    464.6564     13.4847    129.2892
   835.2500      0.0000    522.6553     13.4150    123.0255
   835.5000      0.0000    590.3817     13.3560    113.5734
   835.7500      0.0000    650.0395     13.3140    102.9509
   836.0000      0.0000    688.6711     13.2844     93.7202
   836.2500      0.0000    701.7386     13.2603     88.1972
   836.5000      0.0000    688.9171     13.2440     87.3615
   836.7500      0.0000    651.0312     13.2457     90.5285
   837.0000      0.0000    594.1427     13.2719     96.1715
   837.2500      0.0000    534.8312     13.3158    103.1315
   837.5000      0.0000    496.4869     13.3641    111.1574
   837.7500      0.0000    496.3907     13.4109    120.3733
   838.0000      0.0000    534.0250     13.4622    130.3607
   838.2500      0.0000    590.2757     13.5280    139.8492
   838.5000      0.0000    637.7350     13.6154    147.1735
   838.7500      0.0000    653.9410     13.7291    151.0520
   839.0000      0.0000    629.7008     13.8708    151.2840
   839.2500      0.0000    571.3012     14.0336    148.8365
   839.5000      0.0000    497.5087     14.1977    145.0403
   839.7500      0.0000    430.3847     14.3353    140.6875
   840.0000      0.0000    383.7986     14.4245    135.8755
   840.2500      0.0000    358.7666     14.4620    130.6090
   840.5000      0.0000    348.3343     14.4666    125.5713
   840.7500      0.0000    344.9960     14.4700    122.1825
   841.0000      0.0000    344.1984     14.5036    121.5404
   841.2500      0.0000    344.0544     14.5905    123.3084
   841.5000      0.0000    344.0246     14.7424    125.8237
   841.7500      0.0000    344.0859     14.9531    127.0920
   842.0000      0.0000    344.4492     15.1918    125.8693
   842.2500      0.0000    345.6056     15.4083    122.5112
   842.5000      0.0000    348.3410     15.5488    118.9553
   842.7500      0.0000    353.3956     15.5777    117.2759
   843.0000      0.0000    360.7111     15.4903    117.8921
   843.2500      0.0000    368.9627     15.3104    119.3595
   843.5000      0.0000    376.1288     15.0727    120.0233
   843.7500      0.0000    380.8378     14.8060    119.7475
   844.0000      0.0000    383.6258     14.5329    119.9180
   844.2500      0.0000    388.0614     14.2691    121.6946
   844.5000      0.0000    401.5291     14.0074    124.4361
   844.7500      0.0000    433.3116     13.7027    126.1792
   845.0000      0.0000    488.0746     13.2963    125.6249
   845.2500      0.0000    559.0955     12.7776    123.3964
   845.5000      0.0000    629.6210     12.2206    121.3437
   845.7500      0.0000    683.3795     11.7464    120.8830
   846.0000      0.0000    714.3848     11.4418    122.2266
   846.2500      0.0000    727.3100     11.3114    124.9961
   846.5000      0.0000    730.7155     11.3043    129.0862
   846.7500      0.0000    731.0952     11.3693    134.7049
   847.0000      0.0000    731.1075     11.4881    141.8690
   847.2500      0.0000    729.7127     11.6824    150.0117
   847.5000      0.0000    721.7952     12.0035    157.6830
   847.7500      0.0000    698.6418     12.4904    162.4940
   848.0000      0.0000    652.5359     13.1181    162.1408
   848.2500      0.0000    584.5803     13.8005    156.3361
   848.5000      0.0000    508.0818     14.4451    147.7209
   848.7500      0.0000    441.4408     14.9782    140.4164
   849.0000      0.0000    396.2603     15.3384    137.3268
   849.2500      0.0000    372.4569     15.4932    138.4801
   849.5000      0.0000    363.0335     15.4647    141.5492
   849.7500      0.0000    361.0919     15.3199    143.9249
   850.0000      0.0000    363.0133     15.1330    144.5217
   850.2500      0.0000    367.9217     14.9593    143.7174
   850.5000      0.0000    376.2526     14.8294    141.7649
   850.7500      0.0000    389.7191     14.7540    138.0842
   851.0000      0.0000    411.8411     14.7323    132.5481
   851.2500      0.0000    445.4060     14.7627    126.6247
   851.5000      0.0000    486.6311     14.8416    122.2963
   851.7500      0.0000    523.2364     14.9486    120.0298
   852.0000      0.0000    542.5138     15.0420    118.4350
   852.2500      0.0000    541.8938     15.0852    115.9514
   852.5000      0.0000    528.4478     15.0828    112.5254
   852.7500      0.0000    508.5138     15.0765    109.5543
   853.0000      0.0000    482.9749     15.1046    108.3264
   853.2500      0.0000    453.9684     15.1671    108.6053
   853.5000      0.0000    431.3236     15.2319    108.8430
   853.7500      0.0000    428.8692     15.2659    107.7189
   854.0000      0.0000    454.9544     15.2607    105.2295
   854.2500      0.0000    506.0676     15.2357    102.3214
   854.5000      0.0000    567.7742     15.2232     99.8661
   854.7500      0.0000    622.7361     15.2483     98.2816
   855.0000      0.0000    660.3931     15.3196     97.9034
   855.2500      0.0000    680.4783     15.4313     99.1886
   855.5000      0.0000    688.8633     15.5673    102.3945
   855.7500      0.0000    691.6058     15.7038    107.2029
   856.0000      0.0000    692.2942     15.8142    112.6476
   856.2500      0.0000    692.3989     15.8801    117.3882
   856.5000      0.0000    692.3859     15.8996    120.3163
   856.7500      0.0000    692.3803     15.8876    121.0875
   857.0000      0.0000    692.4156     15.8693    120.0599
   857.2500      0.0000    692.4875     15.8716    117.8691
   857.5000      0.0000    692.5837     15.9112    115.2921
   857.7500      0.0000    692.6842     15.9863    113.2950
   858.0000      0.0000    692.7654     16.0759    112.8659
   858.2500      0.0000    692.8185     16.1509    114.7418
   858.5000      0.0000    692.8596     16.1891    119.1046
   858.7500      0.0000    692.9122     16.1851    124.9797
   859.0000      0.0000    692.9747     16.1497    129.9720
   859.2500      0.0000    693.0155     16.1017    131.7362
   859.5000      0.0000    693.0023     16.0574    130.4838
   859.7500      0.0000    692.9256     16.0252    129.2660
   860.0000      0.0000    692.7861     16.0065    130.8716
   860.2500      0.0000    692.5804     15.9981    134.8775
   860.5000      0.0000    692.3209     15.9939    138.5346
   860.7500      0.0000    692.0607     15.9890    140.0937
   861.0000      0.0000    691.8738     15.9847    140.2719
   861.2500      0.0000    691.8002     15.9914    140.6015
   861.5000      0.0000    691.8195     16.0219    141.3744
   861.7500      0.0000    691.8819     16.0804    141.6433
   862.0000      0.0000    691.9642     16.1566    140.7351
   862.2500      0.0000    692.1028     16.2320    139.2350
   862.5000      0.0000    692.3868     16.2944    138.4296
   862.7500      0.0000    692.9611     16.3467    139.0695
