~Version Information
VERS.                      2.0: CWLS Log ASCII Standard - VERSION 2.0
WRAP.                       NO: One line per depth step
~Well Information Block
STRT.FT               230.0000: 
STOP.FT               707.5000: 
STEP.FT                 0.2500: 
NULL.                -999.2500: 
COMP.          Pioneer Natural Resources: COMPANY
WELL.          Razor Clam 23-27: WELL
FLD.           Purgatoire River: FIELD
LOC.           2499' FSL & 2636' FWL: LOCATION
CNTY.               Las Animas: COUNTY
SRVC.                Patterson: SERVICE COMPANY
DATE.          Sun Feb 12 15:35:16 2006: LOG DATE
UWI.           05 071 08667 00: UNIQUE WELL ID
STAT.                 Colorado: STATE
~Curve Information Block
DEPT.FT            0 000 00 00: Depth
SN.Ohm-m                      : IEL Short Normal
SP.mV                         : IEL Spontaneous Potential
DIR.Ohm-m                     : IEL Induction Resistivity
GR.GAPI                       : Gamma Ray
~Parameter Information Block
~A  Depth        SN          SP         DIR          GR     
# ...
   297.0000   2000.0000   2000.0000     13.5406    121.7517
   297.2500   2000.0000   2000.0000     13.4708    124.4283
   297.5000   2000.0000   2000.0000     13.4677    129.5902
   297.7500   2000.0000   2000.0000     13.5364    132.8064
   298.0000   2000.0000   2000.0000     13.6780    136.0512
   298.2500   2000.0000   2000.0000     13.8849    136.8749
   298.5000   2000.0000   2000.0000     14.1356    136.3409
   298.7500   2000.0000   2000.0000     14.3960    135.1560
   299.0000   2000.0000   2000.0000     14.6320    132.7098
   299.2500   2000.0000   2000.0000     14.8262    130.8862
   299.5000   2000.0000   2000.0000     14.9855    128.0700
   299.7500   2000.0000   2000.0000     15.1340    126.0203
   300.0000   2000.0000   2000.0000     15.2945    122.2319
   300.2500   2000.0000   2000.0000     15.4714    119.2482
   300.5000   2000.0000   2000.0000     15.6486    115.0978
   300.7500   2000.0000   2000.0000     15.8088    113.3428
   301.0000   2000.0000   2000.0000     15.9618    112.7108
   301.2500   2000.0000   2000.0000     16.1545    113.1638
   301.5000   2000.0000   2000.0000     16.4462    113.8309
   301.7500   2000.0000   2000.0000     16.8676    113.7811
   302.0000   2000.0000   2000.0000     17.3952    113.0346
   302.2500   2000.0000   2000.0000     17.9594    112.2216
   302.5000   2000.0000   2000.0000     18.4819    109.7845
   302.7500   2000.0000   2000.0000     18.9154    106.4969
   303.0000   2000.0000   2000.0000     19.2573     98.5656
   303.2500   2000.0000   2000.0000     19.5327     92.1473
   303.5000   2000.0000   2000.0000     19.7695     83.7160
   303.7500   2000.0000   2000.0000     19.9898     80.5357
   304.0000   2000.0000   2000.0000     20.2144     80.5776
   304.2500   2000.0000   2000.0000     20.4684     83.0898
   304.5000   2000.0000   2000.0000     20.7739     87.7552
   304.7500   2000.0000   2000.0000     21.1350     89.9021
   305.0000   2000.0000   2000.0000     21.5289     90.3765
   305.2500   2000.0000   2000.0000     21.9109     88.8137
   305.5000   2000.0000   2000.0000     22.2314     84.3166
   305.7500   2000.0000   2000.0000     22.4568     80.5996
   306.0000   2000.0000   2000.0000     22.5861     75.2390
   306.2500   2000.0000   2000.0000     22.6545     72.2113
   306.5000   2000.0000   2000.0000     22.7180     68.5737
   306.7500   2000.0000   2000.0000     22.8272     66.7277
   307.0000   2000.0000   2000.0000     23.0059     64.6684
   307.2500   2000.0000   2000.0000     23.2455     63.4615
   307.5000   2000.0000   2000.0000     23.5175     61.3086
   307.7500   2000.0000   2000.0000     23.7925     59.5369
   308.0000   2000.0000   2000.0000     24.0545     56.6681
   308.2500   2000.0000   2000.0000     24.2981     54.9010
   308.5000   2000.0000   2000.0000     24.5116     52.8273
   308.7500   2000.0000   2000.0000     24.6642     51.8636
   309.0000   2000.0000   2000.0000     24.7165     50.9061
   309.2500   2000.0000   2000.0000     24.6517     50.5405
   309.5000   2000.0000   2000.0000     24.4985     50.4405
   309.7500   2000.0000   2000.0000     24.3191     50.6738
   310.0000   2000.0000   2000.0000     24.1730     51.2728
   310.2500   2000.0000   2000.0000     24.0875     51.6340
   310.5000   2000.0000   2000.0000     24.0550     51.8385
   310.7500   2000.0000   2000.0000     24.0489     51.7526
   311.0000   2000.0000   2000.0000     24.0396     51.7473
   311.2500   2000.0000   2000.0000     24.0019     52.2715
   311.5000   2000.0000   2000.0000     23.9149     54.4501
   311.7500   2000.0000   2000.0000     23.7653     56.9635
   312.0000   2000.0000   2000.0000     23.5532     62.5919
   312.2500   2000.0000   2000.0000     23.2921     67.9231
   312.5000   2000.0000   2000.0000     22.9997     78.6201
   312.7500   2000.0000   2000.0000     22.6894     87.1115
   313.0000   2000.0000   2000.0000     22.3720    100.0681
   313.2500   2000.0000   2000.0000     22.0587    107.7551
   313.5000   2000.0000   2000.0000     21.7572    116.9961
   313.7500   2000.0000   2000.0000     21.4625    121.7184
   314.0000   2000.0000   2000.0000     21.1580    126.9305
   314.2500   2000.0000   2000.0000     20.8329    129.1437
   314.5000   2000.0000   2000.0000     20.5006    130.8353
   314.7500   2000.0000   2000.0000     20.1993    131.5529
   315.0000   2000.0000   2000.0000     19.9681    133.3639
   315.2500   2000.0000   2000.0000     19.8177    135.1335
   315.5000   2000.0000   2000.0000     19.7178    137.2100
   315.7500   2000.0000   2000.0000     19.6082    137.2477
   316.0000   2000.0000   2000.0000     19.4303    134.8434
   316.2500   2000.0000   2000.0000     19.1557    132.0230
   316.5000   2000.0000   2000.0000     18.7953    126.6903
   316.7500   2000.0000   2000.0000     18.3861    122.3584
   317.0000   2000.0000   2000.0000     17.9703    114.1045
   317.2500   2000.0000   2000.0000     17.5812    107.4112
   317.5000   2000.0000   2000.0000     17.2384     96.9002
   317.7500   2000.0000   2000.0000     16.9492     90.8470
   318.0000   2000.0000   2000.0000     16.7107     84.7155
   318.2500   2000.0000   2000.0000     16.5107     82.5551
   318.5000   2000.0000   2000.0000     16.3257     81.1691
   318.7500   2000.0000   2000.0000     16.1205     81.0711
   319.0000   2000.0000   2000.0000     15.8548     82.2383
   319.2500   2000.0000   2000.0000     15.5005     83.8709
   319.5000   2000.0000   2000.0000     15.0602     86.5979
   319.7500   2000.0000   2000.0000     14.5701     87.7533
   320.0000   2000.0000   2000.0000     14.0829     88.0302
   320.2500   2000.0000   2000.0000     13.6428     87.9212
   320.5000   2000.0000   2000.0000     13.2729     89.1917
   320.7500   2000.0000   2000.0000     12.9764     91.6169
   321.0000   2000.0000   2000.0000     12.7457     97.1540
   321.2500   2000.0000   2000.0000     12.5711    101.2655
   321.5000   2000.0000   2000.0000     12.4443    106.6399
   321.7500   2000.0000   2000.0000     12.3589    109.1753
   322.0000   2000.0000   2000.0000     12.3071    111.2189
   322.2500   2000.0000   2000.0000     12.2781    111.7524
   322.5000   2000.0000   2000.0000     12.2583    112.3944
   322.7500   2000.0000   2000.0000     12.2352    122.5306
   323.0000   2000.0000   2000.0000     12.2015    123.4794
   323.2500   2000.0000   2000.0000     12.1585    123.0381
   323.5000   2000.0000   2000.0000     12.1176    119.7824
   323.7500   2000.0000   2000.0000     12.0992    124.9948
   324.0000   2000.0000   2000.0000     12.1273    117.5189
   324.2500   2000.0000   2000.0000     12.2220    112.1605
   324.5000   2000.0000   2000.0000     12.3925    104.8235
   324.7500   2000.0000   2000.0000     12.6355    101.3160
   325.0000   2000.0000   2000.0000     12.9383     99.0930
   325.2500   2000.0000   2000.0000     13.2818     99.3767
   325.5000   2000.0000   2000.0000     13.6440    101.0412
   325.7500   2000.0000   2000.0000     14.0031    102.1894
   326.0000   2000.0000   2000.0000     14.3430    103.1981
   326.2500   2000.0000   2000.0000     14.6587    103.2823
   326.5000   2000.0000   2000.0000     14.9565    102.8001
   326.7500   2000.0000   2000.0000     15.2479    102.2281
   327.0000   2000.0000   2000.0000     15.5396    100.6197
   327.2500   2000.0000   2000.0000     15.8301     98.6111
   327.5000   2000.0000   2000.0000     16.1119     94.0274
   327.7500   2000.0000   2000.0000     16.3759     90.3399
   328.0000   2000.0000   2000.0000     16.6133     84.8743
   328.2500   2000.0000   2000.0000     16.8163     81.8208
   328.5000   2000.0000   2000.0000     16.9789     79.0013
   328.7500   2000.0000   2000.0000     17.0976     78.7031
   329.0000   2000.0000   2000.0000     17.1709     80.6482
   329.2500   2000.0000   2000.0000     17.2023     82.9127
   329.5000   2000.0000   2000.0000     17.2060     85.7888
   329.7500   2000.0000   2000.0000     17.2089     86.2264
   330.0000   2000.0000   2000.0000     17.2400     83.9322
   330.2500   2000.0000   2000.0000     17.3166     80.9162
