~Version Information
VERS.                      2.0: CWLS Log ASCII Standard - VERSION 2.0
WRAP.                       NO: One line per depth step
~Well Information Block
STRT.FT                -8.2500: 
STOP.FT              1118.7500: 
STEP.FT                 0.2500: 
NULL.                -999.2500: 
COMP.          Pioneer Natural Resources: COMPANY
WELL.             Croc 42-9 Tr: WELL
FLD.           Purgatorie River: FIELD
LOC.           --2429' FNL & 315' FEL------: LOCATION
STAT.                       CO: State
CNTY.               Las Animas: COUNTY
CTRY. USA : Country
SECT. 9 : Section
TOWN. 32S : Township
RANG. 66W : Range
SRVC.          Patterson Wireline: SERVICE COMPANY
DATE.          Tue Oct 18 14:14:43 2005: LOG DATE
API.           05 071 08550 00: UNIQUE WELL ID
~Curve Information Block
DEPT.FT            0 000 00 00: Depth
CCL.                          : Casing Collar Locator
TT3.usec                      : CBL 3' Travel Time
AMP3.mV                       : CBL 3' Amplitude
GR.GAPI                       : Gamma Ray
~Parameter Information Block
~A  Depth       CCL         TT3         AMP3         GR     
# ...
   795.7500      0.0000    581.7868     11.1191    119.9308
   796.0000      0.0000    546.6547     12.0254    117.2322
   796.2500      0.0000    506.9297     12.8068    114.4032
   796.5000      0.0000    465.4326     13.2961    113.2258
   796.7500      0.0000    427.4287     13.5101    113.8298
   797.0000      0.0000    401.0525     13.5273    115.8033
   797.2500      0.0000    393.4758     13.3977    119.5606
   797.5000      0.0000    409.1958     13.1535    126.1142
   797.7500      0.0000    449.0063     12.8443    135.5817
   798.0000      0.0000    504.7856     12.5395    146.3432
   798.2500      0.0000    555.7018     12.3090    155.8106
   798.5000      0.0000    576.5983     12.2065    161.8021
   798.7500      0.0000    555.8916     12.2560    163.4233
   799.0000      0.0000    505.0493     12.4423    161.4762
   799.2500      0.0000    448.7779     12.7104    158.2577
   799.5000      0.0000    406.5225     12.9804    156.2452
   799.7500      0.0000    383.7062     13.1778    156.4042
   800.0000      0.0000    377.0015     13.2554    157.9514
   800.2500      0.0000    384.0081     13.1930    159.8132
   800.5000      0.0000    407.7624     12.9906    161.7543
   800.7500      0.0000    453.2750     12.6796    163.7329
   801.0000      0.0000    518.9651     12.3423    164.7372
   801.2500      0.0000    590.9824     12.0967    163.1371
   801.5000      0.0000    647.2697     12.0348    158.4353
   801.7500      0.0000    668.6528     12.1635    152.1136
   802.0000      0.0000    648.2037     12.4104    146.4067
   802.2500      0.0000    595.1007     12.6765    142.6322
   802.5000      0.0000    533.0947     12.8770    140.7856
   802.7500      0.0000    491.7480     12.9488    139.9294
   803.0000      0.0000    491.8265     12.8571    138.6541
   803.2500      0.0000    533.8766     12.6137    135.9964
   803.5000      0.0000    599.0886     12.2825    132.5952
   803.7500      0.0000    662.3898     11.9528    130.5994
   804.0000      0.0000    707.4170     11.6965    131.9788
   804.2500      0.0000    731.9135     11.5381    136.9929
   804.5000      0.0000    742.3063     11.4601    144.4159
   804.7500      0.0000    745.8324     11.4281    152.8389
   805.0000      0.0000    746.8300     11.4101    161.3857
   805.2500      0.0000    747.0435     11.3790    169.4646
   805.5000      0.0000    746.9807     11.3107    176.3073
   805.7500      0.0000    746.7747     11.1911    180.8005
   806.0000      0.0000    746.4464     11.0234    181.8025
   806.2500      0.0000    745.8636     10.8195    178.8745
   806.5000      0.0000    744.9468     10.5854    172.7992
   806.7500      0.0000    744.5609     10.3241    165.2769
   807.0000      0.0000    748.2081     10.0528    158.1766
   807.2500      0.0000    762.7203      9.7948    153.0820
   807.5000      0.0000    794.8484      9.5468    151.1402
   807.7500      0.0000    844.6304      9.2831    152.6572
   808.0000      0.0000    902.5704      9.0214    156.5378
   808.2500      0.0000    955.3116      8.8636    160.3020
   808.5000      0.0000    994.1747      8.9168    161.2422
   808.7500      0.0000   1018.2523      9.1689    158.1527
   809.0000     -2.0000   1031.0768      9.4923    152.1816
   809.2500      2.0000   1034.9246      9.7812    146.0582
   809.5000      0.0000   1026.3949     10.0621    142.4089
   809.7500      0.0000    995.8587     10.4977    142.3080
   810.0000      0.0000    932.3873     11.3026    144.8286
   810.2500      0.0000    834.0524     12.5781    147.9379
   810.5000      0.0000    716.4462     14.1666    150.1401
   810.7500      0.0000    606.7158     15.7230    151.3790
   811.0000      0.0000    523.6964     16.9834    152.3757
   811.2500      0.0000    465.7676     17.9187    153.1611
   811.5000      0.0000    420.7779     18.6241    152.4226
   811.7500      0.0000    382.5729     19.1646    148.5565
   812.0000      0.0000    353.4428     19.5705    141.5301
   812.2500      0.0000    335.7686     19.9088    133.7606
   812.5000      0.0000    327.4792     20.2856    128.9815
   812.7500      0.0000    324.3943     20.7890    129.7077
   813.0000      0.0000    323.3486     21.4657    135.3478
   813.2500      0.0000    322.8755     22.3424    142.7077
   813.5000      0.0000    322.5154     23.4267    148.3774
   813.7500      0.0000    322.1861     24.6786    150.7896
   814.0000      0.0000    321.8802     26.0094    150.5254
   814.2500      0.0000    321.6097     27.3315    149.3527
   814.5000      0.0000    321.3739     28.6017    148.8449
   814.7500      0.0000    321.1661     29.8168    148.9925
   815.0000      0.0000    320.9818     30.9832    147.9386
   815.2500      0.0000    320.8203     32.0903    143.9254
   815.5000      0.0000    320.6830     33.1032    137.6241
   815.7500      0.0000    320.5737     33.9759    131.5277
   816.0000      0.0000    320.4998     34.6787    126.9869
   816.2500      0.0000    320.4697     35.2110    123.0330
   816.5000      0.0000    320.4840     35.5896    118.1723
   816.7500      0.0000    320.5320     35.8357    112.0584
   817.0000      0.0000    320.5940     35.9799    105.0836
   817.2500      0.0000    320.6502     36.0690     97.4690
   817.5000      0.0000    320.6858     36.1497     89.4518
   817.7500      0.0000    320.6924     36.2412     81.9557
   818.0000      0.0000    320.6677     36.3282     76.5318
   818.2500      0.0000    320.6158     36.3712     74.5478
   818.5000      0.0000    320.5490     36.3200     76.5130
   818.7500      0.0000    320.4865     36.1272     81.9647
   819.0000      0.0000    320.4496     35.7589     89.4492
   819.2500      0.0000    320.4544     35.1987     96.6191
   819.5000      0.0000    320.5048     34.4420    101.1152
   819.7500      0.0000    320.6224     33.4816    102.1134
   820.0000      0.0000    320.9314     32.2907    100.9400
   820.2500      0.0000    322.0334     30.8305     99.7096
   820.5000      0.0000    325.9292     29.0994     99.3034
   820.7500      0.0000    337.4514     27.1809     99.0366
   821.0000      0.0000    364.6101     25.2272     98.2660
   821.2500      0.0000    414.9066     23.3797     97.6008
   821.5000      0.0000    487.6786     21.7081     97.9099
   821.7500      0.0000    569.6068     20.2209     98.7195
   822.0000      0.0000    640.8583     18.9142     98.5318
   822.2500      0.0000    687.7326     17.7922     96.4856
   822.5000      0.0000    709.5036     16.8453     93.0126
   822.7500      0.0000    714.9147     16.0337     89.1868
   823.0000      0.0000    714.6077     15.3086     86.0501
   823.2500      0.0000    715.8152     14.6406     84.2119
   823.5000      0.0000    720.7571     14.0186     83.4795
   823.7500      0.0000    728.1684     13.4257     82.9542
   824.0000      0.0000    736.3325     12.8365     81.8177
   824.2500      0.0000    745.0482     12.2483     80.1310
   824.5000      0.0000    755.4604     11.7101     78.8100
   824.7500      0.0000    769.5198     11.3062     78.9039
   825.0000      0.0000    790.5541     11.1021     80.9287
   825.2500      0.0000    823.0646     11.1053     84.6545
   825.5000      0.0000    868.3368     11.2720     89.1659
   825.7500      0.0000    917.6980     11.5430     93.2084
   826.0000      0.0000    952.3279     11.8760     95.8210
   826.2500      0.0000    955.0281     12.2597     96.7641
   826.5000      0.0000    924.6597     12.7111     96.2393
   826.7500      0.0000    877.5410     13.2588     94.3164
   827.0000      0.0000    834.0922     13.9248     90.8386
   827.2500      0.0000    805.2925     14.7143     85.8497
   827.5000      0.0000    790.1664     15.6023     80.0840
   827.7500      0.0000    780.9619     16.5248     74.9793
   828.0000      0.0000    767.2813     17.4011     71.8751
   828.2500      0.0000    737.4014     18.1856     70.9633
   828.5000      0.0000    681.7518     18.8964     71.1943
   828.7500      0.0000    600.5782     19.5772     71.2234
   829.0000      0.0000    508.4365     20.2308     70.3085
