~Version Information
VERS.                      2.0: CWLS Log ASCII Standard - VERSION 2.0
WRAP.                       NO: One line per depth step
~Well Information Block
STRT.FT                65.0000: 
STOP.FT               998.0000: 
STEP.FT                 0.2500: 
NULL.                -999.2500: 
COMP.          Pioneer Natural Resources: COMPANY
WELL.              Gough 14-29: WELL
FLD.           Purgatorie River: FIELD
LOC.           1199' FSL & 676' FWL: LOCATION
PROV.                 Colorado: PROVINCE
CNTY.               Las Animas: COUNTRY
SRVC.                Patterson: SERVICE COMPANY
DATE.          Wed Dec 28 08:38:26 2005: LOG DATE
UWI.                          : UNIQUE WELL ID
~Curve Information Block
DEPT.FT            0 000 00 00: Depth
CCL.                          : Casing Collar Locator
TT3.usec                      : CBL 3' Travel Time
AMP3.mV                       : CBL 3' Amplitude
GR.GAPI                       : Gamma Ray
~Parameter Information Block
~A  Depth       CCL         TT3         AMP3         GR     
# ...
   232.5000      0.0000    259.2927     84.0422    122.2523
   232.7500      0.0000    259.3207     84.1078    118.7985
   233.0000      0.0000    259.3482     84.1980    114.2115
   233.2500      0.0000    259.3562     84.2574    109.6519
   233.5000      0.0000    259.3454     84.2724    105.3143
   233.7500      0.0000    259.3241     84.2472    101.0277
   234.0000      0.0000    259.2998     84.1931     96.9459
   234.2500      0.0000    259.2784     84.1222     93.4979
   234.5000      0.0000    259.2638     84.0443     90.6294
   234.7500      0.0000    259.2576     83.9820     87.5115
   235.0000      0.0000    259.2622     83.9817     83.3214
   235.2500      0.0000    259.2799     84.0798     78.0631
   235.5000      0.0000    259.3030     84.2341     72.5302
   235.7500      0.0000    259.3168     84.3476     67.8609
   236.0000      0.0000    259.3129     84.3667     65.1684
   236.2500      0.0000    259.2923     84.2917     65.0551
   236.5000      0.0000    259.2642     84.1406     67.2249
   236.7500      0.0000    259.2452     83.9586     70.6506
   237.0000      0.0000    259.2474     83.8277     74.0418
   237.2500      0.0000    259.2688     83.8114     76.1595
   237.5000      0.0000    259.2965     83.8724     76.1992
   237.7500      0.0000    259.3167     83.8999     74.3955
   238.0000      0.0000    259.3224     83.8369     72.1299
   238.2500      0.0000    259.3219     83.7267     70.9473
   238.5000      0.0000    259.3320     83.6298     71.2741
   238.7500      0.0000    259.3576     83.5565     72.2087
   239.0000      0.0000    259.3894     83.4949     72.3626
   239.2500      0.0000    259.4174     83.4335     70.6594
   239.5000      0.0000    259.4379     83.3500     66.7684
   239.7500      0.0000    259.4515     83.2292     61.4001
   240.0000      0.0000    259.4598     83.0808     56.0119
   240.2500      0.0000    259.4633     82.9132     51.7212
   240.5000      0.0000    259.4600     82.7080     48.5548
   240.7500      0.0000    259.4493     82.4481     45.9949
   241.0000      0.0000    259.4413     82.1865     43.9260
   241.2500      0.0000    259.4579     82.0479     42.6933
   241.5000      0.0000    259.5083     82.0826     42.5488
   241.7500      0.0000    259.5685     82.1795     43.3646
   242.0000      0.0000    259.6027     82.2143     44.6168
   242.2500      0.0000    259.5967     82.1869     45.5042
   242.5000      0.0000    259.5674     82.1695     45.4675
   242.7500      0.0000    259.5416     82.1982     44.8325
   243.0000      0.0000    259.5280     82.2286     44.8487
   243.2500      0.0000    259.5163     82.1919     46.9917
   243.5000      0.0000    259.5026     82.0903     51.9366
   243.7500      0.0000    259.4953     81.9777     58.7615
   244.0000      0.0000    259.4984     81.8637     65.2079
   244.2500      0.0000    259.5073     81.7239     69.2428
   244.5000      0.0000    259.5171     81.5793     70.5525
   244.7500      0.0000    259.5245     81.4938     70.3735
   245.0000      0.0000    259.5283     81.5067     70.0020
   245.2500      0.0000    259.5333     81.6019     69.8531
   245.5000      0.0000    259.5474     81.7373     69.9690
   245.7500      0.0000    259.5694     81.8877     70.8319
   246.0000      0.0000    259.5870     82.0429     73.1303
   246.2500      0.0000    259.5874     82.1654     76.9192
   246.5000      0.0000    259.5674     82.2035     81.3824
   246.7500      0.0000    259.5351     82.1492     85.3400
   247.0000      0.0000    259.5063     82.0480     87.9352
   247.2500      0.0000    259.4925     81.9541     89.1929
   247.5000      0.0000    259.4906     81.8828     90.0176
   247.7500      0.0000    259.4920     81.8179     91.3279
   248.0000      0.0000    259.4968     81.7349     93.1042
   248.2500      0.0000    259.5121     81.6122     94.6233
   248.5000      0.0000    259.5357     81.4564     95.5069
   248.7500      0.0000    259.5535     81.3014     95.9301
   249.0000      0.0000    259.5576     81.1707     95.8688
   249.2500      0.0000    259.5579     81.0856     95.0404
   249.5000      0.0000    259.5703     81.0774     93.7916
   249.7500      0.0000    259.5938     81.1340     93.0646
   250.0000      0.0000    259.6098     81.1959     92.9327
   250.2500      0.0000    259.6057     81.2381     92.0172
   250.5000      0.0000    259.5838     81.2733     89.0728
   250.7500      0.0000    259.5517     81.2777     84.6838
   251.0000      0.0000    259.5226     81.1965     80.8521
   251.2500      0.0000    259.5133     81.0308     79.2328
   251.5000      0.0000    259.5316     80.8577     79.9930
   251.7500      0.0000    259.5635     80.7415     81.8605
   252.0000      0.0000    259.5843     80.6683     82.9173
   252.2500      0.0000    259.5841     80.5880     81.9395
   252.5000      0.0000    259.5677     80.4555     79.4142
   252.7500      0.0000    259.5388     80.2582     76.9606
   253.0000      0.0000    259.5074     80.0598     75.5753
   253.2500      0.0000    259.4936     79.9749     74.6967
   253.5000      0.0000    259.5067     80.0708     72.9967
   253.7500      0.0000    259.5396     80.2936     69.8114
   254.0000      0.0000    259.5800     80.5021     65.7595
   254.2500      0.0000    259.6155     80.5939     62.2230
   254.5000      0.0000    259.6345     80.5733     60.3397
   254.7500      0.0000    259.6300     80.4996     60.2180
   255.0000      0.0000    259.6092     80.4194     60.8252
   255.2500      0.0000    259.5929     80.3513     60.7845
   255.5000      0.0000    259.5916     80.2698     59.4945
   255.7500      0.0000    259.5935     80.1088     57.3956
   256.0000      0.0000    259.5891     79.8345     55.1619
   256.2500      0.0000    259.5812     79.4791     52.9696
   256.5000      0.0000    259.5659     79.0534     50.6791
   256.7500      0.0000    259.5515     78.4422     48.3708
   257.0000      0.0000    259.6608     77.4753     46.3276
   257.2500      0.0000    260.1988     76.0338     44.6608
   257.5000      0.0000    261.4328     73.6118     43.3114
   257.7500      0.0000    263.1823     69.3401     42.3316
   258.0000      0.0000    264.8396     63.8440     41.8354
   258.2500      0.0000    265.9417     59.4645     41.6738
   258.5000      0.0000    266.5017     57.3146     41.4610
   258.7500      0.0000    266.7523     56.5254     41.0544
   259.0000     -2.0000    266.8567     56.1422     40.8857
   259.2500      2.0000    266.8923     55.8626     41.6575
   259.5000      0.0000    266.9044     55.6421     43.5958
   259.7500      0.0000    266.8950     55.5518     46.0047
   260.0000      0.0000    266.7632     56.0682     47.7707
   260.2500      0.0000    266.2970     57.9331     48.4552
   260.5000      0.0000    265.3468     61.0989     48.7246
   260.7500      0.0000    263.9919     64.7649     49.5196
   261.0000      0.0000    262.4716     68.6166     50.9718
   261.2500      0.0000    261.0974     72.3687     52.4165
   261.5000      0.0000    260.1626     75.1143     53.3953
   261.7500      0.0000    259.7262     76.4384     54.3680
   262.0000      0.0000    259.6038     76.8518     56.3933
   262.2500      0.0000    259.5999     76.9621     60.2413
   262.5000      0.0000    259.6207     77.0305     65.8181
   262.7500      0.0000    259.6359     77.0980     72.2317
   263.0000      0.0000    259.6376     77.1544     78.2904
   263.2500      0.0000    259.6255     77.1941     83.1566
   263.5000      0.0000    259.6027     77.1967     86.7903
   263.7500      0.0000    259.5806     77.1377     89.7043
   264.0000      0.0000    259.5705     77.0465     92.1922
   264.2500      0.0000    259.5688     76.9797     94.1007
   264.5000      0.0000    259.5681     76.9354     95.5787
   264.7500      0.0000    259.5711     76.8697     97.6660
   265.0000      0.0000    259.5808     76.7885    101.5838
   265.2500      0.0000    259.5879     76.7612    107.3855
   265.5000      0.0000    259.5843     76.8373    113.5101
   265.7500      0.0000    259.5747     77.0015    117.5094
