~Version Information
VERS.                      2.0: CWLS Log ASCII Standard - VERSION 2.0
WRAP.                       NO: One line per depth step
~Well Information Block
STRT.FT                -9.5000: 
STOP.FT              2305.7500: 
STEP.FT                 0.2500: 
NULL.                -999.2500: 
COMP.          Pioneer Natural Resources: COMPANY
WELL.          Fittipaldi 21-12: WELL
FLD.           Purgatorie River: FIELD
LOC.           207' FNL & 2110' FWL--: LOCATION
CNTY.               Las Animas: COUNTY
SRVC.          Patterson Wireline: SERVICE COMPANY
DATE.          Wed Apr 12 10:38:25 2006: LOG DATE
UWI.           05 071 08492 00: UNIQUE WELL ID
STAT.                       CO: STATE
~Curve Information Block
DEPT.FT            0 000 00 00: Depth
CCL.                          : Casing Collar Locator
TT3.usec                      : CBL 3' Travel Time
AMP3.mV                       : CBL 3' Amplitude
GR.GAPI                       : Gamma Ray
~Parameter Information Block
~A  Depth       CCL         TT3         AMP3         GR     
# ...
  1196.5000      0.0000    490.0990      3.4603     54.9217
  1196.7500      0.0000    501.0047      3.4912     52.7758
  1197.0000      0.0000    519.1449      3.5110     51.7845
  1197.2500      0.0000    546.0826      3.5096     53.5203
  1197.5000      0.0000    580.8647      3.4832     58.6305
  1197.7500      0.0000    618.2432      3.4299     66.9464
  1198.0000      0.0000    650.5627      3.3475     77.5738
  1198.2500      0.0000    672.0826      3.2364     88.9306
  1198.5000      0.0000    681.8632      3.1048     99.3822
  1198.7500      0.0000    683.1748      2.9696    108.1115
  1199.0000      0.0000    680.7150      2.8520    115.0207
  1199.2500      0.0000    678.1054      2.7663    119.9997
  1199.5000      0.0000    677.1340      2.7101    123.0255
  1199.7500      0.0000    678.4209      2.6701    124.5476
  1200.0000      0.0000    682.1127      2.6371    124.8748
  1200.2500      0.0000    687.8253      2.6120    123.6686
  1200.5000      0.0000    694.3486      2.5970    120.7028
  1200.7500      0.0000    700.0556      2.5847    116.3867
  1201.0000      0.0000    703.8643      2.5574    110.9196
  1201.2500      0.0000    705.7473      2.4972    103.8029
  1201.5000      0.0000    706.3277      2.3984     94.7925
  1201.7500      0.0000    706.1465      2.2737     84.8331
  1202.0000      0.0000    705.2954      2.1433     75.7515
  1202.2500      0.0000    703.5673      2.0214     69.1150
  1202.5000      0.0000    700.9046      1.9133     65.3054
  1202.7500      0.0000    697.7200      1.8241     63.5972
  1203.0000      0.0000    694.6700      1.7654     63.0478
  1203.2500      0.0000    692.1397      1.7530     63.0907
  1203.5000      0.0000    690.2646      1.7966     63.3518
  1203.7500      0.0000    689.4133      1.8909     63.3914
  1204.0000      0.0000    689.9803      2.0210     62.9895
  1204.2500      0.0000    691.4615      2.1771     62.6997
  1204.5000      0.0000    692.3107      2.3610     63.8945
  1204.7500      0.0000    690.7911      2.5741     67.9995
  1205.0000      0.0000    685.1683      2.8063     75.4169
  1205.2500      0.0000    672.8542      3.0401     85.0602
  1205.5000      0.0000    650.4487      3.2681     94.8759
  1205.7500      0.0000    615.8899      3.5031    103.0579
  1206.0000      0.0000    571.5654      3.7636    109.2019
  1206.2500      0.0000    526.1627      4.0439    114.3272
  1206.5000      0.0000    492.8657      4.3032    119.3183
  1206.7500      0.0000    482.7713      4.4916    123.4937
  1207.0000      0.0000    496.4602      4.5851    125.3893
  1207.2500      0.0000    520.3574      4.5929    124.6472
  1207.5000      0.0000    533.0938      4.5361    122.2614
  1207.7500      0.0000    520.0338      4.4286    119.3560
  1208.0000      0.0000    484.8760      4.2789    116.6039
  1208.2500      0.0000    446.8182      4.1011    114.4063
  1208.5000      0.0000    425.8257      3.9166    112.6856
  1208.7500      0.0000    430.4040      3.7444    110.8060
  1209.0000      0.0000    456.3946      3.5922    108.4868
  1209.2500      0.0000    492.6424      3.4611    106.7200
  1209.5000      0.0000    526.7054      3.3554    107.2948
  1209.7500      0.0000    548.5127      3.2857    111.4002
  1210.0000      0.0000    553.3917      3.2595    118.5907
  1210.2500      0.0000    544.5233      3.2697    126.8111
  1210.5000      0.0000    531.4905      3.2965    133.5389
  1210.7500      0.0000    523.9526      3.3203    137.4563
  1211.0000      0.0000    526.7205      3.3301    139.3954
  1211.2500      0.0000    541.1444      3.3211    141.4878
  1211.5000      0.0000    567.6238      3.2905    144.9436
  1211.7500      0.0000    603.5937      3.2409    148.7089
  1212.0000      0.0000    641.4747      3.1849    150.7061
  1212.2500      0.0000    672.4402      3.1413    150.1095
  1212.5000      0.0000    692.2381      3.1228    147.6491
  1212.7500      0.0000    702.3240      3.1315    143.9483
  1213.0000      0.0000    706.5722      3.1614    138.7658
  1213.2500      0.0000    707.9519      3.2038    132.2480
  1213.5000      0.0000    707.3196      3.2502    126.2589
  1213.7500      0.0000    703.5583      3.2950    123.8644
  1214.0000      0.0000    694.5641      3.3339    127.1689
  1214.2500      0.0000    679.2490      3.3634    135.4690
  1214.5000      0.0000    659.1904      3.3813    145.6354
  1214.7500      0.0000    637.3370      3.3875    154.3550
  1215.0000      0.0000    614.8163      3.3823    159.8553
  1215.2500      0.0000    591.5188      3.3650    161.8533
  1215.5000      0.0000    571.1192      3.3366    160.8045
  1215.7500      0.0000    561.9844      3.2988    157.5534
  1216.0000      0.0000    569.5198      3.2509    153.1857
  1216.2500      0.0000    588.5569      3.1936    148.6380
  1216.5000      0.0000    605.6177      3.1400    144.2690
  1216.7500      0.0000    608.4490      3.1182    139.7865
  1217.0000      0.0000    593.0643      3.1572    134.5895
  1217.2500      0.0000    563.7161      3.2681    128.1732
  1217.5000      0.0000    528.2738      3.4361    120.5273
  1217.7500      0.0000    493.2164      3.6325    112.6029
  1218.0000      0.0000    461.7004      3.8349    106.2686
  1218.2500      0.0000    435.3349      4.0323    103.1591
  1218.5000      0.0000    416.4948      4.2086    103.4299
  1218.7500      0.0000    408.0796      4.3319    105.9239
  1219.0000      0.0000    411.2977      4.3730    109.4234
  1219.2500      0.0000    423.9620      4.3350    113.3831
  1219.5000      0.0000    440.7420      4.2572    117.4538
  1219.7500      0.0000    455.5133      4.1848    120.6761
  1220.0000      0.0000    464.3947      4.1368    121.6001
  1220.2500      0.0000    467.0516      4.1017    119.5547
  1220.5000      0.0000    465.4495      4.0593    115.7987
  1220.7500      0.0000    461.4049      4.0045    112.9259
  1221.0000      0.0000    455.0305      3.9500    112.8244
  1221.2500      0.0000    445.3846      3.9100    115.2846
  1221.5000      0.0000    432.6851      3.8863    118.4604
  1221.7500      0.0000    419.6467      3.8687    120.1981
  1222.0000      0.0000    410.6456      3.8430    119.0366
  1222.2500      0.0000    410.2174      3.7945    114.8439
  1222.5000      0.0000    422.2005      3.7103    109.0289
  1222.7500      0.0000    447.9487      3.5955    103.6878
  1223.0000      0.0000    483.4174      3.4912    100.1301
  1223.2500      0.0000    519.7567      3.4581     98.3939
  1223.5000      0.0000    549.9699      3.5188     98.1049
  1223.7500      0.0000    574.1619      3.6263     99.2591
  1224.0000      0.0000    595.7995      3.7113    101.8598
  1224.2500      0.0000    614.9388      3.7518    104.9611
  1224.5000      0.0000    628.7402      3.7766    106.5057
  1224.7500      2.0000    637.1119      3.8176    104.6419
  1225.0000     -2.0000    644.1210      3.8803     99.3456
  1225.2500      0.0000    653.5300      3.9541     92.5620
  1225.5000      0.0000    664.7819      4.0338     86.8001
  1225.7500      0.0000    674.1274      4.1261     83.7011
  1226.0000      0.0000    679.0150      4.2273     83.7046
  1226.2500      0.0000    680.5989      4.2974     86.5257
  1226.5000      0.0000    682.0646      4.2800     91.4938
  1226.7500      0.0000    685.3777      4.1617     97.3921
  1227.0000      0.0000    690.0089      3.9887    102.4836
  1227.2500      0.0000    693.8423      3.8135    105.5437
  1227.5000      0.0000    694.3630      3.6503    107.0926
  1227.7500      0.0000    689.1281      3.4910    108.8934
  1228.0000      0.0000    675.7104      3.3381    111.7859
  1228.2500      0.0000    651.5984      3.2057    114.5644
  1228.5000      0.0000    615.1928      3.1046    115.2379
  1228.7500      0.0000    568.5038      3.0341    112.5952
  1229.0000      0.0000    518.9656      2.9862    106.2261
  1229.2500      0.0000    476.5318      2.9532     96.1836
  1229.5000      0.0000    447.5211      2.9325     83.5933
  1229.7500      0.0000    431.4477      2.9258     71.0435
