~Version Information
VERS.                      2.0: CWLS Log ASCII Standard - VERSION 2.0
WRAP.                       NO: One line per depth step
~Well Information Block
STRT.FT               197.7500: 
STOP.FT              1631.0000: 
STEP.FT                 0.2500: 
NULL.                -999.2500: 
COMP.          Petrogulf Corporation: COMPANY
WELL.             State 16-44R: WELL
FLD.           Purgatoire River: FIELD
LOC.           632' FSL & 223' FEL--: LOCATION
PROV.                 Colorado: PROVINCE
CNTY.               Las Animas: COUNTRY
SRVC.                Patterson: SERVICE COMPANY
DATE.          Fri Oct 21 11:31:17 2005: LOG DATE
UWI.           05 071 08457 00: UNIQUE WELL ID
~Curve Information Block
DEPT.FT            0 000 00 00: Depth
SP.mV                         : DIL Spontaneous Potential
RILD.Ohm-m                    : DIL Deep Resistivity
RILM.Ohm-m                    : DIL Medium Resistivity
RLL3.Ohm-m                    : DIL Shallow Resistivity
GR.GAPI                       : Gamma Ray
~Parameter Information Block
~A  Depth        SP         RILD        RILM        RLL3         GR     
# ...
   869.7500     43.7633     35.0364     40.0536     70.9819     51.8041
   870.0000     44.2627     34.1809     40.6263     86.2892     49.8940
   870.2500     44.8658     33.0164     41.0458    106.1851     49.1556
   870.5000     45.6136     31.5954     41.0422    126.5106     49.7419
   870.7500     46.5320     30.0171     40.3252    141.3869     51.5715
   871.0000     47.6149     28.3936     38.7112    145.6951     56.4074
   871.2500     48.8292     26.8194     36.2507    137.4171     60.7984
   871.5000     50.1402     25.3559     33.2345    118.3274     68.6809
   871.7500     51.5244     24.0327     30.0602     93.1219     74.4700
   872.0000     52.9477     22.8579     27.0713     67.6889     83.3346
   872.2500     54.3402     21.8296     24.4734     46.9639     89.1209
   872.5000     55.6104     20.9436     22.3351     33.2209     97.4321
   872.7500     56.6846     20.1963     20.6309     25.8866    102.5549
   873.0000     57.5306     19.5853     19.2906     22.8043    109.0369
   873.2500     58.1609     19.1113     18.2387     21.7252    112.2337
   873.5000     58.6330     18.7797     17.4218     21.1107    115.1244
   873.7500     59.0367     18.6003     16.8204     20.2820    115.7623
   874.0000     59.4567     18.5820     16.4470     19.3235    114.5963
   874.2500     59.9307     18.7282     16.3330     18.9899    112.1742
   874.5000     60.4391     19.0351     16.5168     20.6757    105.6244
   874.7500     60.9336     19.4968     17.0344     26.3848     99.0816
   875.0000     61.3779     20.1106     17.9164     38.4567     86.0240
   875.2500     61.7679     20.8815     19.1834     58.7901     75.7612
   875.5000     62.1241     21.8193     20.8399     87.7951     60.1510
   875.7500     62.4722     22.9357     22.8662    123.9190     50.9137
   876.0000     62.8333     24.2430     25.2137    164.2304     40.0005
   876.2500     63.2226     25.7533     27.8109    205.3414     34.6855
   876.5000     63.6460     27.4738     30.5775    243.6757     29.1774
   876.7500     64.0946     29.3948     33.4443    275.4052     26.8882
   877.0000     64.5458     31.4717     36.3758    297.1102     25.1352
   877.2500     64.9676     33.6083     39.3914    307.0430     24.8130
   877.5000     65.3189     35.6446     42.5769    305.8096     25.0757
   877.7500     65.5538     37.3574     46.0634    296.0184     25.5464
   878.0000     65.6388     38.4865     49.9612    281.3694     26.8017
   878.2500     65.5742     38.7874     54.2471    265.3522     28.2848
   878.5000     65.4026     38.1005     58.5975    249.7406     31.8456
   878.7500     65.1997     36.4126     62.1858    234.1050     35.0071
   879.0000     65.0602     33.8851     63.6286    217.2237     40.1005
   879.2500     65.0811     30.8242     61.5201    198.9585     43.0124
   879.5000     65.3377     27.5908     55.6088    180.2865     45.7142
   879.7500     65.8568     24.4943     47.3385    161.5739     46.5227
   880.0000     66.6110     21.7289     38.7829    141.5779     48.0206
   880.2500     67.5526     19.3705     31.3254    118.7089     50.7429
   880.5000     68.6654     17.4125     25.4022     93.1567     59.4002
   880.7500     69.9843     15.8060     20.9037     67.5017     68.4583
   881.0000     71.5513     14.4891     17.5491     45.2521     85.6629
   881.2500     73.3403     13.4002     15.0628     28.8054     97.9425
   881.5000     75.2216     12.4845     13.2237     18.4794    114.0510
   881.7500     77.0039     11.6958     11.8656     12.9740    121.3539
   882.0000     78.5231     10.9994     10.8647     10.4908    125.5475
   882.2500     79.7078     10.3736     10.1276      9.5865    124.3409
   882.5000     80.5858      9.8098      9.5821      9.4148    119.5466
   882.7500     81.2421      9.3088      9.1719      9.5651    116.4448
   883.0000     81.7692      8.8756      8.8542      9.8348    114.2067
   883.2500     82.2349      8.5146      8.5993     10.1000    114.6788
   883.5000     82.6741      8.2264      8.3892     10.2745    118.1642
   883.7500     83.0992      8.0071      8.2162     10.3026    122.1109
   884.0000     83.5115      7.8497      8.0778     10.1656    129.5969
   884.2500     83.9046      7.7460      7.9735      9.9064    134.7236
   884.5000     84.2655      7.6875      7.9015      9.6395    140.8251
   884.7500     84.5864      7.6669      7.8582      9.4951    143.0462
   885.0000     84.8793      7.6788      7.8384      9.5229    143.1783
   885.2500     85.1651      7.7204      7.8366      9.6477    141.3806
   885.5000     85.4415      7.7920      7.8500      9.7291    136.6823
   885.7500     85.6663      7.8954      7.8801      9.6704    132.6883
   886.0000     85.7812      8.0325      7.9346      9.4780    125.9937
   886.2500     85.7526      8.2032      8.0267      9.2400    121.3627
   886.5000     85.5843      8.4038      8.1735      9.0776    114.9021
   886.7500     85.2928      8.6258      8.3925      9.1281    111.3456
   887.0000     84.8679      8.8573      8.6983      9.5732    107.0610
   887.2500     84.2521      9.0862      9.0995     10.6756    104.2561
   887.5000     83.3617      9.3046      9.5935     12.7554     99.0117
   887.7500     82.1483      9.5106     10.1609     16.0176     94.7702
   888.0000     80.6773      9.7072     10.7620     20.2221     88.2198
   888.2500     79.1661      9.8994     11.3391     24.4224     84.5648
   888.5000     77.9354     10.0909     11.8314     27.1966     81.8364
   888.7500     77.2776     10.2832     12.1960     27.4600     82.6872
   889.0000     77.3068     10.4747     12.4241     25.2362     87.9523
   889.2500     77.8726     10.6592     12.5382     21.6316     93.0758
   889.5000     78.6084     10.8234     12.5742     18.0511    101.0937
   889.7500     79.1062     10.9480     12.5613     15.4093    106.1829
   890.0000     79.1050     11.0107     12.5119     13.9030    113.7096
   890.2500     78.5605     10.9944     12.4209     13.2599    118.6133
   890.5000     77.5848     10.8947     12.2735     13.0805    124.6850
   890.7500     76.3498     10.7224     12.0560     13.0381    127.2498
   891.0000     75.0281     10.4985     11.7660     12.9333    129.2833
   891.2500     73.7758     10.2459     11.4174     12.6820    130.3643
   891.5000     72.7256      9.9839     11.0367     12.2843    132.5477
   891.7500     71.9562      9.7260     10.6539     11.7889    134.0352
   892.0000     71.4314      9.4800     10.2939     11.2671    135.0550
   892.2500     70.9736      9.2486      9.9720     10.7966    134.5112
   892.5000     70.3577      9.0305      9.6932     10.4462    131.9106
   892.7500     69.5004      8.8233      9.4543     10.2507    129.2768
   893.0000     68.5959      8.6261      9.2466     10.1925    125.0879
   893.2500     68.0507      8.4415      9.0593     10.2190    123.2507
   893.5000     68.2110      8.2747      8.8833     10.2783    123.6213
   893.7500     69.0403      8.1321      8.7149     10.3338    125.8853
   894.0000     70.0253      8.0205      8.5570     10.3549    129.9774
   894.2500     70.4702      7.9458      8.4160     10.3202    131.4563
   894.5000     69.9747      7.9121      8.2982     10.2318    130.5390
   894.7500     68.6737      7.9223      8.2074     10.1041    128.5022
   895.0000     67.0623      7.9776      8.1475      9.9347    125.5354
   895.2500     65.6251      8.0775      8.1263      9.7112    124.5008
   895.5000     64.5947      8.2198      8.1570      9.4650    124.4036
   895.7500     63.9560      8.4000      8.2576      9.3165    124.7631
   896.0000     63.5949      8.6115      8.4473      9.4829    124.6754
   896.2500     63.4378      8.8482      8.7413     10.2692    123.4877
   896.5000     63.4950      9.1075      9.1456     12.0017    119.4480
   896.7500     63.8205      9.3929      9.6529     14.8073    115.5775
   897.0000     64.4397      9.7142     10.2434     18.2920    109.3903
   897.2500     65.3010     10.0843     10.8928     21.4759    105.8414
   897.5000     66.2873     10.5155     11.5848     23.3269    102.1888
