~Version Information
VERS.                      2.0: CWLS Log ASCII Standard - VERSION 2.0
WRAP.                       NO: One line per depth step
~Well Information Block
STRT.FT               350.0000: 
STOP.FT               906.0000: 
STEP.FT                 0.2500: 
NULL.                -999.2500: 
COMP.          Pioneer Natural Resources: COMPANY
WELL.           Hartford 31-18: WELL
FLD.           Purgatorie River: FIELD
LOC.           375' FNL & 1660' FEL: LOCATION
PROV.                 Colorado: PROVINCE
CNTY.               Las Animas: COUNTRY
SRVC.                Patterson: SERVICE COMPANY
DATE.          Sat Nov 19 19:02:38 2005: LOG DATE
UWI.           05-071-08555               : UNIQUE WELL ID
~Curve Information Block
DEPT.FT            0 000 00 00: Depth
SN.Ohm-m                      : IEL Short Normal
SP.mV                         : IEL Spontaneous Potential
DIR.Ohm-m                     : IEL Induction Resistivity
GR.GAPI                       : Gamma Ray
~Parameter Information Block
~A  Depth        SN          SP         DIR          GR     
# ...
   417.0000   2000.0000   1880.0000     35.4404     61.5970
   417.2500   2000.0000   1880.0000     35.1065     61.0583
   417.5000   2000.0000   1880.0000     34.7243     61.5006
   417.7500   2000.0000   1880.0000     34.3466     62.1438
   418.0000   2000.0000   1880.0000     34.0317     62.7782
   418.2500   2000.0000   1880.0000     33.8200     62.8808
   418.5000   2000.0000   1880.0000     33.7197     63.0491
   418.7500   2000.0000   1880.0000     33.7081     63.4936
   419.0000   2000.0000   1880.0000     33.7458     64.7893
   419.2500   2000.0000   1880.0000     33.7965     65.8676
   419.5000   2000.0000   1880.0000     33.8398     67.2490
   419.7500   2000.0000   1880.0000     33.8707     67.8598
   420.0000   2000.0000   1880.0000     33.8880     68.7372
   420.2500   2000.0000   1880.0000     33.8808     69.7980
   420.5000   2000.0000   1880.0000     33.8251     72.5699
   420.7500   2000.0000   1880.0000     33.6928     74.9563
   421.0000   2000.0000   1880.0000     33.4652     78.2838
   421.2500   2000.0000   1880.0000     33.1416     79.7433
   421.5000   2000.0000   1880.0000     32.7388     80.3936
   421.7500   2000.0000   1880.0000     32.2897     79.9694
   422.0000   2000.0000   1880.0000     31.8420     78.6785
   422.2500   2000.0000   1880.0000     31.4494     77.6778
   422.5000   2000.0000   1880.0000     31.1493     76.1628
   422.7500   2000.0000   1880.0000     30.9363     75.2214
   423.0000   2000.0000   1880.0000     30.7515     74.2295
   423.2500   2000.0000   1880.0000     30.5020     74.0680
   423.5000   2000.0000   1880.0000     30.1038     74.9943
   423.7500   2000.0000   1880.0000     29.5183     76.8583
   424.0000   2000.0000   1880.0000     28.7620     82.7855
   424.2500   2000.0000   1880.0000     27.8889     89.4183
   424.5000   2000.0000   1880.0000     26.9686    103.0865
   424.7500   2000.0000   1880.0000     26.0714    113.4062
   425.0000   2000.0000   1880.0000     25.2600    126.9890
   425.2500   2000.0000   1880.0000     24.5803    132.5496
   425.5000   2000.0000   1880.0000     24.0552    134.0004
   425.7500   2000.0000   1880.0000     23.6827    131.4470
   426.0000   2000.0000   1880.0000     23.4408    126.6126
   426.2500   2000.0000   1880.0000     23.2942    125.0344
   426.5000   2000.0000   1880.0000     23.2025    126.4183
   426.7500   2000.0000   1880.0000     23.1277    129.0102
   427.0000   2000.0000   1880.0000     23.0428    132.8498
   427.2500   2000.0000   1880.0000     22.9377    133.9966
   427.5000   2000.0000   1880.0000     22.8174    132.3013
   427.7500   2000.0000   1880.0000     22.6919    129.1479
   428.0000   2000.0000   1880.0000     22.5637    123.3849
   428.2500   2000.0000   1880.0000     22.4214    120.1286
   428.5000   2000.0000   1880.0000     22.2451    117.2058
   428.7500   2000.0000   1880.0000     22.0186    116.5959
   429.0000   2000.0000   1880.0000     21.7399    117.3534
   429.2500   2000.0000   1880.0000     21.4219    118.6065
   429.5000   2000.0000   1880.0000     21.0854    120.4959
   429.7500   2000.0000   1880.0000     20.7515    121.0679
   430.0000   2000.0000   1880.0000     20.4388    120.6924
   430.2500   2000.0000   1880.0000     20.1643    120.2764
   430.5000   2000.0000   1880.0000     19.9443    120.8976
   430.7500   2000.0000   1880.0000     19.7909    122.6029
   431.0000   2000.0000   1880.0000     19.7094    126.9148
   431.2500   2000.0000   1880.0000     19.6965    130.4615
   431.5000   2000.0000   1880.0000     19.7424    135.7227
   431.7500   2000.0000   1880.0000     19.8345    138.7988
   432.0000   2000.0000   1880.0000     19.9617    142.7115
   432.2500   2000.0000   1880.0000     20.1171    144.8781
   432.5000   2000.0000   1880.0000     20.2999    146.9996
   432.7500   2000.0000   1880.0000     20.5159    147.0851
   433.0000   2000.0000   1880.0000     20.7759    143.9865
   433.2500   2000.0000   1880.0000     21.0882    139.2784
   433.5000   2000.0000   1880.0000     21.4485    129.0421
   433.7500   2000.0000   1880.0000     21.8327    121.7309
   434.0000   2000.0000   1880.0000     22.2017    113.0998
   434.2500   2000.0000   1880.0000     22.5178    109.5823
   434.5000   2000.0000   1880.0000     22.7635    106.4882
   434.7500   2000.0000   1880.0000     22.9465    104.7206
   435.0000   2000.0000   1880.0000     23.0865    101.3506
   435.2500   2000.0000   1880.0000     23.1933     98.5116
   435.5000   2000.0000   1880.0000     23.2548     93.5080
   435.7500   2000.0000   1880.0000     23.2451     89.9744
   436.0000   2000.0000   1880.0000     23.1455     85.8933
   436.2500   2000.0000   1880.0000     22.9647     85.3431
   436.5000   2000.0000   1880.0000     22.7395     89.4140
   436.7500   2000.0000   1880.0000     22.5192     95.1644
   437.0000   2000.0000   1880.0000     22.3473    105.8607
   437.2500   2000.0000   1880.0000     22.2558    112.4470
   437.5000   2000.0000   1880.0000     22.2693    119.1095
   437.7500   2000.0000   1880.0000     22.4099    120.9550
   438.0000   2000.0000   1880.0000     22.6947    120.4215
   438.2500   2000.0000   1880.0000     23.1274    118.7936
   438.5000   2000.0000   1880.0000     23.6892    116.6986
   438.7500   2000.0000   1880.0000     24.3341    116.6773
   439.0000   2000.0000   1880.0000     24.9909    118.8353
   439.2500   2000.0000   1880.0000     25.5782    120.5698
   439.5000   2000.0000   1880.0000     26.0281    121.2279
   439.7500   2000.0000   1880.0000     26.3063    119.8655
   440.0000   2000.0000   1880.0000     26.4147    115.9790
   440.2500   2000.0000   1880.0000     26.3730    112.9308
   440.5000   2000.0000   1880.0000     26.2000    108.6010
   440.7500   2000.0000   1880.0000     25.9068    106.3310
   441.0000   2000.0000   1880.0000     25.5040    104.6637
   441.2500   2000.0000   1880.0000     25.0094    104.9350
   441.5000   2000.0000   1880.0000     24.4526    106.9420
   441.7500   2000.0000   1880.0000     23.8719    108.7020
   442.0000   2000.0000   1880.0000     23.3051    110.9435
   442.2500   2000.0000   1880.0000     22.7756    112.0014
   442.5000   2000.0000   1880.0000     22.2780    113.7550
   442.7500   2000.0000   1880.0000     21.7763    115.9950
   443.0000   2000.0000   1880.0000     21.2201    122.2758
   443.2500   2000.0000   1880.0000     20.5747    128.2660
   443.5000   2000.0000   1880.0000     19.8440    137.8739
   443.7500   2000.0000   1880.0000     19.0691    142.9625
   444.0000   2000.0000   1880.0000     18.3038    146.0336
   444.2500   2000.0000   1880.0000     17.5913    144.2776
   444.5000   2000.0000   1880.0000     16.9566    136.4824
   444.7500   2000.0000   1880.0000     16.4138    129.1089
   445.0000   2000.0000   1880.0000     15.9734    117.6492
   445.2500   2000.0000   1880.0000     15.6442    111.4475
   445.5000   2000.0000   1880.0000     15.4276    107.0001
   445.7500   2000.0000   1880.0000     15.3128    108.3902
   446.0000   2000.0000   1880.0000     15.2766    117.1775
   446.2500   2000.0000   1880.0000     15.2890    126.2755
   446.5000   2000.0000   1880.0000     15.3228    140.9898
   446.7500   2000.0000   1880.0000     15.3609    149.1736
   447.0000   2000.0000   1880.0000     15.3990    156.5275
   447.2500   2000.0000   1880.0000     15.4426    157.9893
   447.5000   2000.0000   1880.0000     15.5035    156.3238
   447.7500   2000.0000   1880.0000     15.5992    153.5527
   448.0000   2000.0000   1880.0000     15.7523    147.8143
   448.2500   2000.0000   1880.0000     15.9857    143.1557
   448.5000   2000.0000   1880.0000     16.3124    135.3309
   448.7500   2000.0000   1880.0000     16.7224    129.9877
   449.0000   2000.0000   1880.0000     17.1764    122.9733
   449.2500   2000.0000   1880.0000     17.6091    119.8912
   449.5000   2000.0000   1880.0000     17.9473    118.7564
   449.7500   2000.0000   1880.0000     18.1333    119.9643
   450.0000   2000.0000   1880.0000     18.1433    122.2511
   450.2500   2000.0000   1880.0000     17.9887    122.4168
