~Version Information
VERS.                      2.0: CWLS Log ASCII Standard - VERSION 2.0
WRAP.                       NO: One line per depth step
~Well Information Block
STRT.FT               570.0000: 
STOP.FT              2090.5000: 
STEP.FT                 0.1000: 
NULL.                -999.2500: 
COMP.          XTO Energy Inc.: COMPANY
WELL.          Golden Eagle 19-10: WELL
FLD.           Purgatoire River: FIELD
LOC.           2684' FSL & 1825' FEL: LOCATION
CNTY.               Las Animas: COUNTY
SRVC.                Patterson: SERVICE COMPANY
DATE.          Mon Mar 06 07:05:15 2006: LOG DATE
UWI.           05 071 08697 00: UNIQUE WELL ID
STAT.                 Colorado: STATE
~Curve Information Block
DEPT.FT            0 000 00 00: Depth
DCAL.in                       : CDL Caliper
RHOB.g/cc                     : CDL Bulk Density
RHOC.g/cc                     : CDL Density Correction
DPOR.pu                       : CDL Density Porosity
GR.GAPI                       : Gamma Ray
NPOR.pu                       : Neutron Porosity
~Parameter Information Block
~A  Depth       DCAL        RHOB        RHOC        DPOR         GR         NPOR    
# ...
   973.2000      7.8260      2.5805      0.0106      4.2093    169.2495     30.2033
   973.3000      7.8343      2.5897      0.0471      3.6567    169.6496     29.3445
   973.4000      7.8343      2.5918      0.0301      3.5300    165.5130     28.0837
   973.5000      7.8411      2.5839      0.0134      4.0045    159.1619     26.7753
   973.6000      7.8411      2.5729      0.0184      4.6697    152.8900     26.1793
   973.7000      7.8411      2.5642      0.0057      5.2026    149.7413     26.2019
   973.8000      7.8480      2.5550      0.0236      5.7546    152.6495     26.5660
   973.9000      7.8480      2.5427     -0.0128      6.5034    156.4549     27.1634
   974.0000      7.8549      2.5312      0.0096      7.2009    155.9064     27.6109
   974.1000      7.8549      2.5256      0.0008      7.5373    157.5825     27.6520
   974.2000      7.8549      2.5258     -0.0118      7.5262    164.9070     27.4025
   974.3000      7.8598      2.5225      0.0173      7.7295    169.5716     27.3057
   974.4000      7.8598      2.5097     -0.0068      8.5004    165.8389     27.6509
   974.5000      7.8637      2.4989     -0.0157      9.1604    159.4059     27.8782
   974.6000      7.8637      2.4941      0.0289      9.4493    156.9342     27.6185
   974.7000      7.8637      2.4818      0.0078     10.1914    157.8047     27.3400
   974.8000      7.8706      2.4579      0.0354     11.6417    156.6934     27.1788
   974.9000      7.8706      2.4359      0.0002     12.9785    151.5856     26.9446
   975.0000      7.8790      2.4325     -0.0078     13.1831    148.3354     26.7806
   975.1000      7.8790      2.4505     -0.0157     12.0910    150.8694     26.8608
   975.2000      7.8790      2.4709      0.0436     10.8532    154.6207     27.0898
   975.3000      7.8860      2.4707      0.0409     10.8651    155.3037     27.0690
   975.4000      7.8860      2.4511      0.0560     12.0528    156.8617     26.6388
   975.5000      7.8919      2.4318     -0.0010     13.2259    165.7141     26.1694
   975.6000      7.8919      2.4179      0.0764     14.0663    178.2867     25.6763
   975.7000      7.8919      2.3962      0.0830     15.3841    185.1175     24.9185
   975.8000      7.8975      2.3668      0.0871     17.1660    186.8922     23.9320
   975.9000      7.8975      2.3432      0.0590     18.5963    189.4769     22.7117
   976.0000      7.9026      2.3301      0.0777     19.3867    190.2474     21.2308
   976.1000      7.9026      2.3252      0.0877     19.6832    184.3565     19.6269
   976.2000      7.9026      2.3335      0.0734     19.1838    174.5677     18.1817
   976.3000      7.9047      2.3555      0.1634     17.8481    165.9838     17.2039
   976.4000      7.9047      2.3684      0.1879     17.0676    161.2209     16.6779
   976.5000      7.9027      2.3445      0.2201     18.5158    160.3391     16.2969
   976.6000      7.9027      2.2773      0.2324     22.5864    159.8699     16.2062
   976.7000      7.9027      2.1814      0.1667     28.3984    156.1159     17.0672
   976.8000      7.9018      2.0732      0.1285     34.9548    149.0971     18.8805
   976.9000      7.9018      1.9654      0.0803     41.4893    139.3199     20.7236
   977.0000      7.9030      1.8752      0.0467     46.9600    127.9651     22.2568
   977.1000      7.9030      1.8214      0.0356     50.2177    118.6929     23.9583
   977.2000      7.9030      1.8214      0.0308     50.2200    115.2626     25.8513
   977.3000      7.8998      1.8815      0.1077     46.5746    117.4195     27.1372
   977.4000      7.8998      1.9817      0.2174     40.5039    122.4272     27.4389
   977.5000      7.8905      2.0886      0.1938     34.0256    129.0387     27.1098
   977.6000      7.8905      2.1872      0.2019     28.0504    134.7573     26.7793
   977.7000      7.8905      2.2833      0.1850     22.2215    137.3792     27.0417
   977.8000      7.8832      2.3742      0.2514     16.7125    140.6069     27.6329
   977.9000      7.8832      2.4421      0.2128     12.5983    144.5704     27.9580
   978.0000      7.8790      2.4891      0.1321      9.7536    144.9150     28.2125
   978.1000      7.8790      2.5301      0.0737      7.2640    146.7751     28.8021
   978.2000      7.8790      2.5604      0.0628      5.4273    153.6514     29.1818
   978.3000      7.8763      2.5603      0.0667      5.4366    158.3748     28.7340
   978.4000      7.8763      2.5305      0.0243      7.2439    156.5204     27.7609
   978.5000      7.8767      2.5037     -0.0302      8.8663    151.7036     26.7204
   978.6000      7.8767      2.4985     -0.0023      9.1840    148.1905     25.7919
   978.7000      7.8767      2.5022     -0.0258      8.9582    145.5776     25.2545
   978.8000      7.8795      2.5068     -0.0158      8.6768    143.5251     25.3622
   978.9000      7.8795      2.5084     -0.0126      8.5836    145.6637     25.7487
   979.0000      7.8818      2.4939     -0.0091      9.4576    150.3692     25.9272
   979.1000      7.8818      2.4627     -0.0380     11.3524    151.1872     25.7932
   979.2000      7.8818      2.4299     -0.0509     13.3396    149.8235     25.3292
   979.3000      7.8825      2.4028     -0.0700     14.9793    150.4941     24.6627
   979.4000      7.8825      2.3816     -0.0813     16.2694    153.3501     24.1580
   979.5000      7.8813      2.3679     -0.0430     17.0967    157.9114     24.1466
   979.6000      7.8813      2.3571     -0.0284     17.7487    162.1244     24.6567
   979.7000      7.8813      2.3395     -0.0487     18.8178    162.3714     25.0338
   979.8000      7.8698      2.3102     -0.0462     20.5916    158.5333     24.6426
   979.9000      7.8698      2.2800     -0.0482     22.4265    158.2620     23.9303
   980.0000      7.8470      2.2650     -0.0385     23.3347    165.5269     23.6984
   980.1000      7.8470      2.2635     -0.0168     23.4250    174.9238     24.3453
   980.2000      7.8470      2.2602      0.0367     23.6235    181.5376     25.5852
   980.3000      7.8304      2.2517     -0.0053     24.1382    182.0876     26.2176
   980.4000      7.8304      2.2481      0.0392     24.3599    179.8798     25.7097
   980.5000      7.8222      2.2511      0.0486     24.1775    185.5004     25.0420
   980.6000      7.8222      2.2571      0.0231     23.8100    195.8584     25.1732
   980.7000      7.8222      2.2653      0.0301     23.3169    194.6359     25.8658
   980.8000      7.8185      2.2735      0.0500     22.8158    181.4017     26.7964
   980.9000      7.8185      2.2869      0.0206     22.0061    171.6193     28.0449
   981.0000      7.8183      2.3116      0.0326     20.5103    172.7756     29.2351
   981.1000      7.8183      2.3416      0.0739     18.6936    177.1739     30.0769
   981.2000      7.8183      2.3722      0.0824     16.8383    175.3374     30.5412
   981.3000      7.8185      2.4033      0.1034     14.9516    167.2402     30.3124
   981.4000      7.8185      2.4300      0.0919     13.3349    159.9879     29.8372
   981.5000      7.8173      2.4513      0.0692     12.0437    157.1854     30.1502
   981.6000      7.8173      2.4742      0.0805     10.6538    156.6157     31.1012
   981.7000      7.8173      2.5000      0.0499      9.0907    155.7729     31.4856
   981.8000      7.8153      2.5227      0.0390      7.7146    153.3625     30.6144
   981.9000      7.8153      2.5341      0.0313      7.0216    150.4233     29.2909
   982.0000      7.8132      2.5329     -0.0115      7.0940    152.0274     28.7696
   982.1000      7.8132      2.5318      0.0023      7.1651    160.1840     28.9885
   982.2000      7.8132      2.5371      0.0100      6.8425    169.7818     29.0927
   982.3000      7.8117      2.5439      0.0136      6.4322    174.4816     29.0643
   982.4000      7.8117      2.5549      0.0174      5.7657    169.8407     29.2590
   982.5000      7.8115      2.5692      0.0594      4.8976    161.5831     29.1468
   982.6000      7.8115      2.5701      0.0410      4.8440    156.0205     28.4768
   982.7000      7.8115      2.5583      0.0077      5.5584    150.9176     27.8866
