~Version Information
VERS.                      2.0: CWLS Log ASCII Standard - VERSION 2.0
WRAP.                       NO: One line per depth step
~Well Information Block
STRT.FT               595.0000: 
STOP.FT              1693.0000: 
STEP.FT                 0.1000: 
NULL.                -999.2500: 
COMP.          Pioneer Natural Resources: COMPANY
WELL.          Rollerball 34-30: WELL
FLD.           Purgatoire River: FIELD
LOC.           893' FSL & 2408' FEL: LOCATION
CNTY.               Las Animas: COUNTY
SRVC.                Patterson: SERVICE COMPANY
DATE.          Tue Feb 14 15:43:01 2006: LOG DATE
UWI.           05 071 08581 00: UNIQUE WELL ID
STAT.                 Colorado: STATE
~Curve Information Block
DEPT.FT            0 000 00 00: Depth
DCAL.in                       : CDL Caliper
RHOB.g/cc                     : CDL Bulk Density
RHOC.g/cc                     : CDL Density Correction
DPOR.pu                       : CDL Density Porosity
GR.GAPI                       : Gamma Ray
NPOR.pu                       : Neutron Porosity
~Parameter Information Block
~A  Depth       DCAL        RHOB        RHOC        DPOR         GR         NPOR    
# ...
  1679.8000      7.8311      2.4094      0.0566     14.5797   -999.2500     50.5546
  1679.9000      7.8311      2.4085      0.0343     14.6367   -999.2500     50.5573
  1680.0000      7.8137      2.3981      0.0076     15.2695   -999.2500   -999.2500
  1680.1000      7.8137      2.3958      0.0110     15.4078   -999.2500   -999.2500
  1680.2000      7.8137      2.4017      0.0396     15.0496   -999.2500   -999.2500
  1680.3000      7.8329      2.4038      0.0108     14.9235   -999.2500   -999.2500
  1680.4000      7.8329      2.4011      0.0082     15.0818   -999.2500   -999.2500
  1680.5000      7.8376      2.3967      0.0429     15.3508   -999.2500   -999.2500
  1680.6000      7.8376      2.3922     -0.0013     15.6217   -999.2500   -999.2500
  1680.7000      7.8376      2.3980     -0.0135     15.2754   -999.2500   -999.2500
  1680.8000      7.8452      2.4176      0.0080     14.0847   -999.2500   -999.2500
  1680.9000      7.8452      2.4374      0.0422     12.8873   -999.2500   -999.2500
  1681.0000      7.8562      2.4446      0.0708     12.4496   -999.2500   -999.2500
  1681.1000      7.8562      2.4409      0.0393     12.6748   -999.2500   -999.2500
  1681.2000      7.8562      2.4296      0.0190     13.3595   -999.2500   -999.2500
  1681.3000      7.8503      2.4125      0.0209     14.3943   -999.2500   -999.2500
  1681.4000      7.8503      2.4012     -0.0096     15.0799   -999.2500   -999.2500
  1681.5000      7.8453      2.4071      0.0281     14.7228   -999.2500   -999.2500
  1681.6000      7.8453      2.4210      0.0276     13.8796   -999.2500   -999.2500
  1681.7000      7.8453      2.4235      0.0695     13.7271   -999.2500   -999.2500
  1681.8000      7.8465      2.4106      0.0553     14.5113   -999.2500   -999.2500
  1681.9000      7.8465      2.3994      0.0244     15.1855   -999.2500   -999.2500
  1682.0000      7.8450      2.4062      0.0222     14.7776   -999.2500   -999.2500
  1682.1000      7.8450      2.4224      0.0494     13.7929   -999.2500   -999.2500
  1682.2000      7.8450      2.4266      0.0819     13.5409   -999.2500   -999.2500
  1682.3000      7.8402      2.4158      0.0309     14.1936   -999.2500   -999.2500
  1682.4000      7.8402      2.4054      0.0444     14.8233   -999.2500   -999.2500
  1682.5000      7.8464      2.3985      0.0191     15.2397   -999.2500   -999.2500
  1682.6000      7.8464      2.3909      0.0267     15.7006   -999.2500   -999.2500
  1682.7000      7.8464      2.3870     -0.0183     15.9367   -999.2500   -999.2500
  1682.8000      7.8479      2.3898      0.0232     15.7708   -999.2500   -999.2500
  1682.9000      7.8479      2.3925      0.0309     15.6034   -999.2500   -999.2500
  1683.0000      7.8488      2.3942      0.0169     15.5027   -999.2500   -999.2500
  1683.1000      7.8488      2.3994      0.0306     15.1889   -999.2500   -999.2500
  1683.2000      7.8488      2.4040      0.0278     14.9095   -999.2500   -999.2500
  1683.3000      7.8568      2.4007      0.0317     15.1084   -999.2500   -999.2500
  1683.4000      7.8568      2.3923      0.0108     15.6159   -999.2500   -999.2500
  1683.5000      7.8532      2.3907      0.0080     15.7157   -999.2500   -999.2500
  1683.6000      7.8532      2.4018      0.0220     15.0399   -999.2500   -999.2500
  1683.7000      7.8532      2.4178      0.0193     14.0713   -999.2500   -999.2500
  1683.8000      7.8369      2.4296      0.0370     13.3596   -999.2500   -999.2500
  1683.9000      7.8369      2.4387      0.0387     12.8076   -999.2500   -999.2500
  1684.0000      7.8415      2.4504      0.0189     12.0948   -999.2500   -999.2500
  1684.1000      7.8415      2.4576      0.0566     11.6619   -999.2500   -999.2500
  1684.2000      7.8415      2.4497      0.0489     12.1393   -999.2500   -999.2500
  1684.3000      7.8471      2.4360      0.0158     12.9722   -999.2500   -999.2500
  1684.4000      7.8471      2.4315      0.0207     13.2419   -999.2500   -999.2500
  1684.5000      7.8454      2.4377      0.0559     12.8641   -999.2500   -999.2500
  1684.6000      7.8454      2.4468      0.0208     12.3180   -999.2500   -999.2500
  1684.7000      7.8454      2.4524      0.0291     11.9745   -999.2500   -999.2500
  1684.8000      7.8386      2.4547      0.0160     11.8384   -999.2500   -999.2500
  1684.9000      7.8386      2.4531      0.0582     11.9307   -999.2500   -999.2500
  1685.0000      7.8347      2.4423      0.0525     12.5854   -999.2500   -999.2500
  1685.1000      7.8347      2.4281      0.0299     13.4485   -999.2500   -999.2500
  1685.2000      7.8347      2.4256      0.0251     13.5994   -999.2500   -999.2500
  1685.3000      7.8354      2.4359      0.0585     12.9746   -999.2500   -999.2500
  1685.4000      7.8354      2.4489      0.0413     12.1857   -999.2500   -999.2500
  1685.5000      7.8415      2.4617      0.0320     11.4102   -999.2500   -999.2500
  1685.6000      7.8415      2.4722      0.0546     10.7735   -999.2500   -999.2500
  1685.7000      7.8415      2.4729      0.0454     10.7312   -999.2500   -999.2500
  1685.8000      7.8405      2.4650      0.0403     11.2130   -999.2500   -999.2500
  1685.9000      7.8405      2.4569      0.0279     11.7046   -999.2500   -999.2500
  1686.0000      7.8348      2.4532      0.0183     11.9258   -999.2500   -999.2500
  1686.1000      7.8348      2.4536      0.0416     11.9044   -999.2500   -999.2500
  1686.2000      7.8348      2.4543      0.0321     11.8584   -999.2500   -999.2500
  1686.3000      7.8273      2.4510      0.0486     12.0626   -999.2500   -999.2500
  1686.4000      7.8273      2.4413      0.0239     12.6459   -999.2500   -999.2500
  1686.5000      7.8213      2.4286      0.0263     13.4197   -999.2500   -999.2500
  1686.6000      7.8213      2.4211      0.0236     13.8749   -999.2500   -999.2500
  1686.7000      7.8213      2.4266     -0.0017     13.5372   -999.2500   -999.2500
  1686.8000      7.8369      2.4414      0.0369     12.6401   -999.2500   -999.2500
  1686.9000      7.8369      2.4523      0.0297     11.9844   -999.2500   -999.2500
  1687.0000      7.8387      2.4579      0.0539     11.6431   -999.2500   -999.2500
  1687.1000      7.8387      2.4681      0.0305     11.0269   -999.2500   -999.2500
  1687.2000      7.8387      2.4815      0.0628     10.2147   -999.2500   -999.2500
  1687.3000      7.8417      2.4900      0.0398      9.6999   -999.2500   -999.2500
  1687.4000      7.8417      2.4987      0.0340      9.1721   -999.2500   -999.2500
  1687.5000      7.8431      2.5091      0.0571      8.5396   -999.2500   -999.2500
  1687.6000      7.8431      2.5125      0.0158      8.3340   -999.2500   -999.2500
  1687.7000      7.8431      2.5157      0.0304      8.1372   -999.2500   -999.2500
  1687.8000      7.8264      2.5288      0.0511      7.3440   -999.2500   -999.2500
  1687.9000      7.8264      2.5374      0.0890      6.8234   -999.2500   -999.2500
  1688.0000      7.7995      2.5245      0.0490      7.6049   -999.2500   -999.2500
  1688.1000      7.7995      2.5013      0.0399      9.0131   -999.2500   -999.2500
  1688.2000      7.7995      2.4896      0.0118      9.7203   -999.2500   -999.2500
  1688.3000      7.8283      2.4930      0.0764      9.5133   -999.2500   -999.2500
  1688.4000      7.8283      2.5016      0.0412      8.9941   -999.2500   -999.2500
  1688.5000      7.8072      2.5100      0.0723      8.4862   -999.2500   -999.2500
  1688.6000      7.8072      2.5179      0.0551      8.0043   -999.2500   -999.2500
  1688.7000      7.8072      2.5255      0.0733      7.5475   -999.2500   -999.2500
  1688.8000      7.8145      2.5262      0.0655      7.5019   -999.2500   -999.2500
  1688.9000      7.8145      2.5155      0.0355      8.1528   -999.2500   -999.2500
  1689.0000      7.8254      2.5011     -0.0040      9.0225   -999.2500   -999.2500
  1689.1000      7.8254      2.4911      0.0193      9.6304   -999.2500   -999.2500
  1689.2000      7.8254      2.4858      0.0201      9.9512   -999.2500   -999.2500
  1689.3000      7.8225      2.4813      0.0786     10.2271   -999.2500   -999.2500
