~Version Information
VERS.                      2.0: CWLS Log ASCII Standard - VERSION 2.0
WRAP.                       NO: One line per depth step
~Well Information Block
STRT.FT                10.0000: 
STOP.FT               959.2500: 
STEP.FT                 0.2500: 
NULL.                -999.2500: 
COMP.          XTO Energy Inc.: COMPANY
WELL.          Golden Eagle 20-04: WELL
FLD.           Purgatrorie River: FIELD
LOC.           702' FNL & 487' FWL--: LOCATION
STAT.                       CO: State
CNTY.               Las Animas: COUNTY
CTRY. USA : Country
SECT. 20 : Section
TOWN. 33S : Township
RANG. 67W : Range
SRVC.          Patterson Wireline: SERVICE COMPANY
DATE.          Mon Dec 05 08:42:44 2005: LOG DATE
API.           05 071 08599 00: UNIQUE WELL ID
~Curve Information Block
DEPT.FT            0 000 00 00: Depth
TEMP.degF                     : Downhole Temperature
DTMP.degF                     : Delta Temperature
~Parameter Information Block
~A  Depth       TEMP        DTMP    
    10.0000   -999.2500   -999.2500
    10.2500     -1.7812   -999.2500
    10.5000     39.7952   -999.2500
    10.7500     39.7951   -999.2500
    11.0000     39.7949   -999.2500
    11.2500     39.7947     20.7880
    11.5000     39.7946      0.0001
    11.7500     39.7945      0.0007
    12.0000     39.7946      0.0018
    12.2500     39.7949      0.0033
    12.5000     39.7953      0.0048
    12.7500     39.7965      0.0073
    13.0000     39.7985      0.0103
    13.2500     39.8014      0.0139
    13.5000     39.8042      0.0168
    13.7500     39.8091      0.0210
    14.0000     39.8152      0.0240
    14.2500     39.8226      0.0284
    14.5000     39.8289      0.0317
    14.7500     39.8385      0.0342
    15.0000     39.8465      0.0366
    15.2500     39.8581      0.0386
    15.5000     39.8675      0.0415
    15.7500     39.8776      0.0432
    16.0000     39.8883      0.0484
    16.2500     39.8999      0.0473
    16.5000     39.9120      0.0501
    16.7500     39.9249      0.0558
    17.0000     39.9433      0.0589
    17.2500     39.9528      0.0618
    17.5000     39.9678      0.0651
    17.7500     39.9893      0.0681
    18.0000     40.0061      0.0690
    18.2500     40.0236      0.0746
    18.5000     40.0422      0.0813
    18.7500     40.0612      0.0779
    19.0000     40.0812      0.0848
    19.2500     40.1019      0.0877
    19.5000     40.1304      0.0906
    19.7500     40.1451      0.0934
    20.0000     40.1756      0.1005
    20.2500     40.1990      0.1029
    20.5000     40.2235      0.1020
    20.7500     40.2480      0.1080
    21.0000     40.2821      0.1065
    21.2500     40.3078      0.1087
    21.5000     40.3344      0.1106
    21.7500     40.3611      0.1126
    22.0000     40.3885      0.1100
    22.2500     40.4164      0.1166
    22.5000     40.4446      0.1180
    22.7500     40.4732      0.1196
    23.0000     40.5021      0.1211
    23.2500     40.5410      0.1222
    23.5000     40.5705      0.1233
    23.7500     40.6002      0.1245
    24.0000     40.6306      0.1254
    24.2500     40.6608      0.1217
    24.5000     40.6912      0.1278
    24.7500     40.7223      0.1234
    25.0000     40.7530      0.1294
    25.2500     40.7844      0.1300
    25.5000     40.8261      0.1307
    25.7500     40.8470      0.1311
    26.0000     40.8895      0.1316
    26.2500     40.9207      0.1318
    26.5000     40.9525      0.1268
    26.7500     40.9844      0.1370
    27.0000     41.0162      0.1316
    27.2500     41.0479      0.1318
    27.5000     41.0797      0.1316
    27.7500     41.1211      0.1314
    28.0000     41.1527      0.1314
    28.2500     41.1843      0.1361
    28.5000     41.2157      0.1307
    28.7500     41.2471      0.1308
    29.0000     41.2789      0.1304
    29.2500     41.3201      0.1303
    29.5000     41.3411      0.1299
    29.7500     41.3826      0.1295
    30.0000     41.4135      0.1342
    30.2500     41.4448      0.1288
    30.5000     41.4755      0.1336
    30.7500     41.5061      0.1279
    31.0000     41.5473      0.1326
    31.2500     41.5776      0.1319
    31.5000     41.6083      0.1316
    31.7500     41.6383      0.1360
    32.0000     41.6788      0.1302
    32.2500     41.7085      0.1298
    32.5000     41.7386      0.1339
    32.7500     41.7780      0.1334
    33.0000     41.8077      0.1325
    33.2500     41.8373      0.1320
    33.5000     41.8760      0.1358
    33.7500     41.9052      0.1303
    34.0000     41.9438      0.1341
    34.2500     41.9726      0.1332
    34.5000     42.0102      0.1277
    34.7500     42.0385      0.1313
    35.0000     42.0759      0.1301
    35.2500     42.1038      0.1291
    35.5000     42.1314      0.1280
    35.7500     42.1679      0.1270
    36.0000     42.2039      0.1254
    36.2500     42.2308      0.1243
    36.5000     42.2661      0.1275
    36.7500     42.2924      0.1220
    37.0000     42.3267      0.1165
    37.2500     42.3524      0.1195
    37.5000     42.3863      0.1180
    37.7500     42.4119      0.1169
    38.0000     42.4369      0.1156
    38.2500     42.4697      0.1145
    38.5000     42.5021      0.1091
    38.7500     42.5262      0.1116
    39.0000     42.5578      0.1142
    39.2500     42.5813      0.1090
    39.5000     42.6046      0.1075
    39.7500     42.6352      0.1066
    40.0000     42.6653      0.1051
    40.2500     42.6877      0.1040
    40.5000     42.7171      0.1064
    40.7500     42.7393      0.1015
    41.0000     42.7680      0.1002
    41.2500     42.7893      0.0991
    41.5000     42.8173      0.0977
    41.7500     42.8381      0.0965
    42.0000     42.8657      0.0952
    42.2500     42.8860      0.0943
    42.5000     42.9126      0.0929
    42.7500     42.9324      0.0919
    43.0000     42.9583      0.0904
    43.2500     42.9779      0.0896
    43.5000     43.0032      0.0883
    43.7500     43.0219      0.0873
    44.0000     43.0466      0.0862
    44.2500     43.0651      0.0851
    44.5000     43.0892      0.0839
    44.7500     43.1070      0.0829
    45.0000     43.1307      0.0819
    45.2500     43.1480      0.0808
    45.5000     43.1709      0.0796
    45.7500     43.1878      0.0815
    46.0000     43.2103      0.0776
    46.2500     43.2268      0.0767
    46.5000     43.2484      0.0757
    46.7500     43.2700      0.0773
    47.0000     43.2858      0.0737
    47.2500     43.3015      0.0753
    47.5000     43.3223      0.0718
    47.7500     43.3425      0.0707
    48.0000     43.3577      0.0699
    48.2500     43.3774      0.0691
    48.5000     43.3920      0.0680
    48.7500     43.4114      0.0670
    49.0000     43.4256      0.0663
    49.2500     43.4396      0.0631
    49.5000     43.4583      0.0647
    49.7500     43.4765      0.0616
    50.0000     43.4902      0.0632
    50.2500     43.5036      0.0646
    50.5000     43.5214      0.0617
    50.7500     43.5345      0.0588
    51.0000     43.5519      0.0603
    51.2500     43.5689      0.0618
    51.5000     43.5817      0.0590
    51.7500     43.5942      0.0604
    52.0000     43.6109      0.0578
    52.2500     43.6271      0.0571
    52.5000     43.6394      0.0566
    52.7500     43.6554      0.0581
    53.0000     43.6674      0.0555
    53.2500     43.6830      0.0550
    53.5000     43.6949      0.0544
    53.7500     43.7104      0.0539
    54.0000     43.7218      0.0535
    54.2500     43.7371      0.0529
    54.5000     43.7483      0.0525
    54.7500     43.7632      0.0501
    55.0000     43.7744      0.0516
    55.2500     43.7889      0.0510
    55.5000     43.7999      0.0507
    55.7500     43.8106      0.0483
    56.0000     43.8249      0.0496
    56.2500     43.8390      0.0492
    56.5000     43.8496      0.0487
    56.7500     43.8599      0.0501
    57.0000     43.8737      0.0480
    57.2500     43.8873      0.0475
    57.5000     43.8974      0.0471
    57.7500     43.9108      0.0485
    58.0000     43.9208      0.0465
    58.2500     43.9341      0.0462
    58.5000     43.9438      0.0460
    58.7500     43.9569      0.0457
    59.0000     43.9667      0.0470
    59.2500     43.9796      0.0452
    59.5000     43.9893      0.0450
    59.7500     44.0021      0.0447
    60.0000     44.0148      0.0446
    60.2500     44.0244      0.0444
    60.5000     44.0338      0.0442
    60.7500     44.0464      0.0425
    61.0000     44.0558      0.0424
    61.2500     44.0684      0.0439
    61.5000     44.0778      0.0439
    61.7500     44.0872      0.0439
    62.0000     44.0997      0.0439
    62.2500     44.1123      0.0438
    62.5000     44.1217      0.0439
    62.7500     44.1341      0.0455
    63.0000     44.1435      0.0455
    63.2500     44.1560      0.0440
    63.5000     44.1655      0.0440
    63.7500     44.1782      0.0442
    64.0000     44.1908      0.0458
    64.2500     44.2002      0.0444
    64.5000     44.2097      0.0461
    64.7500     44.2225      0.0446
    65.0000     44.2352      0.0431
    65.2500     44.2448      0.0449
    65.5000     44.2577      0.0467
