~Version Information
 VERS.                                  2.0 : CWLS LAS VERSION
 WRAP.                                   NO : WRAPING MODE
 SWARE .                 MController 2.5.0N : SOFTWARE VERSION
~Well Information
 WELL.                       GAMMA 13-03 TR : WELL
 COMP.    PIONEER NATURAL RESOURCES USA INC : COMPANY
 FLD.                      PURGATOIRE RIVER : FIELD
 LOC.                 NW/SW SEC 3 T33S R67W : LOCATION
 DATE.                          09/18-19/05 : DATE(S) LOGGED
 SRVC.       BLANCO GEOLOGICAL SERVICES LLC : SERVICE COMPANY
 STAT.                             COLORADO : STATE
 CNTY.                           LAS ANIMAS : COUNTY
 CTRY.                                  USA : COUNTRY
 API.                       05-071-08524-00 : API NUMBER
 STRT.FT                             446.00 : START DEPTH
 STOP.FT                            1371.00 : STOP DEPTH
 STEP.FT                               1.00 : DEPTH INCREMENT
 NULL.                                -9999 : NULL VALUE
~Curve information
 DEPTH.FT                                   :
 ROP.MIN/FT                                 :
 GAS.UNITS                                  :
~ASCII Log data
# ...
       846.0         0.37         11.6 
       847.0         0.30         16.6 
       848.0         0.35         18.7 
       849.0         0.33         18.6 
       850.0         0.30         15.7 
       851.0         0.30         11.1 
       852.0         0.30          8.2 
       853.0         0.30          6.7 
       854.0         0.27          5.4 
       855.0         0.23          5.0 
       856.0         0.23          5.1 
       857.0         0.23          4.8 
       858.0         0.20          5.0 
       859.0         0.25          4.8 
       860.0         0.23          4.8 
       861.0         0.20          4.7 
       862.0         3.15          6.5 
       863.0         0.50          6.7 
       864.0         0.60          5.8 
       865.0         0.63          5.3 
       866.0         0.60          5.0 
       867.0         0.48          4.9 
       868.0         0.30          4.9 
       869.0         0.37          4.6 
       870.0         0.23          4.6 
       871.0         0.20          4.6 
       872.0         0.23          4.6 
       873.0         0.23          4.7 
       874.0         0.23          4.7 
       875.0         0.23          4.6 
       876.0         0.23          4.6 
       877.0         0.23          4.6 
       878.0         0.23          4.7 
       879.0         0.28          4.5 
       880.0         0.23          4.9 
       881.0         0.23          4.7 
       882.0         0.23          4.8 
       883.0         0.23          5.1 
       884.0         0.27          5.0 
       885.0         0.23          4.9 
       886.0         0.27          5.0 
       887.0         0.23          4.7 
       888.0         0.27          5.0 
       889.0         0.23          5.0 
       890.0         0.23          4.8 
       891.0         0.23          5.1 
       892.0         3.87          6.7 
       893.0         0.33          5.7 
       894.0         0.30          5.4 
       895.0         0.30          5.3 
       896.0         0.27          5.4 
       897.0         0.27          5.2 
       898.0         0.23          5.4 
       899.0         0.27          5.4 
       900.0         0.27          5.1 
       901.0         0.23          5.3 
       902.0         0.25          5.2 
       903.0         0.23          5.0 
       904.0         0.23          5.0 
       905.0         0.20          5.2 
       906.0         0.17          5.2 
       907.0         0.13          5.3 
       908.0         0.13          5.1 
       909.0         0.23          5.3 
       910.0         0.23          4.9 
       911.0         0.27          5.8 
       912.0         0.27          6.6 
       913.0         0.23          6.9 
       914.0         0.30          6.6 
       915.0         0.23          6.1 
       916.0         0.27          5.9 
       917.0         0.28          5.4 
       918.0         0.23          5.3 
       919.0         0.27          5.1 
       920.0         0.23          4.8 
       921.0         0.30          5.1 
       922.0         3.75          8.3 
       923.0         0.33          6.7 
       924.0         0.33          6.3 
       925.0         0.33          7.6 
       926.0         0.32          8.3 
       927.0         0.27          8.0 
       928.0         0.30          7.0 
       929.0         0.33          6.3 
       930.0         0.33          6.0 
       931.0         0.43          5.8 
       932.0         0.57          5.7 
       933.0         0.40          5.5 
       934.0         0.52          5.8 
       935.0         0.53          5.4 
       936.0         0.57          5.3 
       937.0         0.37          5.4 
       938.0         0.30          5.4 
       939.0         0.27          5.2 
       940.0         0.30          5.6 
       941.0         0.30          5.3 
       942.0         0.27          5.5 
       943.0         0.28          5.5 
       944.0         0.27          5.3 
       945.0         0.27          4.9 
       946.0         0.23          4.8 
       947.0         0.23          5.3 
       948.0         0.23          5.3 
       949.0         0.20          5.3 
       950.0         0.23          5.4 
       951.0         0.17          5.3 
       952.0         3.48          7.2 
       953.0         0.33          8.9 
       954.0         0.33          8.4 
       955.0         0.33          6.3 
       956.0         0.38          6.7 
       957.0         0.33          7.0 
       958.0         0.33          6.5 
       959.0         0.33          6.2 
       960.0         0.23          5.8 
       961.0         0.20          5.5 
       962.0         0.17          5.2 
       963.0         0.23          5.1 
       964.0         0.20          5.0 
       965.0         0.23          5.9 
       966.0         0.17          7.3 
       967.0         0.20          7.7 
       968.0         0.23          8.2 
       969.0         0.28          7.9 
       970.0         0.23          7.6 
       971.0         0.23          7.3 
       972.0         0.20          7.0 
       973.0         0.23          6.9 
       974.0         0.30          6.7 
       975.0         0.23          6.6 
       976.0         0.27          6.4 
       977.0         0.23          6.4 
       978.0         0.23          6.3 
       979.0         0.23          6.3 
       980.0         0.23          6.1 
       981.0         0.27          6.2 
       982.0         4.93         13.3 
       983.0         0.30          8.6 
       984.0         0.33          7.3 
       985.0         0.30          6.8 
       986.0         0.30          6.3 
       987.0         0.23          6.2 
       988.0         0.32          6.3 
       989.0         0.30          6.1 
       990.0         0.27          6.4 
       991.0         0.30          6.0 
       992.0         0.23          6.1 
       993.0         0.27          5.5 
       994.0         0.23          6.2 
       995.0         0.27          6.1 
       996.0         0.23          6.1 
       997.0         0.23          6.3 
       998.0         0.27          6.7 
       999.0         0.23          7.0 
      1000.0         0.28          7.1 
      1001.0         0.23          7.5 
      1002.0         0.23          7.7 
      1003.0         0.27          7.8 
      1004.0         0.27          7.9 
      1005.0         0.23          7.9 
      1006.0         0.27          8.1 
      1007.0         0.27          7.8 
      1008.0         0.23          7.4 
      1009.0         0.30          7.2 
      1010.0         0.23          6.3 
      1011.0         0.27          7.0 
      1012.0         3.80          9.6 
      1013.0         0.27          9.5 
      1014.0         0.23          9.1 
      1015.0         0.17          7.6 
      1016.0         0.30          6.9 
      1017.0         0.47          7.3 
      1018.0         0.23          7.9 
      1019.0         0.20          8.5 
      1020.0         0.20          8.5 
      1021.0         0.20          8.5 
      1022.0         0.27          8.4 
      1023.0         0.22          8.2 
      1024.0         0.20          8.2 
      1025.0         0.27          8.1 
      1026.0         0.17          7.8 
      1027.0         0.17          7.5 
      1028.0         0.13          7.0 
      1029.0         0.17          6.7 
      1030.0         0.13          6.6 
      1031.0         0.23          6.8 
      1032.0         0.23          8.5 
      1033.0         0.27         12.8 
      1034.0         0.17         15.2 
      1035.0         0.23         17.1 
      1036.0         0.27         16.9 
      1037.0         0.23         15.7 
      1038.0         0.20         13.9 
      1039.0         0.18         12.0 
      1040.0         0.20         10.9 
      1041.0         0.30          9.9 
      1042.0         2.58          8.5 
      1043.0         0.47          6.7 
      1044.0         0.27          9.3 
      1045.0         0.33         11.0 
