~Version Information
VERS.                      2.0: CWLS Log ASCII Standard - VERSION 2.0
WRAP.                       NO: One line per depth step
~Well Information Block
STRT.FT               -10.7500: 
STOP.FT              1466.2500: 
STEP.FT                 0.2500: 
NULL.                -999.2500: 
COMP.          Pioneer Natural Resources: COMPANY
WELL.             Andrew 23-15: WELL
FLD.           Purgatorie River: FIELD
LOC.           2137' FSL & 2292' FWL--: LOCATION
PROV.                       CO: PROVINCE
CNTY.               Las Animas: COUNTRY
SRVC.          Patterson Wireline: SERVICE COMPANY
DATE.          Thu Aug 18 11:51:45 2005: LOG DATE
UWI.           05 071 08460 00: UNIQUE WELL ID
~Curve Information Block
DEPT.FT            0 000 00 00: Depth
CCL.                          : Casing Collar Locator
TT3.usec                      : CBL 3' Travel Time
AMP3.mV                       : CBL 3' Amplitude
GR.GAPI                       : Gamma Ray
~Parameter Information Block
~A  Depth       CCL         TT3         AMP3         GR     
# ...
  1061.2500      0.0000    737.6072      7.9889    105.6257
  1061.5000      0.0000    740.1784      7.9884     97.4685
  1061.7500      0.0000    741.4501      7.9829     91.0182
  1062.0000      0.0000    741.7794      7.9652     86.4447
  1062.2500      0.0000    741.3062      7.9331     83.3049
  1062.5000      0.0000    739.8052      7.8923     80.8845
  1062.7500      0.0000    737.1334      7.8526     78.5261
  1063.0000      0.0000    733.8881      7.8236     75.8908
  1063.2500      0.0000    731.4985      7.8113     73.0628
  1063.5000      0.0000    731.1927      7.8160     70.5297
  1063.7500      0.0000    732.6431      7.8339     69.0948
  1064.0000      0.0000    733.7839      7.8614     69.5604
  1064.2500      0.0000    732.0757      7.8961     72.0220
  1064.5000      0.0000    726.0167      7.9325     75.1304
  1064.7500      0.0000    715.9018      7.9619     76.2721
  1065.0000      0.0000    703.7343      7.9785     73.1869
  1065.2500      0.0000    692.4989      7.9834     65.9767
  1065.5000      0.0000    684.9485      7.9829     57.4318
  1065.7500      0.0000    682.3986      7.9829     51.0754
  1066.0000      0.0000    684.3405      7.9856     48.8752
  1066.2500      0.0000    689.2364      7.9935     50.6597
  1066.5000      0.0000    695.7719      8.0130     55.0139
  1066.7500      0.0000    703.5064      8.0498     60.2779
  1067.0000      0.0000    712.6002      8.1012     65.2214
  1067.2500      0.0000    722.9944      8.1586     69.5434
  1067.5000      0.0000    733.5583      8.2154     73.9082
  1067.7500      0.0000    742.1188      8.2698     79.2472
  1068.0000      0.0000    746.9127      8.3214     85.7810
  1068.2500      0.0000    748.0559      8.3682     92.4878
  1068.5000      0.0000    747.1942      8.4059     97.5890
  1068.7500      0.0000    745.8543      8.4319    100.0853
  1069.0000      0.0000    744.3873      8.4487    101.0498
  1069.2500      0.0000    742.1598      8.4618    103.0361
  1069.5000      0.0000    738.3824      8.4735    108.1021
  1069.7500      0.0000    732.9674      8.4811    116.5336
  1070.0000      0.0000    726.8567      8.4820    126.8927
  1070.2500      0.0000    721.4228      8.4794    136.6378
  1070.5000      0.0000    717.3868      8.4813    143.1555
  1070.7500      0.0000    714.2700      8.4949    145.1111
  1071.0000      0.0000    710.7495      8.5199    142.9614
  1071.2500      0.0000    705.5391      8.5486    137.9586
  1071.5000      0.0000    698.3142      8.5727    131.0903
  1071.7500      0.0000    690.1740      8.5927    123.3813
  1072.0000      0.0000    683.1874      8.6176    116.5440
  1072.2500      0.0000    679.3919      8.6559    112.1571
  1072.5000      0.0000    680.1959      8.7057    110.1066
  1072.7500      0.0000    686.2901      8.7543    108.7505
  1073.0000      0.0000    697.2969      8.7877    106.8999
  1073.2500      0.0000    711.1854      8.8032    104.9766
  1073.5000      0.0000    724.5828      8.8124    103.9696
  1073.7500      0.0000    734.2888      8.8303    103.9734
  1074.0000      0.0000    738.6934      8.8619    104.3253
  1074.2500      0.0000    738.0077      8.9005    104.7017
  1074.5000      0.0000    733.7089      8.9381    105.3359
  1074.7500      0.0000    727.8883      8.9735    106.2258
  1075.0000      0.0000    722.5057      9.0075    106.6436
  1075.2500      0.0000    718.6103      9.0354    105.5989
  1075.5000      0.0000    716.0817      9.0500    102.8716
  1075.7500      0.0000    714.0435      9.0515     99.6959
  1076.0000      0.0000    711.4920      9.0503     98.1510
  1076.2500      0.0000    707.7798      9.0589     99.4602
  1076.5000      0.0000    702.8934      9.0820    103.0263
  1076.7500      0.0000    697.4423      9.1126    107.1788
  1077.0000      0.0000    692.4614      9.1379    110.5547
  1077.2500      0.0000    689.2883      9.1473    112.8398
  1077.5000      0.0000    689.2230      9.1377    114.6043
  1077.7500      0.0000    692.5626      9.1148    116.5127
  1078.0000      0.0000    697.8148      9.0879    118.7287
  1078.2500      0.0000    702.4186      9.0624    121.2467
  1078.5000      0.0000    704.6641      9.0375    124.3207
  1078.7500      0.0000    704.8991      9.0112    127.7446
  1079.0000      0.0000    704.7827      8.9852    129.8304
  1079.2500      0.0000    705.1833      8.9655    128.1713
  1079.5000      0.0000    704.3976      8.9568    122.0781
  1079.7500      0.0000    697.5163      8.9599    113.8149
  1080.0000      0.0000    677.2300      8.9730    106.8137
  1080.2500      0.0000    637.2347      8.9961    102.9372
  1080.5000      0.0000    578.1674      9.0305    101.9555
  1080.7500      0.0000    510.8813      9.0751    102.9402
  1081.0000      0.0000    451.2774      9.1241    105.0341
  1081.2500      0.0000    410.1027      9.1715    107.1033
  1081.5000      0.0000    387.8745      9.2154    107.8804
  1081.7500      0.0000    378.4731      9.2579    106.8516
  1082.0000      0.0000    375.3508      9.2975    104.5378
  1082.2500      0.0000    374.5433      9.3248    101.7606
  1082.5000      0.0000    374.3979      9.3289     98.9388
  1082.7500      0.0000    374.4154      9.3067     96.1277
  1083.0000      0.0000    374.4996      9.2657     93.4774
  1083.2500      0.0000    374.6670      9.2174     91.5859
  1083.5000      0.0000    375.0181      9.1665     91.3632
  1083.7500      0.0000    375.9654      9.1094     93.3996
  1084.0000      0.0000    378.9065      9.0438     97.4179
  1084.2500      0.0000    387.2685      8.9771    102.4251
  1084.5000      0.0000    406.7270      8.9210    107.3435
  1084.7500      0.0000    442.3070      8.8781    111.4398
  1085.0000      0.0000    492.3111      8.8379    114.3744
  1085.2500      0.0000    544.4993      8.7874    116.0291
  1085.5000      0.0000    581.1793      8.7220    116.1671
  1085.7500      0.0000    591.9307      8.6445    114.4092
  1086.0000      0.0000    583.3627      8.5462    110.8789
  1086.2500      0.0000    575.6556      8.3903    106.6945
  1086.5000      0.0000    586.7932      8.1275    103.4367
  1086.7500      0.0000    618.5696      7.7405    102.1512
  1087.0000      0.0000    657.9208      7.2818    102.9693
  1087.2500      0.0000    689.5833      6.8658    105.4831
  1087.5000      0.0000    704.2241      6.6051    109.1878
  1087.7500      0.0000    696.8950      6.5317    113.4299
  1088.0000      0.0000    665.3694      6.5821    117.1151
  1088.2500      0.0000    614.9870      6.6812    118.8897
  1088.5000      0.0000    563.1170      6.8177    117.8403
  1088.7500      0.0000    533.5016      7.0157    113.9682
  1089.0000      0.0000    542.1858      7.2663    108.1720
  1089.2500      2.0000    586.9534      7.5242    101.9511
  1089.5000     -2.0000    649.2678      7.7465     96.7508
  1089.7500      0.0000    706.5880      7.9250     93.3006
  1090.0000      0.0000    744.9974      8.1019     91.7309
  1090.2500      0.0000    763.2726      8.3523     92.0981
  1090.5000      0.0000    767.6111      8.7105     94.2842
  1090.7500      0.0000    763.9677      9.1177     97.5715
  1091.0000      0.0000    755.2410      9.4818    100.7397
  1091.2500      0.0000    743.5158      9.7679    102.5466
  1091.5000      0.0000    731.9139      9.9970    102.3259
  1091.7500      0.0000    723.4060     10.1828    100.6550
  1092.0000      0.0000    719.1219     10.3138     99.2100
  1092.2500      0.0000    718.6185     10.3830     99.3603
  1092.5000      0.0000    721.0040     10.4091    101.0676
  1092.7500      0.0000    724.9299     10.4271    103.5005
  1093.0000      0.0000    727.6718     10.4647    106.2539
  1093.2500      0.0000    725.4162     10.5259    109.4826
  1093.5000      0.0000    715.7867     10.5931    113.1931
  1093.7500      0.0000    700.6528     10.6411    116.9446
  1094.0000      0.0000    686.0920     10.6448    120.1760
  1094.2500      0.0000    678.7039     10.5822    122.4678
  1094.5000      0.0000    680.9922     10.4403    123.3150
