~Version Information
VERS.                      2.0: CWLS Log ASCII Standard - VERSION 2.0
WRAP.                       NO: One line per depth step
~Well Information Block
STRT.FT               240.0000: 
STOP.FT               902.0000: 
STEP.FT                 0.1000: 
NULL.                -999.2500: 
COMP.          Pioneer Natural Resources: COMPANY
WELL.          Bienville 31-28: WELL
FLD.           Purgatoire River: FIELD
LOC.           1212' FNL & 2271' FEL: LOCATION
PROV.                 Colorado: PROVINCE
CNTY.               Las Animas: COUNTRY
SRVC.                Patterson: SERVICE COMPANY
DATE.          Mon Jan 16 13:39:21 2006: LOG DATE
UWI.           05 071 08666 00: UNIQUE WELL ID
~Curve Information Block
DEPT.FT            0 000 00 00: Depth
DCAL.in                       : CDL Caliper
RHOB.g/cc                     : CDL Bulk Density
RHOC.g/cc                     : CDL Density Correction
DPOR.pu                       : CDL Density Porosity
GR.GAPI                       : Gamma Ray
NPOR.pu                       : Neutron Porosity
~Parameter Information Block
~A  Depth       DCAL        RHOB        RHOC        DPOR         GR         NPOR    
# ...
   537.6000      7.8818      2.6110      0.1046      2.3655     45.9551     17.4230
   537.7000      7.8818      2.6149      0.1542      2.1260     45.3095     16.9468
   537.8000      7.8504      2.6036      0.1684      2.8120     42.3022     16.7910
   537.9000      7.8504      2.5792      0.0600      4.2907     39.6383     17.0209
   538.0000      7.8469      2.5606      0.0614      5.4208     40.3473     17.5078
   538.1000      7.8469      2.5537      0.0879      5.8372     43.4543     18.2122
   538.2000      7.8469      2.5533      0.0543      5.8621     44.3537     19.1380
   538.3000      7.8592      2.5557      0.0501      5.7180     41.0119     19.9686
   538.4000      7.8592      2.5544      0.0201      5.7923     38.1157     20.3009
   538.5000      7.8739      2.5449      0.0587      6.3692     39.0450     20.2713
   538.6000      7.8739      2.5347      0.0351      6.9881     42.2522     20.2175
   538.7000      7.8739      2.5367      0.0530      6.8674     45.3985     20.0820
   538.8000      7.8794      2.5532      0.0444      5.8679     45.9319     19.6180
   538.9000      7.8794      2.5811      0.0652      4.1763     44.8403     18.9062
   539.0000      7.8863      2.6158      0.0748      2.0731     44.3832     18.2387
   539.1000      7.8863      2.6429      0.1520      0.4288     42.8382     17.6885
   539.2000      7.8863      2.6503      0.1094     -0.0209     39.6254     17.1580
   539.3000      7.8942      2.6488      0.0971      0.0715     35.3581     16.6552
   539.4000      7.8942      2.6407      0.1374      0.5656     30.7736     16.4993
   539.5000      7.8616      2.6143      0.0271      2.1631     29.8247     16.9793
   539.6000      7.8616      2.5826      0.0226      4.0833     35.2142     17.7059
   539.7000      7.8616      2.5592      0.0013      5.5037     43.5685     18.1012
   539.8000      7.8629      2.5393     -0.0118      6.7087     48.1218     18.1055
   539.9000      7.8629      2.5291     -0.0136      7.3257     47.0435     17.9351
   540.0000      7.8690      2.5454     -0.0209      6.3415     44.4580     17.8824
   540.1000      7.8690      2.5816      0.0052      4.1454     42.4371     18.0974
   540.2000      7.8690      2.6022      0.1235      2.8994     41.2046     18.2590
   540.3000      7.9018      2.5908      0.0770      3.5854     40.8522     18.0294
   540.4000      7.9018      2.5732      0.1097      4.6530     42.1433     17.6985
   540.5000      7.9683      2.5741      0.0416      4.6029     44.5159     17.5578
   540.6000      7.9683      2.5929      0.0719      3.4611     45.2285     17.6759
   540.7000      7.9683      2.6090      0.0673      2.4875     46.5676     18.0383
   540.8000      7.9266      2.6011      0.0757      2.9613     51.0741     18.4011
   540.9000      7.9266      2.5693      0.0138      4.8907     53.8602     18.6981
   541.0000      7.9038      2.5387      0.0127      6.7456     53.1828     19.0253
   541.1000      7.9038      2.5343      0.0457      7.0115     53.1578     19.3503
   541.2000      7.9038      2.5530      0.0585      5.8766     54.2956     19.6355
   541.3000      7.9137      2.5718      0.0822      4.7423     57.0745     19.7368
   541.4000      7.9137      2.5741      0.0839      4.6011     63.5656     19.7928
   541.5000      7.8950      2.5614      0.0305      5.3702     70.9275     20.1657
   541.6000      7.8950      2.5387      0.0766      6.7472     72.9296     20.7307
   541.7000      7.8950      2.5149     -0.0071      8.1902     68.7003     21.1229
   541.8000      7.8641      2.5088      0.0309      8.5564     64.7861     21.1706
   541.9000      7.8641      2.5199      0.0638      7.8821     63.2666     20.9368
   542.0000      7.8650      2.5259      0.0154      7.5228     62.1853     20.5374
   542.1000      7.8650      2.5194     -0.0030      7.9174     62.8978     20.1341
   542.2000      7.8650      2.5195     -0.0003      7.9063     63.2789     19.9243
   542.3000      7.8910      2.5402      0.0252      6.6549     59.8203     19.9733
   542.4000      7.8910      2.5647      0.1145      5.1671     55.8988     20.0422
   542.5000      7.8952      2.5695      0.1005      4.8799     53.9271     19.7702
   542.6000      7.8952      2.5590      0.0401      5.5149     52.6990     19.3718
   542.7000      7.8952      2.5517      0.0251      5.9606     52.4934     19.3777
   542.8000      7.8914      2.5523      0.0863      5.9199     52.2165     19.7764
   542.9000      7.8914      2.5642      0.0230      5.2030     51.7803     20.1513
   543.0000      7.8962      2.5866      0.0953      3.8430     51.9966     20.3331
   543.1000      7.8962      2.5989      0.0703      3.0997     51.7565     20.2265
   543.2000      7.8962      2.5900      0.0937      3.6386     51.8860     19.7809
   543.3000      7.8911      2.5752      0.0847      4.5352     52.9067     19.5295
   543.4000      7.8911      2.5737      0.0762      4.6258     52.6575     19.8209
   543.5000      7.9063      2.5839      0.0916      4.0045     51.4956     20.3572
   543.6000      7.9063      2.5833      0.1295      4.0411     50.4162     20.9218
   543.7000      7.9063      2.5610      0.0710      5.3912     50.2270     21.4204
   543.8000      7.8965      2.5393      0.0059      6.7097     52.7212     21.7007
   543.9000      7.8965      2.5351      0.0875      6.9648     56.2835     21.8142
   544.0000      7.8818      2.5398      0.0541      6.6780     57.7529     21.7683
   544.1000      7.8818      2.5465      0.0801      6.2703     58.1477     21.4215
   544.2000      7.8818      2.5503      0.0660      6.0415     59.5162     20.9133
   544.3000      7.8888      2.5468      0.0858      6.2524     60.8371     20.7237
   544.4000      7.8888      2.5409      0.0540      6.6114     60.4669     20.8082
   544.5000      7.8905      2.5392      0.0493      6.7145     58.7146     20.7877
   544.6000      7.8905      2.5384      0.0495      6.7638     55.9522     20.7213
   544.7000      7.8905      2.5300      0.0537      7.2741     52.4108     20.5702
   544.8000      7.8882      2.5220      0.0210      7.7574     50.2139     20.1948
   544.9000      7.8882      2.5384      0.0541      6.7628     51.1540     19.7533
   545.0000      7.8883      2.5761      0.1441      4.4797     52.2550     19.3604
   545.1000      7.8883      2.6058      0.1532      2.6801     49.5700     19.1570
   545.2000      7.8883      2.6194      0.1157      1.8536     45.4478     19.0664
   545.3000      7.8761      2.6330      0.1386      1.0286     44.1968     18.7745
   545.4000      7.8761      2.6586      0.1707     -0.5183     47.1441     18.2869
   545.5000      7.8536      2.6884      0.1745     -2.3295     52.8773     17.9243
   545.6000      7.8536      2.7019      0.1593     -3.1482     59.3365     17.8991
   545.7000      7.8536      2.6820      0.1781     -1.9423     64.9551     18.2209
   545.8000      7.8434      2.6311      0.1276      1.1464     67.5129     18.6708
   545.9000      7.8434      2.5725      0.0943      4.6990     67.1732     19.0855
   546.0000      7.8563      2.5286      0.0202      7.3588     65.6732     19.3748
   546.1000      7.8563      2.5093      0.0434      8.5294     63.1358     19.2869
   546.2000      7.8563      2.5154      0.0171      8.1562     59.7222     18.9300
   546.3000      7.8717      2.5415      0.0770      6.5732     56.2109     18.8476
   546.4000      7.8717      2.5761      0.0769      4.4765     55.0329     19.3896
   546.5000      7.9204      2.6082      0.0786      2.5322     56.6059     20.3636
   546.6000      7.9204      2.6202      0.1267      1.8045     58.1904     21.0830
   546.7000      7.9204      2.6014      0.0471      2.9474     57.7908     20.9703
   546.8000      7.8761      2.5755      0.0108      4.5149     56.2836     20.2771
   546.9000      7.8761      2.5699      0.0234      4.8557     55.1930     19.7963
   547.0000      7.8951      2.5777      0.0578      4.3833     54.5854     19.8468
   547.1000      7.8951      2.5787      0.0654      4.3233     53.9171     19.9534
