~Version Information
VERS.                      2.0: CWLS Log ASCII Standard - VERSION 2.0
WRAP.                       NO: One line per depth step
~Well Information Block
STRT.FT                -8.0000: 
STOP.FT               918.7500: 
STEP.FT                 0.2500: 
NULL.                -999.2500: 
COMP.          Pioneer Natural Resources: COMPANY
WELL.          Sculpin 32-30 Tr: WELL
FLD.           Purgatorie River: FIELD
LOC.           1600' FNL & 1857' FEL--: LOCATION
CNTY.               Las Animas: COUNTY
SRVC.          Patterson Wireline: SERVICE COMPANY
DATE.          Thu Aug 03 08:40:45 2006: LOG DATE
UWI.           05 071 08706 00: UNIQUE WELL ID
STAT.                       CO: STATE
~Curve Information Block
DEPT.FT            0 000 00 00: Depth
CCL.                          : Casing Collar Locator
TT3.usec                      : CBL 3' Travel Time
AMP3.mV                       : CBL 3' Amplitude
GR.GAPI                       : Gamma Ray
~Parameter Information Block
~A  Depth       CCL         TT3         AMP3         GR     
# ...
   729.0000      0.0000    457.1260      3.2678     98.8717
   729.2500      0.0000    469.4779      3.2192    104.1789
   729.5000      0.0000    492.0065      3.1936    109.5186
   729.7500      0.0000    522.8035      3.2001    112.8253
   730.0000      0.0000    557.4438      3.2408    112.5755
   730.2500      0.0000    592.1036      3.3067    108.7456
   730.5000      0.0000    624.9282      3.3809    103.2900
   730.7500      0.0000    653.9515      3.4436     99.3386
   731.0000      0.0000    675.0254      3.4802     99.1125
   731.2500      0.0000    683.6915      3.4875    102.4327
   731.5000      0.0000    679.8129      3.4721    107.2656
   731.7500      0.0000    669.4310      3.4436    111.4039
   732.0000      0.0000    660.6592      3.4087    113.6260
   732.2500      0.0000    657.7005      3.3707    113.7858
   732.5000      0.0000    659.3508      3.3320    112.4206
   732.7500      0.0000    662.2828      3.2956    110.3321
   733.0000      0.0000    664.4232      3.2631    108.0581
   733.2500      0.0000    665.4954      3.2339    105.5053
   733.5000      0.0000    665.9659      3.2055    102.2800
   733.7500      0.0000    666.2064      3.1769     98.2871
   734.0000      0.0000    666.3456      3.1490     93.7871
   734.2500      0.0000    666.3992      3.1242     89.1386
   734.5000      0.0000    666.3679      3.1050     84.8224
   734.7500      0.0000    666.2637      3.0926     81.4683
   735.0000      0.0000    666.1126      3.0857     79.4213
   735.2500      0.0000    665.9533      3.0812     78.3425
   735.5000      0.0000    665.8246      3.0770     77.4983
   735.7500      0.0000    665.7576      3.0742     76.5298
   736.0000      0.0000    665.7801      3.0741     75.8710
   736.2500      0.0000    665.9193      3.0728     76.1901
   736.5000      0.0000    666.1862      3.0624     77.3461
   736.7500      0.0000    666.5485      3.0376     78.1820
   737.0000      0.0000    666.9147      3.0006     77.6201
   737.2500      0.0000    667.1611      2.9598     75.7336
   737.5000      0.0000    667.1972      2.9245     73.3637
   737.7500      0.0000    667.0188      2.9004     70.9376
   738.0000      0.0000    666.7115      2.8887     68.2615
   738.2500      0.0000    666.4270      2.8887     65.3338
   738.5000      0.0000    666.4278      2.9007     62.6603
   738.7500      0.0000    667.2632      2.9234     60.6270
   739.0000      0.0000    670.0205      2.9505     59.0682
   739.2500      0.0000    676.2933      2.9716     57.6407
   739.5000      0.0000    687.2549      2.9793     56.3047
   739.7500      0.0000    701.9874      2.9732     55.3398
   740.0000      0.0000    716.7475      2.9585     55.1497
   740.2500      0.0000    726.6561      2.9428     56.0696
   740.5000      0.0000    728.5707      2.9327     58.1272
   740.7500      0.0000    722.6068      2.9320     60.9526
   741.0000      0.0000    711.6738      2.9403     64.0815
   741.2500      0.0000    699.8069      2.9540     67.3401
   741.5000      0.0000    689.9717      2.9693     70.8525
   741.7500      0.0000    682.7611      2.9850     74.7291
   742.0000      0.0000    677.3168      3.0010     78.7816
   742.2500      0.0000    673.2297      3.0162     82.3861
   742.5000      0.0000    671.1360      3.0284     84.5939
   742.7500      0.0000    671.8647      3.0366     84.6633
   743.0000      0.0000    675.3876      3.0408     82.8194
   743.2500      0.0000    680.2018      3.0409     80.4295
   743.5000      0.0000    683.4414      3.0377     79.1987
   743.7500      0.0000    682.1130      3.0347     80.1316
   744.0000      0.0000    674.5185      3.0384     83.1821
   744.2500      0.0000    660.7908      3.0537     87.5254
   744.5000      0.0000    643.3389      3.0801     91.9026
   744.7500      0.0000    627.6315      3.1102     95.0033
   745.0000      0.0000    620.5107      3.1363     96.0598
   745.2500      0.0000    625.0179      3.1560     95.1577
   745.5000      0.0000    637.2880      3.1734     92.7666
   745.7500      0.0000    650.1028      3.1938     89.1430
   746.0000      0.0000    658.8149      3.2211     84.5197
   746.2500      0.0000    663.1276      3.2566     79.6802
   746.5000      0.0000    664.8262      3.2975     75.8511
   746.7500      0.0000    665.4286      3.3339     73.9775
   747.0000      0.0000    665.4085      3.3514     74.3209
   747.2500      0.0000    664.1026      3.3397     76.6667
   747.5000      0.0000    659.5096      3.2996     80.7034
   747.7500      0.0000    648.5219      3.2403     86.2659
   748.0000      0.0000    628.8175      3.1729     93.3101
   748.2500      0.0000    601.8223      3.1075    101.6109
   748.5000      0.0000    573.1543      3.0564    110.4317
   748.7500      0.0000    548.8506      3.0335    118.4223
   749.0000      0.0000    532.2308      3.0471    123.7953
   749.2500      0.0000    525.7614      3.0921    124.9308
   749.5000      0.0000    532.9417      3.1519    121.4704
   749.7500      0.0000    554.1551      3.2081    115.0273
   750.0000      0.0000    581.2912      3.2510    108.4169
   750.2500      0.0000    599.9378      3.2789    103.8780
   750.5000      0.0000    598.6618      3.2914    101.9507
   750.7500      0.0000    577.0124      3.2846    101.7605
   751.0000      0.0000    546.0786      3.2545    101.9065
   751.2500      0.0000    521.5316      3.2035    101.0764
   751.5000      0.0000    514.1158      3.1433     98.4730
   751.7500      0.0000    524.4459      3.0890     94.2969
   752.0000      0.0000    545.2000      3.0509     89.6868
   752.2500      0.0000    567.3610      3.0316     85.7456
   752.5000      0.0000    585.2843      3.0278     82.6208
   752.7500      0.0000    598.5317      3.0339     79.8661
   753.0000      0.0000    610.5213      3.0423     77.6009
   753.2500      0.0000    624.4073      3.0434     76.7336
   753.5000      0.0000    639.6927      3.0276     77.7556
   753.7500      0.0000    653.5451      2.9900     79.7203
   754.0000      0.0000    664.6072      2.9352     80.9411
   754.2500      0.0000    674.0928      2.8768     80.6146
   754.5000      0.0000    683.5913      2.8310     79.3160
   754.7500      0.0000    692.9866      2.8077     77.8249
   755.0000      0.0000    700.6943      2.8071     75.9786
   755.2500      0.0000    705.1703      2.8219     73.0886
   755.5000      0.0000    705.8771      2.8430     69.1710
   755.7500      0.0000    703.2189      2.8621     65.1996
   756.0000      0.0000    698.0972      2.8736     62.1905
   756.2500      0.0000    691.5503      2.8761     60.4561
   756.5000      0.0000    684.5005      2.8724     59.7132
   756.7500      0.0000    677.7830      2.8677     59.4761
   757.0000      0.0000    672.3850      2.8668     59.2920
   757.2500      0.0000    669.5524      2.8734     58.9665
   757.5000      0.0000    670.8625      2.8899     58.7362
   757.7500      0.0000    678.2565      2.9175     59.1450
   758.0000      0.0000    693.0416      2.9568     60.7332
   758.2500      0.0000    713.5974      3.0070     63.9366
   758.5000      0.0000    734.1533      3.0647     69.3187
   758.7500      0.0000    747.3034      3.1227     77.6886
   759.0000      0.0000    748.7302      3.1686     89.6493
   759.2500      0.0000    739.4350      3.1871    104.8403
   759.5000      0.0000    723.6907      3.1673    121.6645
   759.7500      0.0000    705.2447      3.1110    137.7895
   760.0000      0.0000    685.3342      3.0389    150.8704
   760.2500      0.0000    664.0036      2.9886    159.0313
   760.5000      0.0000    643.0245      2.9992    161.3120
   760.7500      0.0000    626.1224      3.0816    158.0518
   761.0000      0.0000    615.5601      3.2072    150.7662
   761.2500      0.0000    610.3120      3.3375    141.6181
   761.5000      0.0000    609.0645      3.4598    132.9378
   761.7500      0.0000    612.5739      3.5817    126.8095
   762.0000      0.0000    620.9446      3.7007    124.6080
   762.2500     -2.0000    631.0920      3.7952    126.8860
