~Version Information
VERS.                      2.0: CWLS Log ASCII Standard - VERSION 2.0
WRAP.                       NO: One line per depth step
~Well Information Block
STRT.FT                10.0000: 
STOP.FT               959.2500: 
STEP.FT                 0.2500: 
NULL.                -999.2500: 
COMP.          XTO Energy Inc.: COMPANY
WELL.          Golden Eagle 20-04: WELL
FLD.           Purgatrorie River: FIELD
LOC.           702' FNL & 487' FWL--: LOCATION
STAT.                       CO: State
CNTY.               Las Animas: COUNTY
CTRY. USA : Country
SECT. 20 : Section
TOWN. 33S : Township
RANG. 67W : Range
SRVC.          Patterson Wireline: SERVICE COMPANY
DATE.          Mon Dec 05 08:42:44 2005: LOG DATE
API.           05 071 08599 00: UNIQUE WELL ID
~Curve Information Block
DEPT.FT            0 000 00 00: Depth
TEMP.degF                     : Downhole Temperature
DTMP.degF                     : Delta Temperature
~Parameter Information Block
~A  Depth       TEMP        DTMP    
# ...
   846.2500     72.0782     -0.0365
   846.5000     72.0682     -0.0374
   846.7500     72.0583     -0.0369
   847.0000     72.0485     -0.0353
   847.2500     72.0412     -0.0362
   847.5000     72.0316     -0.0357
   847.7500     72.0222     -0.0341
   848.0000     72.0152     -0.0336
   848.2500     72.0059     -0.0343
   848.5000     71.9968     -0.0338
   848.7500     71.9901     -0.0322
   849.0000     71.9813     -0.0328
   849.2500     71.9726     -0.0323
   849.5000     71.9641     -0.0317
   849.7500     71.9578     -0.0312
   850.0000     71.9495     -0.0307
   850.2500     71.9414     -0.0292
   850.5000     71.9335     -0.0286
   850.7500     71.9276     -0.0291
   851.0000     71.9199     -0.0285
   851.2500     71.9142     -0.0270
   851.5000     71.9069     -0.0264
   851.7500     71.8996     -0.0268
   852.0000     71.8925     -0.0254
   852.2500     71.8873     -0.0258
   852.5000     71.8806     -0.0252
   852.7500     71.8739     -0.0238
   853.0000     71.8690     -0.0233
   853.2500     71.8627     -0.0236
   853.5000     71.8565     -0.0230
   853.7500     71.8520     -0.0217
   854.0000     71.8460     -0.0220
   854.2500     71.8402     -0.0215
   854.5000     71.8346     -0.0209
   854.7500     71.8304     -0.0211
   855.0000     71.8250     -0.0200
   855.2500     71.8197     -0.0194
   855.5000     71.8147     -0.0183
   855.7500     71.8097     -0.0184
   856.0000     71.8061     -0.0178
   856.2500     71.8014     -0.0172
   856.5000     71.7980     -0.0162
   856.7500     71.7936     -0.0156
   857.0000     71.7894     -0.0156
   857.2500     71.7853     -0.0146
   857.5000     71.7824     -0.0146
   857.7500     71.7785     -0.0140
   858.0000     71.7749     -0.0130
   858.2500     71.7722     -0.0125
   858.5000     71.7689     -0.0124
   858.7500     71.7657     -0.0118
   859.0000     71.7634     -0.0109
   859.2500     71.7604     -0.0108
   859.5000     71.7576     -0.0102
   859.7500     71.7549     -0.0097
   860.0000     71.7530     -0.0093
   860.2500     71.7506     -0.0087
   860.5000     71.7484     -0.0079
   860.7500     71.7463     -0.0074
   861.0000     71.7448     -0.0071
   861.2500     71.7430     -0.0065
   861.5000     71.7417     -0.0057
   861.7500     71.7402     -0.0051
   862.0000     71.7389     -0.0046
   862.2500     71.7377     -0.0039
   862.5000     71.7370     -0.0034
   862.7500     71.7362     -0.0028
   863.0000     71.7355     -0.0021
   863.2500     71.7351     -0.0014
   863.5000     71.7348     -0.0009
   863.7500     71.7347     -0.0002
   864.0000     71.7347      0.0004
   864.2500     71.7349      0.0010
   864.5000     71.7352      0.0017
   864.7500     71.7358      0.0023
   865.0000     71.7363      0.0028
   865.2500     71.7372      0.0035
   865.5000     71.7382      0.0041
   865.7500     71.7394      0.0045
   866.0000     71.7404      0.0052
   866.2500     71.7419      0.0058
   866.5000     71.7435      0.0064
   866.7500     71.7448      0.0067
   867.0000     71.7467      0.0075
   867.2500     71.7488      0.0082
   867.5000     71.7511      0.0084
   867.7500     71.7529      0.0093
   868.0000     71.7554      0.0099
   868.2500     71.7582      0.0106
   868.5000     71.7603      0.0107
   868.7500     71.7633      0.0117
   869.0000     71.7665      0.0123
   869.2500     71.7699      0.0124
   869.5000     71.7725      0.0134
   869.7500     71.7762      0.0141
   870.0000     71.7800      0.0147
   870.2500     71.7830      0.0154
   870.5000     71.7872      0.0159
   870.7500     71.7915      0.0165
   871.0000     71.7960      0.0164
   871.2500     71.8007      0.0175
   871.5000     71.8042      0.0181
   871.7500     71.8091      0.0186
   872.0000     71.8129      0.0184
   872.2500     71.8180      0.0189
   872.5000     71.8233      0.0200
   872.7500     71.8287      0.0197
   873.0000     71.8328      0.0208
   873.2500     71.8385      0.0213
   873.5000     71.8442      0.0210
   873.7500     71.8486      0.0214
   874.0000     71.8546      0.0225
   874.2500     71.8606      0.0229
   874.5000     71.8652      0.0225
   874.7500     71.8715      0.0236
   875.0000     71.8778      0.0240
   875.2500     71.8843      0.0243
   875.5000     71.8891      0.0246
   875.7500     71.8958      0.0249
   876.0000     71.9025      0.0244
   876.2500     71.9093      0.0248
   876.5000     71.9144      0.0259
   876.7500     71.9213      0.0253
   877.0000     71.9267      0.0257
   877.2500     71.9338      0.0261
   877.5000     71.9410      0.0273
   877.7500     71.9465      0.0267
   878.0000     71.9539      0.0279
   878.2500     71.9614      0.0283
   878.5000     71.9690      0.0276
   878.7500     71.9748      0.0289
   879.0000     71.9825      0.0292
   879.2500     71.9903      0.0295
   879.5000     71.9962      0.0287
   879.7500     72.0042      0.0299
   880.0000     72.0122      0.0302
   880.2500     72.0204      0.0304
   880.5000     72.0264      0.0305
   880.7500     72.0346      0.0306
   881.0000     72.0428      0.0308
   881.2500     72.0511      0.0298
   881.5000     72.0572      0.0309
   881.7500     72.0655      0.0309
   882.0000     72.0738      0.0299
   882.2500     72.0799      0.0299
   882.5000     72.0882      0.0309
   882.7500     72.0964      0.0308
   883.0000     72.1026      0.0298
   883.2500     72.1108      0.0308
   883.5000     72.1190      0.0307
   883.7500     72.1272      0.0307
   884.0000     72.1333      0.0307
   884.2500     72.1415      0.0307
   884.5000     72.1497      0.0306
   884.7500     72.1579      0.0296
   885.0000     72.1640      0.0305
   885.2500     72.1721      0.0305
   885.5000     72.1802      0.0304
   885.7500     72.1863      0.0293
   886.0000     72.1944      0.0302
   886.2500     72.2024      0.0291
   886.5000     72.2105      0.0290
   886.7500     72.2164      0.0299
   887.0000     72.2243      0.0288
   887.2500     72.2303      0.0287
   887.5000     72.2382      0.0286
   887.7500     72.2461      0.0296
   888.0000     72.2519      0.0286
   888.2500     72.2598      0.0296
   888.5000     72.2677      0.0296
   888.7500     72.2756      0.0286
   889.0000     72.2815      0.0297
   889.2500     72.2894      0.0298
   889.5000     72.2973      0.0299
   889.7500     72.3033      0.0290
   890.0000     72.3113      0.0302
   890.2500     72.3194      0.0305
   890.5000     72.3276      0.0307
   890.7500     72.3337      0.0309
   891.0000     72.3420      0.0312
   891.2500     72.3503      0.0304
   891.5000     72.3587      0.0307
   891.7500     72.3651      0.0320
   892.0000     72.3737      0.0312
   892.2500     72.3802      0.0314
   892.5000     72.3889      0.0317
   892.7500     72.3977      0.0330
   893.0000     72.4043      0.0332
   893.2500     72.4132      0.0333
   893.5000     72.4221      0.0335
   893.7500     72.4311      0.0337
   894.0000     72.4401      0.0350
   894.2500     72.4468      0.0341
   894.5000     72.4560      0.0343
   894.7500     72.4651      0.0333
   895.0000     72.4744      0.0336
   895.2500     72.4813      0.0350
   895.5000     72.4907      0.0353
   895.7500     72.4977      0.0344
   896.0000     72.5073      0.0346
   896.2500     72.5168      0.0361
   896.5000     72.5266      0.0352
   896.7500     72.5339      0.0367
   897.0000     72.5437      0.0369
   897.2500     72.5536      0.0360
   897.5000     72.5611      0.0362
   897.7500     72.5711      0.0376
   898.0000     72.5812      0.0378
   898.2500     72.5888      0.0367
   898.5000     72.5989      0.0381
   898.7500     72.6091      0.0382
   899.0000     72.6193      0.0384
   899.2500     72.6269      0.0398
   899.5000     72.6372      0.0386
   899.7500     72.6475      0.0388
   900.0000     72.6579      0.0377
   900.2500     72.6683      0.0392
   900.5000     72.6761      0.0394
   900.7500     72.6866      0.0396
   901.0000     72.6946      0.0385
   901.2500     72.7052      0.0387
   901.5000     72.7159      0.0402
   901.7500     72.7267      0.0391
