~Version Information
VERS.                      2.0: CWLS Log ASCII Standard - VERSION 2.0
WRAP.                       NO: One line per depth step
~Well Information Block
STRT.FT               875.0000: 
STOP.FT              2053.0000: 
STEP.FT                 0.1000: 
NULL.                -999.2500: 
COMP.          Pioneer Natural Resources: COMPANY
WELL.          Woodstock 43-19: WELL
FLD.           Purgatoire River: FIELD
LOC.           2195' FSL & 250' FEL: LOCATION
CNTY.               Las Animas: COUNTY
SRVC.                Patterson: SERVICE COMPANY
DATE.          Thu Feb 02 12:45:04 2006: LOG DATE
UWI.           05 071 08677 00: UNIQUE WELL ID
STAT.                 Colorado: STATE
~Curve Information Block
DEPT.FT            0 000 00 00: Depth
DCAL.in                       : CDL Caliper
RHOB.g/cc                     : CDL Bulk Density
RHOC.g/cc                     : CDL Density Correction
DPOR.pu                       : CDL Density Porosity
GR.GAPI                       : Gamma Ray
NPOR.pu                       : Neutron Porosity
~Parameter Information Block
~A  Depth       DCAL        RHOB        RHOC        DPOR         GR         NPOR    
# ...
  1105.4000      8.1636      2.4259     -0.0074     13.5842    171.8925     22.0586
  1105.5000      8.1832      2.3976     -0.0248     15.2952    180.0085     19.9573
  1105.6000      8.1832      2.3549     -0.0142     17.8859    180.0351     18.0115
  1105.7000      8.1832      2.2663     -0.0656     23.2564    175.2525     16.6205
  1105.8000      8.2692      2.1484     -0.0480     30.3977    170.7236     15.5677
  1105.9000      8.2692      2.0241     -0.0471     37.9305    166.2535     14.4789
  1106.0000      8.2095      1.9001     -0.0936     45.4456    157.6230     13.4775
  1106.1000      8.2095      1.7968     -0.1352     51.7071    146.8980     12.9763
  1106.2000      8.2095      1.7310     -0.1515     55.6959    141.9225     13.3069
  1106.3000      8.1999      1.6773     -0.0857     58.9501    144.7740     14.0802
  1106.4000      8.1999      1.5994     -0.0487     63.6756    146.2615     14.5240
  1106.5000      8.2948      1.5239     -0.0977     68.2480    138.2369     14.8641
  1106.6000      8.2948      1.5165      0.1114     68.6968    124.8678     15.7618
  1106.7000      8.2948      1.5828      0.2929     64.6813    112.4791     17.2720
  1106.8000      8.3914      1.6810      0.2708     58.7271    101.1785     19.0940
  1106.9000      8.3914      1.7740      0.2802     53.0922     91.7814     20.9743
  1107.0000      8.5076      1.8408      0.1372     49.0399     89.0337     22.7714
  1107.1000      8.5076      1.9038      0.1171     45.2232     95.4608     24.3232
  1107.2000      8.5076      1.9957      0.1968     39.6567    104.6264     25.4231
  1107.3000      8.4318      2.1103      0.2388     32.7066    108.8538     26.1217
  1107.4000      8.4318      2.2311      0.2837     25.3899    108.9447     26.5259
  1107.5000      8.2596      2.3540      0.2556     17.9404    109.1245     26.7062
  1107.6000      8.2596      2.4586      0.2420     11.5990    108.2673     26.9674
  1107.7000      8.2596      2.5197      0.1793      7.8998    106.7239     27.4843
  1107.8000      8.2119      2.5504      0.1165      6.0376    111.1861     27.9637
  1107.9000      8.2119      2.5667      0.2213      5.0457    122.8047     28.2521
  1108.0000      8.1529      2.5582      0.1337      5.5647    135.1372     28.4821
  1108.1000      8.1529      2.5285      0.1163      7.3661    144.1209     28.4818
  1108.2000      8.1529      2.4951      0.0974      9.3905    148.9608     28.1142
  1108.3000      8.1053      2.4683      0.0798     11.0096    149.9830     27.7077
  1108.4000      8.1053      2.4582      0.0333     11.6240    150.6986     27.6780
  1108.5000      8.0849      2.4740      0.0123     10.6676    155.3282     27.9877
  1108.6000      8.0849      2.5066      0.0693      8.6885    163.3568     28.2427
  1108.7000      8.0849      2.5343      0.0650      7.0104    168.3159     28.3756
  1108.8000      8.1808      2.5440      0.1192      6.4224    164.5132     28.6021
  1108.9000      8.1808      2.5318      0.1063      7.1613    154.1686     28.7889
  1109.0000      8.1744      2.5119      0.0708      8.3705    145.9341     28.7742
  1109.1000      8.1744      2.5087      0.0807      8.5624    146.1264     28.7431
  1109.2000      8.1744      2.5306      0.0840      7.2377    152.1142     28.7799
  1109.3000      8.1251      2.5666      0.1021      5.0534    154.6048     28.7293
  1109.4000      8.1251      2.6014      0.1474      2.9458    150.3372     28.5953
  1109.5000      8.0926      2.6225      0.1273      1.6638    146.1672     28.2001
  1109.6000      8.0926      2.6228      0.1378      1.6502    146.4538     27.1867
  1109.7000      8.0926      2.6022      0.1714      2.8960    148.2389     25.7467
  1109.8000      8.0889      2.5616      0.1991      5.3600    149.3783     24.3711
  1109.9000      8.0889      2.5012      0.1164      9.0155    151.3743     22.9519
  1110.0000      8.0910      2.4350      0.0557     13.0329    155.6548     21.1565
  1110.1000      8.0910      2.3744     -0.0298     16.7045    158.9486     19.1998
  1110.2000      8.0910      2.3019     -0.0258     21.0940    155.5780     17.5074
  1110.3000      8.1103      2.1977     -0.0814     27.4100    147.2021     16.1418
  1110.4000      8.1103      2.0745     -0.0309     34.8769    142.2611     14.8688
  1110.5000      8.0954      1.9549     -0.0532     42.1256    143.5830     13.4021
  1110.6000      8.0954      1.8498     -0.0544     48.4955    146.3926     11.8043
  1110.7000      8.0954      1.7540     -0.0193     54.3042    147.7202     10.5545
  1110.8000      8.1168      1.6640     -0.0014     59.7567    145.2985      9.8807
  1110.9000      8.1168      1.5977     -0.0056     63.7728    137.0536      9.5564
  1111.0000      8.2098      1.5580      0.1238     66.1833    125.8678      9.5038
  1111.1000      8.2098      1.5143      0.2534     68.8302    114.5135      9.9707
  1111.2000      8.2098      1.4521      0.2556     72.5990    103.4883     11.1148
  1111.3000      8.3904      1.3934      0.2058     76.1576     92.3077     12.8041
  1111.4000      8.3904      1.3752      0.0870     77.2578     83.3715     14.5316
  1111.5000      8.5776      1.4249      0.0574     74.2482     81.4329     16.0054
  1111.6000      8.5776      1.5366      0.1211     67.4818     82.6017     17.6301
  1111.7000      8.5776      1.6904      0.1792     58.1594     80.3357     19.6833
  1111.8000      8.8859      1.8814      0.2679     46.5807     78.3907     21.7993
  1111.9000      8.8859      2.0898      0.3741     33.9499     81.9343     23.6256
  1112.0000      8.5343      2.2619      0.4660     23.5207     89.4798     25.0079
  1112.1000      8.5343      2.3681      0.4183     17.0867     98.0753     25.9279
  1112.2000      8.5343      2.4317      0.3350     13.2291    104.9210     26.6154
  1112.3000      8.4905      2.4733      0.3252     10.7082    110.0862     27.2351
  1112.4000      8.4905      2.5025      0.1893      8.9407    116.6217     27.8246
  1112.5000      8.4562      2.5395      0.2440      6.6999    122.6308     28.3312
  1112.6000      8.4562      2.5745      0.2520      4.5740    126.3077     28.6086
  1112.7000      8.4562      2.5816      0.1528      4.1430    130.1404     28.5024
  1112.8000      8.1215      2.5737      0.0686      4.6238    133.6791     27.8087
  1112.9000      8.1215      2.5746      0.1698      4.5711    135.0042     26.7721
  1113.0000      8.1127      2.5789      0.1351      4.3096    135.0265     26.2942
  1113.1000      8.1127      2.5776      0.1446      4.3864    135.6982     26.4950
  1113.2000      8.1127      2.5702      0.1092      4.8387    138.6461     26.6906
  1113.3000      7.9712      2.5535      0.0855      5.8510    143.0085     26.8640
  1113.4000      7.9712      2.5287      0.0399      7.3544    147.7939     27.4396
  1113.5000      7.9303      2.5100      0.0455      8.4825    153.3344     28.1675
  1113.6000      7.9303      2.5074      0.0548      8.6439    158.5619     28.3051
  1113.7000      7.9303      2.5158      0.0065      8.1320    163.1268     27.8329
  1113.8000      7.9441      2.5364      0.0182      6.8846    166.3561     27.3707
  1113.9000      7.9441      2.5710      0.0680      4.7888    167.0594     27.0394
  1114.0000      7.9668      2.6019      0.1134      2.9150    167.6148     26.5857
  1114.1000      7.9668      2.6103      0.0932      2.4061    170.7422     26.1619
  1114.2000      7.9668      2.5988      0.0750      3.1015    170.4123     26.1536
  1114.3000      7.9209      2.5806      0.0244      4.2069    161.6123     26.3569
  1114.4000      7.9209      2.5676      0.0373      4.9946    151.4374     26.2425
  1114.5000      7.9309      2.5655      0.0401      5.1242    148.8190     25.7645
  1114.6000      7.9309      2.5742      0.0374      4.5944    152.2949     25.1558
  1114.7000      7.9309      2.5884      0.0556      3.7338    153.3186     24.5411
  1114.8000      7.9438      2.6004      0.0622      3.0033    148.0661     23.9722
  1114.9000      7.9438      2.6074      0.0262      2.5839    143.3013     23.5942
