~Version Information
VERS.                      2.0: CWLS Log ASCII Standard - VERSION 2.0
WRAP.                       NO: One line per depth step
~Well Information Block
STRT.FT               892.0000: 
STOP.FT              2094.0000: 
STEP.FT                 0.1000: 
NULL.                -999.2500: 
COMP.          Pioneer Natural Resources: COMPANY
WELL.          Greenwood 43-29 Tr: WELL
FLD.           Purgatoire River: FIELD
LOC.           1478' FSL & 744' FEL: LOCATION
STAT.                 Colorado: State
CNTY.               Las Animas: COUNTY
CTRY. USA : Country
SECT. 29 : Section
TOWN. 32S : Township
RANG. 67W : Range
SRVC.                Patterson: SERVICE COMPANY
DATE.          Wed Aug 31 10:39:20 2005: LOG DATE
API.           05 071 08478 00: UNIQUE WELL ID
~Curve Information Block
DEPT.FT            0 000 00 00: Depth
DCAL.in                       : CDL Caliper
RHOB.g/cc                     : CDL Bulk Density
RHOC.g/cc                     : CDL Density Correction
DPOR.pu                       : CDL Density Porosity
GR.GAPI                       : Gamma Ray
NPOR.pu                       : Neutron Porosity
~Parameter Information Block
~A  Depth       DCAL        RHOB        RHOC        DPOR         GR         NPOR    
# ...
  1688.8000      8.0836      2.9017      0.1296    -15.2528    105.4753     23.7861
  1688.9000      8.0836      2.8708      0.0755    -13.3832    102.8477     23.7339
  1689.0000      8.0981      2.8130      0.0260     -9.8813    106.6342     25.3814
  1689.1000      8.0981      2.7467      0.0196     -5.8588    112.3639     27.1899
  1689.2000      8.0981      2.6786     -0.0288     -1.7308    115.4689     27.4733
  1689.3000      7.9976      2.6313     -0.0983      1.1319    112.3180     26.7716
  1689.4000      7.9976      2.6254     -0.0623      1.4927    103.8343     26.0389
  1689.5000      7.9828      2.6354      0.0584      0.8859     97.5587     25.0660
  1689.6000      7.9828      2.6272      0.0063      1.3832     98.3630     23.8236
  1689.7000      7.9828      2.6148     -0.0364      2.1322    105.0672     23.1423
  1689.8000      8.0438      2.6218      0.0638      1.7068    113.4617     23.1996
  1689.9000      8.0438      2.6328      0.1229      1.0441    119.6563     23.0842
  1690.0000      8.0697      2.6241      0.0923      1.5668    122.4960     22.9823
  1690.1000      8.0697      2.5951      0.0813      3.3294    125.8225     23.6965
  1690.2000      8.0697      2.5579      0.0357      5.5791    129.2027     24.4616
  1690.3000      8.0599      2.5314      0.0464      7.1853    125.1520     24.3527
  1690.4000      8.0599      2.5225      0.0745      7.7288    115.9513     23.9879
  1690.5000      8.0404      2.5256      0.0063      7.5372    110.6162     24.0942
  1690.6000      8.0404      2.5381      0.0621      6.7827    110.2181     24.2704
  1690.7000      8.0404      2.5607      0.0496      5.4116    111.4545     23.5483
  1690.8000      8.0148      2.5894      0.0816      3.6718    112.5759     21.8977
  1690.9000      8.0148      2.6045      0.1439      2.7552    109.7259     20.5638
  1691.0000      8.0076      2.5935      0.0673      3.4250    106.8506     20.2713
  1691.1000      8.0076      2.5643      0.0950      5.1911    113.5032     20.8703
  1691.2000      8.0076      2.5263      0.0595      7.4942    125.6593     22.0463
  1691.3000      8.0104      2.4949      0.0121      9.3995    133.3233     23.5669
  1691.4000      8.0104      2.4913     -0.0414      9.6181    136.2948     25.0223
  1691.5000      8.0346      2.5155      0.0378      8.1511    139.7193     25.9164
  1691.6000      8.0346      2.5447      0.0288      6.3838    141.8458     26.3436
  1691.7000      8.0346      2.5669      0.0732      5.0352    139.5334     26.1140
  1691.8000      8.0561      2.5843      0.0560      3.9830    137.2925     25.1846
  1691.9000      8.0561      2.5912      0.1384      3.5643    136.2497     24.3508
  1692.0000      8.0567      2.5780      0.0994      4.3623    131.3405     23.9692
  1692.1000      8.0567      2.5566      0.0064      5.6588    122.1059     23.9599
  1692.2000      8.0567      2.5555      0.0607      5.7277    116.5532     24.2161
  1692.3000      8.0468      2.5805      0.0833      4.2135    118.9257     24.6069
  1692.4000      8.0468      2.6057      0.1295      2.6840    121.7457     25.2661
  1692.5000      8.0300      2.6150      0.0710      2.1229    117.4842     26.2226
  1692.6000      8.0300      2.6225      0.1269      1.6643    110.2021     27.0556
  1692.7000      8.0300      2.6307      0.1235      1.1673    107.5787     26.8854
  1692.8000      8.0361      2.6221      0.1317      1.6900    109.7932     25.2699
  1692.9000      8.0361      2.5911      0.1349      3.5678    113.0190     23.0223
  1693.0000      8.0354      2.5550      0.0418      5.7546    115.3869     21.2512
  1693.1000      8.0354      2.5360      0.0605      6.9095    115.2966     20.7151
  1693.2000      8.0354      2.5341      0.0954      7.0270    113.6093     21.7243
  1693.3000      8.0244      2.5361      0.0509      6.9042    112.2056     23.1815
  1693.4000      8.0244      2.5360      0.0551      6.9098    112.0243     23.6219
  1693.5000      8.0158      2.5387      0.0797      6.7436    113.6904     23.3619
  1693.6000      8.0158      2.5516      0.1042      5.9652    115.0038     22.5320
  1693.7000      8.0158      2.5649      0.1330      5.1568    114.5925     20.7573
  1693.8000      8.0224      2.5631      0.1258      5.2682    113.5831     19.8442
  1693.9000      8.0224      2.5537      0.0857      5.8394    108.3128     21.2186
  1694.0000      8.0132      2.5516      0.0842      5.9660     95.9286     23.1724
  1694.1000      8.0132      2.5563      0.0941      5.6792     85.4059     23.6297
  1694.2000      8.0132      2.5720      0.0575      4.7282     84.8427     22.7087
  1694.3000      7.9709      2.6040      0.1071      2.7905     88.4617     21.6492
  1694.4000      7.9709      2.6323      0.1109      1.0717     87.8819     21.1167
  1694.5000      7.9652      2.6365      0.1219      0.8153     84.5005     20.7184
  1694.6000      7.9652      2.6223      0.0830      1.6808     82.0729     20.4845
  1694.7000      7.9652      2.6081      0.0795      2.5367     80.5986     20.6975
  1694.8000      7.9592      2.6046      0.0769      2.7511     81.2125     20.6183
  1694.9000      7.9592      2.6127      0.0686      2.2623     83.2244     19.9547
  1695.0000      7.9678      2.6297      0.0872      1.2319     82.1343     19.4053
  1695.1000      7.9678      2.6453      0.0872      0.2867     78.1080     19.0176
  1695.2000      7.9678      2.6510      0.0744     -0.0615     76.6711     18.6140
  1695.3000      7.9648      2.6477      0.0861      0.1405     77.8960     18.2693
  1695.4000      7.9648      2.6402      0.0536      0.5941     78.1382     18.2623
  1695.5000      7.9802      2.6355      0.0364      0.8815     75.6370     19.0339
  1695.6000      7.9802      2.6287      0.0437      1.2904     68.8718     20.0234
  1695.7000      7.9802      2.6129      0.0496      2.2502     60.2106     19.7138
  1695.8000      8.0382      2.5948      0.0131      3.3428     54.2910     17.9822
  1695.9000      8.0382      2.5792      0.0411      4.2931     52.0855     16.5149
  1696.0000      8.0970      2.5664     -0.0489      5.0692     53.4280     16.6204
  1696.1000      8.0970      2.5665      0.0411      5.0577     56.2108     17.8358
  1696.2000      8.0970      2.5823      0.0640      4.1050     57.6157     18.6281
  1696.3000      8.1210      2.5981      0.0925      3.1439     59.7557     18.4416
  1696.4000      8.1210      2.5984      0.0453      3.1249     62.5099     18.0132
  1696.5000      8.0280      2.5844      0.0561      3.9786     61.3550     17.9562
  1696.6000      8.0280      2.5719      0.0605      4.7310     58.8454     18.1852
  1696.7000      8.0280      2.5784      0.0603      4.3404     58.5425     18.3630
  1696.8000      8.0030      2.6030      0.0869      2.8496     57.3708     18.4716
  1696.9000      8.0030      2.6251      0.0881      1.5066     54.7856     18.9951
  1697.0000      7.9928      2.6285      0.0911      1.3010     53.8653     20.0779
  1697.1000      7.9928      2.6152      0.0540      2.1078     54.7651     20.3555
  1697.2000      7.9928      2.5974      0.0461      3.1885     57.0063     19.0073
  1697.3000      8.0169      2.5807      0.0453      4.2019     58.8021     17.9908
  1697.4000      8.0169      2.5644      0.0230      5.1868     56.4592     18.4361
  1697.5000      8.0036      2.5547      0.0338      5.7778     52.0147     19.0025
  1697.6000      8.0036      2.5541      0.0281      5.8108     50.5911     18.9791
  1697.7000      8.0036      2.5493      0.0817      6.1022     51.6409     18.7724
  1697.8000      8.0313      2.5282      0.0526      7.3799     52.8100     18.6023
  1697.9000      8.0313      2.5078     -0.0177      8.6197     53.6090     18.4930
  1698.0000      8.0411      2.5092      0.0409      8.5351     51.8770     18.2454
  1698.1000      8.0411      2.5176      0.0860      8.0233     48.7549     17.7047
  1698.2000      8.0411      2.5124      0.0328      8.3371     49.2148     16.9285
  1698.3000      8.0324      2.5044      0.0533      8.8248     52.2215     16.4624
