~Version Information
VERS.                      2.0: CWLS Log ASCII Standard - VERSION 2.0
WRAP.                       NO: One line per depth step
~Well Information Block
STRT.FT              1585.0000: 
STOP.FT              2353.0000: 
STEP.FT                 0.2500: 
NULL.                -999.2500: 
COMP.          XTO Energy Inc.: COMPANY
WELL.          Hill Ranch 15-11: WELL
FLD.           Purgatrorie River: FIELD
LOC.           1862' FSL & 1801' FWL: LOCATION
STAT.                       CO: State
CNTY.               Las Animas: COUNTY
CTRY. USA : Country
SECT. 15 : Section
TOWN. 35S : Township
RANG. 67W : Range
SRVC.          Patterson Wireline: SERVICE COMPANY
DATE.          Thu Dec 08 10:20:02 2005: LOG DATE
API.              05 071 08472: UNIQUE WELL ID
~Curve Information Block
DEPT.FT            0 000 00 00: Depth
CCL.                          : Casing Collar Locator
TT3.usec                      : CBL 3' Travel Time
AMP3.mV                       : CBL 3' Amplitude
BONDIX.                       : CBL Bond Index
GR.GAPI                       : Gamma Ray
~Parameter Information Block
~A  Depth       CCL         TT3         AMP3       BONDIX        GR     
# ...
  2117.0000      0.0000    724.2460      5.6980      0.6177     95.5522
  2117.2500      0.0000    719.5699      5.9359      0.6087     91.1253
  2117.5000      0.0000    713.7833      6.1924      0.5994     86.6339
  2117.7500      0.0000    707.3270      6.4343      0.5910     81.6356
  2118.0000      0.0000    701.2558      6.6510      0.5837     76.0646
  2118.2500      0.0000    696.0462      6.8328      0.5778     70.4701
  2118.5000      0.0000    691.1747      6.9651      0.5736     65.5368
  2118.7500      0.0000    686.1721      7.0390      0.5713     61.9463
  2119.0000      0.0000    682.1557      7.0600      0.5706     60.5035
  2119.2500      0.0000    681.8472      7.0434      0.5711     61.7349
  2119.5000      0.0000    687.2596      7.0054      0.5723     65.1924
  2119.7500      0.0000    697.2098      6.9577      0.5738     69.4139
  2120.0000      0.0000    707.6956      6.9080      0.5754     72.7173
  2120.2500      0.0000    714.8990      6.8600      0.5769     74.1008
  2120.5000      0.0000    717.5665      6.8129      0.5785     73.5594
  2120.7500      0.0000    716.9424      6.7632      0.5801     71.7413
  2121.0000      0.0000    715.2934      6.7071      0.5819     69.4183
  2121.2500      0.0000    714.5346      6.6439      0.5840     67.1582
  2121.5000      0.0000    715.4973      6.5779      0.5862     65.1082
  2121.7500      0.0000    717.8408      6.5177      0.5882     62.8921
  2122.0000      0.0000    720.5366      6.4721      0.5897     60.0222
  2122.2500      0.0000    722.6384      6.4461      0.5906     56.7410
  2122.5000      0.0000    723.7937      6.4382      0.5909     54.1453
  2122.7500      0.0000    724.1954      6.4404      0.5908     52.9687
  2123.0000      0.0000    724.2122      6.4438      0.5907     52.4772
  2123.2500      0.0000    724.1182      6.4438      0.5907     51.2724
  2123.5000      0.0000    724.0357      6.4405      0.5908     49.1471
  2123.7500      0.0000    723.9965      6.4343      0.5910     47.3738
  2124.0000      0.0000    723.9953      6.4193      0.5915     47.0529
  2124.2500      0.0000    724.0066      6.3839      0.5927     47.9172
  2124.5000      0.0000    723.9203      6.3180      0.5950     49.0159
  2124.7500      0.0000    723.4466      6.2266      0.5982     49.9167
  2125.0000      0.0000    722.0422      6.1339      0.6015     50.7822
  2125.2500      0.0000    719.1242      6.0685      0.6039     51.6830
  2125.5000      0.0000    714.8198      6.0395      0.6049     52.4366
  2125.7500      0.0000    710.6921      6.0349      0.6051     53.1371
  2126.0000      0.0000    709.1408      6.0452      0.6047     54.4065
  2126.2500      0.0000    711.4132      6.0834      0.6033     56.7598
  2126.5000      0.0000    716.4812      6.1750      0.6001     59.7804
  2126.7500      0.0000    722.1945      6.3312      0.5946     62.2574
  2127.0000      0.0000    726.9768      6.5345      0.5876     63.3154
  2127.2500      0.0000    730.0294      6.7499      0.5805     63.2541
  2127.5000      0.0000    730.6579      6.9502      0.5741     62.9363
  2127.7500      0.0000    728.2018      7.1345      0.5683     62.4727
  2128.0000      0.0000    722.6448      7.3193      0.5627     61.1072
  2128.2500      0.0000    715.1231      7.5139      0.5569     58.5184
  2128.5000      0.0000    707.7542      7.7068      0.5514     55.7479
  2128.7500      0.0000    702.7960      7.8806      0.5465     54.5162
  2129.0000      0.0000    701.9525      8.0305      0.5423     55.7263
  2129.2500      0.0000    706.2676      8.1607      0.5388     58.6907
  2129.5000      0.0000    715.5438      8.2668      0.5360     61.6679
  2129.7500      0.0000    726.8266      8.3327      0.5342     63.1147
  2130.0000      0.0000    734.1639      8.3505      0.5337     62.7854
  2130.2500      0.0000    731.8044      8.3349      0.5342     61.9187
  2130.5000      0.0000    718.7065      8.3111      0.5348     62.1576
  2130.7500      0.0000    699.7881      8.2897      0.5354     63.9856
  2131.0000      0.0000    682.7662      8.2605      0.5361     66.3110
  2131.2500      0.0000    673.6078      8.2089      0.5375     67.7729
  2131.5000      0.0000    673.9415      8.1343      0.5395     68.3116
  2131.7500      0.0000    681.6677      8.0521      0.5417     69.1422
  2132.0000      0.0000    693.6860      7.9834      0.5436     71.0346
  2132.2500      0.0000    707.9934      7.9406      0.5448     73.0000
  2132.5000      0.0000    723.2234      7.9177      0.5454     73.2942
  2132.7500      0.0000    736.8699      7.8937      0.5461     71.5503
  2133.0000      0.0000    745.1530      7.8506      0.5473     69.0643
  2133.2500      0.0000    745.2106      7.7894      0.5490     66.9468
  2133.5000      0.0000    737.3885      7.7264      0.5508     64.9796
  2133.7500      0.0000    725.3190      7.6725      0.5524     62.6842
  2134.0000      0.0000    713.6339      7.6205      0.5538     60.8037
  2134.2500      0.0000    705.2852      7.5547      0.5558     60.9688
  2134.5000      0.0000    700.6315      7.4666      0.5583     63.9359
  2134.7500      0.0000    698.4795      7.3585      0.5615     68.5935
  2135.0000      0.0000    697.5147      7.2338      0.5653     72.7800
  2135.2500      0.0000    696.9614      7.0886      0.5697     74.8573
  2135.5000      0.0000    696.5654      6.9126      0.5753     74.5666
  2135.7500      0.0000    696.4291      6.7006      0.5821     72.7550
  2136.0000      0.0000    696.9285      6.4622      0.5901     70.4468
  2136.2500      0.0000    698.6401      6.2198      0.5985     67.9895
  2136.5000      0.0000    702.0731      5.9976      0.6065     64.8657
  2136.7500      0.0000    707.1932      5.8100      0.6134     60.3195
  2137.0000      0.0000    713.2430      5.6601      0.6192     54.3943
  2137.2500      0.0000    719.3499      5.5458      0.6237     48.5175
  2137.5000      0.0000    725.4119      5.4655      0.6269     44.7799
  2137.7500      0.0000    732.0322      5.4190      0.6287     44.2426
  2138.0000      0.0000    739.2317      5.4005      0.6295     46.0171
  2138.2500      0.0000    745.3937      5.3900      0.6299     48.3089
  2138.5000      0.0000    748.0286      5.3568      0.6313     50.3113
  2138.7500      0.0000    745.9099      5.2783      0.6345     52.7038
  2139.0000      0.0000    740.3262      5.1596      0.6395     56.3599
  2139.2500      0.0000    734.0911      5.0337      0.6449     61.0980
  2139.5000      0.0000    729.4702      4.9408      0.6490     65.7670
  2139.7500      0.0000    727.0676      4.9078      0.6505     69.0122
  2140.0000      0.0000    726.2351      4.9371      0.6492     69.8996
  2140.2500      0.0000    726.0289      5.0035      0.6463     68.4943
  2140.5000      0.0000    725.7874      5.0611      0.6438     66.2888
  2140.7500      0.0000    725.1509      5.0606      0.6438     65.7626
  2141.0000      0.0000    723.8730      4.9738      0.6476     69.0018
  2141.2500      0.0000    721.8443      4.8134      0.6548     76.3687
  2141.5000      0.0000    719.3758      4.6349      0.6631     86.2542
  2141.7500      0.0000    717.3401      4.5132      0.6689     95.9935
  2142.0000      0.0000    716.8273      4.5016      0.6695    103.1077
  2142.2500      0.0000    718.5592      4.6057      0.6645    106.2899
  2142.5000      0.0000    722.4636      4.7962      0.6556    106.0561
  2142.7500      0.0000    727.5462      5.0376      0.6448    104.6499
  2143.0000      0.0000    732.1101      5.2975      0.6337    104.5642
  2143.2500      0.0000    734.4498      5.5378      0.6240    106.4210
  2143.5000      0.0000    733.6781      5.7127      0.6171    108.3726
  2143.7500      0.0000    729.6649      5.7839      0.6144    108.0246
  2144.0000      0.0000    721.5178      5.7427      0.6160    105.0196
  2144.2500      0.0000    705.9827      5.6191      0.6208    101.4472
  2144.5000      0.0000    678.3766      5.4670      0.6268     99.8440
  2144.7500      0.0000    636.7418      5.3376      0.6321    101.1929
