~Version Information
VERS.                      2.0: CWLS Log ASCII Standard - VERSION 2.0
WRAP.                       NO: One line per depth step
~Well Information Block
STRT.FT               575.0000: 
STOP.FT              1557.5000: 
STEP.FT                 0.1000: 
NULL.                -999.2500: 
COMP.          Pioneer Natural Resources: COMPANY
WELL.          McClaren 13-34 Tr: WELL
FLD.           Purgatoire River: FIELD
LOC.           1934' FSL & 826' FWL: LOCATION
PROV.                 Colorado: PROVINCE
CNTY.               Las Animas: COUNTRY
SRVC.                Patterson: SERVICE COMPANY
DATE.          Tue Jul 12 07:15:27 2005: LOG DATE
UWI.           05 071 08437 00: UNIQUE WELL ID
~Curve Information Block
DEPT.FT            0 000 00 00: Depth
DCAL.in                       : CDL Caliper
RHOB.g/cc                     : CDL Bulk Density
RHOC.g/cc                     : CDL Density Correction
DPOR.pu                       : CDL Density Porosity
GR.GAPI                       : Gamma Ray
NPOR.pu                       : Neutron Porosity
~Parameter Information Block
~A  Depth       DCAL        RHOB        RHOC        DPOR         GR         NPOR    
# ...
   642.2000      7.7227      2.0711      0.0341     35.0848    116.1565     20.1202
   642.3000      7.7221      2.0924      0.0633     33.7911    118.7983     19.5324
   642.4000      7.7221      2.1066      0.0208     32.9353    123.4076     19.0633
   642.5000      7.7218      2.1134      0.0330     32.5211    125.8532     18.4118
   642.6000      7.7218      2.1222      0.0272     31.9871    125.9046     17.7544
   642.7000      7.7218      2.1385      0.0690     31.0008    125.2133     17.6327
   642.8000      7.7212      2.1551      0.1146     29.9922    123.8779     17.8546
   642.9000      7.7212      2.1601      0.1184     29.6915    122.0744     18.0816
   643.0000      7.7198      2.1538      0.0797     30.0738    120.8777     18.3571
   643.1000      7.7198      2.1428      0.0844     30.7397    121.5073     18.4995
   643.2000      7.7198      2.1246      0.0923     31.8406    120.9382     18.3556
   643.3000      7.7177      2.0977      0.0402     33.4698    115.8637     18.2018
   643.4000      7.7177      2.0697      0.0261     35.1709    110.8157     18.0521
   643.5000      7.7119      2.0418      0.0720     36.8634    111.1807     17.8969
   643.6000      7.7119      2.0079      0.0386     38.9181    112.1058     17.9440
   643.7000      7.7119      1.9708      0.0250     41.1633    106.9519     18.1028
   643.8000      7.7029      1.9383      0.0424     43.1349    101.2484     18.2513
   643.9000      7.7029      1.9185     -0.0077     44.3335    103.0282     18.6026
   644.0000      7.6963      1.9168      0.0244     44.4366    108.3054     19.2315
   644.1000      7.6963      1.9231      0.0391     44.0530    108.2311     19.6695
   644.2000      7.6963      1.9350     -0.0160     43.3342    105.0991     19.6386
   644.3000      7.6933      1.9693      0.0631     41.2535    106.3781     19.3980
   644.4000      7.6933      2.0256      0.1212     37.8416    110.4975     19.0565
   644.5000      7.6914      2.0738      0.1469     34.9206    113.4415     18.1846
   644.6000      7.6914      2.0869      0.0991     34.1272    113.7052     16.8202
   644.7000      7.6914      2.0655      0.0511     35.4214    110.4715     15.7845
   644.8000      7.6896      2.0160      0.0943     38.4241    108.8045     15.2837
   644.9000      7.6896      1.9350      0.0289     43.3330    112.7907     15.0437
   645.0000      7.6885      1.8351     -0.0379     49.3871    116.0537     14.7623
   645.1000      7.6885      1.7361     -0.0099     55.3852    114.0875     14.1054
   645.2000      7.6885      1.6385     -0.0399     61.3042    107.0191     13.4817
   645.3000      7.6891      1.5435     -0.1133     67.0626     96.9138     13.5409
   645.4000      7.6891      1.4635     -0.0932     71.9120     90.0791     14.4659
   645.5000      7.6915      1.4092     -0.1099     75.2011     87.8765     16.3735
   645.6000      7.6915      1.3944     -0.0340     76.0962     85.0986     18.9654
   645.7000      7.6915      1.4340     -0.0068     73.6950     79.4723     21.3269
   645.8000      7.6945      1.5351      0.0593     67.5721     73.7915     22.9893
   645.9000      7.6945      1.6918      0.1279     58.0725     70.7309     24.1527
   646.0000      7.6959      1.8838      0.2176     46.4353     71.5129     25.0478
   646.1000      7.6959      2.0755      0.3399     34.8200     77.4428     25.9745
   646.2000      7.6959      2.2364      0.3774     25.0659     87.6458     27.0273
   646.3000      7.6941      2.3592      0.4033     17.6259     97.0404     27.9180
   646.4000      7.6941      2.4493      0.3156     12.1660    100.8995     28.8894
   646.5000      7.6904      2.5137      0.3115      8.2624    103.2786     30.2971
   646.6000      7.6904      2.5495      0.2504      6.0902    109.4379     31.4582
   646.7000      7.6904      2.5587      0.1145      5.5338    117.6250     32.0156
   646.8000      7.6865      2.5566      0.0756      5.6611    125.4009     32.2324
   646.9000      7.6865      2.5508      0.0586      6.0151    132.3366     32.0044
   647.0000      7.6843      2.5429      0.0620      6.4913    138.1736     31.4893
   647.1000      7.6843      2.5457     -0.0085      6.3208    143.5835     31.2262
   647.2000      7.6843      2.5711      0.0737      4.7811    147.5920     31.1798
   647.3000      7.6838      2.6032      0.0768      2.8358    149.0485     30.8314
   647.4000      7.6838      2.6161      0.0665      2.0554    151.5088     30.0345
   647.5000      7.6835      2.6068      0.0295      2.6155    154.5454     29.3234
   647.6000      7.6835      2.5977      0.0164      3.1699    152.4760     29.2309
   647.7000      7.6835      2.6115      0.0030      2.3308    145.0408     29.3059
   647.8000      7.6830      2.6477      0.0417      0.1377    134.4027     29.1836
   647.9000      7.6830      2.6817      0.1096     -1.9184    124.7413     29.3873
   648.0000      7.6823      2.6925      0.0913     -2.5761    121.6792     29.8334
   648.1000      7.6823      2.6827      0.0572     -1.9837    125.5019     29.9484
   648.2000      7.6823      2.6645      0.0071     -0.8799    130.3674     29.6716
   648.3000      7.6819      2.6489      0.0378      0.0667    129.4567     29.2513
   648.4000      7.6819      2.6415      0.0286      0.5177    124.7394     29.0757
   648.5000      7.6819      2.6417      0.0443      0.5051    123.1903     29.2701
   648.6000      7.6819      2.6503      0.0559     -0.0180    123.1519     29.5724
   648.7000      7.6819      2.6714      0.0631     -1.2956    121.1134     29.7373
   648.8000      7.6823      2.7023      0.0785     -3.1687    120.6666     29.7416
   648.9000      7.6823      2.7333      0.0449     -5.0469    124.3266     29.6523
   649.0000      7.6824      2.7513      0.0824     -6.1405    125.4371     29.5734
   649.1000      7.6824      2.7409      0.0515     -5.5071    118.2208     29.5324
   649.2000      7.6824      2.7099      0.0146     -3.6326    109.4874     29.3595
   649.3000      7.6815      2.6901     -0.0204     -2.4304    108.1685     29.0486
   649.4000      7.6815      2.6898      0.0350     -2.4099    112.7631     28.8103
   649.5000      7.6808      2.6856      0.0336     -2.1599    118.6917     28.3568
   649.6000      7.6808      2.6688     -0.0073     -1.1407    125.9068     27.6682
   649.7000      7.6808      2.6512     -0.0108     -0.0735    131.6407     27.4468
   649.8000      7.6812      2.6328      0.0045      1.0412    131.7495     27.8757
   649.9000      7.6812      2.6047     -0.0315      2.7459    129.8471     28.4506
   650.0000      7.6819      2.5639      0.0123      5.2200    128.7915     28.7936
   650.1000      7.6819      2.5114      0.0192      8.3991    127.6594     28.9993
   650.2000      7.6819      2.4563     -0.0255     11.7422    129.1866     29.0801
   650.3000      7.6823      2.4187     -0.0394     14.0182    134.8201     28.9157
   650.4000      7.6823      2.4085     -0.0277     14.6345    138.5794     28.5646
   650.5000      7.6821      2.4158     -0.0435     14.1951    135.5090     28.3361
   650.6000      7.6821      2.4308     -0.0243     13.2877    129.3712     28.5252
   650.7000      7.6821      2.4475      0.0394     12.2725    125.2591     28.9998
   650.8000      7.6802      2.4631      0.0392     11.3264    121.5908     29.4795
   650.9000      7.6802      2.4822      0.1323     10.1722    117.9751     29.6714
   651.0000      7.6725      2.5088      0.1606      8.5572    116.6665     29.6885
   651.1000      7.6725      2.5453      0.2403      6.3432    115.4548     29.8236
   651.2000      7.6725      2.5935      0.2275      3.4241    112.9483     30.1779
   651.3000      7.6618      2.6531      0.2620     -0.1878    112.4964     30.5872
   651.4000      7.6618      2.7177      0.2489     -4.1003    115.1387     30.6622
   651.5000      7.6588      2.7799      0.2776     -7.8718    116.7133     30.2044
   651.6000      7.6588      2.8303      0.3391    -10.9300    114.8798     29.5538
   651.7000      7.6588      2.8580      0.3347    -12.6049    112.9734     29.3265
