~Version Information
VERS.                      2.0: CWLS Log ASCII Standard - VERSION 2.0
WRAP.                       NO: One line per depth step
~Well Information Block
STRT.FT                -8.2500: 
STOP.FT              1439.2500: 
STEP.FT                 0.2500: 
NULL.                -999.2500: 
COMP.          Pioneer Natural Resources: COMPANY
WELL.          Old Faithful 21-2: WELL
FLD.           Purgatorie River: FIELD
LOC.           806' FNL & 2509' FWL--: LOCATION
PROV.                       CO: PROVINCE
CNTY.               Las Animas: COUNTRY
SRVC.          Patterson Wireline: SERVICE COMPANY
DATE.          Mon Dec 12 11:21:25 2005: LOG DATE
UWI.           08 071 08617 00: UNIQUE WELL ID
~Curve Information Block
DEPT.FT            0 000 00 00: Depth
CCL.                          : Casing Collar Locator
TT3.usec                      : CBL 3' Travel Time
AMP3.mV                       : CBL 3' Amplitude
GR.GAPI                       : Gamma Ray
~Parameter Information Block
~A  Depth       CCL         TT3         AMP3         GR     
# ...
  1030.2500      0.0000    735.1077      8.5484     96.7737
  1030.5000      0.0000    736.1182      8.5762     98.0856
  1030.7500      0.0000    735.5209      8.5954    101.5393
  1031.0000      0.0000    732.1896      8.6232    107.6039
  1031.2500      0.0000    724.4554      8.6531    115.2992
  1031.5000      0.0000    711.3430      8.6588    121.5640
  1031.7500      0.0000    695.0392      8.6125    123.2709
  1032.0000      0.0000    681.9952      8.5076    120.2185
  1032.2500      0.0000    679.5273      8.3746    115.6296
  1032.5000      0.0000    689.5280      8.2740    113.4619
  1032.7500      0.0000    706.2305      8.2609    115.4913
  1033.0000      0.0000    721.0966      8.3410    121.0194
  1033.2500      0.0000    729.0277      8.4631    128.5893
  1033.5000      0.0000    729.8718      8.5636    137.1632
  1033.7500      0.0000    726.2294      8.6150    145.6703
  1034.0000      0.0000    721.1577      8.6297    152.3572
  1034.2500      0.0000    716.6829      8.6277    155.5205
  1034.5000      0.0000    712.9695      8.6116    154.9349
  1034.7500      0.0000    708.2682      8.5756    151.9948
  1035.0000      0.0000    699.9356      8.5314    148.1780
  1035.2500      0.0000    686.9562      8.5154    143.7809
  1035.5000      0.0000    673.1313      8.5613    138.4838
  1035.7500      0.0000    666.5038      8.6662    132.7611
  1036.0000      0.0000    672.8698      8.7875    128.0557
  1036.2500      0.0000    689.9758      8.8707    125.4588
  1036.5000      0.0000    709.6783      8.8818    124.5754
  1036.7500      0.0000    724.9321      8.8209    123.6608
  1037.0000      0.0000    733.3170      8.7151    120.7028
  1037.2500      0.0000    735.0080      8.5965    114.6209
  1037.5000      0.0000    728.9295      8.4825    105.9043
  1037.7500      0.0000    710.9789      8.3765     96.3580
  1038.0000      0.0000    676.3307      8.2844     88.3379
  1038.2500      0.0000    624.9724      8.2203     83.8577
  1038.5000      0.0000    565.2983      8.1942     83.6529
  1038.7500      0.0000    510.4249      8.1976     86.5266
  1039.0000      0.0000    469.8909      8.2080     89.7649
  1039.2500      0.0000    445.4700      8.2038     90.9523
  1039.5000      0.0000    434.7259      8.1754     90.0076
  1039.7500      0.0000    437.1626      8.1295     89.2500
  1040.0000      0.0000    456.1038      8.0905     90.9673
  1040.2500      0.0000    494.1526      8.0900     95.1082
  1040.5000      0.0000    545.4766      8.1442     99.8507
  1040.7500      0.0000    592.9893      8.2394    104.0719
  1041.0000      0.0000    617.2092      8.3388    108.5983
  1041.2500      0.0000    612.2357      8.4036    115.0938
  1041.5000      0.0000    592.8791      8.4072    124.1264
  1041.7500      0.0000    582.9512      8.3449    134.5498
  1042.0000      0.0000    594.5555      8.2387    144.7794
  1042.2500      0.0000    618.9116      8.1246    154.0540
  1042.5000      0.0000    637.5682      8.0246    161.7219
  1042.7500      0.0000    641.6274      7.9343    165.9546
  1043.0000      0.0000    638.7864      7.8497    164.6620
  1043.2500      0.0000    641.8831      7.7928    157.8887
  1043.5000      0.0000    653.8740      7.7923    148.3566
  1043.7500      0.0000    667.3582      7.8400    139.2334
  1044.0000      0.0000    676.6824      7.8809    131.8134
  1044.2500      0.0000    684.8287      7.8519    125.5223
  1044.5000      0.0000    697.1094      7.7286    119.7211
  1044.7500      0.0000    712.8551      7.5416    115.0400
  1045.0000      0.0000    726.3931      7.3564    112.9913
  1045.2500      0.0000    734.0109      7.2301    114.6613
  1045.5000      0.0000    737.2038      7.1805    119.8997
  1045.7500      0.0000    739.4440      7.1967    127.4592
  1046.0000      0.0000    741.4296      7.2699    135.6994
  1046.2500      0.0000    740.3279      7.3946    143.3636
  1046.5000      0.0000    733.1151      7.5444    149.7882
  1046.7500      0.0000    719.4442      7.6721    154.4051
  1047.0000      0.0000    700.6185      7.7415    156.4182
  1047.2500      0.0000    676.4235      7.7511    155.2874
  1047.5000      0.0000    645.0846      7.7259    151.2765
  1047.7500      0.0000    608.4569      7.6981    145.1916
  1048.0000      0.0000    576.6451      7.6942    137.8156
  1048.2500      0.0000    563.8698      7.7299    129.9714
  1048.5000      0.0000    577.0355      7.8081    123.0231
  1048.7500      0.0000    609.0522      7.9203    118.8138
  1049.0000      0.0000    644.6866      8.0467    118.6778
  1049.2500      0.0000    672.3031      8.1582    122.3992
  1049.5000      0.0000    689.6569      8.2266    128.3260
  1049.7500      0.0000    700.7236      8.2397    134.3975
  1050.0000      0.0000    709.5457      8.2097    138.8226
  1050.2500      0.0000    716.9175      8.1681    140.3438
  1050.5000      0.0000    720.8699      8.1516    138.7540
  1050.7500      0.0000    719.2068      8.1854    135.1544
  1051.0000      0.0000    712.0281      8.2708    131.2922
  1051.2500      0.0000    702.1152      8.3888    128.7533
  1051.5000      0.0000    691.8635      8.5158    128.6197
  1051.7500      0.0000    679.9666      8.6343    130.9864
  1052.0000      0.0000    663.4410      8.7280    134.4559
  1052.2500      0.0000    642.8292      8.7749    136.7779
  1052.5000      0.0000    621.5140      8.7539    136.6185
  1052.7500      0.0000    599.7112      8.6551    134.6524
  1053.0000      0.0000    574.5756      8.4798    132.5732
  1053.2500      0.0000    548.7285      8.2408    130.9495
  1053.5000      0.0000    534.7469      7.9651    128.5112
  1053.7500      0.0000    547.0499      7.6878    123.8943
  1054.0000      0.0000    588.5328      7.4350    117.7444
  1054.2500      0.0000    646.0633      7.2125    112.5671
  1054.5000      0.0000    699.6505      7.0110    110.4930
  1054.7500      0.0000    735.7104      6.8164    111.3366
  1055.0000      0.0000    752.0101      6.6170    112.7048
  1055.2500      0.0000    753.4354      6.4162    111.7584
  1055.5000      0.0000    746.7259      6.2379    106.9426
  1055.7500      0.0000    738.2493      6.1047     98.5678
  1056.0000      0.0000    732.6172      6.0093     88.3395
  1056.2500      0.0000    730.8746      5.9187     78.5857
  1056.5000      0.0000    730.6183      5.8131     71.6873
  1056.7500      0.0000    729.1341      5.7124     69.5150
  1057.0000      0.0000    726.1678      5.6633     72.7420
  1057.2500      0.0000    723.0621      5.7091     80.6524
  1057.5000      0.0000    719.7821      5.8712     91.6910
  1057.7500      0.0000    713.3517      6.1413    103.7620
  1058.0000      0.0000    698.5513      6.4870    114.0808
  1058.2500      0.0000    670.1522      6.8704    120.0432
  1058.5000      0.0000    626.3785      7.2603    121.1143
  1058.7500      0.0000    571.6277      7.6257    119.4738
  1059.0000      0.0000    514.9890      7.9357    118.4630
  1059.2500      0.0000    465.0476      8.1794    120.3190
  1059.5000      0.0000    426.1447      8.3765    124.8769
  1059.7500      0.0000    398.7996      8.5537    130.0288
  1060.0000      0.0000    381.8901      8.7092    133.6961
  1060.2500      0.0000    374.0395      8.8008    135.6588
  1060.5000      0.0000    374.3647      8.7683    137.3414
  1060.7500      0.0000    383.0447      8.5777    139.8826
  1061.0000      0.0000    401.1039      8.2551    142.6915
  1061.2500      0.0000    429.5165      7.8737    143.8527
  1061.5000      0.0000    468.4788      7.4988    141.8165
  1061.7500      0.0000    516.5983      7.1507    136.8842
  1062.0000      0.0000    569.3430      6.8226    131.0591
  1062.2500      0.0000    618.6752      6.5165    126.0321
  1062.5000      0.0000    656.5566      6.2448    121.2538
  1062.7500      0.0000    680.1133      6.0057    114.4341
  1063.0000      0.0000    692.8610      5.7737    103.9501
  1063.2500      0.0000    700.8778      5.5206     90.4437
  1063.5000      0.0000    708.3171      5.2446     76.2992
