~Version Information
VERS.                      2.0: CWLS Log ASCII Standard - VERSION 2.0
WRAP.                       NO: One line per depth step
~Well Information Block
STRT.FT               325.0000: 
STOP.FT              1014.5000: 
STEP.FT                 0.2500: 
NULL.                -999.2500: 
COMP.          Pioneer Natural Resources: COMPANY
WELL.                Doc 34-30: WELL
FLD.           Purgatoire River: FIELD
LOC.           454' FSL & 1386' FEL: LOCATION
CNTY.               Las Animas: COUNTY
SRVC.                Patterson: SERVICE COMPANY
DATE.          Wed Feb 15 20:26:19 2006: LOG DATE
UWI.           05 071 08694 00: UNIQUE WELL ID
STAT.                 Colorado: STATE
~Curve Information Block
DEPT.FT            0 000 00 00: Depth
SN.Ohm-m                      : IEL Short Normal
SP.mV                         : IEL Spontaneous Potential
DIR.Ohm-m                     : IEL Induction Resistivity
GR.GAPI                       : Gamma Ray
~Parameter Information Block
~A  Depth        SN          SP         DIR          GR     
# ...
   459.0000   2000.0000   2000.0000     18.6668    100.7923
   459.2500   2000.0000   2000.0000     18.0600     99.2706
   459.5000   2000.0000   2000.0000     17.4679    101.6743
   459.7500   2000.0000   2000.0000     16.9078    106.6863
   460.0000   2000.0000   2000.0000     16.3794    118.2789
   460.2500   2000.0000   2000.0000     15.8742    127.2248
   460.5000   2000.0000   2000.0000     15.3824    139.6077
   460.7500   2000.0000   2000.0000     14.9000    146.0492
   461.0000   2000.0000   2000.0000     14.4307    152.3113
   461.2500   2000.0000   2000.0000     13.9773    154.2701
   461.5000   2000.0000   2000.0000     13.5315    154.1443
   461.7500   2000.0000   2000.0000     13.0743    152.1941
   462.0000   2000.0000   2000.0000     12.5928    147.3585
   462.2500   2000.0000   2000.0000     12.0966    144.0633
   462.5000   2000.0000   2000.0000     11.6169    141.7131
   462.7500   2000.0000   2000.0000     11.1908    142.8677
   463.0000   2000.0000   2000.0000     10.8445    148.1120
   463.2500   2000.0000   2000.0000     10.5894    152.6459
   463.5000   2000.0000   2000.0000     10.4256    158.9127
   463.7500   2000.0000   2000.0000     10.3479    162.1100
   464.0000   2000.0000   2000.0000     10.3468    164.9238
   464.2500   2000.0000   2000.0000     10.4068    165.2883
   464.5000   2000.0000   2000.0000     10.5055    163.8897
   464.7500   2000.0000   2000.0000     10.6161    162.2731
   465.0000   2000.0000   2000.0000     10.7138    159.5238
   465.2500   2000.0000   2000.0000     10.7833    157.1790
   465.5000   2000.0000   2000.0000     10.8220    151.6826
   465.7500   2000.0000   2000.0000     10.8405    146.3439
   466.0000   2000.0000   2000.0000     10.8582    136.7782
   466.2500   2000.0000   2000.0000     10.8971    130.7260
   466.5000   2000.0000   2000.0000     10.9751    124.6536
   466.7500   2000.0000   2000.0000     11.0994    123.5296
   467.0000   2000.0000   2000.0000     11.2618    126.5304
   467.2500   2000.0000   2000.0000     11.4386    131.2075
   467.5000   2000.0000   2000.0000     11.5945    140.5920
   467.7500   2000.0000   2000.0000     11.6928    147.1705
   468.0000   2000.0000   2000.0000     11.7081    155.5659
   468.2500   2000.0000   2000.0000     11.6378    159.4708
   468.5000   2000.0000   2000.0000     11.5008    162.4927
   468.7500   2000.0000   2000.0000     11.3269    162.9385
   469.0000   2000.0000   2000.0000     11.1430    162.3545
   469.2500   2000.0000   2000.0000     10.9664    161.8280
   469.5000   2000.0000   2000.0000     10.8038    161.7223
   469.7500   2000.0000   2000.0000     10.6545    162.3207
   470.0000   2000.0000   2000.0000     10.5122    163.9993
   470.2500   2000.0000   2000.0000     10.3679    165.2763
   470.5000   2000.0000   2000.0000     10.2143    166.7664
   470.7500   2000.0000   2000.0000     10.0511    167.1917
   471.0000   2000.0000   2000.0000      9.8865    166.7702
   471.2500   2000.0000   2000.0000      9.7342    165.8850
   471.5000   2000.0000   2000.0000      9.6063    164.2023
   471.7500   2000.0000   2000.0000      9.5085    163.2334
   472.0000   2000.0000   2000.0000      9.4392    162.3854
   472.2500   2000.0000   2000.0000      9.3907    162.1834
   472.5000   2000.0000   2000.0000      9.3500    162.2036
   472.7500   2000.0000   2000.0000      9.3008    162.4267
   473.0000   2000.0000   2000.0000      9.2271    163.1554
   473.2500   2000.0000   2000.0000      9.1191    163.7470
   473.5000   2000.0000   2000.0000      8.9785    164.2589
   473.7500   2000.0000   2000.0000      8.8172    164.3743
   474.0000   2000.0000   2000.0000      8.6520    165.3716
   474.2500   2000.0000   2000.0000      8.4994    167.4076
   474.5000   2000.0000   2000.0000      8.3724    172.5305
   474.7500   2000.0000   2000.0000      8.2818    176.2707
   475.0000   2000.0000   2000.0000      8.2353    180.0727
   475.2500   2000.0000   2000.0000      8.2376    180.7634
   475.5000   2000.0000   2000.0000      8.2894    179.9309
   475.7500   2000.0000   2000.0000      8.3879    179.3262
   476.0000   2000.0000   2000.0000      8.5292    179.5697
   476.2500   2000.0000   2000.0000      8.7105    180.0110
   476.5000   2000.0000   2000.0000      8.9304    178.8142
   476.7500   2000.0000   2000.0000      9.1858    175.5414
   477.0000   2000.0000   2000.0000      9.4691    166.0755
   477.2500   2000.0000   2000.0000      9.7679    157.1128
   477.5000   2000.0000   2000.0000     10.0693    141.7689
   477.7500   2000.0000   2000.0000     10.3663    131.9949
   478.0000   2000.0000   2000.0000     10.6626    120.5332
   478.2500   2000.0000   2000.0000     10.9737    115.6457
   478.5000   2000.0000   2000.0000     11.3229    112.3540
   478.7500   2000.0000   2000.0000     11.7342    112.7216
   479.0000   2000.0000   2000.0000     12.2228    116.9534
   479.2500   2000.0000   2000.0000     12.7869    121.6638
   479.5000   2000.0000   2000.0000     13.4032    129.2505
   479.7500   2000.0000   2000.0000     14.0279    132.9985
   480.0000   2000.0000   2000.0000     14.6049    134.8089
   480.2500   2000.0000   2000.0000     15.0836    133.3501
   480.5000   2000.0000   2000.0000     15.4375    127.9919
   480.7500   2000.0000   2000.0000     15.6726    122.9213
   481.0000   2000.0000   2000.0000     15.8163    114.2348
   481.2500   2000.0000   2000.0000     15.8998    108.6036
   481.5000   2000.0000   2000.0000     15.9483    101.9139
   481.7500   2000.0000   2000.0000     15.9833     99.0970
   482.0000   2000.0000   2000.0000     16.0293     97.1196
   482.2500   2000.0000   2000.0000     16.1133     96.8708
   482.5000   2000.0000   2000.0000     16.2573     97.9306
   482.7500   2000.0000   2000.0000     16.4681    100.1905
   483.0000   2000.0000   2000.0000     16.7306    107.4909
   483.2500   2000.0000   2000.0000     17.0096    115.2769
   483.5000   2000.0000   2000.0000     17.2585    129.5543
   483.7500   2000.0000   2000.0000     17.4330    138.6781
   484.0000   2000.0000   2000.0000     17.5027    148.3076
   484.2500   2000.0000   2000.0000     17.4561    151.1374
   484.5000   2000.0000   2000.0000     17.2977    150.5238
   484.7500   2000.0000   2000.0000     17.0433    147.7169
   485.0000   2000.0000   2000.0000     16.7177    141.6309
   485.2500   2000.0000   2000.0000     16.3500    137.6854
   485.5000   2000.0000   2000.0000     15.9669    134.6808
   485.7500   2000.0000   2000.0000     15.5874    135.7123
   486.0000   2000.0000   2000.0000     15.2230    141.5241
   486.2500   2000.0000   2000.0000     14.8797    146.8285
   486.5000   2000.0000   2000.0000     14.5562    153.7129
   486.7500   2000.0000   2000.0000     14.2415    156.3134
   487.0000   2000.0000   2000.0000     13.9172    157.4317
   487.2500   2000.0000   2000.0000     13.5671    157.5865
   487.5000   2000.0000   2000.0000     13.1874    159.1089
   487.7500   2000.0000   2000.0000     12.7881    161.3598
   488.0000   2000.0000   2000.0000     12.3863    165.7484
   488.2500   2000.0000   2000.0000     11.9970    168.7359
   488.5000   2000.0000   2000.0000     11.6294    173.0647
   488.7500   2000.0000   2000.0000     11.2906    175.9418
   489.0000   2000.0000   2000.0000     10.9895    179.7881
   489.2500   2000.0000   2000.0000     10.7396    181.4162
   489.5000   2000.0000   2000.0000     10.5566    181.8588
   489.7500   2000.0000   2000.0000     10.4523    181.1316
   490.0000   2000.0000   2000.0000     10.4317    179.7650
   490.2500   2000.0000   2000.0000     10.4932    179.2744
   490.5000   2000.0000   2000.0000     10.6309    179.0542
   490.7500   2000.0000   2000.0000     10.8384    178.4062
   491.0000   2000.0000   2000.0000     11.1094    174.7740
   491.2500   2000.0000   2000.0000     11.4372    169.8640
   491.5000   2000.0000   2000.0000     11.8149    158.6406
   491.7500   2000.0000   2000.0000     12.2381    148.9609
   492.0000   2000.0000   2000.0000     12.7092    132.2670
   492.2500   2000.0000   2000.0000     13.2421    120.5980
