~Version Information
VERS.                      2.0: CWLS Log ASCII Standard - VERSION 2.0
WRAP.                       NO: One line per depth step
~Well Information Block
STRT.FT                -0.5000: 
STOP.FT              1417.0000: 
STEP.FT                 0.2500: 
NULL.                -999.2500: 
COMP.          Pioneer Natural Resources: COMPANY
WELL.              Darren 11-7: WELL
FLD.           Purgatoire River: FIELD
LOC.           230' FNL & 596' FWL: LOCATION
CNTY.               Las Animas: COUNTY
SRVC.                Patterson: SERVICE COMPANY
DATE.          Thu Mar 30 10:43:52 2006: LOG DATE
UWI.           05 071 08720 00: UNIQUE WELL ID
STAT.                 Colorado: STATE
~Curve Information Block
DEPT.FT            0 000 00 00: Depth
GR.GAPI                       : Gamma Ray
CCL.                          : Casing Collar Locator
TT3.usec                      : CBL 3' Travel Time
AMP3.mV                       : CBL 3' Amplitude
~Parameter Information Block
~A  Depth        GR         CCL         TT3         AMP3    
    -0.5000   -999.2500   -999.2500   -999.2500   -999.2500
    -0.2500   -999.2500   -999.2500   -999.2500   -999.2500
     0.0000   -999.2500   -999.2500    801.0000      1.2807
     0.2500   -999.2500   -999.2500    801.0000      1.2734
     0.5000   -999.2500   -999.2500    801.0000      1.2653
     0.7500   -999.2500   -999.2500    801.0000      1.2586
     1.0000   -999.2500   -999.2500    801.0000      1.2563
     1.2500   -999.2500   -999.2500    801.0000      1.2608
     1.5000   -999.2500   -999.2500    801.0000      1.2689
     1.7500   -999.2500   -999.2500    801.0000      1.2720
     2.0000   -999.2500   -999.2500    801.0000      1.2636
     2.2500   -999.2500   -999.2500    801.0000      1.2462
     2.5000   -999.2500   -999.2500    801.0000      1.2300
     2.7500   -999.2500   -999.2500    801.0000      1.2250
     3.0000   -999.2500   -999.2500    801.0000      1.2323
     3.2500   -999.2500   -999.2500    801.0000      1.2439
     3.5000   -999.2500   -999.2500    801.0000      1.2484
     3.7500   -999.2500   -999.2500    801.0000      1.2403
     4.0000   -999.2500   -999.2500    801.0000      1.2248
     4.2500   -999.2500   -999.2500    801.0000      1.2135
     4.5000   -999.2500   -999.2500    801.0000      1.2157
     4.7500   -999.2500   -999.2500    801.0000      1.2320
     5.0000   -999.2500   -999.2500    801.0000      1.2547
     5.2500   -999.2500   -999.2500    801.0000      1.2728
     5.5000   -999.2500      0.0000    801.0000      1.2769
     5.7500   -999.2500      0.0000    801.0000      1.2633
     6.0000   -999.2500      0.0000    801.0000      1.2371
     6.2500   -999.2500      0.0000    801.0000      1.2103
     6.5000   -999.2500      0.0000    801.0000      1.1963
     6.7500   -999.2500      0.0000    801.0000      1.2026
     7.0000   -999.2500      0.0000    801.0000      1.2245
     7.2500   -999.2500      0.0000    801.0000      1.2476
     7.5000   -999.2500      0.0000    801.0000      1.2571
     7.7500   -999.2500      0.0000    801.0000      1.2485
     8.0000   -999.2500      0.0000    801.0000      1.2302
     8.2500   -999.2500      0.0000    801.0000      1.2158
     8.5000   -999.2500      0.0000    801.0000      1.2134
     8.7500   -999.2500      0.0000    801.0000      1.2211
     9.0000   -999.2500      0.0000    801.0000      1.2322
     9.2500   -999.2500      0.0000    801.0000      1.2420
     9.5000   -999.2500      0.0000    801.0000      1.2494
     9.7500   -999.2500      0.0000    801.0000      1.2542
    10.0000   -999.2500      0.0000    800.9959      1.2565
    10.2500   -999.2500      0.0000    800.9663      1.2582
    10.5000     87.6699      0.0000    800.7960      1.2625
    10.7500     83.5163      0.0000    800.0469      1.2801
    11.0000     78.2114      0.0000    797.4017      1.3495
    11.2500     72.5225      0.0000    789.7371      1.6271
    11.5000     66.8358      0.0000    771.3158      2.5851
    11.7500     61.6805      0.0000    734.3539      5.2898
    12.0000     58.0252      0.0000    672.4316     11.4287
    12.2500     56.7359      0.0000    586.3185     22.5105
    12.5000     57.5700      0.0000    487.8222     38.2963
    12.7500     58.9144      0.0000    396.0649     55.9455
    13.0000     58.9683      0.0000    327.0436     71.3840
    13.2500     57.2665      0.0000    285.4114     81.9356
    13.5000     54.8249      0.0000    265.3862     87.5788
    13.7500     52.9105      0.0000    257.7438     89.9632
    14.0000     51.9219      0.0000    255.4454     90.7881
    14.2500     51.3270      0.0000    254.9086     91.0466
    14.5000     50.3145      0.0000    254.8125     91.1308
    14.7500     48.5246      0.0000    254.7965     91.1580
    15.0000     46.3584      0.0000    254.7867     91.1697
    15.2500     44.5055      0.0000    254.7753     91.1901
    15.5000     43.1075      0.0000    254.7659     91.2184
    15.7500     41.6234      0.0000    254.7589     91.2268
    16.0000     39.6023      0.0000    254.7533     91.1614
    16.2500     37.2495      0.0000    254.7486     90.9220
    16.5000     35.1412      0.0000    254.7462     90.3272
    16.7500     33.6939      0.0000    254.7514     89.1252
    17.0000     32.9862      0.0000    254.7812     87.0907
    17.2500     32.8400      0.0000    254.8738     84.1436
    17.5000     33.0825      0.0000    255.1167     80.3864
    17.7500     33.8889      0.0000    255.7208     76.0368
    18.0000     35.6882      0.0000    257.1431     71.3262
    18.2500     38.5284      0.0000    260.1460     66.4260
    18.5000     41.8077      0.0000    265.5432     61.4212
    18.7500     44.9782      0.0000    273.8880     56.3452
    19.0000     48.3371      0.0000    286.0306     51.2586
    19.2500     52.6887      0.0000    305.1862     46.2993
    19.5000     58.1390      0.0000    338.4591     41.6502
    19.7500     63.5398      0.0000    393.6122     37.4674
    20.0000     67.3044      0.0000    470.8048     33.8558
    20.2500     68.5238      0.0000    557.4298     30.8912
    20.5000     67.2210      0.0000    634.4257     28.6148
    20.7500     64.0257      0.0000    689.4172     26.9861
    21.0000     59.9756      0.0000    723.0449     25.8662
    21.2500     56.3054      0.0000    743.7503     25.0745
    21.5000     53.9432      0.0000    759.1878     24.4660
    21.7500     53.0924      0.0000    772.3757     23.9619
    22.0000     53.2736      0.0000    782.8202     23.5269
    22.2500     53.6396      0.0000    789.0952     23.1346
    22.5000     53.2823      0.0000    790.7104     22.7551
    22.7500     51.5935      0.0000    788.7656     22.3672
    23.0000     48.7127      0.0000    785.1460     21.9743
    23.2500     45.6897      0.0000    780.7790     21.5974
    23.5000     43.9259      0.0000    774.7397     21.2490
    23.7500     44.1947      0.0000    765.7265     20.9174
    24.0000     46.2169      0.0000    754.3812     20.5806
    24.2500     49.1683      0.0000    743.3989     20.2291
    24.5000     52.3585      0.0000    735.2957     19.8729
    24.7500     55.3315      0.0000    730.6778     19.5269
    25.0000     57.6002      0.0000    728.5995     19.1966
    25.2500     58.6676      0.0000    727.8288     18.8845
    25.5000     58.4863      0.0000    727.5452     18.6068
    25.7500     57.8154      0.0000    727.3047     18.3935
    26.0000     57.8509      0.0000    726.7875     18.2611
    26.2500     59.3481      0.0000    725.6428     18.1924
    26.5000     62.1100      0.0000    723.5677     18.1511
    26.7500     65.2592      0.0000    720.6953     18.1166
    27.0000     67.8664      0.0000    717.9304     18.1000
    27.2500     69.4517      0.0000    716.5005     18.1236
    27.5000     70.1967      0.0000    716.4998     18.1902
    27.7500     70.7521      0.0000    715.6768     18.2775
    28.0000     71.7071      0.0000    709.7560     18.3570
    28.2500     73.1824      0.0000    694.6575     18.4137
    28.5000     74.8704      0.0000    669.8976     18.4526
    28.7500     76.3481      0.0000    639.8311     18.4962
    29.0000     77.4531      0.0000    608.7961     18.5766
    29.2500     78.4317      0.0000    574.2471     18.7189
    29.5000     79.5246      0.0000    529.0228     18.9180
    29.7500     80.3199      0.0000    472.6755     19.1303
    30.0000     79.8971      0.0000    416.2790     19.2944
    30.2500     77.9126      0.0000    373.6910     19.3674
    30.5000     75.2224      0.0000    351.8062     19.3485
    30.7500     73.0680      0.0000    351.1764     19.2686
    31.0000     71.9262      0.0000    372.1200     19.1587
    31.2500     71.4466      0.0000    415.8384     19.0277
    31.5000     71.1672      0.0000    479.0437     18.8688
    31.7500     70.8859      0.0000    550.2934     18.6834
    32.0000     70.4858      0.0000    614.5770     18.4946
    32.2500     69.8525      0.0000    662.0480     18.3356
    32.5000     69.1469      0.0000    691.3768     18.2204
    32.7500     68.8544      0.0000    705.8167     18.1320
