~Version Information
VERS.                      2.0: CWLS Log ASCII Standard - VERSION 2.0
WRAP.                       NO: One line per depth step
~Well Information Block
STRT.FT               580.0000: 
STOP.FT              1029.0000: 
STEP.FT                 0.1000: 
NULL.                -999.2500: 
COMP.          Pioneer Natural Resources: COMPANY
WELL.             Quartz 13-22: WELL
FLD.           Purgatoire River: FIELD
LOC.           1933' FSL & 675' FWL: LOCATION
PROV.                 Colorado: PROVINCE
CNTY.               Las Animas: COUNTRY
SRVC.                Patterson: SERVICE COMPANY
DATE.          Fri Dec 16 10:30:09 2005: LOG DATE
UWI.           05 071 08638 00: UNIQUE WELL ID
~Curve Information Block
DEPT.FT            0 000 00 00: Depth
DCAL.in                       : CDL Caliper
RHOB.g/cc                     : CDL Bulk Density
RHOC.g/cc                     : CDL Density Correction
DPOR.pu                       : CDL Density Porosity
GR.GAPI                       : Gamma Ray
NPOR.pu                       : Neutron Porosity
~Parameter Information Block
~A  Depth       DCAL        RHOB        RHOC        DPOR         GR         NPOR    
# ...
   695.2000      7.9834      2.4564      0.1516     11.7345     21.2053     11.8604
   695.3000      7.9938      2.4476      0.1179     12.2637     23.5025     11.7264
   695.4000      7.9938      2.4224      0.1005     13.7959     27.5930     11.8986
   695.5000      7.9975      2.3908      0.0422     15.7074     27.3553     12.2214
   695.6000      7.9975      2.3707     -0.0036     16.9268     22.6481     12.3902
   695.7000      7.9975      2.3728      0.0493     16.7996     19.4791     12.2532
   695.8000      8.0057      2.3823      0.0753     16.2225     20.5385     12.0004
   695.9000      8.0057      2.3764      0.0502     16.5823     23.0227     11.7568
   696.0000      8.0025      2.3580      0.0292     17.6968     23.1050     11.6378
   696.1000      8.0025      2.3499      0.0429     18.1883     21.3274     11.6535
   696.2000      8.0025      2.3583      0.0722     17.6778     21.0659     11.5896
   696.3000      8.0075      2.3727      0.0830     16.8079     22.4355     11.5589
   696.4000      8.0075      2.3857      0.0856     16.0170     22.3628     11.7989
   696.5000      8.0051      2.3890      0.0788     15.8160     21.6270     12.0340
   696.6000      8.0051      2.3817      0.0244     16.2616     24.0371     11.8199
   696.7000      8.0051      2.3710      0.0756     16.9110     28.8272     11.1973
   696.8000      8.0340      2.3412      0.0923     18.7163     33.1546     10.4736
   696.9000      8.0340      2.2732      0.0557     22.8350     36.4971      9.8771
   697.0000      8.0470      2.1815      0.0131     28.3961     40.0335      9.3937
   697.1000      8.0470      2.0922     -0.0082     33.8033     46.0140      8.8775
   697.2000      8.0470      2.0105      0.0259     38.7564     56.0149      8.6371
   697.3000      8.0456      1.9265      0.0133     43.8502     52.9464      8.9452
   697.4000      8.0456      1.8366      0.0038     49.2992     43.9471      9.3849
   697.5000      8.0249      1.7444     -0.0035     54.8862     38.7821      9.4441
   697.6000      8.0249      1.6607     -0.0240     59.9564     42.3022      9.2315
   697.7000      8.0249      1.5944      0.0471     63.9749     48.8690      9.3703
   697.8000      8.0394      1.5370      0.1133     67.4523     50.5710     10.0700
   697.9000      8.0394      1.4805      0.0697     70.8790     46.8052     10.8464
   698.0000      8.0595      1.4296      0.0486     73.9653     41.2504     11.3611
   698.1000      8.0595      1.3846      0.0570     76.6886     38.3534     11.8125
   698.2000      8.0595      1.3447      0.0135     79.1062     44.4016     12.3313
   698.3000      8.1044      1.3181     -0.0061     80.7213     51.1789     12.9807
   698.4000      8.1044      1.3131     -0.0116     81.0241     57.2945     14.1264
   698.5000      8.1741      1.3354      0.0133     79.6708     59.0372     15.6990
   698.6000      8.1741      1.3881      0.0241     76.4767     58.5839     17.0476
   698.7000      8.1741      1.4653      0.0837     71.7978     61.1638     18.0088
   698.8000      8.1741      1.5584      0.0610     66.1550     69.0259     18.5623
   698.9000      8.1741      1.6660      0.1099     59.6342     79.9818     18.7089
   699.0000      8.0907      1.7831      0.1207     52.5372     90.3235     18.8868
   699.1000      8.0907      1.9010      0.1485     45.3921     97.2922     19.2223
   699.2000      8.0907      2.0136      0.1940     38.5700    109.5257     19.3692
   699.3000      8.0541      2.1089      0.2329     32.7949    111.6332     19.3357
   699.4000      8.0541      2.1673      0.2054     29.2523    114.1991     19.5121
   699.5000      8.1254      2.1768      0.1145     28.6809    120.6675     20.0345
   699.6000      8.1254      2.1500     -0.0141     30.3025    129.4221     20.5308
   699.7000      8.1254      2.1205     -0.0396     32.0906    133.1744     20.5782
   699.8000      8.0829      2.1043      0.0132     33.0732    125.8415     20.3499
   699.9000      8.0829      2.0896      0.0159     33.9641    112.6753     20.2167
   700.0000      8.0132      2.0795     -0.0467     34.5785    110.6152     20.2828
   700.1000      8.0132      2.0971     -0.0309     33.5080    121.7372     20.6224
   700.2000      8.0132      2.1438      0.0528     30.6766    141.2796     21.0419
   700.3000      8.0161      2.2010      0.0978     27.2097    142.4541     21.1939
   700.4000      8.0161      2.2636      0.1556     23.4162    137.7669     21.1236
   700.5000      8.0169      2.3369      0.1752     18.9760    129.1607     21.0405
   700.6000      8.0169      2.4080      0.2797     14.6671    119.0898     21.0998
   700.7000      8.0169      2.4560      0.1954     11.7599    117.3010     21.1629
   700.8000      8.0185      2.4811      0.1393     10.2340    127.5504     21.0405
   700.9000      8.0185      2.4877      0.1151      9.8389    136.3888     20.9686
   701.0000      7.9979      2.4722      0.0827     10.7756    136.5676     20.9171
   701.1000      7.9979      2.4497     -0.0061     12.1373    137.3762     20.8981
   701.2000      7.9979      2.4520     -0.0448     12.0010    143.8117     21.2253
   701.3000      7.9978      2.4836      0.0197     10.0830    147.4443     21.6487
   701.4000      7.9978      2.5083      0.0769      8.5906    142.3113     21.8538
   701.5000      7.9834      2.5051      0.0263      8.7793    138.4391     21.9949
   701.6000      7.9834      2.5048     -0.0093      8.7997    141.0173     22.0177
   701.7000      7.9834      2.5320      0.0404      7.1506    143.2819     21.8982
   701.8000      8.0006      2.5635      0.0935      5.2434    141.0473     21.8615
   701.9000      8.0006      2.5712      0.0778      4.7747    135.2616     21.8215
   702.0000      8.0113      2.5596      0.0587      5.4778    128.9864     21.7091
   702.1000      8.0113      2.5467      0.0368      6.2634    123.3686     21.5208
   702.2000      8.0113      2.5414      0.0568      6.5805    117.3753     21.1033
   702.3000      8.0136      2.5414      0.0324      6.5819    113.4679     20.6619
   702.4000      8.0136      2.5360      0.0703      6.9093    113.3568     20.5274
   702.5000      7.9911      2.5209     -0.0027      7.8241    114.3372     20.6634
   702.6000      7.9911      2.5078     -0.0379      8.6158    116.9453     21.0294
   702.7000      7.9911      2.5024      0.0206      8.9443    122.2386     21.5059
   702.8000      7.9873      2.4984      0.0467      9.1880    128.8144     21.8394
   702.9000      7.9873      2.4972      0.0450      9.2596    137.2964     22.0529
   703.0000      7.9925      2.5039      0.0332      8.8544    145.6672     22.0012
   703.1000      7.9925      2.5163      0.0232      8.1057    149.2934     21.5505
   703.2000      7.9925      2.5293      0.0243      7.3181    145.0903     21.0764
   703.3000      7.9897      2.5347      0.0507      6.9904    133.5306     21.0230
   703.4000      7.9897      2.5294      0.0328      7.3104    123.4299     21.4960
   703.5000      7.9797      2.5291     -0.0065      7.3302    126.7341     22.1468
   703.6000      7.9797      2.5409      0.0523      6.6094    142.3366     22.4358
   703.7000      7.9797      2.5457      0.0720      6.3212    156.0434     22.2818
   703.8000      7.9721      2.5367      0.0066      6.8692    156.1702     22.2751
   703.9000      7.9721      2.5270      0.0472      7.4536    144.8285     22.6796
   704.0000      7.9588      2.5256     -0.0170      7.5408    133.3510     23.1033
   704.1000      7.9588      2.5324      0.0495      7.1245    129.0885     23.3077
   704.2000      7.9588      2.5341     -0.0143      7.0235    130.4402     23.4882
   704.3000      7.9774      2.5254      0.0027      7.5543    132.5634     23.7648
   704.4000      7.9774      2.5172     -0.0114      8.0512    134.7126     24.0118
   704.5000      7.9958      2.5187      0.0157      7.9565    138.4133     23.9469
   704.6000      7.9958      2.5329      0.0040      7.0940    142.6370     23.4699
   704.7000      7.9958      2.5481      0.1016      6.1748    144.4989     22.9694
