~Version Information
VERS.                      2.0: CWLS Log ASCII Standard - VERSION 2.0
WRAP.                       NO: One line per depth step
~Well Information Block
STRT.FT               -12.2500: 
STOP.FT              1442.2500: 
STEP.FT                 0.2500: 
NULL.                -999.2500: 
COMP.          Pioneer Natural Resources: COMPANY
WELL.              Lucky 21-36: WELL
FLD.           Purgatorie River: FIELD
LOC.           799' FNL & 1578' FWL--: LOCATION
CDN. :
PROV. :
UWI. :
STAT. :
CNTY. :
CTRY. :
API. :
COMP. :
WELL. :
FLD. :
LOC. :
DATE. :
SRVC. :
CNTY.               Las Animas: COUNTY
SRVC.          Superior Well Services: SERVICE COMPANY
DATE.          Mon Jul 21 12-16-21 2008: LOG DATE
UWI.           05 071 08456 00: UNIQUE WELL ID
STAT.                       CO: STATE
~Curve Information Block
DEPT.FT            0 000 00 00: Depth
CCL.                          : Casing Collar Locator
TT3.usec                      : CBL 3' Travel Time
AMP3.mV                       : CBL 3' Amplitude
GR.GAPI                       : Gamma Ray
~Parameter Information Block
~A  Depth       CCL         TT3         AMP3         GR     
# ...
  1026.2500      0.0000    752.0595     17.4289    128.1275
  1026.5000      0.0000    771.7008     17.4585    125.4553
  1026.7500      0.0000    780.9573     17.5486    122.3198
  1027.0000      0.0000    780.4375     17.7072    119.1222
  1027.2500      0.0000    769.7057     17.9343    116.2359
  1027.5000      0.0000    744.3243     18.2193    114.2128
  1027.7500      0.0000    698.2252     18.5441    113.6025
  1028.0000      0.0000    632.5236     18.8865    114.5515
  1028.2500      0.0000    563.1749     19.2195    116.7338
  1028.5000      0.0000    516.3973     19.5096    119.8063
  1028.7500      0.0000    512.5925     19.7217    123.6720
  1029.0000      0.0000    552.3008     19.8289    127.9577
  1029.2500      0.0000    616.1094     19.8208    131.6227
  1029.5000      0.0000    677.9471     19.7112    133.6833
  1029.7500      0.0000    720.3400     19.5385    134.1397
  1030.0000      0.0000    740.0304     19.3478    133.7660
  1030.2500      0.0000    743.0228     19.1637    133.1557
  1030.5000      0.0000    737.1704     18.9837    132.0931
  1030.7500      0.0000    728.4374     18.7988    129.6038
  1031.0000      0.0000    720.5925     18.6144    124.8100
  1031.2500      0.0000    715.5947     18.4487    118.2235
  1031.5000      0.0000    713.3963     18.3160    112.0139
  1031.7500      0.0000    711.6260     18.2113    108.5316
  1032.0000      0.0000    706.0248     18.1093    108.4134
  1032.2500      0.0000    692.2900     17.9799    110.1696
  1032.5000      0.0000    669.8130     17.8097    111.6609
  1032.7500      0.0000    645.6448     17.6049    112.0208
  1033.0000      0.0000    633.1488     17.3709    112.1106
  1033.2500      0.0000    642.5029     17.1022    113.2043
  1033.5000      0.0000    670.8364     16.8076    115.5751
  1033.7500      0.0000    703.3815     16.5441    118.4528
  1034.0000      0.0000    724.3712     16.4034    120.9389
  1034.2500      0.0000    726.3357     16.4453    122.5710
  1034.5000      0.0000    712.6115     16.6431    123.2007
  1034.7500      0.0000    695.5238     16.9036    122.8813
  1035.0000      0.0000    690.1133     17.1422    121.9978
  1035.2500      0.0000    703.7585     17.3292    121.1650
  1035.5000      0.0000    730.2022     17.4745    120.8023
  1035.7500      0.0000    754.6210     17.5899    120.8261
  1036.0000      0.0000    762.7466     17.6808    120.6970
  1036.2500      0.0000    744.7687     17.7717    119.8630
  1036.5000      0.0000    696.1621     17.9286    118.4104
  1036.7500      0.0000    621.2102     18.2262    117.1689
  1037.0000      0.0000    535.7093     18.6655    116.8208
  1037.2500      0.0000    461.4055     19.1247    116.9385
  1037.5000      0.0000    414.7399     19.4233    116.4366
  1037.7500      0.0000    401.2352     19.4547    115.2782
  1038.0000      0.0000    419.4756     19.2528    115.2173
  1038.2500      0.0000    466.2882     18.9342    118.0997
  1038.5000      0.0000    535.0956     18.5989    123.4944
  1038.7500      0.0000    611.7782     18.2911    128.7193
  1039.0000      0.0000    677.6353     18.0237    131.3096
  1039.2500      0.0000    718.4211     17.8113    130.8285
  1039.5000      0.0000    729.8578     17.6755    128.1144
  1039.7500      0.0000    716.6680     17.6279    123.6809
  1040.0000      0.0000    688.7988     17.6489    117.6129
  1040.2500      0.0000    655.3558     17.6787    110.6712
  1040.5000      0.0000    618.3910     17.6272    104.7635
  1040.7500      0.0000    575.2748     17.4193    102.0311
  1041.0000      0.0000    529.1668     17.0667    103.2720
  1041.2500      0.0000    493.1082     16.6745    107.1027
  1041.5000      0.0000    482.4643     16.3200    110.7712
  1041.7500      0.0000    506.0511     15.9480    112.0207
  1042.0000      0.0000    561.0344     15.4690    110.2978
  1042.2500      0.0000    630.4488     14.9229    106.4773
  1042.5000      0.0000    688.3041     14.4571    101.9255
  1042.7500      0.0000    713.6144     14.1778     97.9954
  1043.0000      2.0000    702.1764     14.0964     95.8024
  1043.2500      0.0000    665.7814     14.1821     95.7431
  1043.5000      0.0000    621.1248     14.4174     97.2823
  1043.7500      0.0000    578.7150     14.8200     99.5263
  1044.0000      0.0000    542.3990     15.4075    101.9059
  1044.2500      0.0000    518.9178     16.0968    104.4003
  1044.5000      0.0000    521.3773     16.6714    107.5009
  1044.7500      0.0000    556.6055     16.9384    111.8149
  1045.0000      0.0000    611.8862     16.8971    117.2289
  1045.2500      0.0000    660.7443     16.6930    122.5507
  1045.5000      0.0000    682.0833     16.4504    126.2279
  1045.7500      0.0000    671.9134     16.2049    127.4390
  1046.0000      0.0000    640.3611     15.9469    126.5635
  1046.2500      0.0000    602.3802     15.6656    124.9137
  1046.5000      0.0000    570.1013     15.3545    124.0524
  1046.7500      0.0000    549.1499     15.0075    124.9458
  1047.0000      0.0000    539.5046     14.6197    127.3696
  1047.2500      0.0000    539.4710     14.1870    130.0662
  1047.5000      0.0000    549.1893     13.7108    131.6081
  1047.7500      0.0000    570.6324     13.2067    131.3743
  1048.0000      0.0000    604.4438     12.7117    129.8562
  1048.2500      0.0000    647.0630     12.2738    128.0336
  1048.5000      0.0000    691.4847     11.9245    126.6071
  1048.7500      0.0000    730.8659     11.6654    125.9105
  1049.0000      0.0000    761.2234     11.4813    125.9702
  1049.2500      0.0000    781.6484     11.3607    126.1080
  1049.5000      0.0000    793.4231     11.2988    124.9672
  1049.7500      0.0000    799.0397     11.2870    121.8179
  1050.0000      0.0000    801.1306     11.3105    117.7635
  1050.2500      0.0000    801.6221     11.3568    115.0313
  1050.5000      0.0000    801.4797     11.4235    114.9846
  1050.7500      0.0000    800.8846     11.5112    117.1066
  1051.0000      0.0000    799.5820     11.6060    119.6961
  1051.2500      0.0000    797.3760     11.6771    121.1615
  1051.5000      0.0000    794.4839     11.6990    120.7614
  1051.7500      0.0000    791.2814     11.6732    118.4778
  1052.0000      0.0000    787.7778     11.6249    114.5493
  1052.2500      0.0000    783.8439     11.5794    109.5109
  1052.5000      0.0000    780.0657     11.5437    104.6843
  1052.7500      0.0000    777.5641     11.5059    102.1737
  1053.0000      0.0000    776.4502     11.4513    103.8064
  1053.2500      0.0000    775.1790     11.3769    109.6673
  1053.5000      0.0000    772.2335     11.2903    117.4221
  1053.7500      0.0000    768.1726     11.1945    123.2833
  1054.0000      0.0000    765.4677     11.0828    124.2497
  1054.2500      0.0000    766.5107     10.9502    119.9619
  1054.5000      0.0000    771.8631     10.8038    112.6869
  1054.7500      0.0000    779.7108     10.6576    105.6634
  1055.0000      0.0000    786.7760     10.5256    101.1430
  1055.2500      0.0000    790.4208     10.4241     99.3623
  1055.5000      0.0000    790.3473     10.3720     99.1397
  1055.7500      0.0000    788.3271     10.3779     99.5074
  1056.0000      0.0000    786.3785     10.4290    100.6184
  1056.2500      0.0000    785.1840     10.4958    103.1338
  1056.5000      0.0000    783.9744     10.5489    107.1928
  1056.7500      0.0000    781.7804     10.5725    112.1459
  1057.0000      0.0000    778.7476     10.5694    116.8789
  1057.2500      0.0000    775.9771     10.5530    120.3065
  1057.5000      0.0000    774.0776     10.5337    121.9408
  1057.7500      0.0000    772.4608     10.5123    122.0946
  1058.0000      0.0000    770.3091     10.4874    121.2281
  1058.2500      0.0000    767.6918     10.4633    119.1697
  1058.5000      0.0000    765.3550     10.4436    115.4733
  1058.7500      0.0000    763.8109     10.4204    110.6726
  1059.0000      0.0000    763.0193     10.3744    106.6016
  1059.2500      0.0000    762.7311     10.2870    105.0079
  1059.5000      0.0000    762.8817     10.1540    106.1987
