~Version Information
VERS.                      2.0: CWLS Log ASCII Standard - VERSION 2.0
WRAP.                       NO: One line per depth step
~Well Information Block
STRT.FT               459.3000: 
STOP.FT              1604.7000: 
STEP.FT                 0.1000: 
NULL.                -999.2500: 
COMP.          Pioneer Natural Resources: COMPANY
WELL.          Grand Prix 13-12 Tr: WELL
FLD.           Purgatoire River: FIELD
LOC.           2595' FSL & 1277' FWL--: LOCATION
CNTY.               Las Animas: COUNTY
SRVC.                Patterson: SERVICE COMPANY
DATE.          Tue Apr 04 07:18:28 2006: LOG DATE
UWI.           05 071 08711 00: UNIQUE WELL ID
STAT.                 Colorado: STATE
~Curve Information Block
DEPT.FT            0 000 00 00: Depth
DCAL.in                       : CDL Caliper
RHOB.g/cc                     : CDL Bulk Density
RHOC.g/cc                     : CDL Density Correction
DPOR.pu                       : CDL Density Porosity
GR.GAPI                       : Gamma Ray
~Parameter Information Block
~A  Depth       DCAL        RHOB        RHOC        DPOR         GR     
# ...
  1131.3000      7.8219      2.6297      0.1043      1.2322    108.4306
  1131.4000      7.8219      2.7486      0.1235     -5.9734    105.9982
  1131.5000      7.7920      2.8432      0.1983    -11.7064    106.7492
  1131.6000      7.7920      2.9012      0.2493    -15.2216    112.8415
  1131.7000      7.7920      2.9165      0.2890    -16.1509    125.0377
  1131.8000      7.7714      2.8925      0.2263    -14.6967    143.2642
  1131.9000      7.7714      2.8531      0.0960    -12.3091    160.2496
  1132.0000      7.7708      2.8167      0.0855    -10.1058    167.2134
  1132.1000      7.7708      2.7658      0.0058     -7.0173    164.8582
  1132.2000      7.7708      2.6930     -0.1119     -2.6068    161.5716
  1132.3000      7.8107      2.6282     -0.1003      1.3213    158.4088
  1132.4000      7.8107      2.5932     -0.0870      3.4440    150.2061
  1132.5000      7.8675      2.5802      0.0459      4.2330    141.6926
  1132.6000      7.8675      2.5722      0.0143      4.7140    139.4915
  1132.7000      7.8675      2.5595      0.0665      5.4819    138.4286
  1132.8000      7.8969      2.5391     -0.0029      6.7223    131.9677
  1132.9000      7.8969      2.5220      0.0333      7.7550    124.4043
  1133.0000      7.9016      2.5195      0.0064      7.9112    121.7816
  1133.1000      7.9016      2.5291      0.0429      7.3267    122.0209
  1133.2000      7.9016      2.5446      0.0155      6.3900    120.0879
  1133.3000      7.8997      2.5622      0.0093      5.3225    116.7404
  1133.4000      7.8997      2.5802      0.0205      4.2274    117.2242
  1133.5000      7.8933      2.5945      0.0873      3.3643    122.0930
  1133.6000      7.8933      2.5976      0.0705      3.1778    125.5298
  1133.7000      7.8933      2.5943      0.0304      3.3754    123.1446
  1133.8000      7.8881      2.5973      0.0421      3.1969    119.2630
  1133.9000      7.8881      2.6082      0.0443      2.5341    119.9002
  1134.0000      7.8886      2.6184      0.0989      1.9135    122.4118
  1134.1000      7.8886      2.6181      0.0516      1.9351    122.1393
  1134.2000      7.8886      2.6078      0.0694      2.5568    120.7116
  1134.3000      7.8895      2.5976      0.0625      3.1732    119.2688
  1134.4000      7.8895      2.5997      0.0250      3.0476    116.5248
  1134.5000      7.8937      2.6178      0.0652      1.9523    113.5765
  1134.6000      7.8937      2.6470     -0.0183      0.1802    109.5823
  1134.7000      7.8937      2.6800      0.0651     -1.8171    102.7368
  1134.8000      7.9021      2.6890      0.0713     -2.3647     95.5086
  1134.9000      7.9021      2.6572      0.0541     -0.4349     92.6758
  1135.0000      7.9098      2.6162     -0.0216      2.0497     94.0749
  1135.1000      7.9098      2.6051      0.0185      2.7228     96.3594
  1135.2000      7.9098      2.6245      0.0340      1.5461     99.4874
  1135.3000      7.9155      2.6498      0.0393      0.0129    100.8429
  1135.4000      7.9155      2.6605      0.0383     -0.6391     97.8318
  1135.5000      7.9183      2.6424      0.0732      0.4620     94.7956
  1135.6000      7.9183      2.5893      0.0599      3.6809     95.9725
  1135.7000      7.9183      2.5280      0.0052      7.3937     99.4153
  1135.8000      7.9138      2.4965     -0.0159      9.3026    103.3925
  1135.9000      7.9138      2.4975     -0.0047      9.2450    108.4382
  1136.0000      7.9084      2.5055      0.0834      8.7554    113.6446
  1136.1000      7.9084      2.5070      0.0453      8.6681    118.6427
  1136.2000      7.9084      2.5139      0.0286      8.2481    122.1084
  1136.3000      7.9060      2.5301      0.0705      7.2681    120.4146
  1136.4000      7.9060      2.5418      0.0727      6.5600    114.2395
  1136.5000      7.9038      2.5505      0.0744      6.0283    109.7544
  1136.6000      7.9038      2.5650      0.0630      5.1521    109.1067
  1136.7000      7.9038      2.5756      0.0693      4.5061    107.0522
  1136.8000      7.9019      2.5658      0.0509      5.1060    102.3126
  1136.9000      7.9019      2.5383      0.0170      6.7727    101.2915
  1137.0000      7.9005      2.5138     -0.0143      8.2539    105.4423
  1137.1000      7.9005      2.5042      0.0089      8.8384    109.8663
  1137.2000      7.9005      2.5034      0.0342      8.8854    114.5372
  1137.3000      7.8979      2.5040      0.0494      8.8503    119.5570
  1137.4000      7.8979      2.5141      0.0182      8.2344    121.4600
  1137.5000      7.8988      2.5428      0.0240      6.4942    119.1127
  1137.6000      7.8988      2.5757      0.0694      4.5022    115.7785
  1137.7000      7.8988      2.5967      0.0580      3.2326    115.3423
  1137.8000      7.9063      2.6098      0.0844      2.4335    116.3475
  1137.9000      7.9063      2.6216      0.0754      1.7217    114.1840
  1138.0000      7.9113      2.6258      0.1139      1.4649    109.5062
  1138.1000      7.9113      2.6115      0.1131      2.3314    107.7343
  1138.2000      7.9113      2.5828      0.0402      4.0731    108.7541
  1138.3000      7.9081      2.5618      0.0100      5.3482    109.5997
  1138.4000      7.9081      2.5632      0.0193      5.2631    110.0126
  1138.5000      7.9038      2.5745      0.0299      4.5732    109.3402
  1138.6000      7.9038      2.5699      0.0235      4.8556    109.9504
  1138.7000      7.9038      2.5305      0.0429      7.2400    114.6947
  1138.8000      7.9025      2.4446      0.0790     12.4496    119.2186
  1138.9000      7.9025      2.3104     -0.0071     20.5799    120.1130
  1139.0000      7.9083      2.1596     -0.0909     29.7188    121.4122
  1139.1000      7.9083      2.0365     -0.1326     37.1816    124.8466
  1139.2000      7.9083      1.9413     -0.0681     42.9496    128.4309
  1139.3000      7.9262      1.8351     -0.0871     49.3850    131.0532
  1139.4000      7.9262      1.7006     -0.1627     57.5371    130.2484
  1139.5000      7.9598      1.5455     -0.1453     66.9421    126.5515
  1139.6000      7.9598      1.3817     -0.1443     76.8690    122.2428
  1139.7000      7.9598      1.2414     -0.1284     85.3701    115.3423
  1139.8000      8.0174      1.1510     -0.1196     90.8475    103.6797
  1139.9000      8.0174      1.0924     -0.0157     94.4004     89.0961
  1140.0000      8.1021      1.0262     -0.0179     98.4131     75.7626
  1140.1000      8.1021      0.9344     -0.0257    103.9781     66.1394
  1140.2000      8.1021      0.8455     -0.0716    109.3632     59.5452
  1140.3000      8.2203      0.8221      0.0119    110.7836     54.1413
  1140.4000      8.2203      0.8994      0.0820    106.0982     49.3640
  1140.5000      8.4401      1.0520      0.2553     96.8506     45.3264
  1140.6000      8.4401      1.2224      0.3561     86.5182     42.2086
  1140.7000      8.4401      1.3836      0.3721     76.7535     40.9141
  1140.8000      8.7667      1.5536      0.4239     66.4480     42.0351
  1140.9000      8.7667      1.7375      0.4945     55.3036     45.1398
  1141.0000      8.8626      1.9083      0.5362     44.9511     49.8302
  1141.1000      8.8626      2.0617      0.5079     35.6518     57.1798
  1141.2000      8.8626      2.2091      0.5302     26.7207     67.0646
  1141.3000      8.5479      2.3313      0.5288     19.3158     75.8479
  1141.4000      8.5479      2.4163      0.4572     14.1638     81.3423
  1141.5000      8.1946      2.4847      0.3488     10.0180     85.7996
  1141.6000      8.1946      2.5407      0.3321      6.6215     93.4169
  1141.7000      8.1946      2.5667      0.2798      5.0484    104.3002
  1141.8000      8.0015      2.5683      0.1365      4.9501    115.6894
  1141.9000      8.0015      2.5710      0.0831      4.7902    124.5475
  1142.0000      7.9198      2.5773      0.1190      4.4031    128.5562
  1142.1000      7.9198      2.5695      0.1029      4.8816    129.6253
  1142.2000      7.9198      2.5421      0.0855      6.5392    131.3500
  1142.3000      7.8883      2.5079      0.0768      8.6147    135.6373
  1142.4000      7.8883      2.4864      0.0501      9.9152    139.5891
