~Version Information
VERS.                      2.0: CWLS Log ASCII Standard - VERSION 2.0
WRAP.                       NO: One line per depth step
~Well Information Block
STRT.FT               335.0000: 
STOP.FT              1154.7000: 
STEP.FT                 0.1000: 
NULL.                -999.2500: 
COMP.          Pioneer Natural Resources: COMPANY
WELL.             Croc 42-9 Tr: WELL
FLD.           Purgatoire River: FIELD
LOC.           2429' FNL & 315' FEL--: LOCATION
STAT.                 Colorado: State
CNTY.               Las Animas: COUNTY
CTRY. USA : Country
SECT. 9 : Section
TOWN. 32S : Township
RANG. 66W : Range
SRVC.                Patterson: SERVICE COMPANY
DATE.          Fri Oct 14 07:56:23 2005: LOG DATE
API.           05 071 08550 00: UNIQUE WELL ID
~Curve Information Block
DEPT.FT            0 000 00 00: Depth
DCAL.in                       : CDL Caliper
RHOB.g/cc                     : CDL Bulk Density
RHOC.g/cc                     : CDL Density Correction
DPOR.pu                       : CDL Density Porosity
NPOR.pu                       : Neutron Porosity
GR.GAPI                       : Gamma Ray
~Parameter Information Block
~A  Depth       DCAL        RHOB        RHOC        DPOR        NPOR         GR     
# ...
   546.2000      8.0636      2.5447      0.0588      6.3810     28.2980    152.5297
   546.3000      8.0609      2.5449      0.0505      6.3696     28.9733    156.5594
   546.4000      8.0609      2.5465      0.0976      6.2739     30.5768    155.4176
   546.5000      8.0634      2.5461      0.0376      6.2971     31.1273    148.0905
   546.6000      8.0634      2.5620      0.0260      5.3310     32.2363    143.8395
   546.7000      8.0634      2.6019      0.0749      2.9156     32.2728    146.5275
   546.8000      8.0708      2.6416      0.1216      0.5100     28.5855    149.6805
   546.9000      8.0708      2.6569      0.1047     -0.4160     25.1285    151.5929
   547.0000      8.0775      2.6494      0.1054      0.0347     26.2574    153.0889
   547.1000      8.0775      2.6347      0.0593      0.9272     29.0902    152.7682
   547.2000      8.0775      2.6205      0.0745      1.7895     28.8694    152.0675
   547.3000      8.0818      2.6070      0.0699      2.6062     27.5345    151.1588
   547.4000      8.0818      2.5997      0.0845      3.0470     28.1692    148.9788
   547.5000      8.0829      2.6037      0.0719      2.8032     28.2583    145.1401
   547.6000      8.0829      2.6099      0.1197      2.4296     25.6306    141.6791
   547.7000      8.0829      2.6054      0.0759      2.7052     24.6822    143.2022
   547.8000      8.0800      2.5983      0.0206      3.1350     28.5309    148.8565
   547.9000      8.0800      2.6028      0.0692      2.8585     32.0323    151.4768
   548.0000      8.0775      2.6098      0.1031      2.4360     30.4533    147.2561
   548.1000      8.0775      2.6046      0.0660      2.7528     28.4494    142.5643
   548.2000      8.0775      2.5950      0.0336      3.3330     29.9654    144.7807
   548.3000      8.0778      2.5988      0.0386      3.1047     30.8395    147.1994
   548.4000      8.0778      2.6162      0.0659      2.0467     28.7330    142.8656
   548.5000      8.0789      2.6246      0.0888      1.5377     28.3214    141.1885
   548.6000      8.0789      2.6043      0.0467      2.7673     31.2866    147.3709
   548.7000      8.0789      2.5736     -0.0132      4.6275     32.6231    152.6291
   548.8000      8.0797      2.5611      0.0430      5.3875     30.0550    149.8720
   548.9000      8.0797      2.5618      0.0439      5.3484     28.6832    141.8550
   549.0000      8.0788      2.5593      0.0654      5.4982     31.0621    139.9702
   549.1000      8.0788      2.5527      0.0358      5.8967     32.1271    150.1297
   549.2000      8.0788      2.5505      0.0205      6.0325     28.9038    163.4571
   549.3000      8.0779      2.5543      0.0511      5.8025     26.0338    169.0821
   549.4000      8.0779      2.5550      0.0730      5.7566     26.7833    167.7906
   549.5000      8.0769      2.5494      0.0337      6.0947     27.4876    165.9109
   549.6000      8.0769      2.5449      0.0240      6.3681     24.8103    162.8041
   549.7000      8.0769      2.5459      0.0191      6.3075     22.7744    157.3738
   549.8000      8.0759      2.5519      0.0122      5.9447     25.6676    159.7213
   549.9000      8.0759      2.5565      0.0509      5.6655     30.4405    172.2030
   550.0000      8.0767      2.5555     -0.0014      5.7253     30.3259    177.5366
   550.1000      8.0767      2.5605      0.0302      5.4263     26.3943    170.8163
   550.2000      8.0767      2.5744      0.0508      4.5820     25.4042    166.8352
   550.3000      8.0794      2.5849      0.0614      3.9472     27.8241    169.7860
   550.4000      8.0794      2.5855      0.0336      3.9063     29.0459    170.8417
   550.5000      8.0817      2.5786      0.0453      4.3287     29.2131    167.3373
   550.6000      8.0817      2.5734      0.0244      4.6411     30.7724    164.8562
   550.7000      8.0817      2.5864      0.0370      3.8533     31.0035    164.0200
   550.8000      8.0810      2.6201      0.0788      1.8122     28.3773    159.3296
   550.9000      8.0810      2.6504      0.1089     -0.0240     27.4571    153.1052
   551.0000      8.0792      2.6527      0.0881     -0.1624     29.5672    152.9936
   551.1000      8.0792      2.6364      0.0389      0.8221     29.8701    161.0211
   551.2000      8.0792      2.6351      0.0102      0.9045     26.4655    169.8337
   551.3000      8.0794      2.6557      0.0288     -0.3461     24.2282    168.1170
   551.4000      8.0794      2.6735      0.0505     -1.4266     25.6314    157.6166
   551.5000      8.0812      2.6851      0.0141     -2.1247     26.8258    149.6879
   551.6000      8.0812      2.7016      0.0179     -3.1258     26.3263    146.4246
   551.7000      8.0812      2.7029      0.0965     -3.2087     27.8295    142.4192
   551.8000      8.0817      2.6718      0.0293     -1.3218     31.4950    137.5926
   551.9000      8.0817      2.6328      0.0022      1.0411     32.9401    136.4702
   552.0000      8.0814      2.6045      0.0169      2.7582     30.9024    137.7655
   552.1000      8.0814      2.5761      0.0058      4.4758     28.7107    137.8998
   552.2000      8.0814      2.5480     -0.0170      6.1809     28.0938    138.4620
   552.3000      8.0832      2.5354     -0.0127      6.9463     26.7290    139.0381
   552.4000      8.0832      2.5366      0.0137      6.8703     24.6266    137.0091
   552.5000      8.0866      2.5348      0.0245      6.9790     25.1914    131.5498
   552.6000      8.0866      2.5253      0.0343      7.5582     27.8685    126.0381
   552.7000      8.0866      2.5187      0.0298      7.9547     28.6436    127.8054
   552.8000      8.0888      2.5231      0.0662      7.6933     27.6582    136.6329
   552.9000      8.0888      2.5335      0.0503      7.0602     27.4110    146.9050
   553.0000      8.0872      2.5421      0.0852      6.5390     26.0988    154.7482
   553.1000      8.0872      2.5478      0.0724      6.1965     21.8456    153.4607
   553.2000      8.0872      2.5551      0.0724      5.7523     18.9162    142.7525
   553.3000      8.0869      2.5630      0.0746      5.2734     20.8301    135.8420
   553.4000      8.0869      2.5650      0.0917      5.1545     24.6341    139.2120
   553.5000      8.0895      2.5598      0.0665      5.4673     25.8294    144.6995
   553.6000      8.0895      2.5561      0.0595      5.6881     26.3260    145.9534
   553.7000      8.0895      2.5635      0.0585      5.2452     28.5553    143.0185
   553.8000      8.0880      2.5845      0.0683      3.9669     29.1116    137.2969
   553.9000      8.0880      2.6168      0.0722      2.0140     26.7789    132.3030
   554.0000      8.0863      2.6489      0.0886      0.0646     26.7584    131.7589
   554.1000      8.0863      2.6583      0.1323     -0.5039     30.6416    133.8852
   554.2000      8.0863      2.6403      0.0422      0.5849     33.1019    133.2713
   554.3000      8.0898      2.6230      0.0562      1.6361     31.8064    130.3391
   554.4000      8.0898      2.6230      0.0773      1.6334     31.3702    130.0341
   554.5000      8.0924      2.6352      0.0579      0.8975     33.9280    132.3060
   554.6000      8.0924      2.6524      0.0480     -0.1447     35.6728    134.2940
   554.7000      8.0924      2.6682      0.0469     -1.1019     34.2922    138.5589
   554.8000      8.0930      2.6740      0.0324     -1.4528     32.3101    146.4424
   554.9000      8.0930      2.6619      0.0754     -0.7224     32.0033    154.3641
   555.0000      8.0993      2.6404      0.0367      0.5811     32.9804    162.8559
   555.1000      8.0993      2.6310      0.0508      1.1516     31.9097    171.5000
   555.2000      8.0993      2.6361      0.0875      0.8417     27.4772    173.8632
   555.3000      8.1061      2.6420      0.0621      0.4860     25.6831    168.8871
   555.4000      8.1061      2.6460      0.0545      0.2448     29.7762    160.9720
   555.5000      8.1080      2.6470      0.0546      0.1821     33.2187    152.7270
   555.6000      8.1080      2.6399      0.0462      0.6109     30.8506    146.5459
   555.7000      8.1080      2.6210      0.0594      1.7575     27.9452    145.0041
