~Version Information
VERS.                      2.0: CWLS Log ASCII Standard - VERSION 2.0
WRAP.                       NO: One line per depth step
~Well Information Block
STRT.FT               665.0000: 
STOP.FT              2193.5000: 
STEP.FT                 0.1000: 
NULL.                -999.2500: 
COMP.          Pioneer Natural Resources: COMPANY
WELL.          Bear Cub Federal 11-23: WELL
FLD.           Purgatoire River: FIELD
LOC.           1225' FNL & 1268' FWL--: LOCATION
CNTY.               Las Animas: COUNTY
SRVC.                Patterson: SERVICE COMPANY
DATE.          Tue Jun 20 09:14:02 2006: LOG DATE
UWI.           05 071 08509 00: UNIQUE WELL ID
STAT.                 Colorado: STATE
~Curve Information Block
DEPT.FT            0 000 00 00: Depth
DCAL.in                       : CDL Caliper
RHOB.g/cc                     : CDL Bulk Density
RHOC.g/cc                     : CDL Density Correction
DPOR.pu                       : CDL Density Porosity
NPOR.pu                       : Neutron Porosity
GR.GAPI                       : Gamma Ray
~Parameter Information Block
~A  Depth       DCAL        RHOB        RHOC        DPOR        NPOR         GR     
# ...
   962.6000      8.0740      2.4992     -0.0118      9.1419     25.9652    120.6807
   962.7000      8.0740      2.5266      0.0558      7.4817     26.0895    123.3199
   962.8000      8.0695      2.5529      0.1050      5.8856     26.0160    127.4037
   962.9000      8.0695      2.5584      0.1088      5.5488     25.4896    127.5919
   963.0000      8.0669      2.5464      0.1267      6.2768     24.8795    125.3850
   963.1000      8.0669      2.5251      0.0848      7.5683     24.8340    125.4988
   963.2000      8.0669      2.5125      0.0304      8.3356     25.2375    125.6249
   963.3000      8.0663      2.5352      0.0418      6.9586     25.5999    121.2521
   963.4000      8.0663      2.5930      0.0998      3.4527     25.7953    113.4943
   963.5000      8.0665      2.6626      0.1181     -0.7625     26.0795    105.7324
   963.6000      8.0665      2.7372      0.1574     -5.2848     26.7433     99.2608
   963.7000      8.0665      2.8155      0.1783    -10.0297     27.8929     94.7424
   963.8000      8.0666      2.8785      0.2352    -13.8512     29.3659     92.3205
   963.9000      8.0666      2.9093      0.1926    -15.7168     30.7683     90.9731
   964.0000      8.0681      2.9201      0.1212    -16.3668     31.8873     91.2531
   964.1000      8.0681      2.9375      0.1227    -17.4247     32.8406     92.2803
   964.2000      8.0681      2.9596      0.1459    -18.7663     33.8391     92.2989
   964.3000      8.0703      2.9579      0.0263    -18.6614     34.7634     91.4181
   964.4000      8.0703      2.9142     -0.0335    -16.0136     35.2432     90.5373
   964.5000      8.0702      2.8361     -0.0439    -11.2781     35.1186     90.5538
   964.6000      8.0702      2.7523     -0.1633     -6.2027     34.4510     91.1727
   964.7000      8.0702      2.6912     -0.1369     -2.4987     33.3185     92.7281
   964.8000      8.0669      2.6560     -0.1658     -0.3617     31.7330     96.5565
   964.9000      8.0669      2.6433     -0.1086      0.4076     29.7715    104.9008
   965.0000      8.0625      2.6484     -0.0003      0.0989     27.7930    117.0911
   965.1000      8.0625      2.6510     -0.0104     -0.0586     26.3909    127.0004
   965.2000      8.0625      2.6362      0.0476      0.8349     25.8047    131.2734
   965.3000      8.0577      2.6103      0.0320      2.4067     25.6173    131.8847
   965.4000      8.0577      2.5859      0.0583      3.8858     25.5155    130.0810
   965.5000      8.0545      2.5668      0.0413      5.0410     25.5199    126.1871
   965.6000      8.0545      2.5528      0.0142      5.8909     25.5574    123.0114
   965.7000      8.0545      2.5454      0.0159      6.3410     25.7911    122.6825
   965.8000      8.0524      2.5465      0.0240      6.2731     26.5903    125.3911
   965.9000      8.0524      2.5552      0.0475      5.7461     27.7123    129.6675
   966.0000      8.0521      2.5658      0.0320      5.1042     28.4356    132.8918
   966.1000      8.0521      2.5739      0.0704      4.6129     28.5093    134.5022
   966.2000      8.0521      2.5800      0.0771      4.2411     28.3103    136.9077
   966.3000      8.0565      2.5848      0.0570      3.9514     28.2342    138.5663
   966.4000      8.0565      2.5783      0.0502      4.3448     28.2442    136.1484
   966.5000      8.0613      2.5550      0.0307      5.7567     28.0217    134.1302
   966.6000      8.0613      2.5349      0.0214      6.9745     27.4642    138.8343
   966.7000      8.0613      2.5420      0.0179      6.5427     26.9565    149.1571
   966.8000      8.0616      2.5737      0.0360      4.6242     26.8328    156.2998
   966.9000      8.0616      2.6032      0.0694      2.8358     26.9122    153.6741
   967.0000      8.0583      2.6089      0.0575      2.4937     26.8022    146.4161
   967.1000      8.0583      2.5910      0.0459      3.5770     26.5371    141.0377
   967.2000      8.0583      2.5651      0.0389      5.1458     26.3128    136.3079
   967.3000      8.0534      2.5465      0.0421      6.2728     26.0419    130.8005
   967.4000      8.0534      2.5374      0.0255      6.8246     25.8033    126.0558
   967.5000      8.0508      2.5282      0.0397      7.3820     25.8099    125.2755
   967.6000      8.0508      2.5114      0.0603      8.4020     25.8924    129.5064
   967.7000      8.0508      2.4968      0.0270      9.2876     25.5515    131.8879
   967.8000      8.0508      2.5078     -0.0328      8.6161     24.8463    129.2151
   967.9000      8.0508      2.5494      0.0512      6.0985     24.4459    128.3407
   968.0000      8.0516      2.5837      0.0919      4.0201     24.5656    130.4859
   968.1000      8.0516      2.5791      0.0774      4.2981     24.8633    128.2310
   968.2000      8.0516      2.5595     -0.0013      5.4850     25.2966    118.5117
   968.3000      8.0531      2.5545      0.0989      5.7898     26.0739    109.0653
   968.4000      8.0531      2.5551      0.0210      5.7512     26.9901    108.6819
   968.5000      8.0538      2.5582      0.0017      5.5648     27.7820    114.5285
   968.6000      8.0538      2.5704      0.0377      4.8214     28.5530    116.7681
   968.7000      8.0538      2.5787      0.0675      4.3197     29.4441    111.3677
   968.8000      8.0552      2.5663      0.0649      5.0703     30.3106    106.7166
   968.9000      8.0552      2.5408      0.0185      6.6167     30.8328    110.4215
   969.0000      8.0583      2.5249     -0.0086      7.5825     31.1317    118.3877
   969.1000      8.0583      2.5268      0.0014      7.4672     31.4027    123.1002
   969.2000      8.0583      2.5355      0.0167      6.9389     31.4289    122.1965
   969.3000      8.0608      2.5372      0.0294      6.8354     31.0173    120.1305
   969.4000      8.0608      2.5333     -0.0097      7.0733     30.2562    119.9369
   969.5000      8.0593      2.5392     -0.0216      6.7173     29.3886    120.6375
   969.6000      8.0593      2.5584      0.0417      5.5512     28.5521    125.1268
   969.7000      8.0593      2.5709      0.1024      4.7959     27.6811    132.9665
   969.8000      8.0557      2.5646      0.0543      5.1728     26.9058    136.0689
   969.9000      8.0557      2.5518      0.0642      5.9517     26.5423    132.2455
   970.0000      8.0579      2.5395      0.0771      6.6942     26.5478    128.4903
   970.1000      8.0579      2.5348      0.0261      6.9841     26.6636    129.6846
   970.2000      8.0579      2.5462      0.0368      6.2899     26.6083    133.7582
   970.3000      8.0674      2.5647      0.0528      5.1688     26.3668    135.5817
   970.4000      8.0674      2.5796      0.0588      4.2677     26.2433    133.9312
   970.5000      8.0764      2.5893      0.0381      3.6771     26.3502    133.4391
   970.6000      8.0764      2.5920      0.0749      3.5132     26.5406    137.6286
   970.7000      8.0764      2.5834      0.0779      4.0386     26.6793    143.3080
   970.8000      8.0816      2.5644      0.0353      5.1884     26.8834    145.9515
   970.9000      8.0816      2.5435      0.0086      6.4557     27.0965    146.4836
   971.0000      8.0816      2.5269     -0.0097      7.4588     26.8996    147.3816
   971.1000      8.0816      2.5158      0.0318      8.1336     26.3510    147.1702
   971.2000      8.0816      2.5093      0.0259      8.5246     25.9438    146.8813
   971.3000      8.0769      2.5132      0.0012      8.2908     25.9296    148.1623
   971.4000      8.0769      2.5317      0.0605      7.1686     26.2351    145.9239
   971.5000      8.0742      2.5561      0.0727      5.6888     26.5370    139.0165
   971.6000      8.0742      2.5734      0.0771      4.6404     26.5174    134.0143
   971.7000      8.0742      2.5770      0.0829      4.4228     26.3681    132.5002
   971.8000      8.0741      2.5715      0.0602      4.7558     26.4921    131.9525
   971.9000      8.0741      2.5637      0.0347      5.2306     26.7335    132.3889
   972.0000      8.0731      2.5537      0.0469      5.8351     26.7405    131.3357
   972.1000      8.0731      2.5518     -0.0152      5.9500     26.5146    127.5642
