~Version Information
 VERS.                                  2.0 : CWLS LAS VERSION
 WRAP.                                   NO : WRAPING MODE
 SWARE .                 MController 2.5.0J : SOFTWARE VERSION
~Well Information
 WELL.                         State 16-44R : WELL
 COMP.                Petrogulf Corporation : COMPANY
 FLD.                      Purgatoire River : FIELD
 LOC.                SE/SE Sec 16 T33S R67W : LOCATION
 DATE.                          10/20-21/05 : DATE(S) LOGGED
 SRVC.       BLANCO Geological Services LLC : SERVICE COMPANY
 STAT.                                   CO : STATE
 CNTY.                           Las Animas : COUNTY
 CTRY.                                  USA : COUNTRY
 API.                       05-071-08457-00 : API NUMBER
 STRT.FT                               1.00 : START DEPTH
 STOP.FT                            1629.00 : STOP DEPTH
 STEP.FT                               1.00 : DEPTH INCREMENT
 NULL.                                -9999 : NULL VALUE
~Curve information
 DEPTH.FT                                   :
 ROP.MIN/FT                                 :
 GAS.UNITS                                  :
~ASCII Log data
# ...
      1401.0         0.37        517.5 
      1402.0         0.30        490.2 
      1403.0         0.30        457.8 
      1404.0         0.23        457.2 
      1405.0         0.17        471.5 
      1406.0         2.45       1243.7 
      1407.0         0.43        823.1 
      1408.0         0.33        668.6 
      1409.0         0.27        581.6 
      1410.0         0.28        611.1 
      1411.0         0.23        642.5 
      1412.0         0.20        643.8 
      1413.0         0.17        633.6 
      1414.0         0.17        625.1 
      1415.0         0.30        613.0 
      1416.0         0.27        596.2 
      1417.0         0.30        581.3 
      1418.0         0.23        561.6 
      1419.0         0.30        546.4 
      1420.0         0.20        526.1 
      1421.0         0.20        519.4 
      1422.0         0.23        514.0 
      1423.0         0.20        508.9 
      1424.0         0.22        507.3 
      1425.0         0.20        508.3 
      1426.0         0.23        507.6 
      1427.0         0.27        509.9 
      1428.0         0.23        509.2 
      1429.0         0.23        502.6 
      1430.0         0.20        495.3 
      1431.0         0.23        484.2 
      1432.0         0.20        462.6 
      1433.0         0.20        458.8 
      1434.0         0.23        481.9 
      1435.0         0.20        526.1 
      1436.0         2.48       2086.3 
      1437.0         0.27       1449.6 
      1438.0         0.23       1174.5 
      1439.0         0.43        979.6 
      1440.0         0.37        745.4 
      1441.0         0.52        649.5 
      1442.0         0.40        642.9 
      1443.0         0.33        629.8 
      1444.0         0.33        612.7 
      1445.0         0.23        599.1 
      1446.0         0.23        583.2 
      1447.0         0.33        569.9 
      1448.0         0.33        547.3 
      1449.0         0.27        533.7 
      1450.0         0.30        524.5 
      1451.0         0.35        514.6 
      1452.0         0.30        517.2 
      1453.0         0.30        513.4 
      1454.0         0.30        514.6 
      1455.0         0.30        520.3 
      1456.0         0.30        525.7 
      1457.0         0.30        530.5 
      1458.0         0.30        537.2 
      1459.0         0.30        543.5 
      1460.0         0.27        544.1 
      1461.0         0.20        535.9 
      1462.0         0.27        528.0 
      1463.0         0.32        510.5 
      1464.0         0.23        474.3 
      1465.0         0.23        468.3 
      1466.0         2.33       1265.6 
      1467.0         0.28        932.0 
      1468.0         0.30        810.1 
      1469.0         0.30        700.6 
      1470.0         0.23        620.3 
      1471.0         0.50        594.3 
      1472.0         0.33        617.1 
      1473.0         0.30        614.0 
      1474.0         0.37        581.3 
      1475.0         0.20        589.2 
      1476.0         0.17        586.0 
      1477.0         0.17        581.0 
      1478.0         0.17        569.5 
      1479.0         0.18        549.2 
      1480.0         0.30        537.8 
      1481.0         0.27        531.8 
      1482.0         0.20        518.4 
      1483.0         0.17        511.8 
      1484.0         0.17        514.3 
      1485.0         0.20        518.1 
      1486.0         0.20        524.5 
      1487.0         0.17        527.0 
      1488.0         0.13        525.7 
      1489.0         0.20        523.2 
      1490.0         0.13        517.5 
      1491.0         0.23        515.6 
      1492.0         0.23        496.9 
      1493.0         0.20        467.7 
      1494.0         0.20        464.8 
      1495.0         0.22        511.8 
      1496.0         1.97       1071.3 
      1497.0         0.33        858.4 
      1498.0         0.17        702.2 
      1499.0         0.30        626.3 
      1500.0         0.20        548.3 
      1501.0         0.20        600.0 
      1502.0         0.92        769.8 
      1503.0         0.13        701.9 
      1504.0         0.23        679.0 
      1505.0         0.30        651.4 
      1506.0         0.33        628.3 
      1507.0         0.30        611.4 
      1508.0         0.30        595.9 
      1509.0         0.27        576.5 
      1510.0         0.25        568.0 
      1511.0         0.23        558.4 
      1512.0         0.27        539.7 
      1513.0         0.33        526.4 
      1514.0         0.33        539.4 
      1515.0         0.23        538.8 
      1516.0         0.23        535.6 
      1517.0         0.13        531.8 
      1518.0         0.13        532.4 
      1519.0         0.27        535.3 
      1520.0         0.30        533.4 
      1521.0         0.27        539.1 
      1522.0         0.23        540.7 
      1523.0         0.28        519.7 
      1524.0         0.27        481.3 
      1525.0         0.30        498.1 
      1526.0         2.23       1201.4 
      1527.0         0.52        795.8 
      1528.0         0.40        658.7 
      1529.0         0.30        598.7 
      1530.0         0.23        572.4 
      1531.0         0.27        562.9 
      1532.0         0.30        581.3 
      1533.0         0.33        616.5 
      1534.0         0.40        620.0 
      1535.0         0.37        599.4 
      1536.0         0.27        569.9 
      1537.0         0.22        572.4 
      1538.0         0.20        573.3 
      1539.0         0.17        571.1 
      1540.0         0.17        574.3 
      1541.0         0.17        572.7 
      1542.0         0.23        570.2 
      1543.0         0.20        569.2 
      1544.0         0.20        565.7 
      1545.0         0.33        561.9 
      1546.0         0.27        540.0 
      1547.0         0.30        517.5 
      1548.0         0.30        508.9 
      1549.0         0.23        504.5 
      1550.0         0.23        504.5 
      1551.0         0.25        503.2 
      1552.0         0.23        488.9 
      1553.0         0.23        464.5 
      1554.0         0.30        467.0 
      1555.0         0.23        522.9 
      1556.0         1.60       1140.2 
      1557.0         0.30        986.9 
      1558.0         0.45        854.5 
      1559.0         0.43        694.6 
      1560.0         0.37        622.5 
      1561.0         0.30        623.8 
      1562.0         0.37        607.6 
      1563.0         0.40        580.3 
      1564.0         0.37        558.1 
      1565.0         0.33        557.5 
      1566.0         0.37        571.8 
      1567.0         0.38        580.0 
      1568.0         0.30        577.8 
      1569.0         0.30        567.0 
      1570.0         0.30        550.8 
      1571.0         0.27        536.2 
      1572.0         0.27        517.2 
      1573.0         0.30        505.1 
      1574.0         0.27        502.3 
      1575.0         0.20        508.9 
      1576.0         0.23        510.2 
      1577.0         0.20        512.1 
      1578.0         0.20        514.6 
      1579.0         0.23        520.0 
      1580.0         0.22        522.9 
      1581.0         0.23        519.1 
      1582.0         0.17        513.0 
      1583.0         0.23        493.7 
      1584.0         0.23        466.4 
      1585.0         0.23        455.9 
      1586.0         2.88       1368.1 
      1587.0         0.37        814.6 
      1588.0         0.40        693.3 
      1589.0         0.40        638.1 
      1590.0         0.33        636.2 
      1591.0         0.27        629.5 
      1592.0         0.30        612.1 
      1593.0         0.32        596.5 
      1594.0         0.23        585.4 
      1595.0         0.23        579.4 
      1596.0         0.27        574.9 
      1597.0         0.23        573.3 
      1598.0         0.27        569.5 
      1599.0         0.23        559.7 
      1600.0         0.23        553.0 
