~Version Information
VERS.                      2.0: CWLS Log ASCII Standard - VERSION 2.0
WRAP.                       NO: One line per depth step
~Well Information Block
STRT.FT                -6.5000: 
STOP.FT              1758.0000: 
STEP.FT                 0.2500: 
NULL.                -999.2500: 
COMP.          Pioneer Natural Resources: COMPANY
WELL.           Rolls 14-14 Tr: WELL
FLD.           Purgatorie River: FIELD
LOC.           473' FSL & 817' FWL--: LOCATION
PROV.                       CO: PROVINCE
CNTY.               Las Animas: COUNTRY
SRVC.          Patterson Wireline: SERVICE COMPANY
DATE.          Mon Aug 08 11:51:25 2005: LOG DATE
UWI.           05 071 08454 00: UNIQUE WELL ID
~Curve Information Block
DEPT.FT            0 000 00 00: Depth
CCL.                          : Casing Collar Locator
TT3.usec                      : CBL 3' Travel Time
AMP3.mV                       : CBL 3' Amplitude
GR.GAPI                       : Gamma Ray
~Parameter Information Block
~A  Depth       CCL         TT3         AMP3         GR     
# ...
   797.5000      0.0000    740.9996      6.2683     94.6547
   797.7500      0.0000    743.5389      6.2783     93.3776
   798.0000      0.0000    744.8795      6.2784     91.5270
   798.2500      0.0000    744.4293      6.2670     90.9442
   798.5000      0.0000    742.9146      6.2466     91.4903
   798.7500      0.0000    742.3046      6.2190     90.8280
   799.0000      0.0000    745.3382      6.1879     86.3057
   799.2500      0.0000    754.6704      6.1613     77.5431
   799.5000      0.0000    771.0364      6.1460     67.3924
   799.7500      0.0000    791.4819      6.1392     60.1823
   800.0000      0.0000    810.0043      6.1328     58.8058
   800.2500      0.0000    820.5330      6.1252     63.1707
   800.5000      0.0000    819.7209      6.1225     70.8754
   800.7500      0.0000    808.2189      6.1282     79.0449
   801.0000      0.0000    790.6042      6.1382     85.8185
   801.2500      0.0000    773.5451      6.1484     90.6820
   801.5000      0.0000    762.3663      6.1605     93.8710
   801.7500      0.0000    758.3486      6.1771     95.6584
   802.0000      0.0000    759.0764      6.1933     96.0967
   802.2500      0.0000    761.1758      6.1986     95.3305
   802.5000      0.0000    762.5577      6.1866     94.1664
   802.7500      0.0000    762.5504      6.1581     94.0577
   803.0000      0.0000    761.0223      6.1169     96.0286
   803.2500      0.0000    758.1258      6.0678     99.6319
   803.5000      0.0000    754.6405      6.0191    103.4471
   803.7500      0.0000    752.0850      5.9821    106.3664
   804.0000      0.0000    752.1223      5.9628    107.7714
   804.2500      0.0000    755.3898      5.9565    107.0154
   804.5000      0.0000    760.7406      5.9551    104.0405
   804.7500      0.0000    765.8755      5.9558    100.4715
   805.0000      0.0000    768.9216      5.9597     98.8142
   805.2500      0.0000    769.5732      5.9626    100.0818
   805.5000      0.0000    769.1576      5.9551    102.9174
   805.7500      0.0000    769.8759      5.9324    105.1616
   806.0000      0.0000    773.8643      5.9031    105.4788
   806.2500      0.0000    782.7337      5.8820    103.4791
   806.5000      0.0000    797.4050      5.8740     99.4328
   806.7500      0.0000    817.2726      5.8711     94.4389
   807.0000      0.0000    839.1941      5.8640     90.2459
   807.2500      0.0000    858.3678      5.8556     88.3893
   807.5000      0.0000    871.2866      5.8574     89.3343
   807.7500      0.0000    878.0355      5.8739     91.9397
   808.0000      0.0000    881.5896      5.8943     93.7483
   808.2500      0.0000    884.8245      5.9017     92.7292
   808.5000      0.0000    888.0135      5.8902     89.2396
   808.7500      0.0000    889.0519      5.8709     85.8455
   809.0000      0.0000    885.9059      5.8600     85.0276
   809.2500      0.0000    878.6243      5.8637     87.3043
   809.5000      0.0000    869.4028      5.8752     91.3218
   809.7500      0.0000    861.6163      5.8846     95.0829
   810.0000      0.0000    858.5483      5.8875     96.9958
   810.2500      0.0000    861.7350      5.8857     96.4389
   810.5000      0.0000    870.0643      5.8811     93.9326
   810.7500      0.0000    880.6491      5.8706     90.8586
   811.0000      0.0000    890.3120      5.8474     88.9924
   811.2500      0.0000    896.5733      5.8080     90.0101
   811.5000      0.0000    898.4832      5.7575     94.5842
   811.7500      0.0000    897.0581      5.7076    101.4099
   812.0000      0.0000    894.5185      5.6697    107.5728
   812.2500      0.0000    893.0880      5.6467    110.5555
   812.5000      0.0000    894.2697      5.6328    109.8753
   812.7500      0.0000    898.2357      5.6217    106.5967
   813.0000      0.0000    903.5651      5.6146    101.6934
   813.2500      0.0000    908.5229      5.6161     95.3718
   813.5000      0.0000    913.2673      5.6226     87.7912
   813.7500      0.0000    920.2255      5.6199     79.8469
   814.0000      0.0000    931.6569      5.5921     72.9399
   814.2500      0.0000    947.2823      5.5342     68.0746
   814.5000      0.0000    964.7792      5.4566     65.2688
   814.7500      0.0000    981.6113      5.3794     63.8159
   815.0000      0.0000    994.7016      5.3216     63.0131
   815.2500      0.0000    998.9906      5.2945     62.5748
   815.5000      0.0000    989.3629      5.3009     62.5013
   815.7500      0.0000    966.2816      5.3345     62.7963
   816.0000      0.0000    938.4304      5.3773     63.2899
   816.2500      0.0000    916.6583      5.4043     63.6271
   816.5000      0.0000    904.1746      5.3989     63.4889
   816.7500      0.0000    894.8534      5.3639     62.8655
   817.0000      0.0000    882.2037      5.3164     62.1615
   817.2500      0.0000    867.5957      5.2724     62.1608
   817.5000      0.0000    858.8812      5.2389     63.7337
   817.7500      0.0000    863.3316      5.2174     67.1849
   818.0000      0.0000    881.7905      5.2082     71.8805
   818.2500      0.0000    906.0850      5.2078     76.7544
   818.5000      0.0000    921.9066      5.2036     81.0249
   818.7500      0.0000    918.4872      5.1732     84.2434
   819.0000      0.0000    897.2687      5.0971     85.8976
   819.2500      0.0000    869.4734      4.9763     85.3022
   819.5000      0.0000    845.4413      4.8366     82.0164
   819.7500      0.0000    828.1180      4.7107     76.5523
   820.0000      0.0000    815.3401      4.6141     70.6270
   820.2500      0.0000    804.8988      4.5402     66.2090
   820.5000      0.0000    796.3428      4.4756     63.9431
   820.7500      0.0000    789.6373      4.4137     62.8128
   821.0000      0.0000    783.8284      4.3537     61.7557
   821.2500      0.0000    777.4952      4.2927     61.1651
   821.5000      0.0000    770.4783      4.2236     62.1963
   821.7500      0.0000    765.1984      4.1403     64.9637
   822.0000      0.0000    765.9739      4.0420     68.1815
   822.2500      0.0000    776.0570      3.9323     70.5347
   822.5000      0.0000    794.4261      3.8169     71.8859
   822.7500      0.0000    816.0148      3.6976     73.0548
   823.0000      0.0000    836.6558      3.5598     74.6604
   823.2500      0.0000    857.7977      3.3752     76.3616
   823.5000      0.0000    884.3146      3.1340     77.3002
   823.7500      0.0000    916.7184      2.8716     77.2623
   824.0000      0.0000    947.1086      2.6442     77.1967
   824.2500      2.0000    964.6478      2.4815     78.4675
   824.5000     -2.0000    965.3118      2.3754     81.5508
   824.7500     -2.0000    955.9603      2.3089     85.4127
   825.0000      0.0000    948.9758      2.2873     88.3360
   825.2500      0.0000    952.2787      2.3457     89.6402
   825.5000      0.0000    962.7067      2.5235     90.5319
   825.7500      0.0000    967.9908      2.8188     92.9376
   826.0000      0.0000    956.6680      3.1685     97.4579
   826.2500      0.0000    928.1796      3.4864    102.5135
   826.5000      0.0000    893.1586      3.7232    105.4170
   826.7500      0.0000    863.6652      3.8798    104.3583
   827.0000      0.0000    844.6003      3.9786     99.7435
   827.2500      0.0000    834.1410      4.0386     93.8818
   827.5000      0.0000    829.2284      4.0771     89.2692
   827.7500      0.0000    828.8459      4.1142     86.8447
   828.0000      0.0000    833.3632      4.1654     85.7326
   828.2500      0.0000    842.6737      4.2293     84.6883
   828.5000      0.0000    855.2570      4.2875     83.5246
   828.7500      0.0000    868.3500      4.3183     82.8567
   829.0000      0.0000    878.9551      4.3115     82.7852
   829.2500      0.0000    885.1376      4.2716     82.4292
   829.5000      0.0000    886.7408      4.2124     80.7173
   829.7500      0.0000    885.1746      4.1501     77.1671
   830.0000      0.0000    882.7971      4.0962     71.9477
   830.2500      0.0000    881.9708      4.0568     65.7898
   830.5000      0.0000    883.7424      4.0325     60.0784
   830.7500      0.0000    887.2314      4.0171     56.5978
