~Version Information
VERS.                      2.0: CWLS Log ASCII Standard - VERSION 2.0
WRAP.                       NO: One line per depth step
~Well Information Block
STRT.FT                 0.0000: 
STOP.FT              1528.0000: 
STEP.FT                 0.1000: 
NULL.                -999.2500: 
COMP.          Pioneer Natural Resources: COMPANY
WELL.             Andrew 23-15: WELL
FLD.           Purgatorie River: FIELD
LOC.           2137' FSL & 2292' FWL: LOCATION
PROV.                 Colorado: PROVINCE
CNTY.               Las Animas: COUNTRY
SRVC.                Patterson: SERVICE COMPANY
DATE.          Sat Aug 13 12:06:57 2005: LOG DATE
UWI.                          : UNIQUE WELL ID
~Curve Information Block
DEPT.FT            0 000 00 00: Depth
DCAL.in                       : CDL Caliper
RHOB.g/cc                     : CDL Bulk Density
RHOC.g/cc                     : CDL Density Correction
DPOR.pu                       : CDL Density Porosity
GR.GAPI                       : Gamma Ray
NPOR.pu                       : Neutron Porosity
~Parameter Information Block
~A  Depth       DCAL        RHOB        RHOC        DPOR         GR         NPOR    
# ...
   307.2000      8.2871      1.7550      1.3217     -0.0179     85.3165     25.7007
   307.3000      8.2775      1.7028      1.3450     -0.0190     82.1505     25.6019
   307.4000      8.2775      1.6763      1.3541     -0.0195     80.6348     25.7118
   307.5000      8.2804      1.6792      1.2941     -0.0194     80.9326     25.9232
   307.6000      8.2804      1.7195      1.3639     -0.0186     79.9667     26.3699
   307.7000      8.2804      1.7714      1.4435     -0.0176     79.2774     26.9538
   307.8000      8.2754      1.8073      1.3711     -0.0169     82.2913     27.3945
   307.9000      8.2754      1.8389      1.3934     -0.0162     86.3620     27.5893
   308.0000      8.2802      1.8779      1.4245     -0.0155     87.2890     27.7266
   308.1000      8.2802      1.9143      1.4344     -0.0147     86.0167     27.9803
   308.2000      8.2802      1.9375      1.4407     -0.0143     87.4953     28.1444
   308.3000      8.2738      1.9356      1.4795     -0.0143     92.6292     28.1138
   308.4000      8.2738      1.9047      1.3889     -0.0149     96.5952     28.1645
   308.5000      8.2677      1.8699      1.3714     -0.0156     96.1770     28.2094
   308.6000      8.2677      1.8564      1.3698     -0.0159     93.7155     28.0430
   308.7000      8.2677      1.8606      1.4259     -0.0158     91.9342     27.9208
   308.8000      8.2675      1.8695      1.3916     -0.0156     91.1725     27.7882
   308.9000      8.2675      1.8767      1.4723     -0.0155     91.6285     27.4618
   309.0000      8.2704      1.8756      1.4360     -0.0155     92.9031     27.2164
   309.1000      8.2704      1.8692      1.4026     -0.0156     93.2111     27.1447
   309.2000      8.2704      1.8749      1.3550     -0.0155     91.7345     27.0813
   309.3000      8.2646      1.9023      1.4065     -0.0150     90.0546     27.1171
   309.4000      8.2646      1.9345      1.4784     -0.0143     90.6916     27.3619
   309.5000      8.2743      1.9556      1.4133     -0.0139     93.7881     27.4492
   309.6000      8.2743      1.9742      1.4511     -0.0135     95.5425     27.0649
   309.7000      8.2743      1.9894      1.5590     -0.0132     94.1774     26.5978
   309.8000      8.2675      1.9843      1.5457     -0.0133     92.4793     26.5305
   309.9000      8.2675      1.9658      1.4663     -0.0137     92.7889     26.7852
   310.0000      8.2613      1.9629      1.4405     -0.0137     93.6755     27.0847
   310.1000      8.2613      1.9790      1.5464     -0.0134     93.4580     27.1812
   310.2000      8.2613      1.9966      1.5240     -0.0131     93.6039     26.9344
   310.3000      8.2523      2.0127      1.5439     -0.0128     93.7057     26.7334
   310.4000      8.2523      2.0218      1.5661     -0.0126     92.1294     26.7603
   310.5000      8.2572      2.0182      1.5267     -0.0126     92.4261     26.8262
   310.6000      8.2572      2.0157      1.5017     -0.0127     97.4094     26.9722
   310.7000      8.2572      2.0233      1.5195     -0.0125    102.7767     27.1268
   310.8000      8.2641      2.0320      1.5260     -0.0124    103.7554     27.1053
   310.9000      8.2641      2.0359      1.5388     -0.0123    101.6969     27.0414
   311.0000      8.2627      2.0389      1.5051     -0.0122    100.9485     27.2992
   311.1000      8.2627      2.0413      1.5145     -0.0122    101.6872     27.8413
   311.2000      8.2627      2.0415      1.5082     -0.0122    101.1751     28.2658
   311.3000      8.2646      2.0490      1.4752     -0.0120     99.7158     28.3642
   311.4000      8.2646      2.0663      1.5653     -0.0117     98.8556     28.3072
   311.5000      8.2616      2.0802      1.5160     -0.0114     98.3967     28.2021
   311.6000      8.2616      2.0895      1.4995     -0.0112     99.1351     27.8720
   311.7000      8.2616      2.0980      1.5597     -0.0110    102.4134     27.3416
   311.8000      8.2560      2.1052      1.5310     -0.0109    106.3923     26.8461
   311.9000      8.2560      2.1134      1.5637     -0.0107    106.9601     26.5839
   312.0000      8.2530      2.1192      1.5589     -0.0106    103.6796     26.5702
   312.1000      8.2530      2.1170      1.5259     -0.0107    100.2322     26.7404
   312.2000      8.2530      2.1062      1.5467     -0.0109     97.8580     27.1041
   312.3000      8.2376      2.0863      1.4841     -0.0113     96.3871     27.4924
   312.4000      8.2376      2.0679      1.5100     -0.0116     97.2731     27.4477
   312.5000      8.2467      2.0730      1.4469     -0.0115     99.6255     26.8589
   312.6000      8.2467      2.1004      1.5251     -0.0110    100.9138     26.1268
   312.7000      8.2467      2.1157      1.5524     -0.0107    101.7582     25.6740
   312.8000      8.2474      2.1044      1.5332     -0.0109    103.9353     25.5862
   312.9000      8.2474      2.0892      1.4901     -0.0112    106.8439     25.7249
   313.0000      8.2611      2.0829      1.5257     -0.0113    108.9599     25.9325
   313.1000      8.2611      2.0732      1.5181     -0.0115    109.1688     26.0191
   313.2000      8.2611      2.0567      1.5126     -0.0119    107.3875     25.9056
   313.3000      8.2682      2.0482      1.4632     -0.0120    104.8010     25.6409
   313.4000      8.2682      2.0572      1.4913     -0.0119    101.8647     25.2258
   313.5000      8.2620      2.0716      1.5497     -0.0116     98.8635     24.8722
   313.6000      8.2620      2.0726      1.5394     -0.0116     97.1899     24.9443
   313.7000      8.2620      2.0619      1.4768     -0.0118     97.6850     25.4686
   313.8000      8.2755      2.0502      1.5181     -0.0120     99.1747     26.1113
   313.9000      8.2755      2.0418      1.4555     -0.0122     99.6649     40.0216
   314.0000      8.2710      2.0413      1.4691     -0.0122     98.7977     39.7827
   314.1000      8.2710      2.0488      1.5130     -0.0120     96.7930     39.6293
   314.2000      8.2710      2.0586      1.4621     -0.0118     94.5261     39.9061
   314.3000      8.2793      2.0618      1.5515     -0.0118     94.5858     40.3595
   314.4000      8.2793      2.0591      1.4550     -0.0118     97.2151     40.5168
   314.5000      8.2811      2.0648      1.4878     -0.0117    100.5249     40.3334
   314.6000      8.2811      2.0751      1.5152     -0.0115    102.2844     40.0558
   314.7000      8.2811      2.0758      1.5322     -0.0115    101.2224     39.8168
   314.8000      8.2755      2.0672      1.5362     -0.0117    100.5134     39.6763
   314.9000      8.2755      2.0565      1.5109     -0.0119    101.5338     39.6918
   315.0000      8.2719      2.0450      1.5329     -0.0121    100.6480     39.8304
   315.1000      8.2719      2.0333      1.4881     -0.0123     98.6701     39.9271
   315.2000      8.2719      2.0281      1.4895     -0.0124     98.9820     39.8617
   315.3000      8.2801      2.0363      1.4929     -0.0123    100.6977     39.7333
   315.4000      8.2801      2.0602      1.4876     -0.0118    103.3895     39.5765
   315.5000      8.2865      2.0889      1.5586     -0.0112    107.6149     39.2040
   315.6000      8.2865      2.0992      1.5704     -0.0110    110.4233     38.6774
   315.7000      8.2865      2.0847      1.5186     -0.0113    108.9356     38.4579
   315.8000      8.2789      2.0659      1.5218     -0.0117    104.7436     38.7465
   315.9000      8.2789      2.0590      1.5406     -0.0118    101.0534     39.2670
   316.0000      8.2826      2.0561      1.5198     -0.0119     98.5656     39.6998
   316.1000      8.2826      2.0436      1.5213     -0.0121     96.8855     39.9342
   316.2000      8.2826      2.0215      1.5158     -0.0126     97.0174     40.0217
   316.3000      8.2810      1.9950      1.4966     -0.0131     99.7817     40.0163
   316.4000      8.2810      1.9645      1.4751     -0.0137    104.4665     39.9466
   316.5000      8.2821      1.9323      1.4748     -0.0144    113.5304     39.8543
   316.6000      8.2821      1.9036      1.5026     -0.0149    133.4593     39.8849
   316.7000      8.2821      1.8707      1.5266     -0.0156    165.9967     40.1008
