~Version Information
VERS.                      2.0: CWLS Log ASCII Standard - VERSION 2.0
WRAP.                       NO: One line per depth step
~Well Information Block
STRT.FT                -6.5000: 
STOP.FT              1773.5000: 
STEP.FT                 0.2500: 
NULL.                -999.2500: 
COMP.          Pioneer Natural Resources: COMPANY
WELL.           Lynch 43-30 Tr: WELL
FLD.           Purgatorie River: FIELD
LOC.           1431' FSL & 296' FEL--: LOCATION
PROV.                       CO: PROVINCE
CNTY.               Las Animas: COUNTRY
SRVC.          Patterson Wireline: SERVICE COMPANY
DATE.          Tue Aug 02 09:28:21 2005: LOG DATE
UWI.           05 071 08447 00: UNIQUE WELL ID
~Curve Information Block
DEPT.FT            0 000 00 00: Depth
CCL.                          : Casing Collar Locator
TT3.usec                      : CBL 3' Travel Time
AMP3.mV                       : CBL 3' Amplitude
GR.GAPI                       : Gamma Ray
~Parameter Information Block
MINAMPL.mV              1.0000: Minimum Amplitude
~A  Depth       CCL         TT3         AMP3         GR     
# ...
  1266.5000      0.0000    767.8945      6.0149     76.4271
  1266.7500      0.0000    797.6450      6.7748     79.8740
  1267.0000      0.0000    834.6915      7.6631     85.1893
  1267.2500      0.0000    867.3063      8.5987     91.6840
  1267.5000      0.0000    882.1056      9.4774     97.1469
  1267.7500      0.0000    874.2607     10.2068     99.3223
  1268.0000      0.0000    851.6245     10.7406     97.9930
  1268.2500      0.0000    827.4980     11.0861     95.5287
  1268.5000      0.0000    810.3483     11.2837     95.2250
  1268.7500      0.0000    800.6885     11.3810     98.7733
  1269.0000      0.0000    794.9139     11.4163    105.1219
  1269.2500      0.0000    790.0044     11.4136    111.8443
  1269.5000      0.0000    785.8301     11.3842    117.4340
  1269.7500      0.0000    784.9709     11.3330    122.0103
  1270.0000      0.0000    790.8427     11.2655    126.3752
  1270.2500      0.0000    805.9629     11.1899    131.2969
  1270.5000      0.0000    831.7561     11.1127    137.2459
  1270.7500      0.0000    867.1852     11.0313    143.5715
  1271.0000      0.0000    904.0985     10.9358    148.0728
  1271.2500      0.0000    925.9660     10.8215    148.5083
  1271.5000      0.0000    918.6741     10.7010    144.6949
  1271.7500      0.0000    885.6461     10.5993    138.6820
  1272.0000      0.0000    848.3773     10.5365    133.0523
  1272.2500      0.0000    829.0936     10.5168    129.1910
  1272.5000      0.0000    833.4296     10.5348    126.5384
  1272.7500      0.0000    848.7788     10.5879    123.2736
  1273.0000      0.0000    857.1430     10.6734    118.3573
  1273.2500      0.0000    850.0267     10.7730    113.0789
  1273.5000      0.0000    832.6119     10.8513    109.8908
  1273.7500      0.0000    815.4418     10.8770    109.6491
  1274.0000      0.0000    804.6158     10.8467    110.8359
  1274.2500      0.0000    799.9586     10.7851    111.7423
  1274.5000      0.0000    798.9481     10.7265    112.6957
  1274.7500      0.0000    799.9404     10.6985    115.8039
  1275.0000      0.0000    802.6365     10.7140    122.8399
  1275.2500      0.0000    807.0102     10.7693    133.6404
  1275.5000      0.0000    812.0871     10.8436    146.1298
  1275.7500      0.0000    815.6963     10.9071    157.0908
  1276.0000      0.0000    815.8967     10.9389    162.9626
  1276.2500      0.0000    812.6990     10.9375    161.4448
  1276.5000      0.0000    808.0509     10.9170    153.6572
  1276.7500      0.0000    804.0821     10.8938    144.2992
  1277.0000      0.0000    801.7056     10.8795    138.4500
  1277.2500      0.0000    800.7822     10.8806    137.9243
  1277.5000      0.0000    800.9355     10.8964    140.9329
  1277.7500      0.0000    801.7933     10.9078    144.6935
  1278.0000      0.0000    802.4917     10.8684    147.4697
  1278.2500      0.0000    801.7877     10.7193    148.4669
  1278.5000      0.0000    800.5921     10.4248    147.1533
  1278.7500      0.0000    805.2392      9.9922    143.4511
  1279.0000      0.0000    825.0549      9.4659    138.2262
  1279.2500      0.0000    862.0664      8.9247    133.0349
  1279.5000      0.0000    903.4915      8.4761    129.1241
  1279.7500      0.0000    929.2025      8.2048    126.6950
  1280.0000      0.0000    929.0801      8.1139    125.1532
  1280.2500      0.0000    912.0028      8.1329    123.9628
  1280.5000      0.0000    897.5002      8.1773    123.1109
  1280.7500     -2.0000    899.1023      8.2002    122.8652
  1281.0000      0.0000    914.3148      8.2330    123.3877
  1281.2500      0.0000    928.0737      8.4047    124.7086
  1281.5000      0.0000    925.6348      8.8705    126.8272
  1281.7500      0.0000    904.0547      9.6472    129.6182
  1282.0000      0.0000    872.1668     10.5354    132.5959
  1282.2500      0.0000    840.7929     11.2601    134.7245
  1282.5000      0.0000    815.3600     11.6746    134.6281
  1282.7500      0.0000    797.0882     11.8075    131.5410
  1283.0000      0.0000    786.5770     11.7683    126.5141
  1283.2500      0.0000    783.4039     11.6584    122.3956
  1283.5000      0.0000    784.3811     11.5390    121.7739
  1283.7500      0.0000    785.3973     11.4341    124.6425
  1284.0000      0.0000    785.1415     11.3470    128.5687
  1284.2500      0.0000    785.5178     11.2756    131.2433
  1284.5000      0.0000    788.2433     11.2187    132.3030
  1284.7500      0.0000    792.1503     11.1757    132.5976
  1285.0000      0.0000    794.1075     11.1456    132.4742
  1285.2500      0.0000    791.7682     11.1243    131.4120
  1285.5000      0.0000    785.4811     11.1017    128.9803
  1285.7500      0.0000    778.5439     11.0648    125.4418
  1286.0000      0.0000    775.3172     11.0054    121.3697
  1286.2500      0.0000    777.7754     10.9268    117.1251
  1286.5000      0.0000    783.7067     10.8428    112.9835
  1286.7500      0.0000    788.7505     10.7680    109.5917
  1287.0000      0.0000    789.9269     10.7074    107.9826
  1287.2500      0.0000    787.3200     10.6527    109.1147
  1287.5000      0.0000    783.5535     10.5909    113.3756
  1287.7500      0.0000    781.9108     10.5157    120.2855
  1288.0000      0.0000    783.9662     10.4294    128.4312
  1288.2500      0.0000    788.5687     10.3359    135.7745
  1288.5000      0.0000    793.2727     10.2308    140.3802
  1288.7500      0.0000    796.4885     10.1025    141.1622
  1289.0000      0.0000    798.0862      9.9404    138.2674
  1289.2500      0.0000    798.6362      9.7462    132.9528
  1289.5000      0.0000    798.6727      9.5341    126.8383
  1289.7500      0.0000    798.5184      9.3198    120.8721
  1290.0000      0.0000    798.3507      9.1126    114.9308
  1290.2500      0.0000    798.2414      8.9164    108.4477
  1290.5000      0.0000    798.2318      8.7342    101.3464
  1290.7500      0.0000    798.4926      8.5700     94.2473
  1291.0000      0.0000    799.5245      8.4290     87.7740
  1291.2500      0.0000    802.1447      8.3153     81.7568
  1291.5000      0.0000    806.9691      8.2273     75.2899
  1291.7500      0.0000    813.4534      8.1597     67.8939
  1292.0000      0.0000    819.3989      8.1128     60.6371
  1292.2500      0.0000    821.9757      8.0968     55.7910
  1292.5000      0.0000    819.8107      8.1204     55.2511
  1292.7500      0.0000    814.1166      8.1796     59.2977
  1293.0000      0.0000    807.6434      8.2603     66.5882
  1293.2500      0.0000    802.6224      8.3521     74.8693
  1293.5000      0.0000    799.7048      8.4559     81.7315
  1293.7500      0.0000    798.3837      8.5782     85.4490
  1294.0000      0.0000    797.9005      8.7220     85.8487
  1294.2500      0.0000    797.7366      8.8818     84.4352
  1294.5000      0.0000    797.6451      9.0448     83.3133
  1294.7500      0.0000    797.5089      9.1967     83.7347
  1295.0000      0.0000    797.1960      9.3292     85.6673
  1295.2500      0.0000    796.4114      9.4472     88.6066
  1295.5000      0.0000    794.6533      9.5696     92.3790
  1295.7500      0.0000    791.5021      9.7192     96.9066
  1296.0000      0.0000    787.2463      9.9076    101.4649
  1296.2500      0.0000    783.2050     10.1263    104.7574
  1296.5000      0.0000    781.0161     10.3513    105.9534
  1296.7500      0.0000    781.2975     10.5569    105.4277
  1297.0000      0.0000    783.2418     10.7288    104.3023
  1297.2500      0.0000    785.7209     10.8673    103.4900
  1297.5000      0.0000    788.3074     10.9803    103.4811
  1297.7500      0.0000    790.7569     11.0746    104.8442
  1298.0000      0.0000    792.2986     11.1550    108.2316
  1298.2500      0.0000    792.5088     11.2279    113.5124
  1298.5000      0.0000    792.2438     11.3005    119.1115
  1298.7500      0.0000    792.2958     11.3724    122.6812
  1299.0000      0.0000    791.5596     11.4297    122.6753
  1299.2500      0.0000    787.9760     11.4503    119.2201
  1299.5000      0.0000    781.2734     11.4173    113.5772
  1299.7500      0.0000    773.8518     11.3264    107.1689
