~Version Information
VERS.                      2.0: CWLS Log ASCII Standard - VERSION 2.0
WRAP.                       NO: One line per depth step
~Well Information Block
STRT.FT                -8.5000: 
STOP.FT              1263.2500: 
STEP.FT                 0.2500: 
NULL.                -999.2500: 
COMP.          Pioneer Natural Resources: COMPANY
WELL.          Rockfish 11-30 Tr: WELL
FLD.           Purgatoire River: FIELD
LOC.           1063' FNL & 1068' FWL--: LOCATION
STAT.                       CO: State
CNTY.               Las Animas: COUNTY
CTRY. USA : country
SECT. 30 : Section
TOWN. 32S : Township
RANG. 65W : Range
SRVC.          Patterson Wireline: SERVICE COMPANY
DATE.          Tue Nov 22 16:08:49 2005: LOG DATE
API.           05 071 08585 00: UNIQUE WELL ID
~Curve Information Block
DEPT.FT            0 000 00 00: Depth
HVOLTA.V                      : Head Voltage Apparent
CCL.                          : Casing Collar Locator
TT3.usec                      : CBL 3' Travel Time
AMP3.mV                       : CBL 3' Amplitude
GR.GAPI                       : Gamma Ray
~Parameter Information Block
PPT.usec                0.0000: Predicted Pipe Time
~A  Depth      HVOLTA       CCL         TT3         AMP3         GR     
# ...
  1139.5000     96.2464      0.0000    713.1110     12.2546     76.2889
  1139.7500     96.4035      0.0000    724.7518     12.4991     76.2528
  1140.0000     96.2169      0.0000    730.9955     12.7035     74.5295
  1140.2500     96.3740      0.0000    733.3028     12.8566     71.5973
  1140.5000     96.1552      0.0000    733.8606     12.9546     68.5980
  1140.7500     96.3418      0.0000    733.8632     12.9974     66.3711
  1141.0000     96.3053      0.0000    733.7367     13.0005     65.0648
  1141.2500     96.3979      0.0000    733.5767     13.0025     64.4169
  1141.5000     96.2717      0.0000    733.4168     13.0449     64.0391
  1141.7500     96.3951      0.0000    733.3110     13.1469     63.5594
  1142.0000     96.2436      0.0000    733.3837     13.3009     62.8745
  1142.2500     96.3123      0.0000    733.9805     13.4891     62.3119
  1142.5000     96.2464      0.0000    736.1649     13.6956     62.3218
  1142.7500     96.4274      0.0000    742.5640     13.9026     62.8665
  1143.0000     96.0991      0.0000    757.6217     14.0843     63.4045
  1143.2500     96.3460      0.0000    785.5670     14.2125     63.7514
  1143.5000     96.2731      0.0000    826.1483     14.2706     64.6089
  1143.7500     96.1720      0.0000    872.0651     14.2595     66.8000
  1144.0000     96.3487      0.0000    912.2247     14.1980     70.1465
  1144.2500     96.3684      0.0000    938.5267     14.1219     73.3378
  1144.5000     96.2534      0.0000    949.5534     14.0781     74.7971
  1144.7500     96.2829      0.0000    948.9772     14.1083     73.8145
  1145.0000     96.2309      0.0000    941.9390     14.2274     71.2383
  1145.2500     96.3418      0.0000    931.8950     14.4111     68.9405
  1145.5000     96.1734      0.0000    918.7956     14.6066     68.2227
  1145.7500     96.3404      0.0000    900.1517     14.7642     68.9758
  1146.0000     96.2562      0.0000    874.5619     14.8589     70.6591
  1146.2500     96.2842      0.0000    843.8528     14.8830     73.4827
  1146.5000     96.1706      0.0000    812.0265     14.8302     77.8866
  1146.7500     96.2870      0.0000    783.5953     14.7023     83.1208
  1147.0000     96.2029      0.0000    762.8668     14.5324     87.0930
  1147.2500     96.2042      0.0000    753.5214     14.3896     87.8255
  1147.5000     96.2056      0.0000    758.1246     14.3480     85.0852
  1147.7500     96.3712      0.0000    777.2921     14.4441     80.9235
  1148.0000     96.2801      0.0000    808.1225     14.6611     78.6847
  1148.2500     96.2407      0.0000    843.5495     14.9470     80.7592
  1148.5000     96.2731      0.0000    874.6538     15.2432     86.6532
  1148.7500     96.2688      0.0000    894.6644     15.4982     93.5205
  1149.0000     96.1622      0.0000    901.6068     15.6712     98.9977
  1149.2500     96.3529      0.0000    898.0081     15.7378    103.3128
  1149.5000     96.1959      0.0000    888.0072     15.7026    108.6320
  1149.7500     96.2323      0.0000    874.6868     15.6079    116.9852
  1150.0000     96.2590      0.0000    860.6043     15.5203    128.8900
  1150.2500     96.2183      0.0000    849.7682     15.4886    143.0210
  1150.5000     96.2898      0.0000    846.8979     15.5017    156.3759
  1150.7500     96.1314      0.0000    853.7397     15.4932    165.3612
  1151.0000     96.3277      0.0000    865.9741     15.3964    168.1951
  1151.2500     96.3109      0.0000    874.4811     15.2011    166.8022
  1151.5000     96.3376      0.0000    871.6791     14.9604    165.4982
  1151.7500     96.1987      0.0000    857.9491     14.7506    167.2596
  1152.0000     96.3165      0.0000    840.9752     14.6293    171.8358
  1152.2500     96.2253      0.0000    828.4597     14.6244    177.4207
  1152.5000     96.2884      0.0000    822.5149     14.7432    182.7667
  1152.7500     96.2562      0.0000    820.5670     14.9748    187.2088
  1153.0000     96.3207      0.0000    819.3721     15.2862    190.0157
  1153.2500     96.1720      0.0000    817.5096     15.6370    190.5547
  1153.5000     96.2295      0.0000    815.4365     16.0034    188.4503
  1153.7500     96.2646      0.0000    814.0869     16.3791    183.4636
  1154.0000     96.1439      0.0000    812.7571     16.7609    176.0637
  1154.2500     96.2379      0.0000    807.3864     17.1551    168.1110
  1154.5000     96.1945      0.0000    790.2393     17.6052    161.9800
  1154.7500     96.3165      0.0000    751.8139     18.1946    158.7005
  1155.0000     96.4260      0.0000    686.0116     18.9992    157.3967
  1155.2500     96.3460      0.0000    597.1200     20.0211    156.3748
  1155.5000     96.2940      0.0000    501.9137     21.1583    154.1248
  1155.7500     96.2870      0.0000    421.4957     22.2353    149.3721
  1156.0000     96.2281      0.0000    369.3561     23.0711    141.1949
  1156.2500     96.2590      0.0000    348.3477     23.5373    129.8009
  1156.5000     96.2660      0.0000    359.2910     23.5724    116.8278
  1156.7500     96.3334      0.0000    409.7292     23.1551    104.4129
  1157.0000     96.4049      0.0000    509.9661     22.2826     94.1241
  1157.2500     96.3614      0.0000    656.9351     20.9935     86.7227
  1157.5000     96.2534      0.0000    823.5956     19.4059     82.3225
  1157.7500     96.4204      0.0000    970.6026     17.7047     80.4107
  1158.0000     96.3418      0.0000   1071.2736     16.0665     79.9370
  1158.2500     96.3025      0.0000   1123.7164     14.5890     79.7123
  1158.5000     96.3965      0.0000   1140.9135     13.2879     78.9554
  1158.7500     96.2815      0.0000   1134.4468     12.1434     77.6440
  1159.0000     96.2576      0.0000   1107.8146     11.1429     76.5403
  1159.2500     96.3446      0.0000   1060.5651     10.2979     76.8486
  1159.5000     96.3628      0.0000    995.6580      9.6465     79.5306
  1159.7500     96.3965      0.0000    922.8707      9.2369     84.5659
  1160.0000     96.3081      0.0000    855.8589      9.0918     90.7587
  1160.2500     96.2548      0.0000    805.9833      9.1804     96.3342
  1160.5000     96.3670      0.0000    778.9296      9.4264     99.8840
  1160.7500     96.2492      0.0000    776.5762      9.7417    100.9718
  1161.0000     96.2197      0.0000    799.8948     10.0592    100.1108
  1161.2500     96.4385      0.0000    847.3328     10.3503     98.2741
  1161.5000     96.1538      0.0000    910.4012     10.6184     96.2723
  1161.7500     96.2576      0.0000    973.9313     10.8744     94.3468
  1162.0000     96.2801      0.0000   1023.0814     11.1133     92.2686
  1162.2500     96.3460      0.0000   1050.1157     11.3163     89.8460
  1162.5000     96.3573      0.0000   1054.3552     11.4802     87.3021
  1162.7500     96.4638      0.0000   1037.6293     11.6375     85.0788
  1163.0000     96.3348      0.0000   1002.0481     11.8422     83.3974
  1163.2500     96.3095      0.0000    952.1988     12.1294     82.1786
  1163.5000     96.2912      0.0000    897.0981     12.4899     81.2198
  1163.7500     96.2197      0.0000    847.3630     12.8698     80.1243
  1164.0000     96.4413      0.0000    809.8306     13.1830     78.3362
  1164.2500     96.2394      0.0000    785.5470     13.3373     75.7842
  1164.5000     96.4371      0.0000    772.2988     13.2784     73.3777
  1164.7500     96.1847      0.0000    767.6686     13.0307     72.3383
  1165.0000     96.3838      0.0000    769.6023     12.6972     72.9157
  1165.2500     96.2142      0.0000    775.3717     12.4098     74.0404
  1165.5000     96.3404      0.0000    781.5852     12.2625     74.4725
  1165.7500     96.3684      0.0000    786.5511     12.2707     74.1407
  1166.0000     96.2253      0.0000    791.8962     12.3867     74.0438
  1166.2500     96.1959      0.0000    799.1962     12.5529     74.9729
  1166.5000     96.1187      0.0000    804.6906     12.7339     76.7117
  1166.7500     96.2856      0.0000    801.3680     12.8971     78.3913
  1167.0000     96.2295      0.0000    788.9576     12.9863     79.3231
  1167.2500     96.3418      0.0000    779.6021     12.9482     79.5884
