~Version Information
VERS.                      2.0: CWLS Log ASCII Standard - VERSION 2.0
WRAP.                       NO: One line per depth step
~Well Information Block
STRT.FT              1585.0000: 
STOP.FT              2353.0000: 
STEP.FT                 0.2500: 
NULL.                -999.2500: 
COMP.          XTO Energy Inc.: COMPANY
WELL.          Hill Ranch 15-11: WELL
FLD.           Purgatrorie River: FIELD
LOC.           1862' FSL & 1801' FWL: LOCATION
STAT.                       CO: State
CNTY.               Las Animas: COUNTY
CTRY. USA : Country
SECT. 15 : Section
TOWN. 35S : Township
RANG. 67W : Range
SRVC.          Patterson Wireline: SERVICE COMPANY
DATE.          Thu Dec 08 10:20:02 2005: LOG DATE
API.              05 071 08472: UNIQUE WELL ID
~Curve Information Block
DEPT.FT            0 000 00 00: Depth
CCL.                          : Casing Collar Locator
TT3.usec                      : CBL 3' Travel Time
AMP3.mV                       : CBL 3' Amplitude
BONDIX.                       : CBL Bond Index
GR.GAPI                       : Gamma Ray
~Parameter Information Block
~A  Depth       CCL         TT3         AMP3       BONDIX        GR     
# ...
  2061.0000      2.0000    730.3636      4.2231      0.6835     76.8103
  2061.2500      0.0000    736.8246      4.2352      0.6829     76.8817
  2061.5000      0.0000    743.5796      4.2496      0.6821     77.3056
  2061.7500      0.0000    745.9232      4.2613      0.6815     79.5582
  2062.0000      0.0000    741.1591      4.2876      0.6802     83.4320
  2062.2500      0.0000    730.7776      4.3537      0.6768     86.3398
  2062.5000      0.0000    719.4460      4.4819      0.6705     85.4809
  2062.7500      0.0000    711.8784      4.6843      0.6608     80.3657
  2063.0000      0.0000    710.1123      4.9482      0.6487     72.9007
  2063.2500      0.0000    712.9811      5.2282      0.6366     65.6608
  2063.5000      0.0000    717.6019      5.4635      0.6269     60.6092
  2063.7500      0.0000    721.4648      5.6057      0.6213     58.7899
  2064.0000      0.0000    723.7189      5.6353      0.6201     60.0780
  2064.2500      0.0000    724.9331      5.5652      0.6229     62.9092
  2064.5000      0.0000    725.8578      5.4353      0.6281     64.9548
  2064.7500      0.0000    726.6194      5.2996      0.6336     64.6935
  2065.0000      0.0000    726.9615      5.2066      0.6375     62.2721
  2065.2500      0.0000    726.7788      5.1837      0.6385     58.8745
  2065.5000      0.0000    726.2386      5.2361      0.6363     55.8141
  2065.7500      0.0000    725.5983      5.3550      0.6314     54.2745
  2066.0000      0.0000    725.0452      5.5259      0.6245     55.0460
  2066.2500      0.0000    724.7092      5.7307      0.6165     58.0521
  2066.5000      0.0000    724.7668      5.9493      0.6082     62.6379
  2066.7500      0.0000    725.5369      6.1624      0.6005     68.6459
  2067.0000      0.0000    727.3471      6.3495      0.5939     76.7934
  2067.2500      0.0000    730.0957      6.4881      0.5892     87.7915
  2067.5000      0.0000    732.8651      6.5582      0.5868    101.5411
  2067.7500      0.0000    734.2906      6.5526      0.5870    117.3755
  2068.0000      0.0000    733.6725      6.4819      0.5894    134.4640
  2068.2500      0.0000    731.6326      6.3727      0.5931    151.2051
  2068.5000      0.0000    729.4761      6.2579      0.5971    164.2289
  2068.7500      0.0000    728.0756      6.1655      0.6004    169.0552
  2069.0000      0.0000    727.4924      6.1121      0.6023    163.1546
  2069.2500      0.0000    727.3639      6.1000      0.6027    148.8322
  2069.5000      0.0000    727.3542      6.1166      0.6021    132.2875
  2069.7500      0.0000    727.3144      6.1384      0.6014    119.0743
  2070.0000      0.0000    727.2375      6.1437      0.6012    110.4592
  2070.2500      0.0000    727.1516      6.1253      0.6018    103.9337
  2070.5000      0.0000    727.0404      6.0901      0.6031     96.4594
  2070.7500      0.0000    726.8531      6.0499      0.6046     87.1347
  2071.0000      0.0000    726.5691      6.0123      0.6059     77.5637
  2071.2500      0.0000    726.2349      5.9786      0.6072     70.3366
  2071.5000      0.0000    725.9305      5.9473      0.6083     67.1361
  2071.7500      0.0000    725.7092      5.9191      0.6094     67.8297
  2072.0000      0.0000    725.5760      5.8964      0.6102     70.8365
  2072.2500      0.0000    725.5071      5.8778      0.6109     74.2475
  2072.5000      0.0000    725.4778      5.8567      0.6117     76.7586
  2072.7500      0.0000    725.4728      5.8255      0.6129     77.6801
  2073.0000      0.0000    725.4826      5.7830      0.6145     76.4789
  2073.2500      0.0000    725.4976      5.7340      0.6163     72.8845
  2073.5000      0.0000    725.5096      5.6829      0.6183     67.4368
  2073.7500      0.0000    725.5187      5.6287      0.6204     61.4774
  2074.0000      0.0000    725.5321      5.5660      0.6229     56.4605
  2074.2500      0.0000    725.5530      5.4899      0.6259     53.3317
  2074.5000      0.0000    725.5734      5.4013      0.6295     52.3124
  2074.7500      0.0000    725.5784      5.3061      0.6334     52.9642
  2075.0000      0.0000    725.5500      5.2113      0.6373     54.5940
  2075.2500      0.0000    725.4651      5.1220      0.6411     56.7541
  2075.5000      0.0000    725.2982      5.0415      0.6446     59.2288
  2075.7500      0.0000    725.0410      4.9711      0.6477     61.5857
  2076.0000      0.0000    724.7206      4.9087      0.6505     63.0300
  2076.2500      0.0000    724.3890      4.8488      0.6532     62.8081
  2076.5000      0.0000    724.0866      4.7853      0.6561     60.6690
  2076.7500      0.0000    723.8223      4.7167      0.6592     57.0293
  2077.0000      0.0000    723.5877      4.6470      0.6625     52.8311
  2077.2500      0.0000    723.3813      4.5841      0.6655     49.2044
  2077.5000      0.0000    723.2108      4.5345      0.6679     47.1817
  2077.7500      0.0000    723.0776      4.4999      0.6696     47.8583
  2078.0000      0.0000    722.9684      4.4758      0.6708     52.8027
  2078.2500      0.0000    722.8635      4.4546      0.6718     63.7380
  2078.5000      0.0000    722.7483      4.4294      0.6730     80.9288
  2078.7500      0.0000    722.6176      4.3976      0.6746    101.4050
  2079.0000      0.0000    722.4733      4.3621      0.6764    119.2200
  2079.2500      0.0000    722.3174      4.3306      0.6780    128.2314
  2079.5000      0.0000    722.1561      4.3130      0.6789    125.3155
  2079.7500      0.0000    722.0159      4.3198      0.6785    111.7120
  2080.0000      0.0000    721.9473      4.3589      0.6766     92.0535
  2080.2500      0.0000    721.9929      4.4295      0.6730     72.0622
  2080.5000      0.0000    722.1440      4.5177      0.6687     56.2113
  2080.7500      0.0000    722.3445      4.5996      0.6648     46.3628
  2081.0000      0.0000    722.5491      4.6557      0.6621     41.8005
  2081.2500      0.0000    722.7776      4.6825      0.6608     40.3506
  2081.5000      0.0000    723.0958      4.6931      0.6603     39.7679
  2081.7500      0.0000    723.5296      4.7055      0.6598     38.6547
  2082.0000      0.0000    724.0017      4.7300      0.6586     36.7320
  2082.2500      0.0000    724.3671      4.7637      0.6571     34.6032
  2082.5000      0.0000    724.5235      4.7964      0.6556     33.1235
  2082.7500      0.0000    724.5021      4.8205      0.6545     32.7437
  2083.0000      0.0000    724.4572      4.8375      0.6537     33.4209
  2083.2500      0.0000    724.5447      4.8574      0.6528     35.0289
  2083.5000      0.0000    724.7877      4.8946      0.6511     37.5429
  2083.7500      0.0000    725.0624      4.9636      0.6480     40.6835
  2084.0000      0.0000    725.2543      5.0753      0.6431     43.5770
  2084.2500      0.0000    725.4821      5.2337      0.6364     45.0411
  2084.5000      0.0000    726.2365      5.4355      0.6281     44.4017
  2084.7500      0.0000    728.2549      5.6740      0.6186     42.1177
  2085.0000      0.0000    731.9338      5.9402      0.6086     39.4303
  2085.2500      0.0000    736.5236      6.2202      0.5985     37.2641
  2085.5000      0.0000    740.1086      6.4909      0.5891     35.6102
  2085.7500      0.0000    741.0503      6.7226      0.5814     34.0310
  2086.0000      0.0000    739.6212      6.8858      0.5761     32.5103
  2086.2500      0.0000    737.7150      6.9595      0.5738     31.7074
  2086.5000      0.0000    736.8628      6.9357      0.5745     32.5557
  2086.7500      0.0000    737.0447      6.8196      0.5782     35.5690
  2087.0000      0.0000    737.3643      6.6298      0.5844     40.3656
  2087.2500      0.0000    737.0590      6.3967      0.5923     45.8668
  2087.5000      0.0000    735.7473      6.1580      0.6007     50.9211
  2087.7500      0.0000    733.5445      5.9490      0.6082     54.6890
  2088.0000      0.0000    731.3094      5.7923      0.6141     56.6801
  2088.2500      0.0000    730.2379      5.6914      0.6180     56.8153
  2088.5000      0.0000    730.8414      5.6358      0.6201     55.4645
  2088.7500      0.0000    732.4537      5.6136      0.6210     53.1604
