~Version Information
VERS.                      2.0: CWLS Log ASCII Standard - VERSION 2.0
WRAP.                       NO: One line per depth step
~Well Information Block
STRT.FT               550.0000: 
STOP.FT              1664.0000: 
STEP.FT                 0.2500: 
NULL.                -999.2500: 
COMP.          Pioneer Natural Resources: COMPANY
WELL.          Stock Canyon 34-33: WELL
FLD.           Purgatorie River: FIELD
LOC.           980' FSL & 2191' FEL: LOCATION
PROV.                 Colorado: PROVINCE
CNTY.               Las Animas: COUNTRY
SRVC.                Patterson: SERVICE COMPANY
DATE.          Mon Dec 05 09:58:03 2005: LOG DATE
UWI.                          : UNIQUE WELL ID
~Curve Information Block
DEPT.FT            0 000 00 00: Depth
SN.Ohm-m                      : IEL Short Normal
SP.mV                         : IEL Spontaneous Potential
DIR.Ohm-m                     : IEL Induction Resistivity
GR.GAPI                       : Gamma Ray
~Parameter Information Block
~A  Depth        SN          SP         DIR          GR     
# ...
   751.0000   2000.0000   2000.0000     30.1508     76.0819
   751.2500   2000.0000   2000.0000     29.7335     80.0718
   751.5000   2000.0000   2000.0000     29.4876     84.5146
   751.7500   2000.0000   2000.0000     29.3943     85.8844
   752.0000   2000.0000   2000.0000     29.4881     85.6042
   752.2500   2000.0000   2000.0000     29.8176     84.1855
   752.5000   2000.0000   2000.0000     30.3603     80.9125
   752.7500   2000.0000   2000.0000     30.9635     78.5128
   753.0000   2000.0000   2000.0000     31.3720     75.5672
   753.2500   2000.0000   2000.0000     31.3539     74.2284
   753.5000   2000.0000   2000.0000     30.8509     72.4878
   753.7500   2000.0000   2000.0000     30.0188     71.0349
   754.0000   2000.0000   2000.0000     29.1207     68.5871
   754.2500   2000.0000   2000.0000     28.3717     67.2667
   754.5000   2000.0000   2000.0000     27.8480     65.9846
   754.7500   2000.0000   2000.0000     27.4873     65.1881
   755.0000   2000.0000   2000.0000     27.1535     63.3452
   755.2500   2000.0000   2000.0000     26.7190     61.6581
   755.5000   2000.0000   2000.0000     26.1093     59.1230
   755.7500   2000.0000   2000.0000     25.2935     58.0609
   756.0000   2000.0000   2000.0000     24.2668     58.3264
   756.2500   2000.0000   2000.0000     23.0614     59.8334
   756.5000   2000.0000   2000.0000     21.7643     63.3704
   756.7500   2000.0000   2000.0000     20.4976     65.9694
   757.0000   2000.0000   2000.0000     19.3700     69.5867
   757.2500   2000.0000   2000.0000     18.4408     71.9730
   757.5000   2000.0000   2000.0000     17.7182     76.9277
   757.7500   2000.0000   2000.0000     17.1790     82.3401
   758.0000   2000.0000   2000.0000     16.7854     94.7305
   758.2500   2000.0000   2000.0000     16.4910    105.1163
   758.5000   2000.0000   2000.0000     16.2456    120.6267
   758.7500   2000.0000   2000.0000     16.0049    129.0639
   759.0000   2000.0000   2000.0000     15.7445    137.5499
   759.2500   2000.0000   2000.0000     15.4640    140.5692
   759.5000   2000.0000   2000.0000     15.1793    141.7533
   759.7500   2000.0000   2000.0000     14.9079    140.7954
   760.0000   2000.0000   2000.0000     14.6585    138.1084
   760.2500   2000.0000   2000.0000     14.4300    136.2437
   760.5000   2000.0000   2000.0000     14.2179    133.5008
   760.7500   2000.0000   2000.0000     14.0225    131.3350
   761.0000   2000.0000   2000.0000     13.8504    127.6736
   761.2500   2000.0000   2000.0000     13.7071    125.7239
   761.5000   2000.0000   2000.0000     13.5862    124.8625
   761.7500   2000.0000   2000.0000     13.4678    125.8282
   762.0000   2000.0000   2000.0000     13.3294    129.1523
   762.2500   2000.0000   2000.0000     13.1611    132.3696
   762.5000   2000.0000   2000.0000     12.9705    138.0288
   762.7500   2000.0000   2000.0000     12.7729    141.3935
   763.0000   2000.0000   2000.0000     12.5776    143.6587
   763.2500   2000.0000   2000.0000     12.3842    142.8082
   763.5000   2000.0000   2000.0000     12.1902    139.7295
   763.7500   2000.0000   2000.0000     12.0020    138.3311
   764.0000   2000.0000   2000.0000     11.8378    138.8273
   764.2500   2000.0000   2000.0000     11.7181    139.9306
   764.5000   2000.0000   2000.0000     11.6529    139.4577
   764.7500   2000.0000   2000.0000     11.6345    136.8326
   765.0000   2000.0000   2000.0000     11.6429    131.5041
   765.2500   2000.0000   2000.0000     11.6610    129.2264
   765.5000   2000.0000   2000.0000     11.6858    129.6777
   765.7500   2000.0000   2000.0000     11.7277    131.9173
   766.0000   2000.0000   2000.0000     11.7975    135.5985
   766.2500   2000.0000   2000.0000     11.8967    137.1171
   766.5000   2000.0000   2000.0000     12.0173    137.6668
   766.7500   2000.0000   2000.0000     12.1508    137.3963
   767.0000   2000.0000   2000.0000     12.2960    136.9179
   767.2500   2000.0000   2000.0000     12.4594    136.6305
   767.5000   2000.0000   2000.0000     12.6508    135.9760
   767.7500   2000.0000   2000.0000     12.8765    135.4879
   768.0000   2000.0000   2000.0000     13.1367    135.4751
   768.2500   2000.0000   2000.0000     13.4261    136.3440
   768.5000   2000.0000   2000.0000     13.7390    138.7053
   768.7500   2000.0000   2000.0000     14.0761    140.3917
   769.0000   2000.0000   2000.0000     14.4484    142.1240
   769.2500   2000.0000   2000.0000     14.8773    142.3957
   769.5000   2000.0000   2000.0000     15.3877    141.1489
   769.7500   2000.0000   2000.0000     15.9969    139.4210
   770.0000   2000.0000   2000.0000     16.7035    136.8887
   770.2500   2000.0000   2000.0000     17.4850    136.0989
   770.5000   2000.0000   2000.0000     18.3070    136.0815
   770.7500   2000.0000   2000.0000     19.1394    135.7127
   771.0000   2000.0000   2000.0000     19.9751    132.6545
   771.2500   2000.0000   2000.0000     20.8352    128.6711
   771.5000   2000.0000   2000.0000     21.7500    120.6107
   771.7500   2000.0000   2000.0000     22.7174    114.3139
   772.0000   2000.0000   2000.0000     23.6684    103.6030
   772.2500   2000.0000   2000.0000     24.4877     95.7667
   772.5000   2000.0000   2000.0000     25.0995     84.2381
   772.7500   2000.0000   2000.0000     25.5532     77.7409
   773.0000   2000.0000   2000.0000     26.0143     70.8285
   773.2500   2000.0000   2000.0000     26.6572     68.0485
   773.5000   2000.0000   2000.0000     27.5338     65.9629
   773.7500   2000.0000   2000.0000     28.4734     65.7278
   774.0000   2000.0000   2000.0000     29.0931     67.1477
   774.2500   2000.0000   2000.0000     29.0254     69.1716
   774.5000   2000.0000   2000.0000     28.2748     72.7853
   774.7500   2000.0000   2000.0000     27.2934     74.7469
   775.0000   2000.0000   2000.0000     26.6537     76.4937
   775.2500   2000.0000   2000.0000     26.7213     77.2936
   775.5000   2000.0000   2000.0000     27.5617     78.8380
   775.7500   2000.0000   2000.0000     28.9871     80.1010
   776.0000   2000.0000   2000.0000     30.6746     81.7452
   776.2500   2000.0000   2000.0000     32.3378     82.5072
   776.5000   2000.0000   2000.0000     33.8403     83.3940
   776.7500   2000.0000   2000.0000     35.1490     83.8688
   777.0000   2000.0000   2000.0000     36.2237     83.8355
   777.2500   2000.0000   2000.0000     36.9974     82.7788
   777.5000   2000.0000   2000.0000     37.4393     79.2101
   777.7500   2000.0000   2000.0000     37.5884     75.8527
   778.0000   2000.0000   2000.0000     37.5098     70.8847
   778.2500   2000.0000   2000.0000     37.2267     68.6439
   778.5000   2000.0000   2000.0000     36.7063     67.7827
   778.7500   2000.0000   2000.0000     35.9137     68.5112
   779.0000   2000.0000   2000.0000     34.8918     69.7566
   779.2500   2000.0000   2000.0000     33.7761     69.7218
   779.5000   2000.0000   2000.0000     32.7272     68.2320
   779.7500   2000.0000   2000.0000     31.8357     67.0546
   780.0000   2000.0000   2000.0000     31.0777     66.5644
   780.2500   2000.0000   2000.0000     30.3521     67.5185
   780.5000   2000.0000   2000.0000     29.5762     70.4201
   780.7500   2000.0000   2000.0000     28.7656     72.5648
   781.0000   2000.0000   2000.0000     28.0198     74.9745
   781.2500   2000.0000   2000.0000     27.4301     76.2353
   781.5000   2000.0000   2000.0000     27.0047     79.5855
   781.7500   2000.0000   2000.0000     26.6846     84.0761
   782.0000   2000.0000   2000.0000     26.4258     94.7138
   782.2500   2000.0000   2000.0000     26.2556    103.4124
   782.5000   2000.0000   2000.0000     26.2409    116.0093
   782.7500   2000.0000   2000.0000     26.4140    122.6529
   783.0000   2000.0000   2000.0000     26.7378    128.7703
   783.2500   2000.0000   2000.0000     27.1304    130.0991
   783.5000   2000.0000   2000.0000     27.5029    127.6586
   783.7500   2000.0000   2000.0000     27.7697    122.9320
   784.0000   2000.0000   2000.0000     27.8453    112.0698
   784.2500   2000.0000   2000.0000     27.6637    103.8323
