~Version Information
VERS.                      2.0: CWLS Log ASCII Standard - VERSION 2.0
WRAP.                       NO: One line per depth step
~Well Information Block
STRT.FT                -6.7500: 
STOP.FT              2034.2500: 
STEP.FT                 0.2500: 
NULL.                -999.2500: 
COMP.          Evergreen Operating Corp.: COMPANY
WELL.           Big Pine 32-15: WELL
FLD.           Purgatorie River: FIELD
LOC.           2590 FNL & 1442 FEL--: LOCATION
STAT.                       CO: State
CNTY.               Las Animas: COUNTY
CTRY. USA : Country
SECT. 15 : Section
TOWN. 33S : township
RANG. 67W : Range
SRVC.          Patterson Wireline, Inc.: SERVICE COMPANY
DATE.          Mon Mar 24 12:45:01 2003: LOG DATE
API.           05 071 07772 00: UNIQUE WELL ID
~Curve Information Block
DEPT.FT            0 000 00 00: Depth
HVOLTA.V                      : Head Voltage Apparent
CCL.                          : Casing Collar Locator
TT3.usec                      : CBL 3' Travel Time
AMP3.mV                       : CBL 3' Amplitude
GR.GAPI                       : Gamma Ray
~Parameter Information Block
~A  Depth      HVOLTA       CCL         TT3         AMP3         GR     
# ...
  1337.2500    121.5658      0.0000    702.1871      6.4393    125.3626
  1337.5000    121.4285      0.0000    703.9352      6.0817    120.4998
  1337.7500    121.6763      0.0000    721.2862      5.6624    118.0060
  1338.0000    121.3763      0.0000    751.6832      5.2353    117.6182
  1338.2500    121.4470      0.0000    778.4951      4.8018    119.1234
  1338.5000    121.2884     -5.0000    787.8005      4.3205    122.3874
  1338.7500    121.5699      0.0000    781.2527      3.8270    127.4956
  1339.0000    121.5342      3.2281    769.4923      3.4051    134.8030
  1339.2500    121.1799      0.0000    763.8983      3.0755    144.4335
  1339.5000    121.0172      0.0000    768.2412      2.8725    155.3498
  1339.7500    121.3749      0.0000    772.6116      2.8953    164.9695
  1340.0000    121.4024      0.0000    763.3663      3.1223    169.8953
  1340.2500    121.5630      0.0000    739.5860      3.3681    167.3061
  1340.5000    121.4580      0.0000    713.9908      3.5771    156.4081
  1340.7500    121.5088      0.0000    698.3174      3.9198    139.4251
  1341.0000    121.4305      0.0000    692.6093      4.4598    121.0469
  1341.2500    121.5644      0.0000    690.8308      5.0129    106.0486
  1341.5000    121.3728      0.0000    690.5735      5.4069     96.8932
  1341.7500    121.6180      0.0000    689.3981      5.6083     93.2085
  1342.0000    121.3735      0.0000    680.1223      5.5954     92.9283
  1342.2500    121.4312      0.0000    661.2391      5.2890     93.8187
  1342.5000    121.4841      0.0000    644.1522      4.6637     94.3997
  1342.7500    121.4545      0.0000    643.1298      3.8903     93.9991
  1343.0000    121.3522      0.0000    659.9958      3.2566     92.5457
  1343.2500    121.2643      0.0000    681.1730      2.9322     90.7402
  1343.5000    121.4326      0.0000    693.3757      2.9051     89.9544
  1343.7500    121.5651      0.0000    694.8606      3.0846     91.2633
  1344.0000    121.4298      0.0000    690.9908      3.3738     94.4215
  1344.2500    121.5108      0.0000    688.4217      3.6471     97.8690
  1344.5000    121.5088      0.0000    690.5859      3.7251     99.7365
  1344.7500    121.4532      0.0000    695.1626      3.5356     99.0626
  1345.0000    121.5438      0.0000    698.5071      3.2578     96.4351
  1345.2500    121.3927      0.0000    699.9158      3.0997     93.6707
  1345.5000    121.4037      0.0000    700.3652      3.0637     92.5067
  1345.7500    121.4573      0.0000    700.5273      3.0624     93.1401
  1346.0000    121.3213      0.0000    700.5252      3.0727     94.0367
  1346.2500    121.5383      0.0000    699.9570      3.1080     93.3453
  1346.5000    121.3234      0.0000    697.0021      3.1595     90.4493
  1346.7500    121.5115      0.0000    686.3849      3.2073     86.4052
  1347.0000    121.2383      0.0000    659.8185      3.2542     83.2486
  1347.2500    121.4339      0.0000    614.7500      3.3511     82.6112
  1347.5000    121.4360      0.0000    563.6792      3.5967     84.4657
  1347.7500    121.5672      0.0000    525.4370      4.0491     87.3590
  1348.0000    121.4257      0.0000    506.8002      4.5954     89.9738
  1348.2500    121.4834      0.0000    501.2952      4.9759     92.0037
  1348.5000    121.1840      0.0000    501.0706      4.9791     93.5000
  1348.7500    121.4841      0.0000    502.8852      4.5936     94.1076
  1349.0000    121.4360      0.0000    507.8813      4.0067     93.3441
  1349.2500    121.5349      0.0000    519.3386      3.4819     91.3054
  1349.5000    121.4868      0.0000    535.3169      3.1739     88.6791
  1349.7500    121.5102      0.0000    544.6705      3.0392     85.9392
  1350.0000    121.3255      0.0000    543.0964      2.9533     82.7584
  1350.2500    121.4305      0.0000    547.3259      2.8683     78.6499
  1350.5000    121.4614      0.0000    574.7964      2.8229     74.2255
  1350.7500    121.5136      0.0000    618.4557      2.8462     71.3431
  1351.0000    121.3756      0.0000    657.4814      2.8896     71.7861
  1351.2500    121.4841      0.0000    681.8862      2.8850     76.0484
  1351.5000    121.4030      0.0000    694.6055      2.8428     83.3665
  1351.7500    121.5088      0.0000    701.6257      2.8360     92.5249
  1352.0000    121.4285      0.0000    708.1974      2.9035    102.3306
  1352.2500    121.4285      0.0000    716.7997      3.0116    111.5045
  1352.5000    121.4106      0.0000    724.4898      3.1090    118.8612
  1352.7500    121.5939      0.0000    725.6102      3.1804    124.2588
  1353.0000    121.3515      0.0000    718.2010      3.2565    129.1201
  1353.2500    121.4799      0.0000    706.3185      3.3960    135.2441
  1353.5000    121.2671      0.0000    698.1169      3.6387    143.0114
  1353.7500    121.2877      0.0000    698.1429      3.9553    151.2350
  1354.0000    121.4772      0.0000    700.6867      4.2688    158.6798
  1354.2500    121.3440      0.0000    699.8618      4.5346    165.2488
  1354.5000    121.3481      0.0000    699.1039      4.7690    171.6107
  1354.7500    121.5637      0.0000    703.1783      4.9834    177.7658
  1355.0000    121.3776      0.0000    711.5928      5.1468    182.1516
  1355.2500    121.5939      0.0000    719.8253      5.2473    182.7108
  1355.5000    121.3488      0.0000    722.0901      5.3329    179.2066
  1355.7500    121.6722      0.0000    718.3457      5.4534    174.0492
  1356.0000    121.4044      0.0000    716.0692      5.6040    170.3689
  1356.2500    121.4875      0.0000    721.0694      5.7379    169.4339
  1356.5000    121.4360      0.0000    730.9980      5.7905    170.0296
  1356.7500    121.5672      0.0000    739.1465      5.6826    169.9487
  1357.0000    121.3831      0.0000    741.1390      5.3287    168.0907
  1357.2500    121.4559      0.0000    736.9934      4.7206    165.6041
  1357.5000    121.3255      0.0000    730.1447      4.0394    165.0081
  1357.7500    121.5397      0.0000    724.9551      3.5340    167.8341
  1358.0000    121.3536      0.0000    722.8852      3.2691    173.1167
  1358.2500    121.4834      0.0000    722.7675      3.1791    178.4490
  1358.5000    121.4037      0.0000    722.9566      3.2497    182.2822
  1358.7500    121.6461      0.0000    720.6266      3.4626    184.8390
  1359.0000    121.3076      0.0000    714.5060      3.7267    187.0243
  1359.2500    121.6756      0.0000    707.7928      3.9494    189.0329
  1359.5000    121.4339      0.0000    703.8774      4.0776    190.0856
  1359.7500    121.5088      0.0000    702.7347      4.1234    189.1950
  1360.0000    121.3502      0.0000    702.7748      4.2225    186.0840
  1360.2500    121.6029      0.0000    702.9987      4.5471    181.5381
  1360.5000    121.2678      0.0000    703.3242      5.1082    177.0236
  1360.7500    121.5397      0.0000    704.2224      5.7200    173.9319
  1361.0000    121.3509      0.0000    706.1119      6.1351    172.9802
  1361.2500    121.4607      0.0000    708.4570      6.1618    174.0574
  1361.5000    121.1153      0.0000    709.4817      5.7325    176.4071
  1361.7500    121.5335      0.0000    708.0956      4.9542    178.8233
  1362.0000    121.3481      0.0000    705.5591      4.0882    180.0131
  1362.2500    121.5177      0.0000    703.6893      3.4309    179.5766
  1362.5000    121.4079      0.0000    702.8948      3.1414    178.6794
  1362.7500    121.5452      0.0000    702.6719      3.1342    179.0573
  1363.0000    121.4381      0.0000    702.5715      3.1905    181.4123
  1363.2500    121.5136      0.0000    702.4878      3.1705    185.2446
  1363.5000    121.4346      0.0000    702.5435      3.0776    189.6532
  1363.7500    121.4841      0.0000    702.8976      2.9765    193.5518
  1364.0000    121.4024      0.0000    703.9876      2.9100    195.5414
  1364.2500    121.4429      0.0000    707.0676      2.8906    194.5735
  1364.5000    121.3522      0.0000    713.7509      2.9381    191.0323
  1364.7500    121.4024      0.0000    723.8881      3.0884    186.7270
  1365.0000    121.3804      0.0000    734.3460      3.3321    183.6727
