~Version Information
VERS.                      2.0: CWLS Log ASCII Standard - VERSION 2.0
WRAP.                       NO: One line per depth step
~Well Information Block
STRT.FT               615.0000: 
STOP.FT              1609.0000: 
STEP.FT                 0.2500: 
NULL.                -999.2500: 
COMP.          Pioneer Natural Resources: COMPANY
WELL.          Galloway 32-13 Tr: WELL
FLD.           Purgatoire River: FIELD
LOC.           1910' FNL & 2002' FEL: LOCATION
PROV.                 Colorado: PROVINCE
CNTY.               Las Animas: COUNTRY
SRVC.                Patterson: SERVICE COMPANY
DATE.          Sat Nov 12 20:19:28 2005: LOG DATE
UWI.           05 071 08608 00: UNIQUE WELL ID
~Curve Information Block
DEPT.FT            0 000 00 00: Depth
SN.Ohm-m                      : IEL Short Normal
SP.mV                         : IEL Spontaneous Potential
DIR.Ohm-m                     : IEL Induction Resistivity
GR.GAPI                       : Gamma Ray
~Parameter Information Block
~A  Depth        SN          SP         DIR          GR     
# ...
   749.0000   2000.0000   2000.0000     19.7996     96.1777
   749.2500   2000.0000   2000.0000     19.3384     95.6175
   749.5000   2000.0000   2000.0000     19.0206    100.1088
   749.7500   2000.0000   2000.0000     18.8170    105.9918
   750.0000   2000.0000   2000.0000     18.6617    116.2662
   750.2500   2000.0000   2000.0000     18.4733    122.1065
   750.5000   2000.0000   2000.0000     18.1830    127.3814
   750.7500   2000.0000   2000.0000     17.7580    128.8719
   751.0000   2000.0000   2000.0000     17.2138    130.3218
   751.2500   2000.0000   2000.0000     16.6081    131.9245
   751.5000   2000.0000   2000.0000     16.0193    135.4827
   751.7500   2000.0000   2000.0000     15.5186    137.9390
   752.0000   2000.0000   2000.0000     15.1498    140.7742
   752.2500   2000.0000   2000.0000     14.9245    142.1510
   752.5000   2000.0000   2000.0000     14.8305    144.2528
   752.7500   2000.0000   2000.0000     14.8456    146.0605
   753.0000   2000.0000   2000.0000     14.9509    149.2036
   753.2500   2000.0000   2000.0000     15.1376    150.8806
   753.5000   2000.0000   2000.0000     15.4034    150.8459
   753.7500   2000.0000   2000.0000     15.7423    148.1308
   754.0000   2000.0000   2000.0000     16.1332    139.8537
   754.2500   2000.0000   2000.0000     16.5371    132.5478
   754.5000   2000.0000   2000.0000     16.9040    121.3351
   754.7500   2000.0000   2000.0000     17.1868    114.5710
   755.0000   2000.0000   2000.0000     17.3536    105.7308
   755.2500   2000.0000   2000.0000     17.3904    100.7074
   755.5000   2000.0000   2000.0000     17.2973     95.0616
   755.7500   2000.0000   2000.0000     17.0837     93.0038
   756.0000   2000.0000   2000.0000     16.7680     92.6551
   756.2500   2000.0000   2000.0000     16.3766     94.1175
   756.5000   2000.0000   2000.0000     15.9416     98.8871
   756.7500   2000.0000   2000.0000     15.4947    103.8226
   757.0000   2000.0000   2000.0000     15.0612    112.9930
   757.2500   2000.0000   2000.0000     14.6583    119.1888
   757.5000   2000.0000   2000.0000     14.2958    126.8745
   757.7500   2000.0000   2000.0000     13.9785    130.5436
   758.0000   2000.0000   2000.0000     13.7067    134.1073
   758.2500   2000.0000   2000.0000     13.4750    135.3865
   758.5000   2000.0000   2000.0000     13.2719    135.5495
   758.7500   2000.0000   2000.0000     13.0834    134.2867
   759.0000   2000.0000   2000.0000     12.9000    130.3311
   759.2500   2000.0000   2000.0000     12.7217    126.6938
   759.5000   2000.0000   2000.0000     12.5556    120.9294
   759.7500   2000.0000   2000.0000     12.4098    117.6896
   760.0000   2000.0000   2000.0000     12.2887    114.8099
   760.2500   2000.0000   2000.0000     12.1925    114.4749
   760.5000   2000.0000   2000.0000     12.1211    116.2005
   760.7500   2000.0000   2000.0000     12.0792    118.5046
   761.0000   2000.0000   2000.0000     12.0776    122.8978
   761.2500   2000.0000   2000.0000     12.1279    125.9450
   761.5000   2000.0000   2000.0000     12.2319    129.9832
   761.7500   2000.0000   2000.0000     12.3748    132.1073
   762.0000   2000.0000   2000.0000     12.5285    134.3671
   762.2500   2000.0000   2000.0000     12.6652    135.1983
   762.5000   2000.0000   2000.0000     12.7709    135.2020
   762.7500   2000.0000   2000.0000     12.8515    134.3922
   763.0000   2000.0000   2000.0000     12.9275    132.6545
   763.2500   2000.0000   2000.0000     13.0230    131.7692
   763.5000   2000.0000   2000.0000     13.1564    131.3980
   763.7500   2000.0000   2000.0000     13.3369    131.4875
   764.0000   2000.0000   2000.0000     13.5646    130.8429
   764.2500   2000.0000   2000.0000     13.8324    129.1483
   764.5000   2000.0000   2000.0000     14.1280    124.1682
   764.7500   2000.0000   2000.0000     14.4344    119.4900
   765.0000   2000.0000   2000.0000     14.7340    111.7718
   765.2500   2000.0000   2000.0000     15.0123    107.1796
   765.5000   2000.0000   2000.0000     15.2638    102.5850
   765.7500   2000.0000   2000.0000     15.4950    101.4739
   766.0000   2000.0000   2000.0000     15.7225    102.6999
   766.2500   2000.0000   2000.0000     15.9634    105.1034
   766.5000   2000.0000   2000.0000     16.2234    110.1485
   766.7500   2000.0000   2000.0000     16.4894    113.8371
   767.0000   2000.0000   2000.0000     16.7344    118.8736
   767.2500   2000.0000   2000.0000     16.9324    121.4594
   767.5000   2000.0000   2000.0000     17.0732    123.5940
   767.7500   2000.0000   2000.0000     17.1644    123.6108
   768.0000   2000.0000   2000.0000     17.2205    121.5047
   768.2500   2000.0000   2000.0000     17.2518    118.9948
   768.5000   2000.0000   2000.0000     17.2644    114.5313
   768.7500   2000.0000   2000.0000     17.2706    111.6840
   769.0000   2000.0000   2000.0000     17.2982    108.3172
   769.2500   2000.0000   2000.0000     17.3871    106.8012
   769.5000   2000.0000   2000.0000     17.5756    105.4870
   769.7500   2000.0000   2000.0000     17.8878    105.2729
   770.0000   2000.0000   2000.0000     18.3274    106.4632
   770.2500   2000.0000   2000.0000     18.8831    108.5003
   770.5000   2000.0000   2000.0000     19.5349    112.5821
   770.7500   2000.0000   2000.0000     20.2564    114.6827
   771.0000   2000.0000   2000.0000     21.0063    114.7461
   771.2500   2000.0000   2000.0000     21.7231    112.4995
   771.5000   2000.0000   2000.0000     22.3362    107.3292
   771.7500   2000.0000   2000.0000     22.7946    104.0307
   772.0000   2000.0000   2000.0000     23.0923    100.7758
   772.2500   2000.0000   2000.0000     23.2661     99.8793
   772.5000   2000.0000   2000.0000     23.3667     99.8301
   772.7500   2000.0000   2000.0000     23.4299    100.0410
   773.0000   2000.0000   2000.0000     23.4678     99.7044
   773.2500   2000.0000   2000.0000     23.4813     98.7929
   773.5000   2000.0000   2000.0000     23.4746     96.8343
   773.7500   2000.0000   2000.0000     23.4539     95.7436
   774.0000   2000.0000   2000.0000     23.4155     95.5682
   774.2500   2000.0000   2000.0000     23.3468     96.8917
   774.5000   2000.0000   2000.0000     23.2454    101.0639
   774.7500   2000.0000   2000.0000     23.1298    104.7327
   775.0000   2000.0000   2000.0000     23.0158    109.8787
   775.2500   2000.0000   2000.0000     22.8705    112.0775
   775.5000   2000.0000   2000.0000     22.5963    112.5657
   775.7500   2000.0000   2000.0000     22.0711    111.1367
   776.0000   2000.0000   2000.0000     21.2267    107.4842
   776.2500   2000.0000   2000.0000     20.1017    104.7371
   776.5000   2000.0000   2000.0000     18.8255    100.7793
   776.7500   2000.0000   2000.0000     17.5556     98.5082
   777.0000   2000.0000   2000.0000     16.4185     96.5489
   777.2500   2000.0000   2000.0000     15.4859     96.8810
   777.5000   2000.0000   2000.0000     14.7783    100.4312
   777.7500   2000.0000   2000.0000     14.2787    104.5959
   778.0000   2000.0000   2000.0000     13.9466    112.3912
   778.2500   2000.0000   2000.0000     13.7287    117.8280
   778.5000   2000.0000   2000.0000     13.5678    125.1825
   778.7500   2000.0000   2000.0000     13.4131    129.0692
   779.0000   2000.0000   2000.0000     13.2321    132.8811
   779.2500   2000.0000   2000.0000     13.0196    133.9386
   779.5000   2000.0000   2000.0000     12.7975    133.4591
   779.7500   2000.0000   2000.0000     12.6051    132.2980
   780.0000   2000.0000   2000.0000     12.4848    130.8655
   780.2500   2000.0000   2000.0000     12.4697    130.8123
   780.5000   2000.0000   2000.0000     12.5778    131.8029
   780.7500   2000.0000   2000.0000     12.8129    132.3022
   781.0000   2000.0000   2000.0000     13.1690    131.3870
   781.2500   2000.0000   2000.0000     13.6333    129.3887
   781.5000   2000.0000   2000.0000     14.1840    124.7723
   781.7500   2000.0000   2000.0000     14.7854    121.1549
   782.0000   2000.0000   2000.0000     15.3862    115.7756
   782.2500   2000.0000   2000.0000     15.9287    112.4807
