~Version Information
VERS.                      2.0: CWLS Log ASCII Standard - VERSION 2.0
WRAP.                       NO: One line per depth step
~Well Information Block
STRT.FT               670.0000: 
STOP.FT              2108.5000: 
STEP.FT                 0.1000: 
NULL.                -999.2500: 
COMP.          Petrogulf Corporation: COMPANY
WELL.           Montoya 12-44R: WELL
FLD.           Purgatorie River: FIELD
LOC.           713' FSL & 798' FEL: LOCATION
PROV.                 Colorado: PROVINCE
CNTY.               Las Animas: COUNTRY
SRVC.                Patterson: SERVICE COMPANY
DATE.          Mon Oct 03 07:50:59 2005: LOG DATE
UWI.           05-071-08538               : UNIQUE WELL ID
~Curve Information Block
DEPT.FT            0 000 00 00: Depth
DCAL.in                       : CDL Caliper
RHOB.g/cc                     : CDL Bulk Density
RHOC.g/cc                     : CDL Density Correction
DPOR.pu                       : CDL Density Porosity
GR.GAPI                       : Gamma Ray
NPOR.pu                       : Neutron Porosity
~Parameter Information Block
~A  Depth       DCAL        RHOB        RHOC        DPOR         GR         NPOR    
# ...
  2090.8000      7.6924      2.6184      0.1536      1.9167     39.7773   -999.2500
  2090.9000      7.6924      2.6571      0.2184     -0.4302     38.0765   -999.2500
  2091.0000      7.6625      2.6700      0.2191     -1.2119     36.7671   -999.2500
  2091.1000      7.6625      2.6547      0.1716     -0.2876     36.1631   -999.2500
  2091.2000      7.6625      2.6330      0.1416      1.0325     35.5068   -999.2500
  2091.3000      7.6983      2.6250      0.1392      1.5169     34.2266   -999.2500
  2091.4000      7.6983      2.6213      0.1616      1.7411     33.0234   -999.2500
  2091.5000      7.7325      2.6015      0.0857      2.9412     33.6362   -999.2500
  2091.6000      7.7325      2.5733      0.0312      4.6461     36.3916   -999.2500
  2091.7000      7.7325      2.5557      0.0298      5.7163     39.5758   -999.2500
  2091.8000      7.7708      2.5502      0.0173      6.0498     41.2986   -999.2500
  2091.9000      7.7708      2.5507      0.0371      6.0209     40.6632   -999.2500
  2092.0000      7.7873      2.5528      0.0471      5.8881     38.8073   -999.2500
  2092.1000      7.7873      2.5528      0.0312      5.8937     38.1391   -999.2500
  2092.2000      7.7873      2.5497      0.0235      6.0810     39.7904   -999.2500
  2092.3000      7.7799      2.5526      0.0467      5.9003     42.4132   -999.2500
  2092.4000      7.7799      2.5658      0.0556      5.1001     43.2908   -999.2500
  2092.5000      7.7867      2.5693      0.0869      4.8928     41.4580   -999.2500
  2092.6000      7.7867      2.5508     -0.0015      6.0110     38.7894   -999.2500
  2092.7000      7.7867      2.5381      0.0089      6.7818     37.4112   -999.2500
  2092.8000      7.7893      2.5477      0.0286      6.1972     38.7099   -999.2500
  2092.9000      7.7893      2.5558      0.0537      5.7082     42.0060   -999.2500
  2093.0000      7.8060      2.5477      0.0407      6.2015     43.8063   -999.2500
  2093.1000      7.8060      2.5439      0.0475      6.4333     40.9290   -999.2500
  2093.2000      7.8060      2.5589      0.0775      5.5186     35.0089   -999.2500
  2093.3000      7.7945      2.5741      0.1099      4.6006     30.9869   -999.2500
  2093.4000      7.7945      2.5691      0.0696      4.9060     30.8798   -999.2500
  2093.5000      7.7810      2.5501      0.0412      6.0537     32.9808   -999.2500
  2093.6000      7.7810      2.5330      0.0330      7.0936     36.0955   -999.2500
  2093.7000      7.7810      2.5252      0.0172      7.5608     39.9783   -999.2500
  2093.8000      7.7848      2.5255      0.0309      7.5448     42.5989   -999.2500
  2093.9000      7.7848      2.5286      0.0346      7.3600     42.1118   -999.2500
  2094.0000      7.7950      2.5338      0.0310      7.0451     40.4404   -999.2500
  2094.1000      7.7950      2.5406      0.0489      6.6282     39.1320   -999.2500
  2094.2000      7.7950      2.5473      0.0302      6.2270     37.6587   -999.2500
  2094.3000      7.7896      2.5469      0.0679      6.2507     37.1071   -999.2500
  2094.4000      7.7896      2.5321      0.0539      7.1459     37.8558   -999.2500
  2094.5000      7.7773      2.5143      0.0079      8.2241     37.6805   -999.2500
  2094.6000      7.7773      2.5085      0.0255      8.5729     36.6368   -999.2500
  2094.7000      7.7773      2.5117      0.0717      8.3842     36.4866   -999.2500
  2094.8000      7.7831      2.5219      0.0178      7.7660     37.0577   -999.2500
  2094.9000      7.7831      2.5468     -0.0180      6.2547     36.9420   -999.2500
  2095.0000      7.7929      2.5741      0.0867      4.6002     33.0425   -999.2500
  2095.1000      7.7929      2.5749      0.0872      4.5544     23.3045   -999.2500
  2095.2000      7.7929      2.5467      0.0446      6.2632     11.4296   -999.2500
  2095.3000      7.7861      2.5184      0.0293      7.9742      3.5147   -999.2500
  2095.4000      7.7861      2.5159      0.0446      8.1271      0.6299   -999.2500
  2095.5000      7.7411      2.5344      0.0748      7.0080      0.0628   -999.2500
  2095.6000      7.7411      2.5544      0.0741      5.7961      0.0033   -999.2500
  2095.7000      7.7411      2.5709      0.1092      4.7946      0.0000   -999.2500
  2095.8000      7.7359      2.5874      0.0690      3.7920   -999.2500   -999.2500
  2095.9000      7.7359      2.6006      0.1146      2.9944   -999.2500   -999.2500
  2096.0000      7.7592      2.6042      0.0741      2.7739   -999.2500   -999.2500
  2096.1000      7.7592      2.6000      0.1200      3.0328   -999.2500   -999.2500
  2096.2000      7.7592      2.5968      0.0757      3.2215   -999.2500   -999.2500
  2096.3000      7.7751      2.6043      0.1130      2.7717   -999.2500   -999.2500
  2096.4000      7.7751      2.6194      0.1168      1.8548   -999.2500   -999.2500
  2096.5000      7.7753      2.6270      0.1229      1.3913   -999.2500   -999.2500
  2096.6000      7.7753      2.6194      0.0767      1.8574   -999.2500   -999.2500
  2096.7000      7.7753      2.6061      0.0893      2.6577   -999.2500   -999.2500
  2096.8000      7.7860      2.5971      0.0715      3.2063   -999.2500   -999.2500
  2096.9000      7.7860      2.5909      0.0667      3.5796   -999.2500   -999.2500
  2097.0000      7.7924      2.5790      0.0808      4.3057   -999.2500   -999.2500
  2097.1000      7.7924      2.5571      0.0907      5.6333   -999.2500   -999.2500
  2097.2000      7.7924      2.5333      0.0363      7.0707   -999.2500   -999.2500
  2097.3000      7.7840      2.5204      0.0320      7.8546   -999.2500   -999.2500
  2097.4000      7.7840      2.5225      0.0169      7.7283   -999.2500   -999.2500
  2097.5000      7.7845      2.5333      0.0538      7.0739   -999.2500   -999.2500
  2097.6000      7.7845      2.5417      0.0485      6.5636   -999.2500   -999.2500
  2097.7000      7.7845      2.5454      0.0607      6.3374   -999.2500   -999.2500
  2097.8000      7.7873      2.5533      0.0447      5.8633   -999.2500   -999.2500
  2097.9000      7.7873      2.5666      0.0989      5.0569   -999.2500   -999.2500
  2098.0000      7.7692      2.5773      0.1026      4.4071   -999.2500   -999.2500
  2098.1000      7.7692      2.5807      0.1151      4.2019   -999.2500   -999.2500
  2098.2000      7.7692      2.5733      0.1312      4.6488   -999.2500   -999.2500
  2098.3000      7.7650      2.5655      0.0432      5.1239   -999.2500   -999.2500
  2098.4000      7.7650      2.5766      0.1105      4.4461   -999.2500   -999.2500
  2098.5000      7.7601      2.5977      0.1775      3.1708   -999.2500   -999.2500
  2098.6000      7.7601      2.6084      0.1146      2.5221   -999.2500   -999.2500
  2098.7000      7.7601      2.6086      0.1243      2.5114   -999.2500   -999.2500
  2098.8000      7.7661      2.5998      0.1229      3.0453   -999.2500   -999.2500
  2098.9000      7.7661      2.5848      0.0855      3.9489   -999.2500   -999.2500
  2099.0000      7.7908      2.5769      0.0518      4.4307   -999.2500   -999.2500
  2099.1000      7.7908      2.5783      0.0899      4.3481   -999.2500   -999.2500
  2099.2000      7.7908      2.5775      0.0465      4.3948   -999.2500   -999.2500
  2099.3000      7.7756      2.5733      0.0465      4.6507   -999.2500   -999.2500
  2099.4000      7.7756      2.5680      0.0728      4.9673   -999.2500   -999.2500
  2099.5000      7.7795      2.5618      0.0432      5.3441   -999.2500   -999.2500
  2099.6000      7.7795      2.5659      0.0503      5.0965   -999.2500   -999.2500
  2099.7000      7.7795      2.5792      0.0984      4.2899   -999.2500   -999.2500
  2099.8000      7.7815      2.5792      0.0934      4.2880   -999.2500   -999.2500
  2099.9000      7.7815      2.5627      0.0694      5.2894   -999.2500   -999.2500
  2100.0000      7.7767      2.5545      0.0498      5.7900   -999.2500   -999.2500
  2100.1000      7.7767      2.5706      0.0365      4.8122   -999.2500   -999.2500
  2100.2000      7.7767      2.5953      0.0772      3.3160   -999.2500   -999.2500
  2100.3000      7.7833      2.6041      0.0523      2.7807   -999.2500   -999.2500
