~Version Information
VERS.                      2.0: CWLS Log ASCII Standard - VERSION 2.0
WRAP.                       NO: One line per depth step
~Well Information Block
STRT.FT               970.0000: 
STOP.FT              1881.0000: 
STEP.FT                 0.1000: 
NULL.                -999.2500: 
COMP.          Petrogulf Corporation: COMPANY
WELL.             Norton 9-14R: WELL
FLD.           Purgatorie River: FIELD
LOC.           725' FSL & 1103' FWL: LOCATION
PROV.                 Colorado: PROVINCE
CNTY.               Las Animas: COUNTRY
SRVC.                Patterson: SERVICE COMPANY
DATE.          Fri Oct 07 07:52:23 2005: LOG DATE
UWI.                          : UNIQUE WELL ID
~Curve Information Block
DEPT.FT            0 000 00 00: Depth
DCAL.in                       : CDL Caliper
RHOB.g/cc                     : CDL Bulk Density
RHOC.g/cc                     : CDL Density Correction
DPOR.pu                       : CDL Density Porosity
GR.GAPI                       : Gamma Ray
NPOR.pu                       : Neutron Porosity
~Parameter Information Block
~A  Depth       DCAL        RHOB        RHOC        DPOR         GR         NPOR    
# ...
  1027.6000      7.9262      2.5703      0.0575      4.8273    123.3158     27.0071
  1027.7000      7.9262      2.5786      0.0443      4.3276    121.2400     27.1877
  1027.8000      7.9196      2.5686      0.0123      4.9332    121.8932     27.0479
  1027.9000      7.9196      2.5576      0.0172      5.5994    122.4090     26.8835
  1028.0000      7.9307      2.5677     -0.0083      4.9853    121.0050     26.9511
  1028.1000      7.9307      2.5911      0.0677      3.5671    120.1470     27.1702
  1028.2000      7.9307      2.6068      0.0643      2.6176    121.4499     27.4983
  1028.3000      7.9372      2.6150      0.0303      2.1233    125.8452     27.8304
  1028.4000      7.9372      2.6237      0.0379      1.5916    133.6978     28.1984
  1028.5000      7.9231      2.6262      0.0836      1.4451    142.2562     28.6118
  1028.6000      7.9231      2.6116      0.1095      2.3248    147.5033     28.8878
  1028.7000      7.9231      2.5926      0.0544      3.4785    146.7333     29.0153
  1028.8000      7.9322      2.5895      0.0955      3.6641    141.5434     29.1226
  1028.9000      7.9322      2.5868      0.1072      3.8298    136.1099     29.3015
  1029.0000      7.9409      2.5648      0.0238      5.1639    132.4601     29.4896
  1029.1000      7.9409      2.5469      0.0526      6.2487    129.6922     29.6380
  1029.2000      7.9409      2.5602      0.0677      5.4425    128.3938     29.6728
  1029.3000      7.9437      2.6051      0.0578      2.7201    131.0089     29.4997
  1029.4000      7.9437      2.6710      0.0284     -1.2722    136.2232     29.3783
  1029.5000      7.9491      2.7401      0.1185     -5.4611    139.2720     29.4491
  1029.6000      7.9491      2.7859      0.1644     -8.2353    136.8343     29.4587
  1029.7000      7.9491      2.7994      0.1331     -9.0541    130.4279     29.2726
  1029.8000      7.9489      2.7863      0.1654     -8.2597    124.2934     29.0042
  1029.9000      7.9489      2.7466      0.1138     -5.8571    120.5113     28.7209
  1030.0000      7.9319      2.6991      0.0107     -2.9742    117.7991     28.5418
  1030.1000      7.9319      2.6781      0.0016     -1.7030    113.0405     28.6696
  1030.2000      7.9319      2.7006     -0.0414     -3.0678    107.4295     29.0353
  1030.3000      7.9105      2.7603     -0.0295     -6.6873    105.8983     29.1766
  1030.4000      7.9105      2.8319      0.0788    -11.0231    107.4378     28.8955
  1030.5000      7.9015      2.8844      0.1776    -14.2062    107.1865     28.5495
  1030.6000      7.9015      2.9025      0.1795    -15.3010    105.7892     28.5088
  1030.7000      7.9015      2.8955      0.2100    -14.8783    106.7015     28.8045
  1030.8000      7.8363      2.8842      0.1293    -14.1920    110.6324     29.0886
  1030.9000      7.8363      2.8646      0.1571    -13.0045    115.8890     29.0759
  1031.0000      7.8160      2.8091      0.0463     -9.6423    119.5903     28.9354
  1031.1000      7.8160      2.7206     -0.0741     -4.2805    120.7249     28.8986
  1031.2000      7.8160      2.6358     -0.0771      0.8625    122.6915     29.0440
  1031.3000      7.9243      2.5848     -0.0999      3.9494    127.7749     29.3035
  1031.4000      7.9243      2.5720     -0.0040      4.7271    132.1355     29.5238
  1031.5000      8.0008      2.5770      0.0411      4.4237    133.7684     29.5529
  1031.6000      8.0008      2.5780      0.0543      4.3651    134.6669     29.3838
  1031.7000      8.0008      2.5666      0.0460      5.0554    134.1351     29.2678
  1031.8000      8.0123      2.5490      0.0350      6.1204    133.8670     29.2922
  1031.9000      8.0123      2.5405      0.0295      6.6364    136.0232     29.1699
  1032.0000      8.0105      2.5452      0.0578      6.3492    137.6042     28.9559
  1032.1000      8.0105      2.5476      0.0590      6.2058    138.7209     29.0417
  1032.2000      8.0105      2.5408      0.0013      6.6210    140.9465     29.3126
  1032.3000      7.9939      2.5388      0.0013      6.7390    141.4823     29.4378
  1032.4000      7.9939      2.5444      0.0659      6.4014    139.4870     29.4254
  1032.5000      7.9900      2.5445      0.0194      6.3959    138.0710     29.4621
  1032.6000      7.9900      2.5335      0.0861      7.0600    140.4654     29.5117
  1032.7000      7.9900      2.5192      0.0549      7.9298    145.6479     29.3622
  1032.8000      7.9853      2.5139      0.0635      8.2493    147.1367     29.1883
  1032.9000      7.9853      2.5087      0.0972      8.5626    144.8343     29.3403
  1033.0000      7.9798      2.4827      0.1236     10.1386    145.7206     29.7469
  1033.1000      7.9798      2.4388      0.0634     12.7993    149.7673     30.2111
  1033.2000      7.9798      2.4039     -0.0231     14.9153    151.4871     30.6535
  1033.3000      7.9675      2.3935      0.0019     15.5452    150.3192     30.9245
  1033.4000      7.9675      2.3940      0.0111     15.5178    148.8531     31.1255
  1033.5000      7.9771      2.3861      0.0266     15.9950    145.3401     31.4561
  1033.6000      7.9771      2.3674      0.0356     17.1246    140.8367     31.6332
  1033.7000      7.9771      2.3447      0.0256     18.5044    141.1161     31.4096
  1033.8000      7.9771      2.3258     -0.0049     19.6456    146.3683     31.1525
  1033.9000      7.9771      2.3300     -0.0274     19.3939    150.7316     31.2122
  1034.0000      7.9665      2.3672      0.0096     17.1401    151.8216     31.2358
  1034.1000      7.9665      2.4165      0.0983     14.1529    150.9166     30.7511
  1034.2000      7.9665      2.4602      0.0854     11.5039    148.7419     30.0753
  1034.3000      7.9684      2.5009      0.1513      9.0350    146.2023     29.7387
  1034.4000      7.9684      2.5345      0.1968      7.0022    142.2504     29.7819
  1034.5000      7.9450      2.5562      0.1677      5.6840    138.4506     29.8819
  1034.6000      7.9450      2.5745      0.1972      4.5777    139.5715     29.8147
  1034.7000      7.9450      2.5894      0.2534      3.6702    143.8440     29.7117
  1034.8000      7.9173      2.5996      0.1311      3.0568    144.4541     29.5210
  1034.9000      7.9173      2.6155      0.1821      2.0912    139.4477     29.0380
  1035.0000      7.9230      2.6374      0.1478      0.7660    132.8736     28.6488
  1035.1000      7.9230      2.6578      0.1361     -0.4745    129.2723     28.6509
  1035.2000      7.9230      2.6738      0.1411     -1.4399    128.4777     28.7159
  1035.3000      7.9391      2.6773      0.1337     -1.6537    127.8719     28.7430
  1035.4000      7.9391      2.6654      0.0908     -0.9348    128.2191     28.7702
  1035.5000      7.9449      2.6584      0.0573     -0.5096    129.2089     28.5323
  1035.6000      7.9449      2.6763      0.0743     -1.5956    126.3507     28.0857
  1035.7000      7.9449      2.7060      0.0666     -3.3936    120.8006     27.8131
  1035.8000      7.9428      2.7203      0.0664     -4.2592    118.4861     27.6691
  1035.9000      7.9428      2.7185      0.0508     -4.1521    117.8121     27.4464
  1036.0000      7.9388      2.7211      0.0614     -4.3095    114.6707     27.3577
  1036.1000      7.9388      2.7349      0.0736     -5.1480    110.8043     27.5634
  1036.2000      7.9388      2.7435      0.0882     -5.6681    106.9197     27.7345
  1036.3000      7.9405      2.7288      0.0702     -4.7729    102.9802     27.5374
  1036.4000      7.9405      2.6965      0.0176     -2.8153    101.2925     27.1709
  1036.5000      7.9347      2.6632      0.0392     -0.7978    102.3491     26.8936
  1036.6000      7.9347      2.6323     -0.0398      1.0735    106.2823     26.6007
  1036.7000      7.9347      2.6076     -0.0499      2.5694    111.8477     26.2971
  1036.8000      7.9357      2.5953      0.0024      3.3164    115.4432     26.1673
  1036.9000      7.9357      2.5863      0.0085      3.8585    115.8859     26.2022
  1037.0000      7.9508      2.5699      0.0420      4.8557    115.3341     26.1342
  1037.1000      7.9508      2.5471      0.0350      6.2336    114.7807     25.8113
