~Version Information
VERS.                      2.0: CWLS Log ASCII Standard - VERSION 2.0
WRAP.                       NO: One line per depth step
~Well Information Block
STRT.FT               621.2500: 
STOP.FT               951.7500: 
STEP.FT                 0.2500: 
NULL.                -999.2500: 
COMP.          Pioneer Natural Resources: COMPANY
WELL.          Screamin 12-29 Tr: WELL
FLD.           Purgatoire River: FIELD
LOC.           1979' FNL & 532' FWL--: LOCATION
CNTY.               Las Animas: COUNTY
SRVC.                Patterson: SERVICE COMPANY
DATE.          Fri Mar 31 01:01:50 2006: LOG DATE
UWI.           05 071 08660 00: UNIQUE WELL ID
STAT.                 Colorado: STATE
~Curve Information Block
DEPT.FT            0 000 00 00: Depth
SN.Ohm-m                      : IEL Short Normal
SP.mV                         : IEL Spontaneous Potential
DIR.Ohm-m                     : IEL Induction Resistivity
GR.GAPI                       : Gamma Ray
~Parameter Information Block
~A  Depth        SN          SP         DIR          GR     
# ...
   755.2500    587.5551   -545.7128     23.5120     92.3884
   755.5000    597.3372   -549.6942     23.8134     96.2005
   755.7500    600.4644   -552.1263     23.9408     99.2510
   756.0000    601.1027   -553.5157     23.9013    103.7991
   756.2500    600.4545   -554.2584     23.7323    106.4793
   756.5000    597.5896   -554.6295     23.4915    109.7908
   756.7500    589.7524   -554.8022     23.2366    111.6292
   757.0000    573.6992   -554.8760     23.0078    113.9809
   757.2500    549.5374   -554.9031     22.8222    115.1303
   757.5000    524.4582   -554.9086     22.6811    115.7396
   757.7500    510.2908   -554.9019     22.5831    115.3029
   758.0000    514.4758   -554.8924     22.5343    113.8182
   758.2500    533.8354   -554.8821     22.5505    112.6455
   758.5000    558.1638   -554.8713     22.6502    110.7358
   758.7500    578.4842   -554.8605     22.8438    109.0367
   759.0000    591.3665   -554.8500     23.1257    105.3432
   759.2500    597.8305   -554.8403     23.4694    102.3300
   759.5000    600.4237   -554.8317     23.8281     98.0935
   759.7500    601.2527   -554.8246     24.1389     95.9555
   760.0000    601.4651   -554.8193     24.3331     93.6515
   760.2500    601.5040   -554.8160     24.3535     92.3239
   760.5000    601.5111   -554.8145     24.1729     90.4736
   760.7500    601.5111   -554.8145     23.8029     89.7798
   761.0000    601.5111   -554.8157     23.2837     90.6900
   761.2500    601.5111   -554.8176     22.6630     92.9585
   761.5000    601.5111   -554.8197     21.9793     98.4954
   761.7500    601.5111   -554.8215     21.2602    103.0454
   762.0000    601.5111   -554.8227     20.5310    110.3763
   762.2500    601.5111   -554.8232     19.8214    115.4659
   762.5000    601.5111   -554.8230     19.1644    123.1765
   762.7500    601.5111   -554.8222     18.5902    127.7932
   763.0000    601.5111   -554.8209     18.1201    132.3939
   763.2500    601.5111   -554.8194     17.7663    133.4377
   763.5000    601.5111   -554.8177     17.5344    132.7607
   763.7500    601.5111   -554.8162     17.4276    131.7763
   764.0000    601.5111   -554.8149     17.4464    130.5214
   764.2500    601.5111   -554.8141     17.5864    129.7890
   764.5000    601.5111   -554.8142     17.8361    128.2756
   764.7500    601.5111   -554.8154     18.1768    126.7535
   765.0000    601.5111   -554.8181     18.5834    123.7080
   765.2500    601.5111   -554.8226     19.0235    121.3340
   765.5000    601.5111   -554.8292     19.4599    117.5368
   765.7500    601.5111   -554.8378     19.8608    115.0163
   766.0000    601.5111   -554.8484     20.2161    111.7436
   766.2500    601.5111   -554.8604     20.5444    110.2165
   766.5000    601.5111   -554.8730     20.8789    109.0317
   766.7500    601.5111   -554.8855     21.2391    108.7780
   767.0000    601.5035   -554.8969     21.6123    108.7884
   767.2500    601.4498   -554.9067     21.9583    108.8653
   767.5000    601.1824   -554.9142     22.2317    108.7043
   767.7500    600.1183   -554.9191     22.4062    108.2466
   768.0000    596.8557   -554.9211     22.4848    107.3129
   768.2500    589.1871   -554.9202     22.4953    107.0114
   768.5000    575.5939   -554.9164     22.4760    107.7170
   768.7500    558.0287   -554.9100     22.4623    108.9630
   769.0000    542.9562   -554.9012     22.4786    111.5666
   769.2500    537.6674   -554.8907     22.5369    113.5606
   769.5000    544.4919   -554.8792     22.6364    116.6717
   769.7500    559.2393   -554.8672     22.7630    118.6508
   770.0000    575.1985   -554.8555     22.8908    121.1806
   770.2500    587.6956   -554.8444     22.9937    122.5164
   770.5000    595.4228   -554.8340     23.0608    124.0897
   770.7500    599.2879   -554.8247     23.1083    124.8555
   771.0000    600.8489   -554.8161     23.1787    125.2483
   771.2500    601.3534   -554.8080     23.3285    124.6748
   771.5000    601.4824   -554.8000     23.6089    122.1234
   771.7500    601.5067   -554.7922     24.0470    119.3179
   772.0000    601.5111   -554.7841     24.6351    114.0268
   772.2500    601.5111   -554.7759     25.3335    110.1718
   772.5000    601.5111   -554.7677     26.0878    103.9795
   772.7500    601.5111   -554.7598     26.8515     99.2230
   773.0000    601.5111   -554.7524     27.5993     90.6906
   773.2500    601.5111   -554.7458     28.3187     84.4251
   773.5000    601.5111   -554.7402     28.9870     75.8091
   773.7500    601.5111   -554.7356     29.5533     71.5685
   774.0000    601.5111   -554.7318     29.9471     68.1257
   774.2500    601.5111   -554.7288     30.1141     67.5042
   774.5000    601.5111   -554.7267     30.0505     68.1771
   774.7500    601.5111   -554.7255     29.8017     69.2909
   775.0000    601.5111   -554.7256     29.4312     71.5839
   775.2500    601.5111   -554.7273     28.9919     73.2895
   775.5000    601.5111   -554.7310     28.5194     75.3784
   775.7500    601.5111   -554.7369     28.0372     75.9288
   776.0000    601.5111   -554.7447     27.5598     74.9189
   776.2500    601.5111   -554.7541     27.0939     73.1067
   776.5000    601.5111   -554.7642     26.6455     69.4882
   776.7500    601.5111   -554.7741     26.2311     67.0694
   777.0000    601.5111   -554.7827     25.8821     64.1749
   777.2500    601.5111   -554.7892     25.6312     62.9106
   777.5000    601.5111   -554.7931     25.4909     61.8839
   777.7500    601.5111   -554.7940     25.4378     61.5557
   778.0000    601.5111   -554.7921     25.4179     61.3629
   778.2500    601.5111   -554.7880     25.3727     61.5082
   778.5000    601.5111   -554.7820     25.2693     62.4184
   778.7500    601.5111   -554.7748     25.1125     63.5640
   779.0000    601.5111   -554.7668     24.9308     65.9918
   779.2500    601.5111   -554.7580     24.7552     67.9148
   779.5000    601.5098   -554.7482     24.6101     70.8265
   779.7500    601.5026   -554.7370     24.5165     72.5015
   780.0000    601.4680   -554.7240     24.4951     74.2662
   780.2500    601.3406   -554.7088     24.5635     74.9340
   780.5000    600.9859   -554.6915     24.7293     75.5234
   780.7500    600.2512   -554.6727     24.9857     75.9126
   781.0000    599.1573   -554.6530     25.3108     76.6440
   781.2500    598.0864   -554.6337     25.6657     77.0157
   781.5000    597.6304   -554.6158     25.9949     76.7357
   781.7500    598.0864   -554.6005     26.2361     75.7157
   782.0000    599.1573   -554.5886     26.3421     73.0221
   782.2500    600.2512   -554.5806     26.3050     70.7855
   782.5000    600.9859   -554.5768     26.1628     67.5162
   782.7500    601.3406   -554.5772     25.9817     65.8406
   783.0000    601.4680   -554.5812     25.8244     64.7112
   783.2500    601.5026   -554.5883     25.7251     64.9466
   783.5000    601.5098   -554.5978     25.6834     66.1078
   783.7500    601.5111   -554.6088     25.6744     66.8368
   784.0000    601.5111   -554.6207     25.6653     67.4574
   784.2500    601.5111   -554.6327     25.6273     67.7805
   784.5000    601.5111   -554.6444     25.5421     68.5798
   784.7500    601.5111   -554.6555     25.4050     69.2813
   785.0000    601.5111   -554.6655     25.2234     70.0661
   785.2500    601.5111   -554.6742     25.0112     70.0508
   785.5000    601.5111   -554.6811     24.7770     68.9009
   785.7500    601.5111   -554.6860     24.5152     67.5566
   786.0000    601.5111   -554.6885     24.2048     65.4912
   786.2500    601.5111   -554.6888     23.8185     64.5047
   786.5000    601.5111   -554.6870     23.3401     63.8278
   786.7500    601.5111   -554.6835     22.7792     63.9096
   787.0000    601.5111   -554.6790     22.1741     64.9620
   787.2500    601.5111   -554.6740     21.5808     66.2769
   787.5000    601.5111   -554.6689     21.0533     68.6789
   787.7500    601.5111   -554.6638     20.6269     70.1988
   788.0000    601.5111   -554.6586     20.3071     72.1111
   788.2500    601.5111   -554.6529     20.0649     73.1134
   788.5000    601.5111   -554.6461     19.8314     73.8684
