~Version Information
VERS.                      2.0: CWLS Log ASCII Standard - VERSION 2.0
WRAP.                       NO: One line per depth step
~Well Information Block
STRT.FT               580.0000: 
STOP.FT              1029.0000: 
STEP.FT                 0.1000: 
NULL.                -999.2500: 
COMP.          Pioneer Natural Resources: COMPANY
WELL.             Quartz 13-22: WELL
FLD.           Purgatoire River: FIELD
LOC.           1933' FSL & 675' FWL: LOCATION
PROV.                 Colorado: PROVINCE
CNTY.               Las Animas: COUNTRY
SRVC.                Patterson: SERVICE COMPANY
DATE.          Fri Dec 16 10:30:09 2005: LOG DATE
UWI.           05 071 08638 00: UNIQUE WELL ID
~Curve Information Block
DEPT.FT            0 000 00 00: Depth
DCAL.in                       : CDL Caliper
RHOB.g/cc                     : CDL Bulk Density
RHOC.g/cc                     : CDL Density Correction
DPOR.pu                       : CDL Density Porosity
GR.GAPI                       : Gamma Ray
NPOR.pu                       : Neutron Porosity
~Parameter Information Block
~A  Depth       DCAL        RHOB        RHOC        DPOR         GR         NPOR    
# ...
   983.2000      7.8764      2.6317      0.1551      1.1093    124.9943     21.3166
   983.3000      7.8626      2.6558      0.1486     -0.3535    115.3605     27.3974
   983.4000      7.8626      2.6713      0.1486     -1.2899    111.8716     33.9049
   983.5000      7.8597      2.6781      0.1508     -1.7044    110.9130     39.4075
   983.6000      7.8597      2.6708      0.1564     -1.2613    109.9610     43.4061
   983.7000      7.8597      2.6409      0.1575      0.5535    110.8762     46.1521
   983.8000      7.8654      2.5907      0.0666      3.5917    116.8094     48.0477
   983.9000      7.8654      2.5400      0.0319      6.6694    125.0956     49.4198
   984.0000      7.8337      2.5086     -0.0217      8.5680    132.8511     50.3520
   984.1000      7.8337      2.4955      0.0513      9.3661    138.4690     50.8736
   984.2000      7.8337      2.4829      0.0230     10.1254    140.0808     51.1999
   984.3000      7.8512      2.4799      0.0510     10.3097    138.9082     20.7354
   984.4000      7.8512      2.5093      0.0677      8.5296    136.6085     21.1874
   984.5000      7.8256      2.5545      0.1460      5.7866    133.9238     20.7645
   984.6000      7.8256      2.5798      0.1018      4.2568    134.0744     20.3373
   984.7000      7.8256      2.5893      0.1313      3.6772    135.8926     20.9641
   984.8000      7.8102      2.6043      0.1800      2.7686    134.9743     22.4695
   984.9000      7.8102      2.6226      0.1299      1.6581    133.5008     23.6406
   985.0000      7.8032      2.6340      0.1495      0.9689    135.8417     23.6964
   985.1000      7.8032      2.6368      0.1409      0.8000    139.7811     23.5854
   985.2000      7.8032      2.6321      0.1664      1.0868    139.8792     24.4290
   985.3000      7.8078      2.6159      0.1107      2.0664    138.3403     25.6356
   985.4000      7.8078      2.5936      0.0575      3.4210    140.9815     26.2920
   985.5000      7.8365      2.5793      0.0658      4.2875    142.8174     26.4287
   985.6000      7.8365      2.5745      0.0725      4.5768    138.7666     25.8795
   985.7000      7.8365      2.5697      0.0651      4.8666    134.6963     24.7807
   985.8000      7.8576      2.5636      0.0354      5.2357    135.0347     24.1592
   985.9000      7.8576      2.5603      0.0436      5.4367    142.5137     24.1621
   986.0000      7.8450      2.5643      0.0436      5.1928    156.1300     23.8855
   986.1000      7.8450      2.5822      0.0672      4.1118    162.9185     23.3228
   986.2000      7.8450      2.6095      0.0945      2.4566    158.0555     23.6529
   986.3000      7.8617      2.6288      0.1137      1.2830    152.0869     24.9447
   986.4000      7.8617      2.6288      0.1592      1.2850    147.9255     25.4850
   986.5000      7.8802      2.6168      0.1138      2.0146    143.5898     24.2240
   986.6000      7.8802      2.6140      0.1215      2.1792    140.3561     22.5258
   986.7000      7.8802      2.6348      0.1508      0.9207    139.8803     22.2307
   986.8000      7.8647      2.6702      0.1901     -1.2251    142.7335     23.5074
   986.9000      7.8647      2.6955      0.1767     -2.7546    142.1628     24.9332
   987.0000      7.8015      2.6908      0.1699     -2.4746    134.3022     25.2572
   987.1000      7.8015      2.6576      0.1490     -0.4610    126.8418     24.6482
   987.2000      7.8015      2.6138      0.0782      2.1947    125.1700     23.6597
   987.3000      7.7695      2.5802      0.0493      4.2298    128.4172     22.7712
   987.4000      7.7695      2.5688      0.0528      4.9212    136.2621     22.6590
   987.5000      7.7905      2.5749      0.0737      4.5509    145.7641     23.1016
   987.6000      7.7905      2.5804      0.1026      4.2184    149.6772     23.7650
   987.7000      7.7905      2.5781      0.0707      4.3582    145.1494     24.7902
   987.8000      7.8166      2.5757      0.1041      4.5021    138.5383     25.2532
   987.9000      7.8166      2.5760      0.0534      4.4852    136.9780     24.6734
   988.0000      7.8416      2.5783      0.1301      4.3427    140.3988     24.3249
   988.1000      7.8416      2.5840      0.0808      4.0006    143.5602     24.7862
   988.2000      7.8416      2.5956      0.0816      3.2970    141.1238     25.5827
   988.3000      7.8628      2.6069      0.1203      2.6136    133.8542     26.4975
   988.4000      7.8628      2.5977      0.1151      3.1726    125.2413     27.3690
   988.5000      7.8520      2.5645      0.0570      5.1805    113.7902     27.5025
   988.6000      7.8520      2.5436     -0.0359      6.4470    103.5786     26.7321
   988.7000      7.8520      2.5598      0.0909      5.4661    102.8421     26.4093
   988.8000      7.8364      2.5815      0.1204      4.1508    107.8479     27.1678
   988.9000      7.8364      2.5813      0.0741      4.1650    107.8855     27.7688
   989.0000      7.8704      2.5799      0.0764      4.2487    104.5945     27.3792
   989.1000      7.8704      2.5911      0.1082      3.5699    106.1530     26.5860
   989.2000      7.8704      2.5982      0.0767      3.1419    109.5794     25.9607
   989.3000      7.8971      2.5950      0.0867      3.3322    110.2754     25.3842
   989.4000      7.8971      2.5905      0.0857      3.6077    112.3485     24.6689
   989.5000      7.8696      2.5835      0.0869      4.0332    117.2949     24.1993
   989.6000      7.8696      2.5702      0.0664      4.8378    121.2570     24.4517
   989.7000      7.8696      2.5644      0.0473      5.1904    122.4324     25.0940
   989.8000      7.8724      2.5757      0.0766      4.5017    120.6533     25.2942
   989.9000      7.8724      2.5916      0.0640      3.5389    115.0406     25.1301
   990.0000      7.8541      2.6040      0.0555      2.7884    107.7851     25.0468
   990.1000      7.8541      2.6183      0.0725      1.9196    105.3005     24.8959
   990.2000      7.8541      2.6302      0.1182      1.1989    106.1673     24.4852
   990.3000      7.8408      2.6293      0.1002      1.2516    106.1134     23.6345
   990.4000      7.8408      2.6170      0.1051      2.0017    108.5551     22.7643
   990.5000      7.8601      2.6037      0.0776      2.8082    113.1554     22.7022
   990.6000      7.8601      2.5983      0.0842      3.1332    114.1388     23.6817
   990.7000      7.8601      2.6003      0.0643      3.0144    111.9749     25.0520
   990.8000      7.8036      2.6032      0.0881      2.8387    108.5938     25.7255
   990.9000      7.8036      2.6052      0.0550      2.7177    104.1999     25.1730
   991.0000      7.7644      2.6078      0.0861      2.5601    102.5641     24.0021
   991.1000      7.7644      2.6076      0.1207      2.5716    104.4800     23.2128
   991.2000      7.7644      2.6122      0.0855      2.2894    106.6424     23.4396
   991.3000      7.9088      2.6367      0.1023      0.8075    107.5411     24.5337
   991.4000      7.9088      2.6715      0.1736     -1.3053    109.1575     25.5385
   991.5000      7.9126      2.6933      0.1740     -2.6223    111.1846     25.7119
   991.6000      7.9126      2.6900      0.1942     -2.4238    109.5359     25.2773
   991.7000      7.9126      2.6611      0.1651     -0.6734    106.8897     25.0256
   991.8000      7.7914      2.6214      0.1158      1.7336    109.6189     25.4240
   991.9000      7.7914      2.5936      0.0691      3.4186    113.1887     26.0844
   992.0000      7.7656      2.5840      0.0364      4.0029    108.9199     26.2895
   992.1000      7.7656      2.5829      0.0738      4.0684    100.0984     26.0010
   992.2000      7.7656      2.5815      0.0411      4.1529     97.9782     25.8032
   992.3000      7.8250      2.5735      0.0948      4.6355    106.1510     25.9168
   992.4000      7.8250      2.5581      0.0646      5.5680    116.7353     26.2665
   992.5000      7.9591      2.5508      0.0503      6.0123    124.1889     26.7484
   992.6000      7.9591      2.5612      0.0999      5.3846    128.2801     26.5855
   992.7000      7.9591      2.5742      0.0809      4.5942    125.5314     25.3216
