~Version Information
VERS.                      2.0: CWLS Log ASCII Standard - VERSION 2.0
WRAP.                       NO: One line per depth step
~Well Information Block
STRT.FT               350.0000: 
STOP.FT               906.0000: 
STEP.FT                 0.2500: 
NULL.                -999.2500: 
COMP.          Pioneer Natural Resources: COMPANY
WELL.           Hartford 31-18: WELL
FLD.           Purgatorie River: FIELD
LOC.           375' FNL & 1660' FEL: LOCATION
PROV.                 Colorado: PROVINCE
CNTY.               Las Animas: COUNTRY
SRVC.                Patterson: SERVICE COMPANY
DATE.          Sat Nov 19 19:02:38 2005: LOG DATE
UWI.           05-071-08555               : UNIQUE WELL ID
~Curve Information Block
DEPT.FT            0 000 00 00: Depth
SN.Ohm-m                      : IEL Short Normal
SP.mV                         : IEL Spontaneous Potential
DIR.Ohm-m                     : IEL Induction Resistivity
GR.GAPI                       : Gamma Ray
~Parameter Information Block
~A  Depth        SN          SP         DIR          GR     
   350.0000   2000.0000   1880.0000     21.9560     44.5794
   350.2500   2000.0000   1880.0000     22.0586     45.4858
   350.5000   2000.0000   1880.0000     22.0553     47.2329
   350.7500   2000.0000   1880.0000     21.9296     48.8537
   351.0000   2000.0000   1880.0000     21.6909     52.3333
   351.2500   2000.0000   1880.0000     21.3654     55.0632
   351.5000   2000.0000   1880.0000     20.9870     58.2132
   351.7500   2000.0000   1880.0000     20.5942     58.6583
   352.0000   2000.0000   1880.0000     20.2283     56.2846
   352.2500   2000.0000   1880.0000     19.9311     53.4119
   352.5000   2000.0000   1880.0000     19.7375     49.4934
   352.7500   2000.0000   1880.0000     19.6658     48.2677
   353.0000   2000.0000   1880.0000     19.7067     49.0428
   353.2500   2000.0000   1880.0000     19.8177     50.8508
   353.5000   2000.0000   1880.0000     19.9311     54.1165
   353.7500   2000.0000   1880.0000     19.9755     55.9017
   354.0000   2000.0000   1880.0000     19.9050     57.3131
   354.2500   2000.0000   1880.0000     19.7177     57.4283
   354.5000   2000.0000   1880.0000     19.4496     56.8258
   354.7500   2000.0000   1880.0000     19.1517     56.2389
   355.0000   2000.0000   1880.0000     18.8672     55.5001
   355.2500   2000.0000   1880.0000     18.6227     55.1877
   355.5000   2000.0000   1880.0000     18.4294     54.9628
   355.7500   2000.0000   1880.0000     18.2862     54.9784
   356.0000   2000.0000   1880.0000     18.1805     55.2252
   356.2500   2000.0000   1880.0000     18.0879     55.3228
   356.5000   2000.0000   1880.0000     17.9765     54.6680
   356.7500   2000.0000   1880.0000     17.8178     53.4495
   357.0000   2000.0000   1880.0000     17.6011     50.9669
   357.2500   2000.0000   1880.0000     17.3482     49.6152
   357.5000   2000.0000   1880.0000     17.1166     49.0495
   357.7500   2000.0000   1880.0000     16.9861     49.6914
   358.0000   2000.0000   1880.0000     17.0300     51.5152
   358.2500   2000.0000   1880.0000     17.2810     52.8254
   358.5000   2000.0000   1880.0000     17.7064     54.2687
   358.7500   2000.0000   1880.0000     18.2086     54.6075
   359.0000   2000.0000   1880.0000     18.6601     53.9572
   359.2500   2000.0000   1880.0000     18.9673     52.8277
   359.5000   2000.0000   1880.0000     19.1208     50.6693
   359.7500   2000.0000   1880.0000     19.2034     49.5297
   360.0000   2000.0000   1880.0000     19.3637     49.4336
   360.2500   2000.0000   1880.0000     19.7821     50.8453
   360.5000   2000.0000   1880.0000     20.6246     55.0359
   360.7500   2000.0000   1880.0000     21.9545     58.7633
   361.0000   2000.0000   1880.0000     23.5634     64.7328
   361.2500   2000.0000   1880.0000     24.8024     68.3386
   361.5000   2000.0000   1880.0000     24.8099     72.1680
   361.7500   2000.0000   1880.0000     23.3325     73.1662
   362.0000   2000.0000   1880.0000     21.0716     71.9246
   362.2500   2000.0000   1880.0000     18.9326     69.5119
   362.5000   2000.0000   1880.0000     17.4056     64.6627
   362.7500   2000.0000   1880.0000     16.6329     61.3380
   363.0000   2000.0000   1880.0000     16.6811     57.0722
   363.2500   2000.0000   1880.0000     17.7590     54.9951
   363.5000   2000.0000   1880.0000     20.3890     53.1335
   363.7500   2000.0000   1880.0000     25.4861     52.4479
   364.0000   2000.0000   1880.0000     33.3049     51.4489
   364.2500   2000.0000   1880.0000     37.9554     50.5672
   364.5000   2000.0000   1880.0000     30.2728     49.3217
   364.7500   2000.0000   1880.0000     19.2023     49.0347
   365.0000   2000.0000   1880.0000     12.4295     50.1041
   365.2500   2000.0000   1880.0000      9.0597     51.9722
   365.5000   2000.0000   1880.0000      7.5264     56.2202
   365.7500   2000.0000   1880.0000      7.0232     59.5939
   366.0000   2000.0000   1880.0000      7.1760     64.9313
   366.2500   2000.0000   1880.0000      7.7226     68.7249
   366.5000   2000.0000   1880.0000      8.2224     74.8612
   366.7500   2000.0000   1880.0000      7.9817     78.8031
   367.0000   2000.0000   1880.0000      6.7606     83.1484
   367.2500   2000.0000   1880.0000      5.2425     84.5598
   367.5000   2000.0000   1880.0000      4.0871     84.7767
   367.7500   2000.0000   1880.0000      3.4448     84.1215
   368.0000   2000.0000   1880.0000      3.2660     82.6336
   368.2500   2000.0000   1880.0000      3.5495     81.6789
   368.5000   2000.0000   1880.0000      4.4692     80.8727
   368.7500   2000.0000   1880.0000      6.6319     80.8069
   369.0000   2000.0000   1880.0000     12.3463     80.8955
   369.2500   2000.0000   1880.0000     41.0011     80.6700
   369.5000   2000.0000   1880.0000 100000.0000     79.5476
   369.7500   2000.0000   1880.0000 100000.0000     78.3387
   370.0000   2000.0000   1880.0000 100000.0000     76.3847
   370.2500   2000.0000   1880.0000 100000.0000     75.5048
   370.5000   2000.0000   1880.0000 100000.0000     75.6403
   370.7500   2000.0000   1880.0000 100000.0000     76.8439
   371.0000   2000.0000   1880.0000 100000.0000     79.7926
   371.2500   2000.0000   1880.0000 100000.0000     81.9419
   371.5000   2000.0000   1880.0000     88.1833     84.5908
   371.7500   2000.0000   1880.0000     47.7598     85.7827
   372.0000   2000.0000   1880.0000     39.8442     86.7813
   372.2500   2000.0000   1880.0000     38.3028     86.9852
   372.5000   2000.0000   1880.0000     38.7086     86.6666
   372.7500   2000.0000   1880.0000     39.5981     86.1509
   373.0000   2000.0000   1880.0000     40.5077     85.0933
   373.2500   2000.0000   1880.0000     41.4312     84.1299
   373.5000   2000.0000   1880.0000     42.5414     82.0939
   373.7500   2000.0000   1880.0000     43.9338     80.5406
   374.0000   2000.0000   1880.0000     45.3288     78.8702
   374.2500   2000.0000   1880.0000     45.8528     78.6392
   374.5000   2000.0000   1880.0000     44.4782     79.3734
   374.7500   2000.0000   1880.0000     41.1096     79.9381
   375.0000   2000.0000   1880.0000     36.8407     79.8253
   375.2500   2000.0000   1880.0000     32.8908     78.9770
   375.5000   2000.0000   1880.0000     29.8262     77.2725
   375.7500   2000.0000   1880.0000     27.6529     76.3917
   376.0000   2000.0000   1880.0000     26.1604     75.7582
   376.2500   2000.0000   1880.0000     25.1516     75.7008
   376.5000   2000.0000   1880.0000     24.5358     76.2163
   376.7500   2000.0000   1880.0000     24.3174     77.1816
   377.0000   2000.0000   1880.0000     24.5278     79.7823
   377.2500   2000.0000   1880.0000     25.1497     82.0990
   377.5000   2000.0000   1880.0000     26.0776     85.4628
   377.7500   2000.0000   1880.0000     27.1335     86.7462
   378.0000   2000.0000   1880.0000     28.1405     85.9863
   378.2500   2000.0000   1880.0000     29.0055     83.7007
   378.5000   2000.0000   1880.0000     29.7431     79.0407
   378.7500   2000.0000   1880.0000     30.4234     76.2101
   379.0000   2000.0000   1880.0000     31.0993     73.7527
   379.2500   2000.0000   1880.0000     31.7656     73.7661
   379.5000   2000.0000   1880.0000     32.3644     76.4483
   379.7500   2000.0000   1880.0000     32.8175     79.5370
   380.0000   2000.0000   1880.0000     33.0621     84.3672
   380.2500   2000.0000   1880.0000     33.0724     86.7047
   380.5000   2000.0000   1880.0000     32.8622     88.2601
   380.7500   2000.0000   1880.0000     32.4754     88.2524
   381.0000   2000.0000   1880.0000     31.9715     87.2183
   381.2500   2000.0000   1880.0000     31.4121     85.8876
   381.5000   2000.0000   1880.0000     30.8501     82.9235
   381.7500   2000.0000   1880.0000     30.3244     80.6227
   382.0000   2000.0000   1880.0000     29.8580     77.7906
   382.2500   2000.0000   1880.0000     29.4591     76.9458
   382.5000   2000.0000   1880.0000     29.1243     77.6605
   382.7500   2000.0000   1880.0000     28.8431     79.2008
   383.0000   2000.0000   1880.0000     28.6020     82.1055
   383.2500   2000.0000   1880.0000     28.3884     83.8520
