~Version Information
 VERS.                                  2.0 : CWLS LAS VERSION
 WRAP.                                   NO : WRAPING MODE
 SWARE .                 MController 2.5.0N : SOFTWARE VERSION
~Well Information
 WELL.                       ALABASTER 11-8 : WELL
 COMP.    PIONEER NATURAL RESOURCES USA INC : COMPANY
 FLD.                      PURGATOIRE RIVER : FIELD
 LOC.                 NW/NW SEC 8 T33S R66W : LOCATION
 DATE.                             01/18/06 : DATE(S) LOGGED
 SRVC.       BLANCO GEOLOGICAL SERVICES LLC : SERVICE COMPANY
 STAT.                             COLORADO : STATE
 CNTY.                           LAS ANIMAS : COUNTY
 CTRY.                                  USA : COUNTRY
 API.                       05-071-08642-00 : API NUMBER
 STRT.FT                             555.00 : START DEPTH
 STOP.FT                            2045.00 : STOP DEPTH
 STEP.FT                               1.00 : DEPTH INCREMENT
 NULL.                                -9999 : NULL VALUE
~Curve information
 DEPTH.FT                                   :
 ROP.MIN/FT                                 :
 GAS.UNITS                                  :
~ASCII Log data
# ...
       955.0         0.23         12.4 
       956.0         1.63         18.3 
       957.0         0.35          4.5 
       958.0         0.33          6.4 
       959.0         0.27          8.4 
       960.0         0.23          9.4 
       961.0         0.30         10.4 
       962.0         0.23         10.4 
       963.0         0.27         11.1 
       964.0         0.27         11.2 
       965.0         0.27         11.4 
       966.0         0.27         10.9 
       967.0         0.27         10.7 
       968.0         0.27         11.0 
       969.0         0.28         11.7 
       970.0         0.30         11.8 
       971.0         0.30         12.3 
       972.0         0.30         12.3 
       973.0         0.33         12.0 
       974.0         0.20         12.1 
       975.0         0.13         11.7 
       976.0         0.17         12.1 
       977.0         0.13         12.0 
       978.0         0.23         12.3 
       979.0         0.23         10.8 
       980.0         0.27         11.7 
       981.0         0.17         12.1 
       982.0         0.13         11.7 
       983.0         0.27         11.3 
       984.0         0.15         10.1 
       985.0         0.23         12.0 
       986.0         1.63         17.4 
       987.0         0.50          5.0 
       988.0         0.30          5.1 
       989.0         0.37          8.5 
       990.0         0.35          9.8 
       991.0         0.27         10.2 
       992.0         0.27         10.1 
       993.0         0.27         10.5 
       994.0         0.23         10.5 
       995.0         0.23         10.6 
       996.0         0.20         10.6 
       997.0         0.23         10.6 
       998.0         0.23         10.6 
       999.0         0.37         11.5 
      1000.0         0.27         11.7 
      1001.0         0.13         11.4 
      1002.0         0.17         10.6 
      1003.0         0.10         10.7 
      1004.0         0.13         10.4 
      1005.0         0.10         10.7 
      1006.0         0.08         12.0 
      1007.0         0.17         12.5 
      1008.0         0.20         12.3 
      1009.0         0.20         11.2 
      1010.0         0.20         11.4 
      1011.0         0.20         11.5 
      1012.0         0.23         11.1 
      1013.0         0.13         10.9 
      1014.0         0.13         10.3 
      1015.0         0.10         10.6 
      1016.0         1.10         19.6 
      1017.0         0.20          5.3 
      1018.0         0.30          4.8 
      1019.0         0.35          4.6 
      1020.0         0.27          4.6 
      1021.0         0.27          4.7 
      1022.0         0.30          9.6 
      1023.0         0.30         14.6 
      1024.0         0.20         17.3 
      1025.0         0.20         18.3 
      1026.0         0.23         20.8 
      1027.0         0.17         21.9 
      1028.0         0.20         20.7 
      1029.0         0.20         21.1 
      1030.0         0.20         20.6 
      1031.0         0.17         20.3 
      1032.0         0.27         20.8 
      1033.0         0.25         22.8 
      1034.0         0.23         25.2 
      1035.0         0.30         27.1 
      1036.0         0.30         27.6 
      1037.0         0.27         26.5 
      1038.0         0.23         24.0 
      1039.0         0.30         23.2 
      1040.0         0.33         23.0 
      1041.0         0.23         22.0 
      1042.0         0.30         22.0 
      1043.0         0.30         22.0 
      1044.0         0.30         22.0 
      1045.0         0.32         20.2 
      1046.0         1.27         27.4 
      1047.0         0.53          5.3 
      1048.0         0.40          4.8 
      1049.0         0.37          8.2 
      1050.0         0.47         13.1 
      1051.0         0.62         16.3 
      1052.0         0.43         16.4 
      1053.0         0.30         15.6 
      1054.0         0.23         15.6 
      1055.0         0.20         15.7 
      1056.0         0.43         15.8 
      1057.0         0.30         19.4 
      1058.0         0.17         18.2 
      1059.0         0.17         17.6 
      1060.0         0.13         17.3 
      1061.0         0.27         18.2 
      1062.0         0.20         19.9 
      1063.0         0.12         20.2 
      1064.0         0.17         19.5 
      1065.0         0.20         19.8 
      1066.0         0.20         19.3 
      1067.0         0.20         18.5 
      1068.0         0.20         18.5 
      1069.0         0.13         18.6 
      1070.0         0.27         18.3 
      1071.0         0.23         18.1 
      1072.0         0.27         18.9 
      1073.0         0.23         18.2 
      1074.0         0.27         17.5 
      1075.0         0.27         16.8 
      1076.0         1.58         24.3 
      1077.0         0.40          5.0 
      1078.0         0.40          4.5 
      1079.0         0.27          4.6 
      1080.0         0.33          4.8 
      1081.0         0.30         11.6 
      1082.0         0.27         14.0 
      1083.0         0.23         14.6 
      1084.0         0.23         14.6 
      1085.0         0.25         14.8 
      1086.0         0.23         15.3 
      1087.0         0.23         15.4 
      1088.0         0.23         16.8 
      1089.0         0.23         16.9 
      1090.0         0.23         16.9 
      1091.0         0.23         16.6 
      1092.0         0.23         17.4 
      1093.0         0.27         18.4 
      1094.0         0.23         18.3 
      1095.0         0.23         17.9 
      1096.0         0.23         17.6 
      1097.0         0.30         18.0 
      1098.0         0.17         17.4 
      1099.0         0.25         18.0 
      1100.0         0.23         16.5 
      1101.0         0.13         15.2 
      1102.0         0.17         15.4 
      1103.0         0.17         16.0 
      1104.0         0.10         15.5 
      1105.0         0.13         15.3 
      1106.0         1.40         22.0 
      1107.0         0.23          5.0 
      1108.0         0.30          4.7 
      1109.0         0.35          4.7 
      1110.0         0.30          4.5 
      1111.0         0.37          8.6 
      1112.0         0.40         11.0 
      1113.0         0.27         13.4 
      1114.0         0.33         13.9 
      1115.0         0.27         13.6 
      1116.0         0.23         13.7 
      1117.0         0.27         14.4 
      1118.0         0.30         15.8 
      1119.0         0.33         17.3 
      1120.0         0.25         17.9 
      1121.0         0.30         18.3 
      1122.0         0.23         17.9 
      1123.0         0.23         17.6 
      1124.0         0.27         17.7 
      1125.0         0.23         16.7 
      1126.0         0.27         17.5 
      1127.0         0.17         16.5 
      1128.0         0.20         16.9 
      1129.0         0.17         17.3 
      1130.0         0.47         17.6 
      1131.0         0.37         17.4 
      1132.0         0.17         14.9 
      1133.0         0.22         14.8 
      1134.0         0.17         14.0 
      1135.0         0.20         13.4 
      1136.0         1.57         22.2 
      1137.0         0.47          4.7 
      1138.0         0.37          4.7 
      1139.0         0.27          5.0 
      1140.0         0.32          5.0 
      1141.0         0.23          8.1 
      1142.0         0.27          9.9 
      1143.0         0.27         12.6 
      1144.0         0.10         13.2 
      1145.0         0.17         13.5 
      1146.0         0.23         13.3 
      1147.0         0.20         13.1 
      1148.0         0.27         13.7 
      1149.0         0.13         13.9 
      1150.0         0.10         14.2 
      1151.0         0.30         16.4 
      1152.0         0.50         20.1 
      1153.0         0.20         18.9 
      1154.0         0.20         19.5 
