~Version Information
VERS.                      2.0: CWLS Log ASCII Standard - VERSION 2.0
WRAP.                       NO: One line per depth step
~Well Information Block
STRT.FT               615.0000: 
STOP.FT              2815.0000: 
STEP.FT                 0.2500: 
NULL.                -999.2500: 
COMP.          Pioneer Natural Resources: COMPANY
WELL.              Loews 41-32: WELL
FLD.           Purgatoire River: FIELD
LOC.           751' FNL & 128' FEL: LOCATION
CNTY.               Las Animas: COUNTY
SRVC.                Patterson: SERVICE COMPANY
DATE.          Sun Feb 12 02:27:11 2006: LOG DATE
UWI.           05 071 08693 00: UNIQUE WELL ID
STAT.                 Colorado: STATE
~Curve Information Block
DEPT.FT            0 000 00 00: Depth
SN.Ohm-m                      : IEL Short Normal
SP.mV                         : IEL Spontaneous Potential
DIR.Ohm-m                     : IEL Induction Resistivity
GR.GAPI                       : Gamma Ray
~Parameter Information Block
~A  Depth        SN          SP         DIR          GR     
# ...
  2792.5000     25.5553     84.5928     24.2649    135.5251
  2792.7500     26.0909     84.6093     24.6927    136.3136
  2793.0000     26.5954     84.7399     25.1030    137.2762
  2793.2500     26.9980     84.9623     25.4604    137.5243
  2793.5000     27.3055     85.2150     25.7328    135.5150
  2793.7500     27.5727     85.4058     25.9107    131.3602
  2794.0000     27.8170     85.4431     26.0154    120.1567
  2794.2500     28.0042     85.2774     26.0857    110.2808
  2794.5000     28.1330     84.9285     26.1553     94.8336
  2794.7500     28.2643     84.4774     26.2424     85.3630
  2795.0000     28.4523     84.0222     26.3517     72.0314
  2795.2500     28.7034     83.6294     26.4779     62.4766
  2795.5000     28.9908     83.3120     26.6024     45.7736
  2795.7500     29.2869     83.0434     26.6935     33.7655
  2796.0000     29.5567     82.7886     26.7222     17.6865
  2796.2500     29.7074     82.5317     26.6793      9.9276
  2796.5000     29.6536     82.2886     26.5764      3.2725
  2796.7500     29.4221     82.1029     26.4340      1.3142
  2797.0000     29.0768     82.0232     26.2756      0.2544
  2797.2500     28.6246     82.0749     26.1319      0.0701
  2797.5000     28.0838     82.2459     26.0372      0.0066
  2797.7500     27.5544     82.4942     26.0084      0.0000
  2798.0000     27.1402     82.7656     26.0209   -999.2500
  2798.2500     26.8604     83.0054     26.0072   -999.2500
  2798.5000     26.6944     83.1694     25.8904   -999.2500
  2798.7500     26.6160     83.2336     25.6350   -999.2500
  2799.0000     26.5577     83.1984     25.2771   -999.2500
  2799.2500     26.4946     83.0757     24.9067   -999.2500
  2799.5000     26.5396     82.8708     24.6191   -999.2500
  2799.7500     26.7822     82.5756     24.4736   -999.2500
  2800.0000     27.1353     82.1850     24.4801   -999.2500
  2800.2500     27.4707     81.7244     24.6107   -999.2500
  2800.5000     27.7679     81.2569     24.8223   -999.2500
  2800.7500     28.0475     80.8557     25.0764   -999.2500
  2801.0000     28.3183     80.5654     25.3469   -999.2500
  2801.2500     28.6102     80.3891     25.6135   -999.2500
  2801.5000     28.9252     80.3045     25.8565   -999.2500
  2801.7500     29.1929     80.2827     26.0649   -999.2500
  2802.0000     29.3382     80.2936     26.0284   -999.2500
  2802.2500     29.3498     80.3034     26.2393   -999.2500
  2802.5000     29.2856     80.2822     26.5124   -999.2500
  2802.7500     29.2437     80.2177     26.8392   -999.2500
  2803.0000     29.2781     80.1220     27.1576   -999.2500
  2803.2500     29.3397     80.0217     27.3952   -999.2500
  2803.5000     29.3387     79.9382     27.5309   -999.2500
  2803.7500     29.2473     79.8760     27.6120   -999.2500
  2804.0000     29.1282     79.8307     27.7190   -999.2500
  2804.2500     29.0664     79.8091     27.9217   -999.2500
  2804.5000     29.1046     79.8344     28.2818   -999.2500
  2804.7500     29.2346     79.9260     28.9110   -999.2500
  2805.0000     29.3688     80.0744     30.0565   -999.2500
  2805.2500     29.3524     80.2381     32.1674   -999.2500
  2805.5000     29.1217     80.3681     36.4506   -999.2500
  2805.7500     28.8043     80.4354     43.0620   -999.2500
  2806.0000     28.5800     80.4391     53.7807   -999.2500
  2806.2500     28.5471     80.3879     69.9889   -999.2500
  2806.5000     28.7121     80.2759     91.7904   -999.2500
  2806.7500     28.9649     80.0784    115.9486   -999.2500
  2807.0000     29.1303     79.7766    136.3692   -999.2500
  2807.2500     29.1677     79.3904    149.1465   -999.2500
  2807.5000     29.2039     78.9829    155.3609   -999.2500
  2807.7500     29.3358     78.6244    158.2470   -999.2500
  2808.0000     29.5723     78.3505    160.4496   -999.2500
  2808.2500     29.9017     78.1490    163.5849   -999.2500
  2808.5000     30.2679     77.9800 100000.0000   -999.2500
  2808.7500     30.5249     77.8049 100000.0000   -999.2500
  2809.0000     30.5217     77.6070 100000.0000   -999.2500
  2809.2500     30.2726     77.3956 100000.0000   -999.2500
  2809.5000     29.9918     77.1916 100000.0000   -999.2500
  2809.7500     29.8680     76.9989 100000.0000   -999.2500
  2810.0000     29.8570     76.7772 100000.0000   -999.2500
  2810.2500     29.7935     76.3885 100000.0000   -999.2500
  2810.5000     29.5996     75.4566 100000.0000   -999.2500
  2810.7500     29.3000     73.1195 100000.0000   -999.2500
  2811.0000     28.9427     67.9526 100000.0000   -999.2500
  2811.2500     28.4600     58.6148 100000.0000   -999.2500
  2811.5000     27.2783     45.2193 100000.0000   -999.2500
  2811.7500     24.0528     30.1371 100000.0000   -999.2500
  2812.0000     17.8374     16.8678 100000.0000   -999.2500
  2812.2500     10.1024      7.7620 100000.0000   -999.2500
  2812.5000      3.9358      2.8921 100000.0000   -999.2500
  2812.7500      0.7836      0.8629 100000.0000   -999.2500
  2813.0000     -0.2504      0.2043 100000.0000   -999.2500
  2813.2500     -0.4681      0.0378 100000.0000   -999.2500
  2813.5000     -0.4975      0.0050 100000.0000   -999.2500
  2813.7500   -999.2500   -999.2500 100000.0000   -999.2500
  2814.0000   -999.2500   -999.2500 100000.0000   -999.2500
  2814.2500   -999.2500   -999.2500 100000.0000   -999.2500
  2814.5000   -999.2500   -999.2500 100000.0000   -999.2500
  2814.7500   -999.2500   -999.2500 100000.0000   -999.2500
  2815.0000   -999.2500   -999.2500 100000.0000   -999.2500
