~Version Information
VERS.                      2.0: CWLS Log ASCII Standard - VERSION 2.0
WRAP.                       NO: One line per depth step
~Well Information Block
STRT.FT                -6.0000: 
STOP.FT              1295.2500: 
STEP.FT                 0.2500: 
NULL.                -999.2500: 
COMP.          Pioneer Natural Resources: COMPANY
WELL.            Erin 21-15 Tr: WELL
FLD.           Purgatoire River: FIELD
LOC.           1217' FNL & 2284' FWL--: LOCATION
CNTY.               Las Animas: COUNTY
SRVC.                         : SERVICE COMPANY
DATE.          Fri Mar 10 09:14:17 2006: LOG DATE
UWI.           05 071 08712 00: UNIQUE WELL ID
STAT.                       CO: STATE
~Curve Information Block
DEPT.FT            0 000 00 00: Depth
GR.GAPI                       : Gamma Ray
CCL.                          : Casing Collar Locator
TT3.usec                      : CBL 3' Travel Time
AMP3.mV                       : CBL 3' Amplitude
~Parameter Information Block
~A  Depth        GR         CCL         TT3         AMP3    
# ...
   496.5000     55.0660      0.0000    494.3339     16.9224
   496.7500     54.3630      0.0000    479.6059     17.0710
   497.0000     55.5782      0.0000    447.8200     17.1663
   497.2500     57.5133      0.0000    413.8312     17.1972
   497.5000     59.9220      0.0000    388.8598     17.1419
   497.7500     63.3330      0.0000    375.2964     16.9961
   498.0000     67.9170      0.0000    371.4867     16.7940
   498.2500     72.8145      0.0000    378.8718     16.6058
   498.5000     76.8124      0.0000    403.7839     16.5039
   498.7500     79.5348      0.0000    451.2274     16.5040
   499.0000     81.5297      0.0000    514.3041     16.5399
   499.2500     83.1642      0.0000    569.7991     16.5256
   499.5000     83.9893      0.0000    589.5735     16.4485
   499.7500     83.4498      0.0000    561.6243     16.3784
   500.0000     81.8082      0.0000    500.2215     16.3948
   500.2500     80.0539      0.0000    433.9128     16.5251
   500.5000     79.0202      0.0000    384.4302     16.7254
   500.7500     78.7967      0.0000    356.8434     16.8852
   501.0000     78.9862      0.0000    344.9463     16.8807
   501.2500     79.2453      0.0000    340.8190     16.6658
   501.5000     79.2791      0.0000    339.5673     16.3041
   501.7500     78.5585      0.0000    339.2445     15.9043
   502.0000     76.6185      0.0000    339.3433     15.5480
   502.2500     73.7898      0.0000    339.8427     15.2783
   502.5000     71.3579      0.0000    341.1230     15.1191
   502.7500     70.7326      0.0000    344.7877     15.0781
   503.0000     72.3357      0.0000    355.0290     15.1340
   503.2500     75.2704      0.0000    379.0138     15.2328
   503.5000     78.1654      0.0000    423.5693     15.3091
   503.7500     80.3760      0.0000    488.2625     15.3201
   504.0000     82.2586      0.0000    561.3879     15.2615
   504.2500     84.3069      0.0000    625.8392     15.1429
   504.5000     86.2510      0.0000    670.7411     14.9565
   504.7500     87.0192      0.0000    696.5894     14.6885
   505.0000     85.5048      0.0000    709.9824     14.3529
   505.2500     81.6129      0.0000    716.4853     13.9889
   505.5000     76.6956      0.0000    719.1936     13.6311
   505.7500     72.6565      0.0000    721.0638     13.3087
   506.0000     70.4392      0.0000    725.6495     13.0600
   506.2500     69.4271      0.0000    735.1021     12.9203
   506.5000     68.1697      0.0000    748.3698     12.8910
   506.7500     65.4859      0.0000    761.9392     12.9336
   507.0000     61.1438      0.0000    772.1378     12.9928
   507.2500     56.0818      0.0000    776.6628     13.0230
   507.5000     52.1319      0.0000    775.1669     12.9904
   507.7500     50.9180      0.0000    769.6999     12.8666
   508.0000     52.5433      0.0000    763.7643     12.6493
   508.2500     55.6159      0.0000    759.5648     12.3921
   508.5000     58.8205      0.0000    756.5984     12.1831
   508.7500     61.9811      0.0000    753.9128     12.0837
   509.0000     65.3105      0.0000    752.9426     12.1005
   509.2500     68.4165      0.0000    756.8737     12.2111
   509.5000     70.7861      0.0000    767.2283     12.3972
   509.7500     72.7841      0.0000    781.4891     12.6472
   510.0000     75.3340      0.0000    794.0709     12.9403
   510.2500     78.5990      0.0000    799.5462     13.2332
   510.5000     81.5497      0.0000    795.5184     13.4577
   510.7500     82.9240      0.0000    783.5393     13.5426
   511.0000     82.3062      0.0000    767.8101     13.4572
   511.2500     80.3030      0.0000    752.4981     13.2284
   511.5000     78.1251      0.0000    740.1262     12.8993
   511.7500     77.1583      0.0000    733.0393     12.4736
   512.0000     78.3800      0.0000    734.8530     11.9293
   512.2500     81.4330      0.0000    747.0450     11.2984
   512.5000     84.3725      0.0000    763.3192     10.7050
   512.7500     85.0568      0.0000    771.2687     10.2771
   513.0000     83.0401      0.0000    763.4970     10.0296
   513.2500     79.8688      0.0000    745.5184      9.8743
   513.5000     77.5959      0.0000    729.5927      9.7192
   513.7500     77.2267      0.0000    723.0705      9.5100
   514.0000     78.3121      0.0000    726.3401      9.2149
   514.2500     79.6281      2.0000    738.5361      8.8421
   514.5000     80.2638      2.0000    758.7653      8.4696
   514.7500     80.1881      0.0000    781.9796      8.2374
   515.0000     79.8614      0.0000    798.8220      8.2918
   515.2500     79.5941      0.0000    801.8157      8.6805
   515.5000     79.6089      0.0000    790.8890      9.2542
   515.7500     80.5619      0.0000    772.9787      9.7269
   516.0000     83.4959      0.0000    757.0120      9.9093
   516.2500     89.1004      0.0000    748.6715      9.8594
   516.5000     97.0762      0.0000    748.4855      9.7800
   516.7500    105.9727      0.0000    753.7225      9.8187
   517.0000    113.4852      0.0000    761.4816      9.9838
   517.2500    117.3299      0.0000    770.2878     10.1874
   517.5000    116.3990      0.0000    779.8958     10.3357
   517.7500    111.2976      0.0000    790.1387     10.3962
   518.0000    103.7045      0.0000    799.9379     10.4049
   518.2500     95.2394      0.0000    807.4048     10.4189
   518.5000     86.9822      0.0000    810.9653     10.4616
   518.7500     79.7674      0.0000    810.3426     10.5089
   519.0000     74.3083      0.0000    806.6040     10.5213
   519.2500     70.8310      0.0000    801.4948     10.4869
   519.5000     69.0191      0.0000    796.6696     10.4289
   519.7500     68.6501      0.0000    793.1826     10.3817
   520.0000     70.0112      0.0000    791.2756     10.3750
   520.2500     73.3742      0.0000    790.4614     10.4335
   520.5000     78.2457      0.0000    789.8818     10.5605
   520.7500     83.4062      0.0000    788.4914     10.7014
   521.0000     87.6399      0.0000    784.8464     10.7412
   521.2500     90.2860      0.0000    777.3318     10.5691
   521.5000     91.1527      0.0000    765.3574     10.1585
   521.7500     90.0968      0.0000    750.8132      9.5850
   522.0000     86.9939      0.0000    738.1014      8.9743
   522.2500     82.3269      0.0000    731.6185      8.4388
   522.5000     77.5851      0.0000    732.2809      8.0512
   522.7500     74.6663      0.0000    736.9771      7.8474
   523.0000     74.7492      0.0000    742.0192      7.8308
   523.2500     77.7408      0.0000    746.5013      7.9663
   523.5000     82.5810      0.0000    751.7338      8.1866
   523.7500     87.7449      0.0000    758.2609      8.4196
   524.0000     91.4538      0.0000    764.4770      8.6196
   524.2500     92.0254      0.0000    768.0867      8.7765
   524.5000     88.7337      0.0000    768.3079      8.9004
   524.7500     82.4277      0.0000    766.5424      9.0065
   525.0000     74.9634      0.0000    765.1654      9.1159
   525.2500     67.8165      0.0000    765.6669      9.2547
   525.5000     61.3123      0.0000    767.8365      9.4401
   525.7500     55.1637      0.0000    770.4290      9.6654
   526.0000     49.4319      0.0000    772.1379      9.8983
   526.2500     44.6769      0.0000    772.1018     10.0941
   526.5000     41.2706      0.0000    770.4294     10.2160
   526.7500     38.8583      0.0000    768.7095     10.2590
   527.0000     36.6593      0.0000    769.2810     10.2539
   527.2500     34.2460      0.0000    773.2192     10.2453
   527.5000     32.0962      0.0000    779.0661     10.2668
   527.7500     31.4642      0.0000    783.9464     10.3339
   528.0000     33.4776      0.0000    785.8586     10.4411
   528.2500     38.0584      0.0000    784.4025     10.5671
   528.5000     43.7702      0.0000    779.6829     10.6935
   528.7500     48.8629      0.0000    771.8867     10.8189
   529.0000     52.4464      0.0000    762.1949     10.9523
   529.2500     54.7824      0.0000    752.8635     11.0991
   529.5000     56.6842      0.0000    745.6854     11.2546
   529.7500     58.5909      0.0000    740.8942     11.4033
