~Version Information
VERS.                      2.0: CWLS Log ASCII Standard - VERSION 2.0
WRAP.                       NO: One line per depth step
~Well Information Block
STRT.FT               452.0000: 
STOP.FT              1726.5000: 
STEP.FT                 0.1000: 
NULL.                -999.2500: 
COMP.          Pioneer Natural Resources: COMPANY
WELL.          Parrothead 31-31 Tr: WELL
FLD.           Purgatoire River: FIELD
LOC.           496' FNL & 1546' FEL: LOCATION
PROV.                 Colorado: PROVINCE
CNTY.               Las Animas: COUNTRY
SRVC.                Patterson: SERVICE COMPANY
DATE.          Thu Nov 10 07:29:36 2005: LOG DATE
UWI.           05 071 08610 00: UNIQUE WELL ID
~Curve Information Block
DEPT.FT            0 000 00 00: Depth
DCAL.in                       : CDL Caliper
RHOB.g/cc                     : CDL Bulk Density
RHOC.g/cc                     : CDL Density Correction
DPOR.pu                       : CDL Density Porosity
GR.GAPI                       : Gamma Ray
NPOR.pu                       : Neutron Porosity
~Parameter Information Block
~A  Depth       DCAL        RHOB        RHOC        DPOR         GR         NPOR    
# ...
  1373.6000      7.8200      2.2852      0.0170     22.1065     61.4606     11.0878
  1373.7000      7.8200      2.2733      0.0214     22.8317     61.7203     11.0401
  1373.8000      7.8083      2.2732      0.1024     22.8384     61.5549     10.8112
  1373.9000      7.8083      2.2511      0.1831     24.1731     61.0056     10.7863
  1374.0000      7.7871      2.1944      0.1604     27.6125     57.0786     11.1724
  1374.1000      7.7871      2.1313      0.1933     31.4361     52.1376     11.7290
  1374.2000      7.7871      2.0938      0.0857     33.7065     50.2530     12.3190
  1374.3000      7.7808      2.0888      0.1049     34.0150     48.6220     12.9940
  1374.4000      7.7808      2.0984      0.1028     33.4275     45.4357     13.6953
  1374.5000      7.7537      2.0998      0.1357     33.3425     43.3296     14.2410
  1374.6000      7.7537      2.0734      0.1649     34.9475     43.3882     14.4229
  1374.7000      7.7537      2.0137      0.1477     38.5658     43.2482     14.2380
  1374.8000      7.8419      1.9398      0.1027     43.0410     40.3543     14.0954
  1374.9000      7.8419      1.8863     -0.0380     46.2860     37.8107     14.3947
  1375.0000      7.8721      1.8916     -0.1256     45.9642     39.8797     14.7675
  1375.1000      7.8721      1.9592     -0.0696     41.8675     42.8708     14.6076
  1375.2000      7.8721      2.0460     -0.0404     36.6033     41.1231     13.9825
  1375.3000      7.8124      2.1111      0.0775     32.6635     36.1847     13.1914
  1375.4000      7.8124      2.1353      0.1958     31.1965     34.0051     12.4516
  1375.5000      7.7538      2.1182      0.2006     32.2292     35.6812     11.8959
  1375.6000      7.7538      2.0698      0.2235     35.1646     35.7239     11.4497
  1375.7000      7.7538      1.9966      0.1531     39.6006     33.2388     11.1092
  1375.8000      7.7270      1.9132     -0.0153     44.6564     32.0493     10.9235
  1375.9000      7.7270      1.8359     -0.0305     49.3396     33.5336     10.8726
  1376.0000      7.7499      1.7653     -0.1402     53.6174     37.4613     10.9817
  1376.1000      7.7499      1.6885     -0.0883     58.2754     40.8440     11.0310
  1376.2000      7.7499      1.5818     -0.0650     64.7399     39.7308     10.6956
  1376.3000      7.9107      1.4476     -0.0469     72.8715     35.1102     10.0863
  1376.4000      7.9107      1.3235     -0.0262     80.3969     30.6701      9.4940
  1376.5000      7.9535      1.2278      0.0062     86.1948     28.6694      8.8024
  1376.6000      7.9535      1.1435     -0.0009     91.3018     29.3508      7.7977
  1376.7000      7.9535      1.0617     -0.0421     96.2582     31.3817      6.7046
  1376.8000      7.8551      1.0013     -0.0947     99.9204     32.4681      5.9515
  1376.9000      7.8551      0.9803     -0.0698    101.1919     30.7338      5.7424
  1377.0000      7.8779      0.9991     -0.0443    100.0526     28.5453      5.9821
  1377.1000      7.8779      1.0558     -0.0287     96.6173     28.4592      6.4239
  1377.2000      7.8779      1.1421      0.1088     91.3880     29.6212      6.9229
  1377.3000      8.1260      1.2321      0.1954     85.9341     30.9509      7.4542
  1377.4000      8.1260      1.3064      0.2583     81.4312     31.1982      7.9889
  1377.5000      8.0199      1.3683      0.2573     77.6781     31.2308      8.6685
  1377.6000      8.0199      1.4219      0.2763     74.4310     34.0374      9.6572
  1377.7000      8.0199      1.4519      0.2732     72.6151     38.4323     10.8081
  1377.8000      8.0446      1.4571      0.1264     72.2975     42.3584     12.1038
  1377.9000      8.0446      1.4792      0.0660     70.9592     47.8645     13.8812
  1378.0000      8.0215      1.5522      0.1188     66.5314     58.6295     16.0962
  1378.1000      8.0215      1.6649      0.1352     59.7042     73.6181     18.4442
  1378.2000      8.0215      1.7911      0.2292     52.0553     87.6518     20.6594
  1378.3000      8.0957      1.9211      0.2349     44.1756    100.0999     22.1880
  1378.4000      8.0957      2.0526      0.2853     36.2031    109.6165     22.6707
  1378.5000      8.1720      2.1641      0.3488     29.4510    109.3990     22.4849
  1378.6000      8.1720      2.2335      0.2801     25.2396    102.0486     22.3065
  1378.7000      8.1720      2.2796      0.1550     22.4498     98.4475     22.5112
  1378.8000      8.0433      2.3304      0.1899     19.3704    102.3264     23.2949
  1378.9000      8.0433      2.3812      0.1478     16.2900    111.3092     24.3316
  1379.0000      7.9391      2.4201      0.1237     13.9347    123.4686     24.9154
  1379.1000      7.9391      2.4458      0.1415     12.3739    131.1081     24.9360
  1379.2000      7.9391      2.4510      0.1559     12.0615    129.3311     24.5550
  1379.3000      7.9644      2.4303      0.1180     13.3146    127.9135     23.9018
  1379.4000      7.9644      2.3958      0.1269     15.4045    133.0799     23.2283
  1379.5000      7.9701      2.3616      0.1151     17.4777    140.2490     22.6981
  1379.6000      7.9701      2.3258      0.1602     19.6503    145.1389     22.0280
  1379.7000      7.9701      2.2832      0.0667     22.2290    145.8407     20.9708
  1379.8000      7.9663      2.2420      0.0516     24.7247    143.2404     19.9381
  1379.9000      7.9663      2.2025      0.0854     27.1197    139.9870     19.1416
  1380.0000      7.9532      2.1586      0.0803     29.7797    138.0737     18.3541
  1380.1000      7.9532      2.1183      0.0663     32.2242    136.9312     17.6795
  1380.2000      7.9532      2.0866      0.0545     34.1434    135.4550     17.5764
  1380.3000      7.9456      2.0524      0.0379     36.2198    134.1227     18.0778
  1380.4000      7.9456      2.0039      0.0680     39.1561    132.6866     18.7171
  1380.5000      7.9751      1.9417      0.0962     42.9269    131.8904     19.2411
  1380.6000      7.9751      1.8751      0.0759     46.9610    130.4549     19.5674
  1380.7000      7.9751      1.8195      0.0411     50.3328    125.1102     19.5357
  1380.8000      7.9935      1.7941      0.0588     51.8701    119.9151     19.2162
  1380.9000      7.9935      1.8071      0.0421     51.0851    120.3616     19.3107
  1381.0000      8.0073      1.8522      0.0150     48.3542    124.1981     20.3352
  1381.1000      8.0073      1.9222      0.0430     44.1107    126.4788     21.7538
  1381.2000      8.0073      2.0129      0.1027     38.6142    123.0662     23.0014
  1381.3000      8.0363      2.1191      0.1686     32.1758    117.6028     24.1314
  1381.4000      8.0363      2.2320      0.2878     25.3363    120.7318     25.1455
  1381.5000      8.0330      2.3386      0.3596     18.8718    132.1616     25.9324
  1381.6000      8.0330      2.4176      0.3800     14.0875    142.5632     26.3590
  1381.7000      8.0330      2.4387      0.3233     12.8064    146.8085     26.3938
  1381.8000      8.0118      2.4007      0.1148     15.1070    143.9880     26.4381
  1381.9000      8.0118      2.3499      0.0039     18.1864    136.8733     26.8967
  1382.0000      7.9569      2.3320      0.0008     19.2722    129.2249     27.4327
  1382.1000      7.9569      2.3529      0.0620     18.0080    123.8093     27.5609
  1382.2000      7.9569      2.3899      0.0748     15.7626    124.2265     27.6208
  1382.3000      7.9236      2.4223      0.1564     13.8004    133.2587     27.8570
  1382.4000      7.9236      2.4471      0.1475     12.2944    146.9417     28.0073
  1382.5000      7.9127      2.4683      0.1860     11.0110    155.5770     28.1819
  1382.6000      7.9127      2.4783      0.2000     10.4078    154.0195     28.6751
  1382.7000      7.9127      2.4742      0.2132     10.6539    146.1522     29.3129
  1382.8000      7.9313      2.4741      0.1496     10.6619    140.6290     29.6717
  1382.9000      7.9313      2.4924      0.1751      9.5544    141.3824     29.7142
  1383.0000      7.9441      2.5265      0.1400      7.4841    143.0251     29.6272
  1383.1000      7.9441      2.5777      0.1229      4.3816    139.9396     29.2882
