~Version Information
VERS.                      2.0: CWLS Log ASCII Standard - VERSION 2.0
WRAP.                       NO: One line per depth step
~Well Information Block
STRT.FT               390.0000: 
STOP.FT              1434.5000: 
STEP.FT                 0.1000: 
NULL.                -999.2500: 
COMP.          Pioneer Natural Resources: COMPANY
WELL.             John K 12-28: WELL
FLD.           Purgatoire River: FIELD
LOC.           1476' FNL & 465' FWL: LOCATION
CNTY.               Las Animas: COUNTY
SRVC.                Patterson: SERVICE COMPANY
DATE.          Mon Apr 10 06:53:47 2006: LOG DATE
UWI.           05 071 08723 00: UNIQUE WELL ID
STAT.                 Colorado: STATE
~Curve Information Block
DEPT.FT            0 000 00 00: Depth
DCAL.in                       : CDL Caliper
RHOB.g/cc                     : CDL Bulk Density
RHOC.g/cc                     : CDL Density Correction
DPOR.pu                       : CDL Density Porosity
GR.GAPI                       : Gamma Ray
NPOR.pu                       : Neutron Porosity
~Parameter Information Block
~A  Depth       DCAL        RHOB        RHOC        DPOR         GR         NPOR    
# ...
  1014.0000      7.8518      2.5230      0.0778      7.6953     97.2139     27.0304
  1014.1000      7.8518      2.5275      0.0731      7.4245     93.9210     26.8968
  1014.2000      7.8518      2.5412      0.0621      6.5953     93.5529     26.9202
  1014.3000      7.8503      2.5667      0.0830      5.0493     93.7140     27.2548
  1014.4000      7.8503      2.5918      0.1087      3.5274     91.2933     27.6403
  1014.5000      7.8491      2.6057      0.0920      2.6828     89.0041     27.3931
  1014.6000      7.8491      2.6143      0.0751      2.1607     88.2431     26.1482
  1014.7000      7.8491      2.6266      0.0533      1.4159     86.0602     24.8908
  1014.8000      7.8498      2.6358      0.0872      0.8593     83.1324     24.7536
  1014.9000      7.8498      2.6308      0.0754      1.1611     83.8619     25.5382
  1015.0000      7.8504      2.6165      0.0387      2.0317     88.7389     26.2748
  1015.1000      7.8504      2.5959      0.0719      3.2813     94.4716     26.5812
  1015.2000      7.8504      2.5708     -0.0039      4.7991     97.7087     26.6985
  1015.3000      7.8496      2.5595      0.0177      5.4871     98.2367     26.6441
  1015.4000      7.8496      2.5647      0.0485      5.1673     97.7504     26.4444
  1015.5000      7.8490      2.5695      0.0208      4.8771     97.5472     26.0480
  1015.6000      7.8490      2.5677      0.0436      4.9859     98.0063     25.1704
  1015.7000      7.8490      2.5665      0.0629      5.0634     98.1651     24.2490
  1015.8000      7.8489      2.5759      0.0407      4.4908     99.4123     24.3673
  1015.9000      7.8489      2.5972      0.0791      3.1983    100.9202     25.4705
  1016.0000      7.8490      2.6222      0.0934      1.6832     97.8249     26.1477
  1016.1000      7.8490      2.6471      0.0862      0.1758     91.7383     25.5353
  1016.2000      7.8490      2.6635      0.0978     -0.8210     91.0442     24.5089
  1016.3000      7.8493      2.6563      0.0990     -0.3835     95.5938     24.2278
  1016.4000      7.8493      2.6293      0.0766      1.2525     97.3484     24.7685
  1016.5000      7.8493      2.6089      0.0643      2.4921     95.4513     25.6293
  1016.6000      7.8493      2.6145      0.0300      2.1510     93.3436     26.0233
  1016.7000      7.8493      2.6288      0.1103      1.2868     91.9350     25.4295
  1016.8000      7.8490      2.6153      0.0130      2.1044     90.6718     24.7448
  1016.9000      7.8490      2.5794     -0.0104      4.2780     90.3585     24.7146
  1017.0000      7.8489      2.5560     -0.0013      5.6991     92.9800     24.9549
  1017.1000      7.8489      2.5512      0.0313      5.9908     97.4851     25.1260
  1017.2000      7.8489      2.5488      0.0088      6.1336    103.2280     25.3923
  1017.3000      7.8490      2.5462      0.0227      6.2886    108.2608     25.7637
  1017.4000      7.8490      2.5464      0.0629      6.2759    108.0829     25.8744
  1017.5000      7.8498      2.5491     -0.0009      6.1160    101.7598     25.8266
  1017.6000      7.8498      2.5575      0.0443      5.6051     92.8874     25.9051
  1017.7000      7.8498      2.5748      0.0122      4.5601     88.3208     25.8211
  1017.8000      7.8504      2.5938      0.0579      3.4043     93.8362     25.5561
  1017.9000      7.8504      2.5956      0.0721      3.2966    102.9452     25.4035
  1018.0000      7.8505      2.5787      0.0305      4.3213    106.5000     25.4378
  1018.1000      7.8505      2.5697      0.0196      4.8690    106.6810     25.4263
  1018.2000      7.8505      2.5838      0.0540      4.0118    105.3603     25.3072
  1018.3000      7.8512      2.6014      0.0484      2.9429    102.8594     25.2555
  1018.4000      7.8512      2.5974      0.0765      3.1906    102.6231     25.3338
  1018.5000      7.8522      2.5739      0.0606      4.6113    104.9571     25.7999
  1018.6000      7.8522      2.5527      0.0123      5.8968    105.6265     26.5851
  1018.7000      7.8522      2.5483      0.0420      6.1660    102.8745     26.9601
  1018.8000      7.8507      2.5592      0.0250      5.5046     99.3357     26.8312
  1018.9000      7.8507      2.5747      0.0654      4.5656     96.5096     26.6377
  1019.0000      7.8481      2.5841      0.0662      3.9961     94.1006     26.2914
  1019.1000      7.8481      2.5924      0.0730      3.4888     94.0822     25.8031
  1019.2000      7.8481      2.6025      0.1226      2.8778     96.7674     25.7240
  1019.3000      7.8463      2.6060      0.0840      2.6662     99.4872     26.1264
  1019.4000      7.8463      2.6077      0.0921      2.5612    101.6641     26.1212
  1019.5000      7.8462      2.6132      0.0749      2.2325    102.5284     25.5741
  1019.6000      7.8462      2.6181      0.0783      1.9355    100.6984     25.3395
  1019.7000      7.8462      2.6127      0.1330      2.2610     98.1936     25.4246
  1019.8000      7.8450      2.5819      0.1032      4.1288     97.4327     25.3548
  1019.9000      7.8450      2.5321      0.0008      7.1474     96.8627     25.1366
  1020.0000      7.8429      2.4926     -0.0111      9.5423     95.1087     24.8560
  1020.1000      7.8429      2.4782     -0.0189     10.4146     94.9473     24.6472
  1020.2000      7.8429      2.4861     -0.0125      9.9359     95.6771     24.4837
  1020.3000      7.8440      2.5070      0.0271      8.6684     91.9469     24.2686
  1020.4000      7.8440      2.5285      0.0280      7.3624     84.9326     23.9390
  1020.5000      7.8458      2.5473      0.0573      6.2223     79.2432     23.3579
  1020.6000      7.8458      2.5700      0.0443      4.8497     75.7574     22.7739
  1020.7000      7.8458      2.5948      0.1029      3.3467     75.2237     22.6274
  1020.8000      7.8466      2.6089      0.0639      2.4907     77.7343     23.1443
  1020.9000      7.8466      2.6103      0.0808      2.4031     80.4868     23.7561
  1021.0000      7.8471      2.6110      0.0659      2.3664     81.6254     23.4930
  1021.1000      7.8471      2.6205      0.1006      1.7852     82.4769     22.7896
  1021.2000      7.8471      2.6310      0.0819      1.1486     82.3719     22.9058
  1021.3000      7.8475      2.6221      0.1132      1.6925     80.8396     23.8753
  1021.4000      7.8475      2.5930      0.0235      3.4559     81.0940     24.5573
  1021.5000      7.8474      2.5691      0.0695      4.9002     83.0881     24.3198
  1021.6000      7.8474      2.5646      0.0240      5.1744     84.1610     23.5970
  1021.7000      7.8474      2.5764      0.0655      4.4582     82.7477     23.0950
  1021.8000      7.8472      2.5941      0.0725      3.3889     79.5318     23.0890
  1021.9000      7.8472      2.6016      0.0953      2.9337     77.5657     23.7748
  1022.0000      7.8472      2.5937      0.0504      3.4114     76.2873     24.7218
  1022.1000      7.8472      2.5822      0.0617      4.1065     72.6440     24.7130
  1022.2000      7.8472      2.5774      0.0090      4.4019     66.0701     23.4749
  1022.3000      7.8480      2.5763      0.0915      4.4660     57.7205     22.0318
  1022.4000      7.8480      2.5715      0.0493      4.7565     51.8623     21.3875
  1022.5000      7.8506      2.5671      0.0510      5.0212     50.3018     21.7586
  1022.6000      7.8506      2.5672      0.0230      5.0166     49.8630     22.5087
  1022.7000      7.8506      2.5658      0.0265      5.1025     48.8629     22.9673
  1022.8000      7.8530      2.5608      0.0086      5.4057     47.6878     23.0567
  1022.9000      7.8530      2.5587      0.0204      5.5337     47.4329     23.1508
  1023.0000      7.8544      2.5644      0.0052      5.1853     48.4595     23.6076
  1023.1000      7.8544      2.5689      0.0480      4.9146     49.0258     24.2213
  1023.2000      7.8544      2.5605     -0.0206      5.4246     48.2655     24.2448
  1023.3000      7.8553      2.5504     -0.0100      6.0344     47.6090     23.7463
  1023.4000      7.8553      2.5545     -0.0318      5.7885     48.8777     23.6785
  1023.5000      7.8513      2.5637      0.0521      5.2320     52.8797     24.2508
