~Version Information
VERS.                      2.0: CWLS Log ASCII Standard - VERSION 2.0
WRAP.                       NO: One line per depth step
~Well Information Block
STRT.FT                -6.5000: 
STOP.FT              1773.5000: 
STEP.FT                 0.2500: 
NULL.                -999.2500: 
COMP.          Pioneer Natural Resources: COMPANY
WELL.           Lynch 43-30 Tr: WELL
FLD.           Purgatorie River: FIELD
LOC.           1431' FSL & 296' FEL--: LOCATION
PROV.                       CO: PROVINCE
CNTY.               Las Animas: COUNTRY
SRVC.          Patterson Wireline: SERVICE COMPANY
DATE.          Tue Aug 02 09:28:21 2005: LOG DATE
UWI.           05 071 08447 00: UNIQUE WELL ID
~Curve Information Block
DEPT.FT            0 000 00 00: Depth
CCL.                          : Casing Collar Locator
TT3.usec                      : CBL 3' Travel Time
AMP3.mV                       : CBL 3' Amplitude
GR.GAPI                       : Gamma Ray
~Parameter Information Block
MINAMPL.mV              1.0000: Minimum Amplitude
~A  Depth       CCL         TT3         AMP3         GR     
# ...
   462.5000      0.0000    870.3320     18.2469    119.2748
   462.7500      0.0000    882.9790     18.1669    114.1830
   463.0000      0.0000    889.0322     18.1316    108.9614
   463.2500      0.0000    883.6907     18.1478    106.1105
   463.5000      0.0000    869.0104     18.2164    106.8727
   463.7500      0.0000    851.9669     18.3313    110.1173
   464.0000      0.0000    838.6932     18.4724    112.8433
   464.2500      0.0000    831.0244     18.6051    112.3759
   464.5000      0.0000    827.5039     18.6953    108.0584
   464.7500      0.0000    826.0338     18.7316    100.9754
   465.0000      0.0000    825.3174     18.7342     92.9305
   465.2500      0.0000    824.8731     18.7400     85.6651
   465.5000      0.0000    824.6147     18.7754     80.0266
   465.7500      0.0000    824.5684     18.8395     75.7243
   466.0000      0.0000    824.7334     18.9147     72.4430
   466.2500      0.0000    825.0209     18.9900     70.9057
   466.5000      0.0000    825.2698     19.0690     72.1558
   466.7500      0.0000    825.3395     19.1517     76.1366
   467.0000      0.0000    825.2287     19.2177     81.6806
   467.2500      0.0000    824.9312     19.2391     87.6992
   467.5000      0.0000    824.0008     19.2168     93.6931
   467.7500      0.0000    820.9642     19.1953     99.2698
   468.0000      0.0000    813.6537     19.2357    103.8983
   468.2500      0.0000    801.5130     19.3648    107.2457
   468.5000      0.0000    788.1562     19.5436    109.2147
   468.7500      0.0000    779.7314     19.6855    109.4875
   469.0000      0.0000    779.0499     19.7129    107.5450
   469.2500      0.0000    782.8297     19.6050    103.4225
   469.5000      0.0000    785.9651     19.3966     98.1339
   469.7500      0.0000    786.5253     19.1456     93.0031
   470.0000      0.0000    785.6127     18.9119     88.5408
   470.2500      0.0000    784.2729     18.7566     84.0641
   470.5000      0.0000    781.4282     18.7361     78.6463
   470.7500      0.0000    772.9557     18.8795     72.5891
   471.0000      0.0000    751.6964     19.1690     67.5229
   471.2500      0.0000    710.5853     19.5488     64.6585
   471.5000      0.0000    649.4063     19.9544     63.3211
   471.7500      0.0000    579.2213     20.3245     61.7623
   472.0000      0.0000    519.0123     20.5636     59.1709
   472.2500      0.0000    488.5248     20.5020     56.4105
   472.5000      0.0000    503.7462     19.9504     54.8485
   472.7500      0.0000    571.9427     18.8544     54.8963
   473.0000      0.0000    682.9703     17.4047     55.7109
   473.2500      0.0000    806.6492     15.9624     55.9102
   473.5000      0.0000    906.7689     14.8515     54.3902
   473.7500      0.0000    963.0078     14.1940     50.9019
   474.0000      0.0000    979.4493     13.9013     46.3671
   474.2500      0.0000    972.7081     13.7947     42.4884
   474.5000      0.0000    956.6577     13.7466     40.6215
   474.7500     -2.0000    939.4799     13.7580     40.9397
   475.0000      0.0000    926.1519     13.9674     42.6834
   475.2500      0.0000    914.9395     14.5708     45.0083
   475.5000      0.0000    894.8024     15.6278     47.4869
   475.7500      0.0000    854.8416     16.9083     50.0027
   476.0000      0.0000    798.1793     18.0206     52.4296
   476.2500      0.0000    743.7869     18.7338     54.5790
   476.5000      0.0000    713.0054     19.1014     56.3985
   476.7500      0.0000    713.2397     19.2849     57.9313
   477.0000      0.0000    734.0311     19.3798     59.0085
   477.2500      0.0000    758.2070     19.4174     59.3542
   477.5000      0.0000    775.0755     19.4227     59.1527
   477.7500      0.0000    783.4848     19.4245     59.1540
   478.0000      0.0000    786.8058     19.4447     59.8300
   478.2500      0.0000    788.1890     19.4970     60.5792
   478.5000      0.0000    789.3741     19.5855     60.2335
   478.7500      0.0000    791.1969     19.6977     58.2907
   479.0000      0.0000    793.8961     19.8077     55.2194
   479.2500      0.0000    797.1414     19.8894     51.7838
   479.5000      0.0000    800.3392     19.9324     48.6338
   479.7500      0.0000    803.2031     19.9445     46.4309
   480.0000      0.0000    805.5992     19.9417     45.8082
   480.2500      0.0000    806.8988     19.9374     46.9389
   480.5000      0.0000    806.3934     19.9373     49.1959
   480.7500      0.0000    804.4358     19.9402     51.3566
   481.0000      0.0000    801.6652     19.9430     52.3717
   481.2500      0.0000    795.5331     19.9463     52.1910
   481.5000      0.0000    777.8925     19.9567     51.7881
   481.7500      0.0000    738.5090     19.9831     52.0857
   482.0000      0.0000    674.2684     20.0292     52.9180
   482.2500      0.0000    595.7908     20.0907     53.4175
   482.5000      0.0000    522.3610     20.1620     53.2787
   482.7500      0.0000    468.0627     20.2422     53.1019
   483.0000      0.0000    433.4047     20.3342     53.5189
   483.2500      0.0000    410.1517     20.4365     54.5336
   483.5000      0.0000    391.1609     20.5399     55.7079
   483.7500      0.0000    374.3833     20.6305     56.5356
   484.0000      0.0000    360.6683     20.6957     56.7343
   484.2500      0.0000    350.8725     20.7282     56.6362
   484.5000      0.0000    344.8508     20.7275     57.1960
   484.7500      0.0000    341.6910     20.6985     59.2531
   485.0000      0.0000    340.3011     20.6459     62.6869
   485.2500      0.0000    339.8830     20.5713     66.3016
   485.5000      0.0000    340.1931     20.4732     68.6572
   485.7500      0.0000    341.9598     20.3508     69.2990
   486.0000      0.0000    347.8421     20.2087     69.2598
   486.2500      0.0000    363.4511     20.0588     70.1975
   486.5000      0.0000    396.6331     19.9127     72.9954
   486.7500      0.0000    452.3263     19.7711     77.1515
   487.0000      0.0000    524.7318     19.6286     81.3345
   487.2500      0.0000    596.0533     19.4904     84.5985
   487.5000      0.0000    646.8685     19.3821     87.1548
   487.7500      0.0000    667.1718     19.3328     89.9716
   488.0000      0.0000    656.3387     19.3496     94.0554
   488.2500      0.0000    619.9597     19.4090    100.3921
   488.5000      0.0000    572.0060     19.4742    109.5240
   488.7500      0.0000    531.1514     19.5202    120.1489
   489.0000      0.0000    505.9469     19.5459    128.8652
   489.2500      0.0000    488.0618     19.5674    132.5817
   489.5000      0.0000    465.3487     19.5987    131.2572
   489.7500      0.0000    436.7939     19.6389    127.7747
   490.0000      0.0000    410.7014     19.6786    125.4137
   490.2500      0.0000    393.4188     19.7123    126.0223
   490.5000      0.0000    384.4933     19.7409    130.1213
   490.7500      0.0000    380.0170     19.7634    137.2692
   491.0000      0.0000    376.9561     19.7745    145.5567
   491.2500      0.0000    374.5572     19.7706    151.5345
   491.5000      0.0000    373.3384     19.7542    152.0421
   491.7500      0.0000    373.3372     19.7316    146.8137
   492.0000      0.0000    373.2267     19.7084    138.9108
   492.2500      0.0000    371.3688     19.6862    132.0682
   492.5000      0.0000    367.5681     19.6628    127.7615
   492.7500      0.0000    363.5235     19.6359    125.0960
   493.0000      0.0000    361.4396     19.6056    122.9072
   493.2500      0.0000    362.3976     19.5739    121.1296
   493.5000      0.0000    366.0518     19.5429    120.4299
   493.7500      0.0000    371.7392     19.5142    121.3658
   494.0000      0.0000    380.3685     19.4911    123.9629
   494.2500      0.0000    396.7043     19.4739    127.7356
   494.5000      0.0000    430.0551     19.4547    132.2925
   494.7500      0.0000    489.7321     19.4195    137.8858
   495.0000      0.0000    575.5986     19.3610    144.6840
   495.2500      0.0000    672.5875     19.2864    151.3580
   495.5000      0.0000    758.0793     19.2138    155.3585
   495.7500      0.0000    816.8058     19.1614    155.2214
