~Version Information
VERS.                      2.0: CWLS Log ASCII Standard - VERSION 2.0
WRAP.                       NO: One line per depth step
~Well Information Block
STRT.FT                -6.5000: 
STOP.FT              1317.5000: 
STEP.FT                 0.2500: 
NULL.                -999.2500: 
COMP.          Pioneer Natural Resources: COMPANY
WELL.              Dicks 32-5R: WELL
FLD.           Purgatorie River: FIELD
LOC.           1485' FNL & 1684' FEL--: LOCATION
PROV.                       CO: PROVINCE
CNTY.               Las Animas: COUNTRY
SRVC.          Patterson Wireline: SERVICE COMPANY
DATE.          Tue Dec 13 09:33:22 2005: LOG DATE
UWI.           05 071 08596 00: UNIQUE WELL ID
~Curve Information Block
DEPT.FT            0 000 00 00: Depth
CCL.                          : Casing Collar Locator
TT3.usec                      : CBL 3' Travel Time
AMP3.mV                       : CBL 3' Amplitude
GR.GAPI                       : Gamma Ray
~Parameter Information Block
~A  Depth       CCL         TT3         AMP3         GR     
# ...
   261.5000      0.0000    279.5406     81.9551     55.4902
   261.7500      0.0000    279.6038     82.2375     56.2018
   262.0000      0.0000    279.6193     82.3175     56.5390
   262.2500      0.0000    279.6143     82.3188     57.2482
   262.5000      0.0000    279.5968     82.2925     59.2339
   262.7500      0.0000    279.5731     82.2659     62.5132
   263.0000      0.0000    279.5483     82.2610     66.1352
   263.2500      0.0000    279.5266     82.2837     69.2038
   263.5000      0.0000    279.5106     82.3187     71.6137
   263.7500      0.0000    279.5015     82.3433     73.5400
   264.0000      0.0000    279.4993     82.3441     74.6124
   264.2500      0.0000    279.5036     82.3226     74.0981
   264.5000      0.0000    279.5126     82.2895     71.8415
   264.7500      0.0000    279.5237     82.2567     68.7017
   265.0000      0.0000    279.5343     82.2341     65.8994
   265.2500      0.0000    279.5436     82.2286     64.0248
   265.5000      0.0000    279.5521     82.2422     62.7812
   265.7500      0.0000    279.5599     82.2699     61.4940
   266.0000      0.0000    279.5663     82.2985     59.6198
   266.2500      0.0000    279.5692     82.3112     56.8954
   266.5000      0.0000    279.5666     82.2958     53.4231
   266.7500      0.0000    279.5577     82.2549     49.8039
   267.0000      0.0000    279.5443     82.2074     46.9361
   267.2500      0.0000    279.5299     82.1776     45.4709
   267.5000      0.0000    279.5183     82.1793     45.5607
   267.7500      0.0000    279.5125     82.2087     47.1134
   268.0000      0.0000    279.5139     82.2494     49.9525
   268.2500      0.0000    279.5222     82.2842     53.6792
   268.5000      0.0000    279.5363     82.3072     57.7113
   268.7500      0.0000    279.5548     82.3219     61.6065
   269.0000      0.0000    279.5757     82.3286     65.2250
   269.2500      0.0000    279.5956     82.3183     68.6925
   269.5000      0.0000    279.6101     82.2841     72.3324
   269.7500      0.0000    279.6171     82.2358     76.4163
   270.0000      0.0000    279.6176     82.1972     80.6788
   270.2500      0.0000    279.6141     82.1885     84.1781
   270.5000      0.0000    279.6076     82.2116     85.9131
   270.7500      0.0000    279.5975     82.2475     85.6542
   271.0000      0.0000    279.5847     82.2690     84.1552
   271.2500      0.0000    279.5728     82.2612     82.7251
   271.5000      0.0000    279.5650     82.2341     82.6465
   271.7500      0.0000    279.5621     82.2134     84.6976
   272.0000      0.0000    279.5626     82.2170     88.9286
   272.2500      0.0000    279.5664     82.2413     94.9255
   272.5000      0.0000    279.5744     82.2701    102.1973
   272.7500      0.0000    279.5858     82.2917    110.0835
   273.0000      0.0000    279.5980     82.3063    117.4637
   273.2500      0.0000    279.6083     82.3208    122.9778
   273.5000      0.0000    279.6166     82.3398    125.6101
   273.7500      0.0000    279.6248     82.3622    125.0858
   274.0000      0.0000    279.6337     82.3842    122.0820
   274.2500      0.0000    279.6407     82.4034    118.2277
   274.5000      0.0000    279.6421     82.4187    115.4152
   274.7500      0.0000    279.6361     82.4274    114.5872
   275.0000      0.0000    279.6251     82.4282    115.1216
   275.2500      0.0000    279.6132     82.4302    115.6164
   275.5000      0.0000    279.6040     82.4485    115.4271
   275.7500      0.0000    279.5994     82.4856    115.3872
   276.0000      0.0000    279.5999     82.5189    116.7148
   276.2500      0.0000    279.6037     82.5173    119.0710
   276.5000      0.0000    279.6082     82.4708    120.1691
   276.7500      0.0000    279.6118     82.3994    117.8900
   277.0000      0.0000    279.6139     82.3344    112.5890
   277.2500      0.0000    279.6146     82.2966    106.8530
   277.5000      0.0000    279.6139     82.2889    103.2726
   277.7500      0.0000    279.6134     82.2992    102.9204
   278.0000      0.0000    279.6156     82.3098    105.4492
   278.2500      0.0000    279.6222     82.3136    109.6778
   278.5000      0.0000    279.6315     82.3236    114.1599
   278.7500      0.0000    279.6389     82.3605    117.9740
   279.0000      0.0000    279.6400     82.4308    121.0376
   279.2500      0.0000    279.6340     82.5192    123.2545
   279.5000      0.0000    279.6242     82.5972    123.8371
   279.7500      0.0000    279.6162     82.6381    122.2703
   280.0000      0.0000    279.6138     82.6336    119.4550
   280.2500      0.0000    279.6172     82.5992    117.0829
   280.5000      0.0000    279.6240     82.5590    116.2244
   280.7500      0.0000    279.6316     82.5260    116.8713
   281.0000      0.0000    279.6392     82.4993    118.2967
   281.2500      0.0000    279.6473     82.4759    119.5859
   281.5000      0.0000    279.6568     82.4559    120.2624
   281.7500      0.0000    279.6668     82.4366    120.5843
   282.0000      0.0000    279.6748     82.4122    121.0136
   282.2500      0.0000    279.6780     82.3844    121.4419
   282.5000      0.0000    279.6742     82.3678    121.1730
   282.7500      0.0000    279.6625     82.3767    119.6086
   283.0000      0.0000    279.6436     82.4085    116.7503
   283.2500      0.0000    279.6190     82.4435    112.9760
   283.5000      0.0000    279.5918     82.4634    108.7658
   283.7500      0.0000    279.5649     82.4664    105.2354
   284.0000      0.0000    279.5421     82.4647    104.5536
   284.2500      0.0000    279.5268     82.4725    108.5436
   284.5000      0.0000    279.5212     82.4952    116.3644
   284.7500      0.0000    279.5245     82.5229    124.2176
   285.0000      0.0000    279.5336     82.5335    127.9202
   285.2500      0.0000    279.5459     82.5090    125.9933
   285.5000      0.0000    279.5604     82.4522    120.6285
   285.7500      0.0000    279.5757     82.3854    115.9231
   286.0000      0.0000    279.5890     82.3331    114.6793
   286.2500      0.0000    279.5970     82.3061    116.2893
   286.5000      0.0000    279.5988     82.2974    117.5994
   286.7500      0.0000    279.5954     82.2915    115.8571
   287.0000      0.0000    279.5888     82.2791    110.9980
   287.2500      0.0000    279.5795     82.2638    105.5685
   287.5000      0.0000    279.5674     82.2532    102.7164
   287.7500      0.0000    279.5530     82.2479    103.9573
   288.0000      0.0000    279.5394     82.2415    108.2956
   288.2500      0.0000    279.5296     82.2281    113.0173
   288.5000      0.0000    279.5234     82.2065    115.3865
   288.7500      0.0000    279.5179     82.1805    114.1373
   289.0000      0.0000    279.5103     82.1569    109.9904
   289.2500      0.0000    279.5010     82.1432    105.0753
   289.5000      0.0000    279.4928     82.1438    101.7746
   289.7500      0.0000    279.4882     82.1575    101.5529
   290.0000      0.0000    279.4895     82.1769    104.1978
   290.2500      0.0000    279.4972     82.1925    108.0099
   290.5000      0.0000    279.5092     82.1978    111.0617
   290.7500      0.0000    279.5221     82.1891    112.5855
   291.0000      0.0000    279.5329     82.1699    113.1040
   291.2500      0.0000    279.5404     82.1536    113.2239
   291.5000      0.0000    279.5447     82.1540    112.7902
   291.7500      0.0000    279.5442     82.1678    111.3830
   292.0000      0.0000    279.5370     82.1755    108.9672
   292.2500      0.0000    279.5232     82.1614    105.6470
   292.5000      0.0000    279.5060     82.1275    101.4138
   292.7500      0.0000    279.4900     82.0859     96.6541
   293.0000      0.0000    279.4775     82.0494     92.4307
   293.2500      0.0000    279.4686     82.0267     89.7613
   293.5000      0.0000    279.4629     82.0178     88.9974
   293.7500      0.0000    279.4618     82.0129     90.1201
   294.0000      0.0000    279.4678     82.0020     93.0536
   294.2500      0.0000    279.4817     81.9864     97.3620
   294.5000      0.0000    279.5005     81.9745    102.1404
   294.7500      0.0000    279.5188     81.9701    106.6114
