~Version Information
VERS.                      2.0: CWLS Log ASCII Standard - VERSION 2.0
WRAP.                       NO: One line per depth step
~Well Information Block
STRT.FT                -7.2500: 
STOP.FT              1221.7500: 
STEP.FT                 0.2500: 
NULL.                -999.2500: 
COMP.          Pioneer Natural Resources: COMPANY
WELL.           Tennis 7-12 Tr: WELL
FLD.           Purgatorie River: FIELD
LOC.           1794' FNL & 1563' FEL--: LOCATION
PROV.                       CO: PROVINCE
CNTY.               Las Animas: COUNTRY
SRVC.          Patterson Wireline: SERVICE COMPANY
DATE.          Tue Dec 27 14:16:59 2005: LOG DATE
UWI.           05 071 008635 00: UNIQUE WELL ID
~Curve Information Block
DEPT.FT            0 000 00 00: Depth
CCL.                          : Casing Collar Locator
TT3.usec                      : CBL 3' Travel Time
AMP3.mV                       : CBL 3' Amplitude
GR.GAPI                       : Gamma Ray
~Parameter Information Block
~A  Depth       CCL         TT3         AMP3         GR     
    -7.2500   -999.2500   -999.2500   -999.2500     86.1998
    -7.0000   -999.2500   -999.2500   -999.2500     87.9799
    -6.7500   -999.2500   -999.2500   -999.2500     90.6932
    -6.5000   -999.2500   -999.2500   -999.2500     94.2618
    -6.2500   -999.2500   -999.2500   -999.2500     98.3290
    -6.0000   -999.2500   -999.2500   -999.2500    102.2287
    -5.7500   -999.2500   -999.2500   -999.2500    105.0652
    -5.5000   -999.2500   -999.2500   -999.2500    106.0710
    -5.2500   -999.2500   -999.2500   -999.2500    105.1703
    -5.0000   -999.2500   -999.2500   -999.2500    103.4297
    -4.7500   -999.2500   -999.2500   -999.2500    102.6965
    -4.5000   -999.2500   -999.2500   -999.2500    104.0530
    -4.2500   -999.2500   -999.2500   -999.2500    106.2943
    -4.0000   -999.2500   -999.2500   -999.2500    106.4297
    -3.7500   -999.2500   -999.2500   -999.2500    102.1931
    -3.5000   -999.2500   -999.2500   -999.2500     94.0750
    -3.2500   -999.2500   -999.2500   -999.2500     84.8063
    -3.0000   -999.2500   -999.2500   -999.2500     77.0874
    -2.7500   -999.2500   -999.2500   -999.2500     72.0441
    -2.5000   -999.2500   1167.0000      1.1329     69.5847
    -2.2500   -999.2500   1167.0000      1.1365     69.5844
    -2.0000   -999.2500   1167.0000      1.1348     72.0888
    -1.7500   -999.2500   1167.0000      1.1255     76.3128
    -1.5000   -999.2500   1167.0000      1.1101     80.2084
    -1.2500   -999.2500   1167.0000      1.0941     81.7676
    -1.0000   -999.2500   1167.0000      1.0817     80.6217
    -0.7500   -999.2500   1167.0000      1.0733     77.9108
    -0.5000   -999.2500   1167.0000      1.0665     74.8754
    -0.2500   -999.2500   1167.0000      1.0592     71.9261
     0.0000   -999.2500   1167.0000      1.0520     68.6512
     0.2500   -999.2500   1167.0000      1.0475     58.6841
     0.5000   -999.2500   1167.0000      1.0525     52.5611
     0.7500   -999.2500   1167.0000      1.0609     47.0645
     1.0000   -999.2500   1167.0000      1.0716     42.5770
     1.2500   -999.2500   1167.0000      1.0849     38.7997
     1.5000   -999.2500   1167.0000      1.1014     35.7091
     1.7500   -999.2500   1167.0000      1.1180     33.9812
     2.0000   -999.2500   1167.0000      1.1288     34.5424
     2.2500   -999.2500   1167.0000      1.1306     37.9675
     2.5000   -999.2500   1167.0000      1.1266     44.0837
     2.7500      0.0000   1167.0000      1.1217     51.7429
     3.0000      0.0000   1167.0000      1.1176     58.9574
     3.2500      0.0000   1167.0000      1.1135     63.6812
     3.5000      0.0000   1167.0000      1.1083     64.9515
     3.7500      0.0000   1167.0000      1.1018     63.4304
     4.0000      0.0000   1166.9797      1.0939     60.8534
     4.2500      0.0000   1166.8396      1.0858     58.9311
     4.5000      0.0000   1166.0842      1.0855     58.3830
     4.7500      0.0000   1162.9557      1.1212     58.5656
     5.0000      0.0000   1152.6688      1.3117     58.0787
     5.2500      0.0000   1125.6221      2.0431     56.0850
     5.5000      0.0000   1068.2782      4.2391     53.1495
     5.7500      0.0000    969.4071      9.4156     50.8344
     6.0000      0.0000    829.8566     18.9660     50.5213
     6.2500      0.0000    668.1746     32.7164     52.4519
     6.5000      0.0000    514.7272     48.1337     55.5743
     6.7500      0.0000    396.1660     61.5725     58.2870
     7.0000      0.0000    322.2094     70.6640     59.5387
     7.2500      0.0000    285.2828     75.4317     59.4951
     7.5000      0.0000    270.6336     77.3748     59.2674
     7.7500      0.0000    266.0406     78.0013     59.9018
     8.0000      0.0000    264.9043     78.1645     61.5417
     8.2500      0.0000    264.6833     78.1753     63.5104
     8.5000      0.0000    264.6484     78.0933     65.0588
     8.7500      0.0000    264.6497     77.8706     65.9140
     9.0000      0.0000    264.6704     77.3351     66.2314
     9.2500      0.0000    264.7806     76.1125     66.2741
     9.5000      0.0000    265.1956     73.6530     66.2726
     9.7500      0.0000    266.4026     69.4637     66.4646
    10.0000      0.0000    269.2159     63.4408     66.8906
    10.2500      0.0000    274.5610     56.0222     67.0807
    10.5000      0.0000    283.1658     48.0126     66.3624
    10.7500      0.0000    295.7934     40.2300     64.6718
    11.0000      0.0000    314.3419     33.2272     62.7249
    11.2500      0.0000    342.4849     27.2295     61.2982
    11.5000      2.0000    383.6341     22.2418     60.6501
    11.7500      0.0000    436.3988     18.1751     60.5490
    12.0000      0.0000    491.9695     14.9045     60.4134
    12.2500      0.0000    537.9171     12.2963     59.5740
    12.5000      0.0000    566.1785     10.2414     57.8272
    12.7500      0.0000    577.5388      8.6788     55.7387
    13.0000      0.0000    578.9031      7.5778     54.2732
    13.2500      0.0000    577.5178      6.8954     54.2720
    13.5000      0.0000    577.6036      6.5452     56.2529
    13.7500      0.0000    580.2007      6.4028     60.3146
    14.0000      0.0000    584.2513      6.3379     65.9284
    14.2500      0.0000    588.2444      6.2555     71.8551
    14.5000      0.0000    592.9673      6.1302     76.4093
    14.7500      0.0000    603.3734      6.0031     78.0649
    15.0000      0.0000    626.3127      5.9319     76.3393
    15.2500      0.0000    664.8162      5.9379     72.4369
    15.5000      0.0000    714.6580      6.0012     68.7092
    15.7500     -2.0000    765.7012      6.0898     67.0466
    16.0000      2.0000    804.8716      6.1875     67.8108
    16.2500      0.0000    819.4463      6.3065     70.1456
    16.5000      0.0000    803.2646      6.4769     72.8744
    16.7500      0.0000    762.5104      6.7069     75.1467
    17.0000      0.0000    712.9144      6.9478     76.5822
    17.2500      0.0000    669.7693      7.1185     77.0104
    17.5000      0.0000    641.7408      7.1716     76.2042
    17.7500      0.0000    631.6863      7.1260     74.1748
    18.0000      0.0000    637.6190      7.0421     71.8095
    18.2500      0.0000    652.1070      6.9770     70.8759
    18.5000      0.0000    664.7869      6.9570     72.9460
    18.7500      0.0000    666.6992      6.9780     78.0951
    19.0000      0.0000    651.7474      7.0218     84.7500
    19.2500      0.0000    617.0638      7.0713     90.9383
    19.5000      0.0000    566.5986      7.1153     95.7458
    19.7500      0.0000    514.5637      7.1463     99.5168
    20.0000      0.0000    481.3707      7.1600    102.6411
    20.2500      0.0000    482.0629      7.1565    104.3400
    20.5000      0.0000    516.4413      7.1405    103.0083
    20.7500      0.0000    569.2142      7.1177     97.9196
    21.0000      0.0000    620.2394      7.0907     90.3769
    21.2500      0.0000    656.4039      7.0591     83.0005
    21.5000      0.0000    675.9092      7.0228     77.9426
    21.7500      0.0000    683.9640      6.9839     75.8319
    22.0000      0.0000    686.4908      6.9464     76.0447
    22.2500      0.0000    687.1163      6.9127     77.5101
    22.5000      0.0000    687.3405      6.8829     79.2159
    22.7500      0.0000    687.5567      6.8575     80.3656
    23.0000      0.0000    687.7475      6.8385     80.4824
    23.2500      0.0000    687.8066      6.8281     79.5580
    23.5000      0.0000    687.6337      6.8272     77.9744
    23.7500      0.0000    687.1164      6.8346     76.1212
    24.0000      0.0000    685.9641      6.8470     74.1892
    24.2500      0.0000    683.5449      6.8603     72.4300
    24.5000      0.0000    679.0849      6.8727     71.2849
    24.7500      0.0000    672.3420      6.8866     70.9122
    25.0000      0.0000    664.0803      6.9040     70.7752
    25.2500      0.0000    655.3513      6.9205     70.0583
    25.5000      0.0000    646.0174      6.9272     68.3482
    25.7500      0.0000    634.2307      6.9193     65.6918
    26.0000      0.0000    618.2308      6.9023     62.3021
