~Version Information
VERS.                      2.0: CWLS Log ASCII Standard - VERSION 2.0
WRAP.                       NO: One line per depth step
~Well Information Block
STRT.FT                 0.0000: 
STOP.FT              1193.0000: 
STEP.FT                 0.1000: 
NULL.                -999.2500: 
COMP.          Pioneer Natural Resources: COMPANY
WELL.          Big Pine 32-15 Tr: WELL
FLD.           Purgatorie River: FIELD
LOC.           2546' FNL & 1451' FEL: LOCATION
STAT.                 Colorado: State
CNTY.               Las Animas: COUNTY
CTRY. USA : Country
SECT. 15 : Section
TOWN. 33S : Township
RANG. 67W : Range
SRVC.                Patterson: SERVICE COMPANY
DATE.          Tue Nov 08 07:11:35 2005: LOG DATE
API. 05-071-08604                         : UNIQUE WELL ID
~Curve Information Block
DEPT.FT            0 000 00 00: Depth
DCAL.in                       : CDL Caliper
RHOB.g/cc                     : CDL Bulk Density
RHOC.g/cc                     : CDL Density Correction
DPOR.pu                       : CDL Density Porosity
GR.GAPI                       : Gamma Ray
NPOR.pu                       : Neutron Porosity
~Parameter Information Block
~A  Depth       DCAL        RHOB        RHOC        DPOR         GR         NPOR    
# ...
   700.8000     -2.8029      2.3942      2.0000     -0.0051    121.4908     24.8892
   700.9000     -2.8029      2.3635      2.0000     -0.0057    120.3754     25.0423
   701.0000     -2.8029      2.3339      2.0000     -0.0063    119.2202     25.1414
   701.1000     -2.8029      2.3034      2.0000     -0.0069    118.7262     25.3330
   701.2000     -2.8029      2.2681      2.0000     -0.0076    117.7635     25.5006
   701.3000     -2.8029      2.2445      2.0000     -0.0081    115.9581     25.4690
   701.4000     -2.8029      2.2594      2.0000     -0.0078    113.5201     25.3408
   701.5000     -2.8029      2.3122      2.0000     -0.0068    110.3832     25.3279
   701.6000     -2.8029      2.3794      2.0000     -0.0054    106.4527     25.3186
   701.7000     -2.8029      2.4460      2.0000     -0.0041    101.5365     25.1450
   701.8000     -2.8029      2.5022      2.0000     -0.0030     95.9730     24.8638
   701.9000     -2.8029      2.5285      2.0000     -0.0024     91.5533     24.4636
   702.0000     -2.8029      2.5237      2.0000     -0.0025     89.4381     23.9763
   702.1000     -2.8029      2.5156      2.0000     -0.0027     88.8354     23.6152
   702.2000     -2.8029      2.5214      2.0000     -0.0026     89.2140     23.4869
   702.3000     -2.8029      2.5257      2.0000     -0.0025     90.1974     23.4206
   702.4000     -2.8029      2.5078      2.0000     -0.0028     90.7579     23.2374
   702.5000     -2.8029      2.4749      2.0000     -0.0035     90.9872     23.1587
   702.6000     -2.8029      2.4508      2.0000     -0.0040     91.4750     23.4589
   702.7000     -2.8029      2.4459      2.0000     -0.0041     91.0960     24.0027
   702.8000     -2.8029      2.4514      2.0000     -0.0040     89.2479     24.3539
   702.9000     -2.8029      2.4565      2.0000     -0.0039     86.7267     24.3234
   703.0000     -2.8029      2.4590      2.0000     -0.0038     83.6063     24.1592
   703.1000     -2.8029      2.4600      2.0000     -0.0038     82.6540     24.0440
   703.2000     -2.8029      2.4602      2.0000     -0.0038     87.1917     24.1260
   703.3000     -2.8029      2.4593      2.0000     -0.0038     93.1941     24.4812
   703.4000     -2.8029      2.4579      2.0000     -0.0038     94.6740     24.7098
   703.5000     -2.8029      2.4592      2.0000     -0.0038     92.2428     24.5050
   703.6000     -2.8029      2.4649      2.0000     -0.0037     90.0475     24.1893
   703.7000     -2.8029      2.4642      2.0000     -0.0037     89.0383     24.1280
   703.8000     -2.8029      2.4479      2.0000     -0.0040     88.1085     24.3699
   703.9000     -2.8029      2.4248      2.0000     -0.0045     87.8490     24.7217
   704.0000     -2.8029      2.4103      2.0000     -0.0048     88.4875     24.7096
   704.1000     -2.8029      2.4125      2.0000     -0.0048     87.8046     24.3477
   704.2000     -2.8029      2.4271      2.0000     -0.0045     86.0018     24.2211
   704.3000     -2.8029      2.4388      2.0000     -0.0042     85.5041     24.2896
   704.4000     -2.8029      2.4351      2.0000     -0.0043     85.7101     24.2199
   704.5000     -2.8029      2.4181      2.0000     -0.0046     85.1439     24.1514
   704.6000     -2.8029      2.3947      2.0000     -0.0051     85.2292     24.1913
   704.7000     -2.8029      2.3689      2.0000     -0.0056     87.9171     24.1492
   704.8000     -2.8029      2.3490      2.0000     -0.0060     93.0754     23.9504
   704.9000     -2.8029      2.3434      2.0000     -0.0061     98.5899     23.7485
   705.0000     -2.8029      2.3496      2.0000     -0.0060    100.7867     23.6670
   705.1000     -2.8029      2.3603      2.0000     -0.0058     98.3363     23.8745
   705.2000     -2.8029      2.3708      2.0000     -0.0056     93.8519     24.4688
   705.3000     -2.8029      2.3788      2.0000     -0.0054     89.2198     25.1161
   705.4000     -2.8029      2.3865      2.0000     -0.0053     84.8376     25.3770
   705.5000     -2.8029      2.3912      2.0000     -0.0052     79.8081     25.3875
   705.6000     -2.8029      2.3851      2.0000     -0.0053     73.0663     25.5448
   705.7000     -2.8029      2.3651      2.0000     -0.0057     66.4405     25.8082
   705.8000     -2.8029      2.3351      2.0000     -0.0063     61.8731     25.9348
   705.9000     -2.8029      2.3068      2.0000     -0.0069     58.5667     26.1614
   706.0000     -2.8029      2.2878      2.0000     -0.0072     55.9197     26.9381
   706.1000     -2.8029      2.2765      2.0000     -0.0075     54.8840     28.0832
   706.2000     -2.8029      2.2701      2.0000     -0.0076     55.7130     28.9901
   706.3000     -2.8029      2.2700      2.0000     -0.0076     57.3560     29.2205
   706.4000     -2.8029      2.2753      2.0000     -0.0075     57.6684     28.7352
   706.5000     -2.8029      2.2787      2.0000     -0.0074     54.9048     28.1983
   706.6000     -2.8029      2.2798      2.0000     -0.0074     51.4109     28.1214
   706.7000     -2.8029      2.2849      2.0000     -0.0073     50.8479     28.2232
   706.8000     -2.8029      2.2902      2.0000     -0.0072     53.3673     28.3287
   706.9000     -2.8029      2.2937      2.0000     -0.0071     56.8424     28.6165
   707.0000     -2.8029      2.3032      2.0000     -0.0069     59.1860     29.0787
   707.1000     -2.8029      2.3151      2.0000     -0.0067     59.3352     29.4460
   707.2000     -2.8029      2.3142      2.0000     -0.0067     58.0629     29.5692
   707.3000     -2.8029      2.3023      2.0000     -0.0070     57.6251     29.4846
   707.4000     -2.8029      2.2962      2.0000     -0.0071     59.7678     29.3140
   707.5000     -2.8029      2.3042      2.0000     -0.0069     63.6813     29.2915
   707.6000     -2.8029      2.3209      2.0000     -0.0066     68.3587     29.3397
   707.7000     -2.8029      2.3345      2.0000     -0.0063     73.0082     29.2589
   707.8000     -2.8029      2.3382      2.0000     -0.0062     76.2351     29.1918
   707.9000     -2.8029      2.3327      2.0000     -0.0063     79.3742     29.1954
   708.0000     -2.8029      2.3209      2.0000     -0.0066     83.4552     28.9251
   708.1000     -2.8029      2.3124      2.0000     -0.0068     87.2501     28.2706
   708.2000     -2.8029      2.3212      2.0000     -0.0066     90.2630     27.6160
   708.3000     -2.8029      2.3420      2.0000     -0.0062     91.3180     27.2582
   708.4000     -2.8029      2.3555      2.0000     -0.0059     90.2831     27.1703
   708.5000     -2.8029      2.3589      2.0000     -0.0058     89.0940     27.2267
   708.6000     -2.8029      2.3624      2.0000     -0.0058     87.7766     27.2510
   708.7000     -2.8029      2.3737      2.0000     -0.0055     86.3351     27.1187
   708.8000     -2.8029      2.3923      2.0000     -0.0052     86.1359     26.9628
   708.9000     -2.8029      2.4063      2.0000     -0.0049     86.4713     26.8325
   709.0000     -2.8029      2.4018      2.0000     -0.0050     87.0927     26.5691
   709.1000     -2.8029      2.3764      2.0000     -0.0055     88.9454     26.1746
   709.2000     -2.8029      2.3461      2.0000     -0.0061     90.5795     25.7717
   709.3000     -2.8029      2.3319      2.0000     -0.0064     90.8707     25.4467
   709.4000     -2.8029      2.3383      2.0000     -0.0062     92.1039     25.3431
   709.5000     -2.8029      2.3578      2.0000     -0.0058     95.8558     25.3740
   709.6000     -2.8029      2.3943      2.0000     -0.0051     98.4935     25.2586
   709.7000     -2.8029      2.4627      2.0000     -0.0037     97.7751     25.0867
   709.8000     -2.8029      2.5634      2.0000     -0.0017     96.0195     25.1033
   709.9000     -2.8029      2.6756      2.0000      0.0005     93.7134     25.2877
   710.0000     -2.8029      2.7766      2.0000      0.0025     90.6559     25.4285
   710.1000     -2.8029      2.8546      2.0000      0.0041     88.6716     25.1768
   710.2000     -2.8029      2.9027      2.0000      0.0051     89.5254     24.5295
   710.3000     -2.8029      2.9101      2.0000      0.0052     92.0884     24.0949
