~Version Information
 VERS.                                  2.0 : CWLS LAS VERSION
 WRAP.                                   NO : WRAPING MODE
 SWARE .                MController 2.5.0QA : SOFTWARE VERSION
~Well Information
 WELL.                            Ray 34-06 : WELL
 COMP.    Pioneer Natural Resources USA Inc : COMPANY
 FLD.                      Purgatoire River : FIELD
 LOC.                  SWSE Sec06 T34S R65W : LOCATION
 DATE.                             05/25/06 : DATE(S) LOGGED
 SRVC.       Blanco Geological Services LLC : SERVICE COMPANY
 STAT.                             Colorado : STATE
 CNTY.                           Las Animas : COUNTY
 CTRY.                                  USA : COUNTRY
 API.                       05-071-08695-00 : API NUMBER
 STRT.FT                             347.00 : START DEPTH
 STOP.FT                            1270.00 : STOP DEPTH
 STEP.FT                               1.00 : DEPTH INCREMENT
 NULL.                                -9999 : NULL VALUE
~Curve information
 DEPTH.FT                                   :
 ROP.MIN/FT                                 :
 GAS.UNITS                                  :
~ASCII Log data
# ...
       747.0         0.27         52.8 
       748.0         0.30         52.8 
       749.0         0.27         53.4 
       750.0         0.27         53.3 
       751.0         0.30         53.4 
       752.0         0.27         53.3 
       753.0         0.27         53.0 
       754.0         0.30         52.6 
       755.0         0.27         52.6 
       756.0         0.30         52.2 
       757.0         0.30         52.3 
       758.0         0.32         51.2 
       759.0         0.30         51.1 
       760.0         0.33         50.6 
       761.0         0.33         50.9 
       762.0        12.40         67.2 
       763.0         0.20         72.4 
       764.0         0.27         72.7 
       765.0         0.30         69.2 
       766.0         0.23         64.7 
       767.0         0.23         60.0 
       768.0         0.20         56.6 
       769.0         0.27         40.6 
       770.0         0.23         35.5 
       771.0         0.23         27.9 
       772.0         5.10        435.4 
       773.0         0.30         62.9 
       774.0         0.37         59.1 
       775.0         0.37         56.2 
       776.0         0.23         58.8 
       777.0         0.27         65.6 
       778.0         0.37         67.0 
       779.0         0.33         66.4 
       780.0         0.33         63.5 
       781.0         0.35         61.9 
       782.0         0.33         60.7 
       783.0         0.37         59.6 
       784.0         0.33         58.0 
       785.0         0.30         53.0 
       786.0         0.17         52.1 
       787.0         0.17         52.2 
       788.0         0.17         52.2 
       789.0         0.13         52.1 
       790.0         0.20         52.1 
       791.0         0.20         52.7 
       792.0         0.17         52.8 
       793.0         0.20         52.7 
       794.0         0.20         52.5 
       795.0         0.22         52.5 
       796.0         0.20         53.6 
       797.0         0.20         53.6 
       798.0         0.20         52.2 
       799.0         0.27         51.8 
       800.0         0.30         51.2 
       801.0         0.33         58.7 
       802.0         4.42        429.9 
       803.0         0.33         84.5 
       804.0         0.33         77.0 
       805.0         0.38         68.6 
       806.0         0.27         62.5 
       807.0         0.30         61.4 
       808.0         0.27         53.3 
       809.0         0.27         50.8 
       810.0         0.27         50.8 
       811.0         0.23         51.3 
       812.0         0.23         51.9 
       813.0         0.23         52.6 
       814.0         0.30         52.3 
       815.0         0.27         51.6 
       816.0         0.30         53.0 
       817.0         0.28         53.1 
       818.0         0.20         53.2 
       819.0         0.27         55.0 
       820.0         0.23         69.8 
       821.0         0.20         84.2 
       822.0         0.23         98.4 
       823.0         0.17        101.0 
       824.0         0.17        104.2 
       825.0         0.17        104.2 
       826.0         0.23        104.2 
       827.0         0.23        109.1 
       828.0         0.27         91.5 
       829.0         0.23         52.6 
       830.0         0.27         33.3 
       831.0         0.23         33.3 
       832.0         4.50       1433.1 
       833.0         0.37        110.2 
       834.0         0.37        109.3 
       835.0         0.53         98.3 
       836.0         0.40         91.5 
       837.0         0.37         89.8 
       838.0         0.25         89.1 
       839.0         0.27         88.6 
       840.0         0.37         88.3 
       841.0         0.37         88.5 
       842.0         0.50         95.4 
       843.0         0.43         97.4 
       844.0         0.43        109.2 
       845.0         0.33        109.6 
       846.0         0.23        105.7 
       847.0         0.23        104.8 
       848.0         0.28        103.8 
       849.0         0.23        100.7 
       850.0         0.27        100.2 
       851.0         0.20         99.9 
       852.0         0.20         98.2 
       853.0         0.20         96.6 
       854.0         0.23         96.1 
       855.0         0.20         96.2 
       856.0         0.20         94.3 
       857.0         0.23         90.7 
       858.0         0.20         93.0 
       859.0         0.27         85.5 
       860.0         0.23         53.4 
       861.0         0.20         53.4 
       862.0        52.00       1470.5 
       863.0         0.40        192.3 
       864.0         0.33        247.2 
       865.0         0.13        254.1 
       866.0         0.10        258.9 
       867.0         0.10        258.9 
       868.0         0.07        258.9 
       869.0         0.13        256.6 
       870.0         0.27        259.1 
       871.0         0.25        258.3 
       872.0         0.23        236.7 
       873.0         0.30        224.0 
       874.0         0.37        221.5 
       875.0         0.33        199.2 
       876.0         0.23        186.6 
       877.0         0.23        196.4 
       878.0         0.30        220.8 
       879.0         0.27        228.2 
       880.0         0.27        235.9 
       881.0         0.23        229.1 
       882.0         0.27        166.2 
       883.0         0.27        157.4 
       884.0         0.28        168.5 
       885.0         0.27        198.2 
       886.0         0.23        205.3 
       887.0         0.30        215.1 
       888.0         0.33        223.6 
       889.0         0.40        206.7 
       890.0         0.37        109.0 
       891.0         0.33         62.2 
       892.0         5.00       3709.2 
       893.0         0.33        452.0 
       894.0         0.33        440.0 
       895.0         0.30        239.5 
       896.0         0.23        215.1 
       897.0         0.27        207.5 
       898.0         0.33        214.0 
       899.0         0.30        224.2 
       900.0         0.23        234.1 
       901.0         0.13        244.5 
       902.0         0.18        236.2 
       903.0         0.10        236.2 
       904.0         0.17        221.5 
       905.0         0.23        216.3 
       906.0         0.23        209.6 
       907.0         0.23        200.9 
       908.0         0.20        194.3 
       909.0         0.23        179.7 
       910.0         0.20        166.9 
       911.0         0.23        161.8 
       912.0         0.23        158.1 
       913.0         0.23        152.2 
       914.0         0.23        146.5 
       915.0         0.23        145.4 
       916.0         0.23        129.7 
       917.0         0.23        124.5 
       918.0         0.22        123.7 
       919.0         0.20        121.5 
       920.0         0.27        120.2 
       921.0         0.27        113.1 
       922.0        13.53       2931.0 
       923.0         0.57        192.9 
       924.0         0.57        115.1 
       925.0         0.50        103.3 
       926.0         0.53        129.5 
       927.0         0.45        152.2 
       928.0         0.43        147.8 
       929.0         0.37        159.7 
       930.0         0.33        167.9 
       931.0         0.37        167.0 
       932.0         0.33        174.4 
       933.0         0.23        178.3 
       934.0         0.33        177.9 
       935.0         0.40        179.0 
       936.0         0.42        185.1 
       937.0         0.47        187.8 
       938.0         0.30        167.3 
       939.0         0.27        162.2 
       940.0         0.37        161.3 
       941.0         0.37        174.1 
       942.0         0.33        175.8 
       943.0         0.33        209.3 
       944.0         0.33        215.2 
       945.0         0.33        237.7 
       946.0         0.28        233.8 
