~Version Information
VERS.                      2.0: CWLS Log ASCII Standard - VERSION 2.0
WRAP.                       NO: One line per depth step
~Well Information Block
STRT.FT               459.3000: 
STOP.FT              1604.7000: 
STEP.FT                 0.1000: 
NULL.                -999.2500: 
COMP.          Pioneer Natural Resources: COMPANY
WELL.          Grand Prix 13-12 Tr: WELL
FLD.           Purgatoire River: FIELD
LOC.           2595' FSL & 1277' FWL--: LOCATION
CNTY.               Las Animas: COUNTY
SRVC.                Patterson: SERVICE COMPANY
DATE.          Tue Apr 04 07:18:28 2006: LOG DATE
UWI.           05 071 08711 00: UNIQUE WELL ID
STAT.                 Colorado: STATE
~Curve Information Block
DEPT.FT            0 000 00 00: Depth
DCAL.in                       : CDL Caliper
RHOB.g/cc                     : CDL Bulk Density
RHOC.g/cc                     : CDL Density Correction
DPOR.pu                       : CDL Density Porosity
GR.GAPI                       : Gamma Ray
~Parameter Information Block
~A  Depth       DCAL        RHOB        RHOC        DPOR         GR     
# ...
  1209.7000      7.8230      2.6044      0.0712      2.7653     76.2470
  1209.8000      7.8206      2.5964      0.0449      3.2472     81.1949
  1209.9000      7.8206      2.5709      0.0446      4.7937     78.2817
  1210.0000      7.8090      2.5423      0.0366      6.5284     71.5924
  1210.1000      7.8090      2.5289     -0.0112      7.3415     66.7509
  1210.2000      7.8090      2.5375      0.0942      6.8196     63.4692
  1210.3000      7.7989      2.5502      0.0895      6.0505     60.6599
  1210.4000      7.7989      2.5489      0.0809      6.1245     59.9915
  1210.5000      7.7944      2.5358      0.0347      6.9185     59.7143
  1210.6000      7.7944      2.5187      0.0369      7.9587     55.4557
  1210.7000      7.7944      2.4965      0.0513      9.3013     47.7948
  1210.8000      7.7966      2.4721     -0.0135     10.7803     41.3361
  1210.9000      7.7966      2.4564      0.0079     11.7348     39.5263
  1211.0000      7.8060      2.4524      0.0078     11.9741     40.7488
  1211.1000      7.8060      2.4571      0.0703     11.6921     41.4893
  1211.2000      7.8060      2.4674      0.0677     11.0688     42.4537
  1211.3000      7.8143      2.4803      0.0874     10.2878     45.8174
  1211.4000      7.8143      2.4913      0.0720      9.6197     52.3128
  1211.5000      7.8122      2.5044      0.0189      8.8270     59.8494
  1211.6000      7.8122      2.5320      0.0276      7.1505     65.9685
  1211.7000      7.8122      2.5683      0.1427      4.9500     71.9079
  1211.8000      7.7986      2.5964      0.1528      3.2498     79.0732
  1211.9000      7.7986      2.6218      0.1436      1.7072     88.4398
  1212.0000      7.7776      2.6481      0.2053      0.1150    100.0383
  1212.1000      7.7776      2.6533      0.2105     -0.2006    112.0749
  1212.2000      7.7776      2.6260      0.1639      1.4543    123.0812
  1212.3000      7.7644      2.5809      0.1272      4.1856    131.4518
  1212.4000      7.7644      2.5340      0.0656      7.0330    134.5085
  1212.5000      7.7824      2.4932      0.0514      9.5024    132.6238
  1212.6000      7.7824      2.4712     -0.0219     10.8370    130.8922
  1212.7000      7.7824      2.4730      0.0663     10.7280    132.4297
  1212.8000      7.8246      2.4849      0.0278     10.0083    134.0801
  1212.9000      7.8246      2.4996      0.0489      9.1157    133.8285
  1213.0000      7.8632      2.5204      0.0443      7.8542    133.0040
  1213.1000      7.8632      2.5454      0.1244      6.3402    134.0672
  1213.2000      7.8632      2.5612      0.1682      5.3813    139.2376
  1213.3000      7.8855      2.5603      0.1436      5.4335    148.3219
  1213.4000      7.8855      2.5517      0.0903      5.9589    157.6621
  1213.5000      7.8894      2.5357      0.0919      6.9245    163.6137
  1213.6000      7.8894      2.5051      0.0869      8.7798    166.0126
  1213.7000      7.8894      2.4724      0.0694     10.7658    167.2497
  1213.8000      7.8750      2.4515      0.0761     12.0296    169.3428
  1213.9000      7.8750      2.4373      0.0721     12.8915    171.0203
  1214.0000      7.8533      2.4255      0.0490     13.6087    169.0600
  1214.1000      7.8533      2.4201      0.0711     13.9343    162.5876
  1214.2000      7.8533      2.4134      0.1230     14.3401    154.3261
  1214.3000      7.8346      2.3820      0.1361     16.2418    148.2580
  1214.4000      7.8346      2.3195      0.0646     20.0296    147.3198
  1214.5000      7.8265      2.2472      0.0321     24.4120    147.7591
  1214.6000      7.8265      2.1908     -0.0456     27.8299    143.4787
  1214.7000      7.8265      2.1660     -0.0117     29.3357    136.4382
  1214.8000      7.8424      2.1728     -0.0119     28.9182    132.4933
  1214.9000      7.8424      2.2005      0.0342     27.2432    133.7730
  1215.0000      7.8746      2.2378      0.0914     24.9790    136.8046
  1215.1000      7.8746      2.2866      0.0906     22.0241    136.9292
  1215.2000      7.8746      2.3518      0.1770     18.0732    135.6871
  1215.3000      7.8888      2.4188      0.2486     14.0099    135.9774
  1215.4000      7.8888      2.4643      0.2637     11.2537    136.7048
  1215.5000      7.8762      2.4822      0.2310     10.1715    136.6159
  1215.6000      7.8762      2.4828      0.1524     10.1333    135.9196
  1215.7000      7.8762      2.4735      0.1728     10.6970    134.4063
  1215.8000      7.8658      2.4485      0.1881     12.2133    131.6948
  1215.9000      7.8658      2.4128      0.0960     14.3758    128.4715
  1216.0000      7.8742      2.3845      0.0991     16.0887    128.2145
  1216.1000      7.8742      2.3583      0.1038     17.6772    132.2117
  1216.2000      7.8742      2.3182      0.0453     20.1112    133.3120
  1216.3000      7.8934      2.2671      0.0034     23.2071    127.1661
  1216.4000      7.8934      2.2166     -0.0025     26.2665    120.5280
  1216.5000      7.9079      2.1667      0.0221     29.2912    119.4871
  1216.6000      7.9079      2.1006     -0.0012     33.2957    121.5925
  1216.7000      7.9079      2.0085     -0.0472     38.8803    119.6227
  1216.8000      7.9162      1.9035     -0.0093     45.2454    113.1697
  1216.9000      7.9162      1.8032      0.0062     51.3200    110.1142
  1217.0000      7.9191      1.7076      0.0005     57.1160    111.5592
  1217.1000      7.9191      1.6109     -0.0353     62.9777    109.6698
  1217.2000      7.9191      1.5293     -0.0668     67.9184    101.4530
  1217.3000      7.9245      1.4825     -0.0623     70.7583     90.4731
  1217.4000      7.9245      1.4553      0.0180     72.4049     79.2999
  1217.5000      7.9549      1.4239     -0.0471     74.3062     72.1250
  1217.6000      7.9549      1.3937     -0.0230     76.1408     72.8695
  1217.7000      7.9549      1.3729      0.0409     77.4028     75.1239
  1217.8000      8.0184      1.3567      0.0660     78.3815     71.8205
  1217.9000      8.0184      1.3455      0.0654     79.0617     65.3589
  1218.0000      8.0696      1.3476      0.0396     78.9337     59.3013
  1218.1000      8.0696      1.3725      0.0239     77.4214     55.1521
  1218.2000      8.0696      1.4183      0.0496     74.6507     53.5466
  1218.3000      8.0547      1.4688      0.0800     71.5905     54.1101
  1218.4000      8.0547      1.5189      0.0510     68.5494     56.7364
  1218.5000      8.0241      1.5775      0.1369     65.0019     60.5758
  1218.6000      8.0241      1.6469      0.1936     60.7935     65.5156
  1218.7000      8.0241      1.7317      0.1995     55.6523     74.1256
  1218.8000      8.0390      1.8343      0.2795     49.4390     84.7797
  1218.9000      8.0390      1.9327      0.3023     43.4700     92.9323
  1219.0000      8.0511      2.0056      0.2479     39.0554     98.1011
  1219.1000      8.0511      2.0604      0.1845     35.7363     99.4846
  1219.2000      8.0511      2.1112      0.1710     32.6538     97.8303
  1219.3000      8.0064      2.1596      0.1243     29.7190     97.7866
  1219.4000      8.0064      2.2091      0.1222     26.7219    100.3441
  1219.5000      7.9674      2.2588      0.1407     23.7066    103.5572
  1219.6000      7.9674      2.2907      0.1458     21.7754    104.8210
  1219.7000      7.9674      2.2861      0.1323     22.0570    103.4874
  1219.8000      7.9590      2.2457      0.1062     24.5037    101.9612
  1219.9000      7.9590      2.1890      0.0316     27.9389    100.5823
  1220.0000      7.9568      2.1301      0.0271     31.5095     99.5560
  1220.1000      7.9568      2.0633      0.0281     35.5589    100.0274
  1220.2000      7.9568      1.9841     -0.0340     40.3568    100.9008
  1220.3000      7.9482      1.8995     -0.0427     45.4849    103.2093
  1220.4000      7.9482      1.8121     -0.0347     50.7814    107.3168
  1220.5000      7.9355      1.7293     -0.0674     55.8017    110.7368
  1220.6000      7.9355      1.6698     -0.0658     59.4033    112.1868
  1220.7000      7.9355      1.6325      0.0111     61.6658    110.4537
  1220.8000      7.9326      1.5946      0.0261     63.9641    105.9790
