~Version Information
VERS.                      2.0: CWLS Log ASCII Standard - VERSION 2.0
WRAP.                       NO: One line per depth step
~Well Information Block
STRT.FT               -14.0000: 
STOP.FT               951.0000: 
STEP.FT                 0.2500: 
NULL.                -999.2500: 
COMP.          Pioneer Natural Resources: COMPANY
WELL.             Giggle 21-22: WELL
FLD.           Purgatoire River: FIELD
LOC.           950' FNL & 2094' FWL: LOCATION
CNTY.               Las Animas: COUNTY
SRVC.                         : SERVICE COMPANY
DATE.          Mon Apr 17 17:51:33 2006: LOG DATE
UWI.           05 071 08726 00: UNIQUE WELL ID
STAT.                       CO: STATE
~Curve Information Block
DEPT.FT            0 000 00 00: Depth
CCL.                          : Casing Collar Locator
TT3.usec                      : CBL 3' Travel Time
AMP3.mV                       : CBL 3' Amplitude
GR.GAPI                       : Gamma Ray
~Parameter Information Block
~A  Depth       CCL         TT3         AMP3         GR     
# ...
   723.0000      0.0000    387.6343      9.0398     59.9896
   723.2500      0.0000    387.6372      8.6391     60.5802
   723.5000      0.0000    387.5131      8.2426     61.7585
   723.7500      0.0000    387.3729      7.9407     62.4176
   724.0000      0.0000    387.3180      7.7046     61.7329
   724.2500      0.0000    387.4203      7.4423     59.7638
   724.5000      0.0000    388.0091      7.1096     57.3066
   724.7500      0.0000    390.3524      6.7677     55.3062
   725.0000      0.0000    397.6190      6.5556     54.5324
   725.2500      0.0000    415.1025      6.6201     55.4548
   725.5000      0.0000    447.9190      7.0419     57.9557
   725.7500      0.0000    496.1826      7.7819     61.1862
   726.0000      0.0000    552.0592      8.6722     64.0215
   726.2500      0.0000    603.4554      9.4698     65.6967
   726.5000      0.0000    641.8941      9.9606     66.0770
   726.7500      0.0000    666.5922     10.0640     65.6342
   727.0000      0.0000    681.5744      9.8741     65.2911
   727.2500      0.0000    690.6553      9.6090     66.0746
   727.5000      0.0000    695.6368      9.4922     68.6655
   727.7500      0.0000    697.7280      9.6238     73.2339
   728.0000      0.0000    698.8714      9.9303     79.5406
   728.2500      0.0000    701.0577     10.2463     86.8921
   728.5000      0.0000    704.7675     10.4529     94.0745
   728.7500      0.0000    708.5973     10.5305     99.8435
   729.0000      0.0000    710.5838     10.4893    103.6680
   729.2500      0.0000    709.7319     10.2978    105.7542
   729.5000      0.0000    706.3856      9.9202    106.5055
   729.7500      0.0000    701.6822      9.4126    106.4669
   730.0000      0.0000    696.9597      8.9275    106.6005
   730.2500      0.0000    693.2548      8.6043    107.6389
   730.5000      0.0000    690.8779      8.4740    108.9473
   730.7500      0.0000    689.2715      8.4748    108.8702
   731.0000      0.0000    687.1614      8.5355    106.4971
   731.2500      0.0000    682.7151      8.6277    102.4274
   731.5000      0.0000    673.5357      8.7421     97.7064
   731.7500      0.0000    656.7674      8.8439     92.8168
   732.0000      0.0000    630.1151      8.8857     87.9959
   732.2500      0.0000    593.6432      8.8624     83.9930
   732.5000      0.0000    550.4695      8.8158     82.0049
   732.7500      0.0000    505.2643      8.7738     82.7088
   733.0000      0.0000    462.6907      8.7151     85.4840
   733.2500      0.0000    427.7189      8.5981     88.8543
   733.5000      0.0000    406.3152      8.3957     91.7772
   733.7500      0.0000    404.2411      8.1069     94.2899
   734.0000      0.0000    423.6251      7.7688     96.9931
   734.2500      0.0000    459.2746      7.4664    100.3057
   734.5000      0.0000    498.9453      7.3088    104.1701
   734.7500      0.0000    530.0435      7.3715    107.9825
   735.0000      0.0000    547.8723      7.6503    110.7011
   735.2500      0.0000    557.2337      8.0686    111.4198
   735.5000      0.0000    566.1906      8.5310    109.9920
   735.7500      0.0000    578.8606      8.9589    107.0616
   736.0000      0.0000    593.9654      9.2786    103.6965
   736.2500      0.0000    608.7885      9.4144    101.0962
   736.5000      0.0000    622.3480      9.3271    100.2463
   736.7500      0.0000    634.5008      9.0468    101.2941
   737.0000      0.0000    644.6687      8.6419    103.2989
   737.2500      0.0000    653.0693      8.1557    105.1391
   737.5000      0.0000    661.7944      7.5935    106.9878
   737.7500      0.0000    672.9749      6.9794    110.4295
   738.0000      0.0000    686.0146      6.4044    116.5682
   738.2500      0.0000    697.8317      5.9896    124.2635
   738.5000      0.0000    706.2333      5.7859    130.8498
   738.7500      0.0000    711.4846      5.7305    134.3765
   739.0000      0.0000    713.8770      5.7292    134.4197
   739.2500      0.0000    713.0106      5.7587    130.9252
   739.5000     -2.1506    711.9174      5.8534    123.4867
   739.7500      3.6749    717.6121      6.0134    112.5746
   740.0000      5.0000    733.1484      6.1687    100.9000
   740.2500      4.6252    751.9213      6.2383     92.2833
   740.5000     -2.2916    764.0148      6.2120     88.7158
   740.7500      0.0000    766.5358      6.1689     89.1573
   741.0000      0.0000    764.7214      6.2122     91.4270
   741.2500      0.0000    763.6632      6.3800     94.3930
   741.5000      0.0000    761.1253      6.6249     97.8218
   741.7500      0.0000    749.2574      6.8802    101.0443
   742.0000      0.0000    723.2001      7.1149    102.9413
   742.2500      0.0000    687.2879      7.3199    103.1158
   742.5000      0.0000    652.7271      7.4798    102.2087
   742.7500      0.0000    628.6983      7.5816    100.8346
   743.0000      0.0000    614.3709      7.6241     98.7923
   743.2500      0.0000    600.7894      7.6186     95.6669
   743.5000      0.0000    583.3115      7.6069     91.7715
   743.7500      0.0000    569.9807      7.6724     88.0362
   744.0000      0.0000    572.9891      7.8865     85.1407
   744.2500      0.0000    592.6567      8.2286     83.1940
   744.5000      0.0000    615.0591      8.5845     82.4150
   744.7500      0.0000    626.4979      8.8305     83.6268
   745.0000      0.0000    626.9199      8.9088     87.4770
   745.2500      0.0000    627.4964      8.8346     93.2342
   745.5000      0.0000    637.2171      8.6630     98.8117
   745.7500      0.0000    654.5520      8.4536    102.1792
   746.0000      0.0000    671.6976      8.2392    102.6717
   746.2500      0.0000    683.2229      8.0318    100.9355
   746.5000      0.0000    689.1081      7.8760     97.9212
   746.7500      0.0000    692.1725      7.8660     94.3708
   747.0000      0.0000    695.1399      8.0671     91.2214
   747.2500      0.0000    699.4831      8.4300     89.6613
   747.5000      0.0000    705.0479      8.8106     90.1022
   747.7500      0.0000    710.0786      9.0627     91.5250
   748.0000      0.0000    712.3535      9.1092     92.4810
   748.2500      0.0000    711.0803      8.9711     92.5428
   748.5000      0.0000    707.8199      8.7479     92.4417
   748.7500      0.0000    705.2338      8.5354     92.9393
   749.0000      0.0000    704.8662      8.3419     93.7889
   749.2500      0.0000    706.2242      8.0989     93.8957
   749.5000      0.0000    707.7308      7.7512     92.5045
   749.7500      0.0000    708.0906      7.3336     90.0267
   750.0000      0.0000    706.8348      6.9778     87.5386
   750.2500      0.0000    704.2792      6.8451     85.7348
   750.5000      0.0000    701.4661      7.0161     84.6130
   750.7500      0.0000    699.8669      7.4186     83.9068
   751.0000      0.0000    700.4672      7.8581     83.3873
   751.2500      0.0000    702.7974      8.1329     82.8344
   751.5000      0.0000    705.1218      8.1413     82.0557
   751.7500      0.0000    706.0370      7.9148     80.9242
   752.0000      0.0000    705.9056      7.5714     79.2995
   752.2500      0.0000    706.4202      7.2348     77.0806
   752.5000      0.0000    708.8649      6.9794     74.4223
   752.7500      0.0000    713.1388      6.8333     71.7941
   753.0000      0.0000    718.1441      6.8084     69.8980
   753.2500      0.0000    722.6184      6.9022     69.5452
   753.5000      0.0000    725.7335      7.0772     71.2520
   753.7500      0.0000    727.3459      7.2552     74.6954
   754.0000      0.0000    727.8566      7.3458     78.5527
   754.2500      0.0000    727.8334      7.2986     80.9447
   754.5000      0.0000    727.6874      7.1262     80.2691
   754.7500      0.0000    727.4860      6.8578     76.1278
   755.0000      0.0000    726.8579      6.5004     69.8144
   755.2500      0.0000    725.1130      6.0778     63.8411
   755.5000      0.0000    721.7957      5.6756     60.5811
   755.7500      0.0000    717.4070      5.4118     61.0296
   756.0000      0.0000    713.3550      5.3784     64.6764
   756.2500      0.0000    710.6508      5.6094     70.1724
