~Version Information
 VERS.                                  2.0 : CWLS LAS VERSION
 WRAP.                                   NO : WRAPING MODE
 SWARE .                 MController 2.5.0E : SOFTWARE VERSION
~Well Information
 WELL.                      Black Cat 13-23 : WELL
 COMP.     Pioneer Natural Resources USA Inc: COMPANY
 FLD.                      Purgatorie River : FIELD
 LOC.                 NW/SW Sec32 T32S R67W : LOCATION
 DATE.                           7/30-31/05 : DATE(S) LOGGED
 SRVC.       Blanco Geological Services LLC : SERVICE COMPANY
 STAT.                                   CO : STATE
 CNTY.                           Las Animas : COUNTY
 CTRY.                                  USA : COUNTRY
 API.                       05-071-08450-00 : API NUMBER
 STRT.FT                             327.00 : START DEPTH
 STOP.FT                            2850.00 : STOP DEPTH
 STEP.FT                               1.00 : DEPTH INCREMENT
 NULL.                                -9999 : NULL VALUE
~Curve information
 DEPTH.FT                                   :
 ROP.MIN/FT                                 :
 GAS.UNITS                                  :
~ASCII Log data
# ...
       727.0         0.23          6.5 
       728.0         0.43         13.5 
       729.0         0.63         21.5 
       730.0         0.27         24.5 
       731.0         0.25         28.4 
       732.0         0.23         36.4 
       733.0         0.27         43.9 
       734.0         0.40         56.6 
       735.0         0.40         63.6 
       736.0         0.30        108.6 
       737.0         0.43        176.3 
       738.0         0.33        161.0 
       739.0         0.47        142.9 
       740.0         0.23         44.5 
       741.0         0.25         26.6 
       742.0         0.27         24.6 
       743.0         0.30         13.5 
       744.0         0.33          6.6 
       745.0         0.10          5.1 
       746.0         0.13          5.1 
       747.0         0.27          5.2 
       748.0         0.23          4.7 
       749.0         0.33          4.6 
       750.0         5.03          4.0 
       751.0         1.10          3.8 
       752.0         0.50          9.3 
       753.0         0.23         12.4 
       754.0         0.20         12.9 
       755.0         0.13         12.9 
       756.0         0.20         15.6 
       757.0         0.33         20.8 
       758.0         0.28         24.3 
       759.0         0.30         26.8 
       760.0         0.37         34.5 
       761.0         0.23         38.3 
       762.0         0.17         38.3 
       763.0         0.13         60.4 
       764.0         0.17         60.4 
       765.0         0.33         95.9 
       766.0         0.60         96.1 
       767.0         0.27         49.6 
       768.0         0.30         26.3 
       769.0         0.27         12.7 
       770.0         0.22          7.8 
       771.0         0.20          5.2 
       772.0         0.10          4.0 
       773.0         0.13          4.0 
       774.0         0.13          4.4 
       775.0         0.13          3.9 
       776.0         0.10          3.9 
       777.0         0.13          4.1 
       778.0         0.17          2.6 
       779.0         0.13          2.5 
       780.0         0.17          1.9 
       781.0         6.43         49.2 
       782.0         0.33         65.1 
       783.0         0.20         78.1 
       784.0         0.23         90.5 
       785.0         0.20         90.5 
       786.0         0.23        101.6 
       787.0         0.23        110.8 
       788.0         0.37        118.8 
       789.0         0.33        126.6 
       790.0         0.32        131.0 
       791.0         0.30        136.4 
       792.0         0.27        155.0 
       793.0         0.20        229.0 
       794.0         0.40        415.2 
       795.0         0.43       1347.7 
       796.0         0.07       1122.3 
       797.0         0.17       1039.8 
       798.0         0.17        810.5 
       799.0         0.20        720.2 
       800.0         0.17        609.6 
       801.0         0.17        512.1 
       802.0         0.20        472.6 
       803.0         0.20        440.0 
       804.0         0.22        440.2 
       805.0         0.23        440.0 
       806.0         0.17         13.5 
       807.0         0.13         13.5 
       808.0         0.07         12.3 
       809.0         0.17         10.5 
       810.0         0.47          8.9 
       811.0         6.27         25.1 
       812.0         0.57         43.0 
       813.0         0.33         48.9 
       814.0         0.30         52.8 
       815.0         0.13         52.8 
       816.0         0.13         58.3 
       817.0         0.10         58.3 
       818.0         0.10         58.3 
       819.0         0.13         71.9 
       820.0         0.17         71.9 
       821.0         0.17         98.7 
       822.0         0.10        106.6 
       823.0         0.10        117.6 
       824.0         0.22        128.2 
       825.0         0.23        152.5 
       826.0         0.23        148.9 
       827.0         0.30        133.7 
       828.0         0.27         52.7 
       829.0         0.23         45.6 
       830.0         0.17         23.1 
       831.0         0.17         17.1 
       832.0         0.17         12.8 
       833.0         0.23          7.1 
       834.0         0.27          5.4 
       835.0         0.23          3.7 
       836.0         0.23          4.6 
       837.0         0.27          2.7 
       838.0         0.48          2.3 
       839.0         0.23          2.9 
       840.0         0.10          2.4 
       841.0         5.55          4.4 
       842.0         0.07          2.0 
       843.0         0.13          2.8 
       844.0         0.42          3.1 
       845.0         0.40          1.4 
       846.0         0.43          2.5 
       847.0         0.50          3.0 
       848.0         0.50          3.6 
       849.0         0.57         11.4 
       850.0         0.43         15.6 
       851.0         0.40         24.4 
       852.0         0.15         24.4 
       853.0         0.13         29.0 
       854.0         0.10         29.0 
       855.0         0.27         34.0 
       856.0         0.30         40.4 
       857.0         0.37         45.9 
       858.0         0.20         51.9 
       859.0         0.23         60.6 
       860.0         0.30         84.2 
       861.0         0.20        111.2 
       862.0         0.23        133.4 
       863.0         0.30        125.6 
       864.0         0.23        117.5 
       865.0         0.23         85.2 
       866.0         0.32         46.3 
       867.0         0.23         22.5 
       868.0         0.33         12.2 
       869.0         0.40          8.6 
       870.0         0.47          4.5 
       871.0         6.87          7.9 
       872.0         0.10          3.6 
       873.0         0.10          3.2 
       874.0         0.23          3.2 
       875.0         0.20          2.8 
       876.0         0.23          4.7 
       877.0         0.23          7.0 
       878.0         0.23          9.8 
       879.0         0.17          9.8 
       880.0         0.22         12.8 
       881.0         0.17         16.3 
       882.0         0.10         16.3 
       883.0         0.10         20.8 
       884.0         0.07         20.8 
       885.0         0.10         20.8 
       886.0         0.23         26.0 
       887.0         0.20         29.3 
       888.0         0.23         34.3 
       889.0         0.23         37.9 
       890.0         0.20         37.9 
       891.0         0.17         45.4 
       892.0         0.23         59.4 
       893.0         0.30         79.0 
       894.0         0.30         92.0 
       895.0         0.40         92.5 
       896.0         0.42         84.1 
       897.0         0.40         45.4 
       898.0         0.37         12.2 
       899.0         0.37          4.2 
       900.0         0.33          3.6 
       901.0         7.57          4.2 
       902.0         0.37          2.1 
       903.0         0.33          2.3 
       904.0         0.38          3.6 
       905.0         0.33          4.3 
       906.0         0.37          7.5 
       907.0         0.40         11.9 
       908.0         0.27         13.3 
       909.0         0.27         18.3 
       910.0         0.10         18.3 
       911.0         0.10         18.3 
       912.0         0.23         23.7 
       913.0         0.33         30.8 
       914.0         0.20         35.8 
       915.0         0.33         40.9 
       916.0         0.32         50.5 
       917.0         0.27         50.2 
       918.0         0.37         45.7 
       919.0         0.27         40.1 
       920.0         0.20         26.9 
       921.0         0.23         13.9 
       922.0         0.23          7.8 
       923.0         0.23          5.7 
       924.0         0.23          2.3 
       925.0         0.40          3.0 
       926.0         0.53          5.7 
