~Version Information
VERS.                      2.0: CWLS Log ASCII Standard - VERSION 2.0
WRAP.                       NO: One line per depth step
~Well Information Block
STRT.FT                 0.0000: 
STOP.FT               816.5000: 
STEP.FT                 0.1000: 
NULL.                -999.2500: 
COMP.          Pioneer Natural Resources: COMPANY
WELL.           Weissach 32-32: WELL
FLD.           Purgatorie River: FIELD
LOC.           2193' FNL & 2256' FEL: LOCATION
STAT.                 Colorado: State
CNTY.               Las Animas: COUNTY
CTRY. USA : Country
SECT. 32 : Section
TOWN. 33S : Township
RANG. 66W : Range
SRVC.                Patterson: SERVICE COMPANY
DATE.          Mon Sep 26 09:15:29 2005: LOG DATE
API. 05-071-08523                         : UNIQUE WELL ID
~Curve Information Block
DEPT.FT            0 000 00 00: Depth
DCAL.in                       : CDL Caliper
RHOB.g/cc                     : CDL Bulk Density
RHOC.g/cc                     : CDL Density Correction
DPOR.pu                       : CDL Density Porosity
GR.GAPI                       : Gamma Ray
NPOR.pu                       : Neutron Porosity
~Parameter Information Block
~A  Depth       DCAL        RHOB        RHOC        DPOR         GR         NPOR    
# ...
   585.6000      7.8514      2.5669      0.0471      5.0389     67.9471     24.9093
   585.7000      7.8514      2.5498     -0.0386      6.0748     67.1960     24.5256
   585.8000      7.8667      2.5495      0.0048      6.0930     66.3292     24.0414
   585.9000      7.8667      2.5580      0.0134      5.5767     65.3029     23.9415
   586.0000      7.8749      2.5596      0.0234      5.4773     63.2495     23.9222
   586.1000      7.8749      2.5543      0.0160      5.8023     61.0817     23.6196
   586.2000      7.8749      2.5473      0.0265      6.2220     60.8187     23.1744
   586.3000      7.8896      2.5403      0.0279      6.6479     64.2312     23.0390
   586.4000      7.8896      2.5376      0.0059      6.8128     70.1405     23.3465
   586.5000      7.8809      2.5471      0.0122      6.2375     74.3473     23.9034
   586.6000      7.8809      2.5638      0.0363      5.2252     74.8190     24.4831
   586.7000      7.8809      2.5718      0.0409      4.7366     73.7818     25.1241
   586.8000      7.8741      2.5675      0.0330      5.0006     72.6403     25.7932
   586.9000      7.8741      2.5622      0.0495      5.3232     71.6344     26.0778
   587.0000      7.8617      2.5683     -0.0032      4.9539     70.3331     25.7717
   587.1000      7.8617      2.5856      0.0749      3.9029     67.6885     25.1822
   587.2000      7.8617      2.6020      0.0311      2.9069     65.4101     24.8242
   587.3000      7.9014      2.6059      0.0874      2.6756     65.1243     24.9644
   587.4000      7.9014      2.5799      0.0766      4.2504     64.3211     25.3357
   587.5000      7.9121      2.5168      0.0589      8.0721     61.8647     25.4985
   587.6000      7.9121      2.4333      0.0336     13.1328     61.5487     25.4453
   587.7000      7.9121      2.3447     -0.0522     18.5037     64.6214     25.4793
   587.8000      7.9135      2.2560     -0.0554     23.8783     67.9497     25.8797
   587.9000      7.9135      2.1713     -0.0704     29.0151     69.5427     26.7254
   588.0000      7.9194      2.0964     -0.0907     33.5519     68.8791     27.7191
   588.1000      7.9194      2.0406     -0.0832     36.9354     66.9940     28.4839
   588.2000      7.9194      2.0119     -0.0447     38.6733     66.7306     29.0514
   588.3000      7.9270      2.0104     -0.0092     38.7636     69.2396     29.6919
   588.4000      7.9270      2.0296      0.0767     37.5971     73.7535     30.3804
   588.5000      7.9404      2.0648      0.0721     35.4653     78.3646     30.9517
   588.6000      7.9404      2.1136      0.0533     32.5100     82.0569     31.3504
   588.7000      7.9404      2.1648      0.0851     29.4034     86.7590     31.5149
   588.8000      7.9443      2.2059      0.0662     26.9138     93.4455     31.5349
   588.9000      7.9443      2.2386      0.0997     24.9313    100.4723     31.8326
   589.0000      7.9447      2.2799      0.0151     22.4302    106.7115     32.4048
   589.1000      7.9447      2.3432      0.0489     18.5955    111.5834     32.5453
   589.2000      7.9447      2.4058      0.0890     14.8010    114.3521     31.9358
   589.3000      7.9371      2.4328      0.0888     13.1630    116.2214     30.9613
   589.4000      7.9371      2.4316      0.0341     13.2357    118.7889     30.1362
   589.5000      7.9270      2.4286      0.0744     13.4166    120.4240     29.8649
   589.6000      7.9270      2.4217      0.0752     13.8364    118.8212     30.1227
   589.7000      7.9270      2.4028      0.0739     14.9821    115.4979     30.5027
   589.8000      7.9292      2.3881      0.0314     15.8755    112.6780     30.6567
   589.9000      7.9292      2.3938      0.0957     15.5287    110.6284     30.4403
   590.0000      7.8494      2.4142      0.0599     14.2896    109.9719     30.0494
   590.1000      7.8494      2.4346      0.1523     13.0531    111.3331     29.7906
   590.2000      7.8494      2.4445      0.1202     12.4557    112.9777     29.7962
   590.3000      7.8716      2.4523      0.1247     11.9821    112.8177     30.0120
   590.4000      7.8716      2.4759      0.1379     10.5499    111.7788     30.0728
   590.5000      7.8516      2.5160      0.1664      8.1190    110.0282     29.9641
   590.6000      7.8516      2.5521      0.1923      5.9315    106.3252     30.0351
   590.7000      7.8516      2.5671      0.1198      5.0248    102.7852     30.0623
   590.8000      7.8491      2.5703      0.1335      4.8300    102.4275     29.6527
   590.9000      7.8491      2.5772      0.0908      4.4099    104.7021     29.1817
   591.0000      7.8601      2.5837      0.1098      4.0189    106.2870     29.1486
   591.1000      7.8601      2.5732      0.1010      4.6546    104.0933     29.4755
   591.2000      7.8601      2.5485      0.0651      6.1529     99.1967     29.6517
   591.3000      7.8427      2.5333      0.0541      7.0729     96.6027     29.4049
   591.4000      7.8427      2.5410      0.0470      6.6038     98.8414     29.2004
   591.5000      7.8211      2.5594      0.0936      5.4913    103.0669     29.2975
   591.6000      7.8211      2.5660      0.1032      5.0916    104.9221     29.2817
   591.7000      7.8211      2.5562      0.0795      5.6876    104.3955     28.8414
   591.8000      7.8173      2.5464      0.0690      6.2798    104.1016     28.4028
   591.9000      7.8173      2.5469      0.0763      6.2491    104.4215     28.5364
   592.0000      7.7952      2.5543      0.0733      5.7999    105.0461     28.8876
   592.1000      7.7952      2.5680      0.0550      4.9680    106.6489     28.8639
   592.2000      7.7952      2.5830      0.1097      4.0583    108.3754     28.5672
   592.3000      7.8041      2.5867      0.0983      3.8350    107.5279     28.1835
   592.4000      7.8041      2.5817      0.0844      4.1406    105.9592     27.8222
   592.5000      7.8173      2.5804      0.0793      4.2195    107.3652     27.7100
   592.6000      7.8173      2.5839      0.0809      4.0078    108.4948     27.9948
   592.7000      7.8173      2.5843      0.0875      3.9800    105.8449     28.2948
   592.8000      7.8068      2.5766      0.0875      4.4477    101.3377     28.1812
   592.9000      7.8068      2.5602      0.0951      5.4411     98.1607     27.9774
   593.0000      7.8056      2.5336      0.0593      7.0524     97.6120     28.1231
   593.1000      7.8056      2.5020      0.0521      8.9683    100.8412     28.3799
   593.2000      7.8056      2.4755      0.0599     10.5765    106.6570     28.4675
   593.3000      7.8016      2.4525      0.0454     11.9694    111.8481     28.5659
   593.4000      7.8016      2.4246      0.0728     13.6611    115.4911     28.8578
   593.5000      7.8019      2.3984      0.0271     15.2509    116.9941     29.2646
   593.6000      7.8019      2.3899      0.0308     15.7643    115.1347     29.5819
   593.7000      7.8019      2.3915      0.0523     15.6685    109.4345     29.7631
   593.8000      7.8084      2.3810      0.0855     16.3033    102.2823     30.0014
   593.9000      7.8084      2.3606      0.0511     17.5418     97.9610     30.3259
   594.0000      7.8127      2.3437      0.0737     18.5606     98.6968     30.5704
   594.1000      7.8127      2.3299      0.0644     19.3997    101.9415     30.7364
   594.2000      7.8127      2.3272      0.0418     19.5652    102.5556     30.7449
   594.3000      7.8299      2.3509      0.0744     18.1258    101.5532     30.4787
   594.4000      7.8299      2.3935      0.1120     15.5432    102.3792     30.1477
   594.5000      7.8839      2.4347      0.0983     13.0485    104.4371     30.1034
   594.6000      7.8839      2.4628      0.1290     11.3430    105.9235     30.2591
   594.7000      7.8839      2.4787      0.1025     10.3831    104.9652     30.2177
   594.8000      7.9186      2.4891      0.0829      9.7535    103.9981     29.9637
   594.9000      7.9186      2.4961      0.0617      9.3254    107.1692     29.6061
   595.0000      7.9143      2.4991      0.0518      9.1478    111.0317     29.1176
   595.1000      7.9143      2.4962      0.0572      9.3221    110.9920     28.5859
