~Version Information
VERS.                      2.0: CWLS Log ASCII Standard - VERSION 2.0
WRAP.                       NO: One line per depth step
~Well Information Block
STRT.FT                -8.7500: 
STOP.FT              2331.5000: 
STEP.FT                 0.2500: 
NULL.                -999.2500: 
COMP.          Pioneer Natural Resources: COMPANY
WELL.          Sparrowhawk 22-12: WELL
FLD.           Purgatorie River: FIELD
LOC.           2049' FNL & 2060' FWL--: LOCATION
CNTY.               Las Animas: COUNTY
SRVC.          Patterson Wireline: SERVICE COMPANY
DATE.          Wed Apr 12 08:53:41 2006: LOG DATE
UWI.           05 071 08484 00: UNIQUE WELL ID
STAT.                       CO: STATE
~Curve Information Block
DEPT.FT            0 000 00 00: Depth
CCL.                          : Casing Collar Locator
TT3.usec                      : CBL 3' Travel Time
AMP3.mV                       : CBL 3' Amplitude
GR.GAPI                       : Gamma Ray
~Parameter Information Block
MAXAMPL.mV              0.0000: Maximum Amplitude
~A  Depth       CCL         TT3         AMP3         GR     
# ...
  1699.7500      0.0000    264.3141     72.1958    171.0759
  1700.0000      0.0000    264.3233     72.1931    172.8283
  1700.2500      0.0000    264.3400     72.2033    171.6579
  1700.5000      0.0000    264.3617     72.2335    168.7109
  1700.7500      0.0000    264.3845     72.2825    165.3787
  1701.0000      0.0000    264.4041     72.3410    161.8262
  1701.2500      0.0000    264.4184     72.4003    157.2538
  1701.5000      0.0000    264.4272     72.4593    151.3601
  1701.7500      0.0000    264.4320     72.5242    145.2498
  1702.0000      0.0000    264.4347     72.6028    140.8409
  1702.2500      0.0000    264.4371     72.6971    139.2767
  1702.5000      0.0000    264.4408     72.8010    139.9629
  1702.7500      0.0000    264.4460     72.9010    141.3117
  1703.0000      0.0000    264.4510     72.9775    142.1661
  1703.2500      0.0000    264.4537     73.0103    142.2591
  1703.5000      0.0000    264.4529     72.9882    141.7050
  1703.7500      0.0000    264.4490     72.9174    140.5960
  1704.0000      0.0000    264.4430     72.8176    138.9902
  1704.2500      0.0000    264.4366     72.7110    136.8739
  1704.5000      0.0000    264.4315     72.6178    134.2743
  1704.7500      0.0000    264.4279     72.5564    131.8624
  1705.0000      0.0000    264.4253     72.5386    131.1891
  1705.2500      0.0000    264.4224     72.5609    133.4822
  1705.5000      0.0000    264.4192     72.6061    137.9546
  1705.7500      0.0000    264.4155     72.6552    141.8553
  1706.0000      0.0000    264.4116     72.6957    142.6144
  1706.2500      0.0000    264.4083     72.7207    139.8070
  1706.5000      0.0000    264.4071     72.7273    134.8973
  1706.7500      0.0000    264.4088     72.7211    129.3822
  1707.0000      0.0000    264.4132     72.7201    123.6286
  1707.2500      0.0000    264.4195     72.7477    117.4475
  1707.5000      0.0000    264.4255     72.8126    111.1322
  1707.7500      0.0000    264.4293     72.8968    105.4852
  1708.0000      0.0000    264.4300     72.9682    101.2311
  1708.2500      0.0000    264.4281     73.0065     98.9415
  1708.5000      0.0000    264.4253     73.0130     99.3746
  1708.7500      0.0000    264.4225     72.9987    103.2663
  1709.0000      0.0000    264.4198     72.9722    110.2744
  1709.2500      0.0000    264.4169     72.9405    118.1103
  1709.5000      0.0000    264.4131     72.9125    123.2859
  1709.7500      0.0000    264.4086     72.8942    123.5175
  1710.0000      0.0000    264.4041     72.8805    119.7867
  1710.2500      0.0000    264.4009     72.8567    115.8941
  1710.5000      0.0000    264.3997     72.8033    115.5911
  1710.7500      0.0000    264.4000     72.6999    119.7318
  1711.0000      0.0000    264.4005     72.5301    125.7623
  1711.2500      0.0000    264.3995     72.2920    129.8716
  1711.5000      0.0000    264.3950     72.0035    130.0654
  1711.7500      0.0000    264.3854     71.6924    127.5244
  1712.0000      0.0000    264.3713     71.3796    125.1357
  1712.2500      0.0000    264.3562     71.0715    124.9779
  1712.5000      0.0000    264.3437     70.7663    127.3400
  1712.7500      0.0000    264.3360     70.4633    131.5824
  1713.0000      0.0000    264.3334     70.1623    137.0438
  1713.2500      0.0000    264.3346     69.8569    142.7412
  1713.5000      0.0000    264.3377     69.5307    146.8009
  1713.7500      0.0000    264.3409     69.1588    147.2358
  1714.0000      0.0000    264.3431     68.7161    143.6108
  1714.2500      0.0000    264.3449     68.1894    137.4164
  1714.5000      0.0000    264.3486     67.5862    130.6080
  1714.7500      0.0000    264.3572     66.9268    124.3887
  1715.0000      0.0000    264.3728     66.2259    119.5747
  1715.2500      0.0000    264.3966     65.4800    117.3210
  1715.5000      0.0000    264.4284     64.6707    118.6604
  1715.7500      0.0000    264.4679     63.7728    123.5300
  1716.0000      0.0000    264.5145     62.7517    130.7530
  1716.2500      0.0000    264.5706     61.5461    138.8423
  1716.5000      0.0000    264.6442     60.0535    146.4798
  1716.7500      0.0000    264.7528     58.1467    152.6034
  1717.0000      0.0000    264.9268     55.7347    156.6703
  1717.2500      0.0000    265.2356     52.8320    158.7341
  1717.5000      0.0000    265.8682     49.5621    158.9393
  1717.7500      0.0000    267.2651     46.0832    157.2338
  1718.0000      0.0000    270.1511     42.5107    153.9711
  1718.2500      0.0000    275.1970     38.9103    150.5755
  1718.5000      0.0000    282.3324     35.3458    149.0112
  1718.7500      0.0000    290.3648     31.9139    150.3625
  1719.0000      0.0000    297.5587     28.7308    153.9935
  1719.2500      0.0000    302.7497     25.8944    158.0504
  1719.5000      0.0000    305.8696     23.4572    160.8710
  1719.7500      0.0000    307.5540     21.4245    162.2568
  1720.0000      0.0000    308.5264     19.7672    163.2790
  1720.2500      0.0000    309.4666     18.4320    164.8031
  1720.5000      0.0000    311.2921     17.3543    166.7774
  1720.7500      0.0000    315.6556     16.4780    168.8959
  1721.0000      0.0000    324.9702     15.7708    170.8196
  1721.2500      0.0000    341.1814     15.2212    171.3503
  1721.5000      0.0000    363.3003     14.8217    168.2507
  1721.7500      0.0000    385.6190     14.5521    159.5883
  1722.0000      0.0000    399.1475     14.3700    145.2643
  1722.2500      0.0000    396.8272     14.2199    127.5073
  1722.5000      0.0000    379.2628     14.0542    110.2803
  1722.7500      0.0000    355.2751     13.8437     97.6252
  1723.0000      0.0000    335.6850     13.5652     91.4961
  1723.2500      0.0000    326.4112     13.1901     90.8671
  1723.5000      0.0000    327.1160     12.7095     93.2296
  1723.7500      0.0000    334.3552     12.1791     96.8552
  1724.0000      0.0000    344.5968     11.7334    101.2910
  1724.2500      0.0000    354.9803     11.5432    106.1428
  1724.5000      0.0000    362.7591     11.7502    110.4953
  1724.7500      0.0000    365.3212     12.4306    113.5955
  1725.0000      0.0000    361.2249     13.6094    115.3448
  1725.2500      0.0000    351.1253     15.3080    116.0685
  1725.5000      0.0000    337.3144     17.5820    116.3963
  1725.7500      0.0000    322.3347     20.5254    117.3562
  1726.0000      0.0000    307.9141     24.2591    119.9845
  1726.2500      0.0000    294.9126     28.9310    124.6019
  1726.5000      0.0000    283.8965     34.6885    130.6655
  1726.7500      0.0000    275.4293     41.5626    137.3367
  1727.0000      0.0000    269.7596     49.3088    143.7180
  1727.2500      0.0000    266.5184     57.3583    148.3845
  1727.5000      0.0000    264.9307     64.9753    149.8342
  1727.7500      0.0000    264.2535     71.5173    148.2888
  1728.0000      0.0000    264.0052     76.6128    146.0870
  1728.2500      0.0000    263.9369     80.1736    145.1825
  1728.5000      0.0000    263.9337     82.2958    145.0719
  1728.7500      0.0000    263.9515     83.1039    143.9603
  1729.0000      0.0000    263.9998     82.5810    141.1157
  1729.2500      0.0000    264.1560     80.4936    137.4475
  1729.5000      0.0000    264.5614     76.6179    134.6993
  1729.7500      0.0000    265.3494     71.2665    134.6025
  1730.0000      0.0000    266.5174     65.6021    138.0675
  1730.2500      0.0000    267.8651     61.1414    144.4215
  1730.5000      0.0000    269.0953     58.7346    151.5000
  1730.7500      0.0000    269.9959     58.0813    156.9022
  1731.0000      0.0000    270.5340     58.2059    159.5290
  1731.2500      0.0000    270.8096     58.2218    160.1825
  1731.5000      2.0000    270.9482     57.7339    160.8145
  1731.7500     -2.0000    271.0192     56.8681    163.1613
  1732.0000      0.0000    271.0157     56.1024    167.8813
  1732.2500      0.0000    270.8798     56.0415    174.4651
  1732.5000      0.0000    270.5394     57.2403    181.5560
  1732.7500      0.0000    269.9368     60.0245    187.3534
  1733.0000      0.0000    269.0620     64.2278    190.1303
