~Version Information
VERS.                      2.0: CWLS Log ASCII Standard - VERSION 2.0
WRAP.                       NO: One line per depth step
~Well Information Block
STRT.FT                10.0000: 
STOP.FT               743.5000: 
STEP.FT                 0.1000: 
NULL.                -999.2500: 
COMP.          Pioneer Natural Resources: COMPANY
WELL.                Mia 21-18: WELL
FLD.           Purgatorie River: FIELD
LOC.           1067' FNL & 1824' FWL: LOCATION
PROV.                 Colorado: PROVINCE
CNTY.               Las Animas: COUNTRY
SRVC.                Patterson: SERVICE COMPANY
DATE.          Tue Nov 22 15:40:03 2005: LOG DATE
UWI.           05-071-08559               : UNIQUE WELL ID
~Curve Information Block
DEPT.FT            0 000 00 00: Depth
DCAL.in                       : CDL Caliper
RHOB.g/cc                     : CDL Bulk Density
RHOC.g/cc                     : CDL Density Correction
DPOR.pu                       : CDL Density Porosity
GR.GAPI                       : Gamma Ray
NPOR.pu                       : Neutron Porosity
~Parameter Information Block
~A  Depth       DCAL        RHOB        RHOC        DPOR         GR         NPOR    
# ...
   730.0000      7.9057      2.6417      0.1125      0.5019      1.7486   -999.2500
   730.1000      7.9057      2.6351      0.0626      0.9023      0.1773   -999.2500
   730.2000      7.9057      2.6142      0.0836      2.1704      0.0095   -999.2500
   730.3000      7.9017      2.5974      0.0418      3.1869      0.0000   -999.2500
   730.4000      7.9017      2.5968      0.0223      3.2213   -999.2500   -999.2500
   730.5000      7.8509      2.6080      0.1034      2.5461   -999.2500   -999.2500
   730.6000      7.8509      2.6148      0.0752      2.1348   -999.2500   -999.2500
   730.7000      7.8509      2.6113      0.0739      2.3482   -999.2500   -999.2500
   730.8000      7.9084      2.6057      0.0315      2.6849   -999.2500   -999.2500
   730.9000      7.9084      2.6067      0.0452      2.6246   -999.2500   -999.2500
   731.0000      7.9046      2.6058      0.0762      2.6758   -999.2500   -999.2500
   731.1000      7.9046      2.5920      0.0590      3.5144   -999.2500   -999.2500
   731.2000      7.9046      2.5695      0.0577      4.8775   -999.2500   -999.2500
   731.3000      7.8425      2.5550     -0.0004      5.7594   -999.2500   -999.2500
   731.4000      7.8425      2.5637      0.0660      5.2284   -999.2500   -999.2500
   731.5000      7.8628      2.5856      0.0922      3.9046   -999.2500   -999.2500
   731.6000      7.8628      2.5941      0.0798      3.3909   -999.2500   -999.2500
   731.7000      7.8628      2.5806      0.0555      4.2051   -999.2500   -999.2500
   731.8000      7.8972      2.5585      0.0133      5.5440   -999.2500   -999.2500
   731.9000      7.8972      2.5435     -0.0249      6.4568   -999.2500   -999.2500
   732.0000      7.9130      2.5432      0.0046      6.4725   -999.2500   -999.2500
   732.1000      7.9130      2.5528      0.0717      5.8884   -999.2500   -999.2500
   732.2000      7.9130      2.5628      0.0638      5.2838   -999.2500   -999.2500
   732.3000      7.8994      2.5755      0.0734      4.5176   -999.2500   -999.2500
   732.4000      7.8994      2.5913      0.1010      3.5590   -999.2500   -999.2500
   732.5000      7.8621      2.5999      0.0964      3.0382   -999.2500   -999.2500
   732.6000      7.8621      2.5960      0.0532      3.2720   -999.2500   -999.2500
   732.7000      7.8621      2.5859      0.0146      3.8854   -999.2500   -999.2500
   732.8000      7.8601      2.5751      0.0710      4.5421   -999.2500   -999.2500
   732.9000      7.8601      2.5673      0.0562      5.0108   -999.2500   -999.2500
   733.0000      7.8767      2.5700      0.0671      4.8490   -999.2500   -999.2500
   733.1000      7.8767      2.5795      0.0720      4.2752   -999.2500   -999.2500
   733.2000      7.8767      2.5843      0.0772      3.9846   -999.2500   -999.2500
   733.3000      7.8466      2.5870      0.0525      3.8187   -999.2500   -999.2500
   733.4000      7.8466      2.5948      0.0983      3.3453   -999.2500   -999.2500
   733.5000      7.8566      2.5985      0.0774      3.1215   -999.2500   -999.2500
   733.6000      7.8566      2.5876      0.0592      3.7811   -999.2500   -999.2500
   733.7000      7.8566      2.5667      0.0237      5.0469   -999.2500   -999.2500
   733.8000      7.8792      2.5509      0.0113      6.0061   -999.2500   -999.2500
   733.9000      7.8792      2.5509      0.0398      6.0071   -999.2500   -999.2500
   734.0000      7.8895      2.5611      0.0546      5.3887   -999.2500   -999.2500
   734.1000      7.8895      2.5735      0.0084      4.6343   -999.2500   -999.2500
   734.2000      7.8895      2.5860      0.0231      3.8758   -999.2500   -999.2500
   734.3000      7.8878      2.5891      0.0493      3.6888   -999.2500   -999.2500
   734.4000      7.8878      2.5770      0.0806      4.4220   -999.2500   -999.2500
   734.5000      7.8852      2.5626      0.0433      5.2978   -999.2500   -999.2500
   734.6000      7.8852      2.5606      0.0593      5.4192   -999.2500   -999.2500
   734.7000      7.8852      2.5652      0.0660      5.1386   -999.2500   -999.2500
   734.8000      7.8787      2.5700     -0.0003      4.8501   -999.2500   -999.2500
   734.9000      7.8787      2.5845      0.0478      3.9716   -999.2500   -999.2500
   735.0000      7.8763      2.6053      0.0887      2.7112   -999.2500   -999.2500
   735.1000      7.8763      2.6159      0.0934      2.0681   -999.2500   -999.2500
   735.2000      7.8763      2.6128      0.0677      2.2570   -999.2500   -999.2500
   735.3000      7.8519      2.6061      0.0748      2.6592   -999.2500   -999.2500
   735.4000      7.8519      2.6015      0.0842      2.9406   -999.2500   -999.2500
   735.5000      7.8859      2.5943      0.0513      3.3728   -999.2500   -999.2500
   735.6000      7.8859      2.5853      0.0450      3.9214   -999.2500   -999.2500
   735.7000      7.8859      2.5838      0.0487      4.0134   -999.2500   -999.2500
   735.8000      7.8593      2.5971      0.0216      3.2087   -999.2500   -999.2500
   735.9000      7.8593      2.6175      0.0903      1.9682   -999.2500   -999.2500
   736.0000      7.8506      2.6242      0.0925      1.5614   -999.2500   -999.2500
   736.1000      7.8506      2.6120      0.0644      2.3042   -999.2500   -999.2500
   736.2000      7.8506      2.6027      0.0115      2.8653   -999.2500   -999.2500
   736.3000      7.8492      2.6143      0.0596      2.1656   -999.2500   -999.2500
   736.4000      7.8492      2.6324      0.1205      1.0641   -999.2500   -999.2500
   736.5000      7.8631      2.6322      0.0948      1.0818   -999.2500   -999.2500
   736.6000      7.8631      2.6138      0.0545      2.1950   -999.2500   -999.2500
   736.7000      7.8631      2.5955      0.0536      3.3050   -999.2500   -999.2500
   736.8000      7.8736      2.5846      0.0375      3.9615   -999.2500   -999.2500
   736.9000      7.8736      2.5785      0.0613      4.3313   -999.2500   -999.2500
   737.0000      7.8883      2.5799      0.0062      4.2494   -999.2500   -999.2500
   737.1000      7.8883      2.5890      0.0733      3.6966   -999.2500   -999.2500
   737.2000      7.8883      2.5945      0.0283      3.3641   -999.2500   -999.2500
   737.3000      7.8742      2.5952      0.0615      3.3206   -999.2500   -999.2500
   737.4000      7.8742      2.6002      0.0480      3.0206   -999.2500   -999.2500
   737.5000      7.8670      2.6071      0.0921      2.6023   -999.2500   -999.2500
   737.6000      7.8670      2.6089      0.0491      2.4907   -999.2500   -999.2500
   737.7000      7.8670      2.6101      0.0836      2.4201   -999.2500   -999.2500
   737.8000      7.8471      2.6131      0.0844      2.2371   -999.2500   -999.2500
   737.9000      7.8471      2.6323      0.0538      1.0718   -999.2500   -999.2500
   738.0000      7.8273      2.7156      0.0351     -3.9753   -999.2500   -999.2500
   738.1000      7.8273      2.7519      0.0835     -6.1727   -999.2500   -999.2500
   738.2000      7.8273      2.3056      0.5222     20.8750   -999.2500   -999.2500
   738.3000      7.8127      1.3092      0.0000     81.2592   -999.2500   -999.2500
   738.4000      7.8127      0.4437      0.0000    133.7126   -999.2500   -999.2500
   738.5000      6.6190      0.0842   -999.2500    155.5014   -999.2500   -999.2500
   738.6000      6.6190      0.0087   -999.2500    160.0800   -999.2500   -999.2500
   738.7000      6.6190      0.0005   -999.2500    160.5775   -999.2500   -999.2500
   738.8000     -1.7664      0.0000   -999.2500    160.6061   -999.2500   -999.2500
   738.9000     -1.7664      0.0000   -999.2500    160.6061   -999.2500   -999.2500
   739.0000     -2.9001   -999.2500   -999.2500   -999.2500   -999.2500   -999.2500
   739.1000     -2.9001   -999.2500   -999.2500   -999.2500   -999.2500   -999.2500
   739.2000     -2.9001   -999.2500   -999.2500   -999.2500   -999.2500   -999.2500
   739.3000   -999.2500   -999.2500   -999.2500   -999.2500   -999.2500   -999.2500
   739.4000   -999.2500   -999.2500   -999.2500   -999.2500   -999.2500   -999.2500
   739.5000   -999.2500   -999.2500   -999.2500   -999.2500   -999.2500   -999.2500
