~Version Information
VERS.                      2.0: CWLS Log ASCII Standard - VERSION 2.0
WRAP.                       NO: One line per depth step
~Well Information Block
STRT.FT                 0.0000: 
STOP.FT              1193.0000: 
STEP.FT                 0.1000: 
NULL.                -999.2500: 
COMP.          Pioneer Natural Resources: COMPANY
WELL.          Big Pine 32-15 Tr: WELL
FLD.           Purgatorie River: FIELD
LOC.           2546' FNL & 1451' FEL: LOCATION
STAT.                 Colorado: State
CNTY.               Las Animas: COUNTY
CTRY. USA : Country
SECT. 15 : Section
TOWN. 33S : Township
RANG. 67W : Range
SRVC.                Patterson: SERVICE COMPANY
DATE.          Tue Nov 08 07:11:35 2005: LOG DATE
API. 05-071-08604                         : UNIQUE WELL ID
~Curve Information Block
DEPT.FT            0 000 00 00: Depth
DCAL.in                       : CDL Caliper
RHOB.g/cc                     : CDL Bulk Density
RHOC.g/cc                     : CDL Density Correction
DPOR.pu                       : CDL Density Porosity
GR.GAPI                       : Gamma Ray
NPOR.pu                       : Neutron Porosity
~Parameter Information Block
~A  Depth       DCAL        RHOB        RHOC        DPOR         GR         NPOR    
# ...
   854.4000      7.7859      2.5971      0.0299      3.2031    104.1384     24.6710
   854.5000      7.7955      2.5760     -0.0122      4.4859    103.0453     24.8620
   854.6000      7.7955      2.5727      0.0387      4.6819    107.4529     24.7564
   854.7000      7.7955      2.5736      0.0553      4.6290    112.9919     24.5040
   854.8000      7.8102      2.5690      0.0328      4.9070    114.1014     24.4694
   854.9000      7.8102      2.5646      0.0532      5.1777    111.8037     24.7451
   855.0000      7.8579      2.5575      0.0495      5.6055    110.0074     25.0782
   855.1000      7.8579      2.5377      0.0418      6.8068    108.3404     25.2387
   855.2000      7.8579      2.5147     -0.0530      8.1995    104.6263     25.0887
   855.3000      7.8844      2.5138     -0.0272      8.2568    100.5627     24.7256
   855.4000      7.8844      2.5394      0.0045      6.7038     97.8810     24.4080
   855.5000      7.8829      2.5787      0.0324      4.3190     94.4104     24.1636
   855.6000      7.8829      2.6216      0.0969      1.7222     91.4127     23.8791
   855.7000      7.8829      2.6578      0.1081     -0.4751     91.9202     23.6386
   855.8000      7.8826      2.6737      0.1883     -1.4338     93.6370     23.5903
   855.9000      7.8826      2.6608      0.1399     -0.6535     94.7171     23.5775
   856.0000      7.8291      2.6245      0.1774      1.5479     97.5251     23.3717
   856.1000      7.8291      2.5722      0.1532      4.7166    102.3525     23.0739
   856.2000      7.8291      2.5225      0.0974      7.7251    105.9642     22.9637
   856.3000      7.7529      2.5039      0.1071      8.8547    106.9838     22.8992
   856.4000      7.7529      2.5276      0.0718      7.4209    107.1609     22.5797
   856.5000      7.7451      2.5823      0.1553      4.1033    107.4390     22.3244
   856.6000      7.7451      2.6448      0.1815      0.3140    107.7997     22.5772
   856.7000      7.7451      2.6891      0.2231     -2.3689    109.2970     23.2623
   856.8000      7.8170      2.6954      0.2485     -2.7510    111.7187     24.0458
   856.9000      7.8170      2.6708      0.1999     -1.2597    112.9746     24.6168
   857.0000      7.8448      2.6392      0.1961      0.6532    113.6382     24.7385
   857.1000      7.8448      2.6054      0.1588      2.7049    114.1247     24.5350
   857.2000      7.8448      2.5664      0.0820      5.0695    111.9273     24.5491
   857.3000      7.8385      2.5387      0.0589      6.7448    108.2806     24.8421
   857.4000      7.8385      2.5453      0.0275      6.3452    107.4862     25.0512
   857.5000      7.8637      2.5878      0.0745      3.7714    109.8077     25.0944
   857.6000      7.8637      2.6372      0.1689      0.7734    112.5462     25.0784
   857.7000      7.8637      2.6656      0.1779     -0.9443    113.4716     25.1920
   857.8000      7.9049      2.6732      0.1503     -1.4068    112.0092     25.5281
   857.9000      7.9049      2.6659      0.1663     -0.9616    107.7602     25.8395
   858.0000      7.8904      2.6477      0.1138      0.1378    101.5597     25.8960
   858.1000      7.8904      2.6355      0.1120      0.8778     96.5482     25.7887
   858.2000      7.8904      2.6388      0.1394      0.6790     92.8217     25.5760
   858.3000      7.8972      2.6491      0.0973      0.0564     88.0148     25.1617
   858.4000      7.8972      2.6614      0.0773     -0.6935     82.8261     24.5052
   858.5000      7.8993      2.6762      0.0738     -1.5858     79.0069     23.7088
   858.6000      7.8993      2.6819      0.1312     -1.9319     75.6777     22.9693
   858.7000      7.8993      2.6643      0.1548     -0.8640     73.6570     22.3528
   858.8000      7.8875      2.6290      0.0949      1.2723     74.2576     21.7411
   858.9000      7.8875      2.5960      0.0702      3.2731     75.6412     21.1248
   859.0000      7.8930      2.5780      0.0330      4.3614     76.0055     20.7934
   859.1000      7.8930      2.5815      0.0594      4.1509     75.6893     20.8586
   859.2000      7.8930      2.6012      0.1128      2.9574     75.6893     20.9190
   859.3000      7.8889      2.6114      0.1184      2.3366     76.3857     20.7380
   859.4000      7.8889      2.5993      0.0915      3.0720     78.6132     20.4849
   859.5000      7.8895      2.5869      0.0296      3.8260     81.4176     20.3284
   859.6000      7.8895      2.5935      0.0954      3.4236     81.8607     20.3788
   859.7000      7.8895      2.6130      0.0634      2.2406     79.7978     20.7502
   859.8000      7.8904      2.6322      0.1025      1.0775     78.4412     21.2951
   859.9000      7.8904      2.6341      0.1417      0.9655     80.0747     21.5400
   860.0000      7.9006      2.6159      0.0493      2.0691     84.2531     21.2493
   860.1000      7.9006      2.5982      0.0222      3.1376     87.4241     20.8767
   860.2000      7.9006      2.5933      0.0651      3.4368     86.2804     20.8389
   860.3000      7.9310      2.5982      0.0749      3.1423     82.4380     20.8777
   860.4000      7.9310      2.6089      0.0854      2.4936     79.2189     20.8396
   860.5000      7.8916      2.6181      0.0854      1.9363     77.9134     20.9023
   860.6000      7.8916      2.6191      0.1226      1.8742     77.0423     21.0801
   860.7000      7.8916      2.6203      0.1043      1.8006     74.9795     21.3084
   860.8000      7.8844      2.6309      0.1698      1.1549     72.9412     21.6799
   860.9000      7.8844      2.6386      0.1888      0.6900     72.1328     22.1016
   861.0000      7.8268      2.6337      0.1930      0.9859     71.9840     22.0862
   861.1000      7.8268      2.6297      0.1654      1.2302     73.3025     21.4268
   861.2000      7.8268      2.6408      0.1526      0.5588     76.5517     20.6716
   861.3000      7.8090      2.6638      0.1818     -0.8351     79.5113     20.3285
   861.4000      7.8090      2.6853      0.1594     -2.1412     80.2980     20.3112
   861.5000      7.8245      2.6956      0.1471     -2.7610     80.4889     20.4377
   861.6000      7.8245      2.6942      0.1519     -2.6794     83.5358     20.7132
   861.7000      7.8245      2.6865      0.1641     -2.2109     88.3624     21.2220
   861.8000      7.9195      2.6755      0.1211     -1.5476     90.7207     21.8778
   861.9000      7.9195      2.6624      0.1158     -0.7497     90.0976     22.3573
   862.0000      7.9189      2.6463      0.0755      0.2271     88.4897     22.5112
   862.1000      7.9189      2.6304      0.0517      1.1881     86.1318     22.6877
   862.2000      7.9189      2.6203      0.0403      1.8008     83.7960     23.1299
   862.3000      7.8864      2.6161      0.0530      2.0570     82.3458     23.5163
   862.4000      7.8864      2.6104      0.0243      2.3996     80.8611     23.5316
   862.5000      7.9560      2.5962      0.0074      3.2601     78.9498     23.3668
   862.6000      7.9560      2.5797     -0.0247      4.2634     78.4506     23.3068
   862.7000      7.9560      2.5746     -0.0373      4.5707     81.0407     23.2027
   862.8000      7.9898      2.5823     -0.0196      4.1060     85.7004     22.7771
   862.9000      7.9898      2.5835      0.0257      4.0303     90.3586     22.1262
   863.0000      7.9833      2.5608     -0.0046      5.4068     94.1396     21.7881
   863.1000      7.9833      2.5268     -0.0394      7.4661     96.7509     21.9973
   863.2000      7.9833      2.5133     -0.0338      8.2835     98.0824     22.3210
   863.3000      7.9820      2.5307      0.0357      7.2316     98.9291     22.4478
   863.4000      7.9820      2.5589      0.0723      5.5234     99.1977     22.4044
   863.5000      8.0823      2.5819      0.1012      4.1300     98.1134     22.3736
   863.6000      8.0823      2.6004      0.1055      3.0051     97.1924     22.6674
   863.7000      8.0823      2.6166      0.1218      2.0259     97.5100     23.2262
   863.8000      8.0522      2.6277      0.1231      1.3497     97.7427     23.6895
   863.9000      8.0522      2.6278      0.1571      1.3449     96.3826     24.0843
