~Version Information
VERS.                      2.0: CWLS Log ASCII Standard - VERSION 2.0
WRAP.                       NO: One line per depth step
~Well Information Block
STRT.FT                -1.5000: 
STOP.FT              2143.7500: 
STEP.FT                 0.2500: 
NULL.                -999.2500: 
COMP.          Pioneer Natural Resources: COMPANY
WELL.              Kermit 32-7: WELL
FLD.           Purgatoire River: FIELD
LOC.           2002' FNL & 2103' FEL: LOCATION
PROV.                 Colorado: PROVINCE
CNTY.               Las Animas: COUNTRY
SRVC.                Patterson: SERVICE COMPANY
DATE.          Wed Jan 18 14:17:49 2006: LOG DATE
UWI.           05 071 08647 00: UNIQUE WELL ID
~Curve Information Block
DEPT.FT            0 000 00 00: Depth
GR.GAPI                       : Gamma Ray
CCL.                          : Casing Collar Locator
TT3.usec                      : CBL 3' Travel Time
AMP3.mV                       : CBL 3' Amplitude
~Parameter Information Block
~A  Depth        GR         CCL         TT3         AMP3    
# ...
  1539.5000    101.2147      0.0000    622.6202      7.9754
  1539.7500    108.3478      0.0000    639.6062      7.8462
  1540.0000    116.2890      0.0000    647.2877      7.7098
  1540.2500    123.7451      0.0000    643.3152      7.5747
  1540.5000    129.4263      0.0000    632.0087      7.4476
  1540.7500    133.0317      0.0000    620.4549      7.3290
  1541.0000    135.0855      0.0000    613.5747      7.2125
  1541.2500    136.2148      0.0000    612.6423      7.0929
  1541.5000    137.0569      0.0000    617.2205      6.9770
  1541.7500    138.2911      0.0000    627.1875      6.8842
  1542.0000    139.8662      0.0000    642.1057      6.8317
  1542.2500    140.4630      0.0000    659.5568      6.8210
  1542.5000    138.4591      0.0000    676.0597      6.8455
  1542.7500    133.2773      0.0000    689.6376      6.9072
  1543.0000    125.5758      0.0000    700.1384      7.0139
  1543.2500    116.7922      0.0000    707.4219      7.1612
  1543.5000    108.7721      0.0000    710.4619      7.3268
  1543.7500    102.9983      0.0000    707.5231      7.4876
  1544.0000     99.7936      0.0000    696.4686      7.6391
  1544.2500     98.6991      0.0000    675.7726      7.7996
  1544.5000     99.3620      0.0000    645.9498      7.9983
  1544.7500    101.3762      0.0000    610.1771      8.2533
  1545.0000    103.5840      0.0000    574.3122      8.5494
  1545.2500    104.6062      0.0000    546.3914      8.8350
  1545.5000    104.2223      0.0000    533.8308      9.0483
  1545.7500    103.5009      0.0000    539.0657      9.1511
  1546.0000    103.3664      0.0000    557.4073      9.1409
  1546.2500    103.6094      0.0000    578.8177      9.0403
  1546.5000    103.4475      0.0000    592.8450      8.8826
  1546.7500    102.5285      0.0000    594.7443      8.7044
  1547.0000    101.2046      0.0000    588.2213      8.5414
  1547.2500    100.1325      0.0000    582.1122      8.4183
  1547.5000     99.7085      0.0000    584.5750      8.3402
  1547.7500     99.6146      0.0000    598.9482      8.2952
  1548.0000     98.8462      0.0000    622.2081      8.2670
  1548.2500     96.4560      0.0000    646.5285      8.2428
  1548.5000     92.4121      0.0000    664.3031      8.2105
  1548.7500     87.5533      0.0000    672.7832      8.1598
  1549.0000     82.7004      0.0000    673.3795      8.0951
  1549.2500     78.2001      0.0000    666.9714      8.0410
  1549.5000     74.4569      0.0000    651.4275      8.0267
  1549.7500     72.4693      0.0000    624.1302      8.0584
  1550.0000     73.4470      0.0000    586.3442      8.1139
  1550.2500     77.9685      0.0000    544.6434      8.1620
  1550.5000     85.5133      0.0000    508.2160      8.1849
  1550.7500     94.5652      0.0000    485.6967      8.1820
  1551.0000    103.1712      0.0000    484.0373      8.1648
  1551.2500    109.8096      0.0000    506.7888      8.1531
  1551.5000    114.1549      0.0000    550.0026      8.1714
  1551.7500    117.1407      0.0000    600.5092      8.2370
  1552.0000    120.0857      0.0000    642.1105      8.3450
  1552.2500    123.3923      0.0000    665.8767      8.4665
  1552.5000    126.0956      0.0000    673.9261      8.5654
  1552.7500    126.9049      0.0000    673.1146      8.6217
  1553.0000    125.6079      0.0000    667.5218      8.6375
  1553.2500    123.2944      0.0000    657.6525      8.6269
  1553.5000    121.3655      0.0000    643.5974      8.6050
  1553.7500    120.4913      0.0000    626.7355      8.5846
  1554.0000    120.4355      0.0000    610.0581      8.5759
  1554.2500    120.7333      0.0000    598.1765      8.5827
  1554.5000    121.3000      0.0000    596.1731      8.5996
  1554.7500    122.2990      0.0000    607.2960      8.6127
  1555.0000    123.7608      0.0000    630.2330      8.6034
  1555.2500    125.6316      0.0000    657.1332      8.5557
  1555.5000    128.0863      0.0000    675.2054      8.4646
  1555.7500    131.5623      0.0000    673.5762      8.3415
  1556.0000    136.2195      0.0000    651.1571      8.2111
  1556.2500    141.2030      0.0000    618.0286      8.1029
  1556.5000    144.7342      0.0000    588.4875      8.0380
  1556.7500    145.2565      0.0000    572.0723      8.0198
  1557.0000    142.3757      0.0000    569.8926      8.0361
  1557.2500    136.7153      0.0000    577.2450      8.0679
  1557.5000    129.5452      0.0000    587.9735      8.0933
  1557.7500    122.7660      0.0000    596.8923      8.0894
  1558.0000    118.4110      0.0000    600.7243      8.0425
  1558.2500    117.4886      0.0000    599.1887      7.9575
  1558.5000    119.4625      0.0000    595.5808      7.8503
  1558.7500    122.9262      0.0000    595.1844      7.7323
  1559.0000    126.5934      0.0000    601.5498      7.6124
  1559.2500    129.8776      0.0000    613.1595      7.5052
  1559.5000    133.0645      0.0000    623.7048      7.4294
  1559.7500    136.9410      0.0000    626.6095      7.3940
  1560.0000    141.8076      0.0000    619.9273      7.3886
  1560.2500    146.6903      0.0000    607.2498      7.3884
  1560.5000    149.7566      0.0000    595.0240      7.3722
  1560.7500    149.7465      0.0000    589.3887      7.3406
  1561.0000    146.8129      0.0000    593.5792      7.3178
  1561.2500    141.7304      0.0000    606.3419      7.3358
  1561.5000    134.6759      0.0000    622.8569      7.4157
  1561.7500    125.3699      0.0000    638.3295      7.5589
  1562.0000    114.2610      0.0000    651.2049      7.7485
  1562.2500    102.9216      0.0000    662.9217      7.9586
  1562.5000     93.0635      0.0000    674.9437      8.1618
  1562.7500     85.5421      0.0000    686.4412      8.3316
  1563.0000     80.5020      0.0000    694.3749      8.4439
  1563.2500     77.9730      0.0000    695.5124      8.4894
  1563.5000     77.8354      0.0000    688.9513      8.4896
  1563.7500     79.4474      0.0000    677.3919      8.4921
  1564.0000     81.8923      0.0000    665.8412      8.5406
  1564.2500     84.7299      0.0000    658.6753      8.6429
  1564.5000     88.1885      0.0000    657.8337      8.7671
  1564.7500     92.4741      0.0000    662.6212      8.8688
  1565.0000     97.0733      0.0000    669.6469      8.9222
  1565.2500    100.8576      0.0000    674.1960      8.9292
  1565.5000    102.8800      0.0000    674.0498      8.9041
  1565.7500    103.1574      0.0000    671.5022      8.8556
  1566.0000    102.6067      0.0000    670.1450      8.7841
  1566.2500    102.1580      0.0000    670.7197      8.6931
  1566.5000    102.0982      0.0000    671.1800      8.6015
  1566.7500    102.2510      0.0000    669.1392      8.5429
  1567.0000    102.4423      0.0000    662.9467      8.5353
  1567.2500    102.5944      0.0000    652.2198      8.5289
  1567.5000    102.5216      0.0000    638.9115      8.3912
  1567.7500    101.8474      0.0000    626.9505      8.0007
  1568.0000    100.2235      0.0000    619.4908      7.3928
  1568.2500     97.6284      0.0000    616.8888      6.7755
  1568.5000     94.3975      0.0000    618.1667      6.3649
  1568.7500     90.9275      0.0000    623.6571      6.2268
  1569.0000     87.5357      0.0000    634.6972      6.2840
  1569.2500     84.7279      3.0000    650.5737      6.4271
  1569.5000     83.2807      0.0000    666.9060      6.5921
  1569.7500     83.4620      0.0000    677.5346      6.7698
  1570.0000     83.9936      0.0000    677.6855      6.9803
  1570.2500     82.3892      0.0000    665.6057      7.2438
  1570.5000     76.9419      0.0000    642.9487      7.5725
  1570.7500     68.3612      0.0000    615.5158      7.9785
  1571.0000     59.2981      0.0000    593.0933      8.4516
  1571.2500     52.4696      0.0000    584.9086      8.9158
  1571.5000     49.1178      0.0000    592.3884      9.2492
  1571.7500     48.6027      0.0000    607.6024      9.3720
  1572.0000     49.1508      0.0000    620.2576      9.2992
  1572.2500     49.1993      0.0000    625.4693      9.1085
  1572.5000     48.3084      0.0000    625.2332      8.8815
  1572.7500     47.0819      0.0000    624.8267      8.6751
