~Version Information
VERS.                      2.0: CWLS Log ASCII Standard - VERSION 2.0
WRAP.                       NO: One line per depth step
~Well Information Block
STRT.FT               410.0000: 
STOP.FT              1253.0000: 
STEP.FT                 0.1000: 
NULL.                -999.2500: 
COMP.          Petrogulf Corporation: COMPANY
WELL.           Parsons 15-23R: WELL
FLD.           Purgatorie River: FIELD
LOC.           2244' FSL & 1932' FWL: LOCATION
PROV.                 Colorado: PROVINCE
CNTY.               Las Animas: COUNTRY
SRVC.                Patterson: SERVICE COMPANY
DATE.          Mon Sep 12 10:28:25 2005: LOG DATE
UWI.                          : UNIQUE WELL ID
~Curve Information Block
DEPT.FT            0 000 00 00: Depth
DCAL.in                       : CDL Caliper
RHOB.g/cc                     : CDL Bulk Density
RHOC.g/cc                     : CDL Density Correction
DPOR.pu                       : CDL Density Porosity
GR.GAPI                       : Gamma Ray
NPOR.pu                       : Neutron Porosity
~Parameter Information Block
~A  Depth       DCAL        RHOB        RHOC        DPOR         GR         NPOR    
# ...
   515.6000      7.8804      2.7224      0.1403     -4.3866    119.9608     22.2320
   515.7000      7.8804      2.7221      0.0888     -4.3686    117.7287     22.3357
   515.8000      7.8651      2.7268      0.1239     -4.6567    113.2583     22.3567
   515.9000      7.8651      2.7247      0.1276     -4.5283    107.6611     22.1127
   516.0000      7.9061      2.7030      0.0973     -3.2115    104.3850     21.6038
   516.1000      7.9061      2.6688      0.0251     -1.1410    107.6843     21.1571
   516.2000      7.9061      2.6456      0.0153      0.2664    116.1880     20.8092
   516.3000      7.9548      2.6364      0.0253      0.8243    123.3819     20.4215
   516.4000      7.9548      2.6283      0.0249      1.3149    126.0633     20.1586
   516.5000      7.9481      2.6203      0.0581      1.8008    127.4708     20.0994
   516.6000      7.9481      2.6126      0.0665      2.2646    131.3453     20.0913
   516.7000      7.9481      2.5996      0.0552      3.0534    134.9433     20.1747
   516.8000      7.9520      2.5847      0.0337      3.9581    132.7406     20.5341
   516.9000      7.9520      2.5774      0.0175      4.4004    127.1618     21.1783
   517.0000      7.9617      2.5806      0.0072      4.2080    123.4346     21.9088
   517.1000      7.9617      2.5927      0.0121      3.4725    121.9598     22.3875
   517.2000      7.9617      2.6064      0.0864      2.6441    123.3981     22.5520
   517.3000      7.9457      2.6126      0.0639      2.2675    127.1957     22.6201
   517.4000      7.9457      2.6162      0.0712      2.0475    129.5559     22.8365
   517.5000      7.9362      2.6220      0.0562      1.6994    128.3942     23.3429
   517.6000      7.9362      2.6253      0.0620      1.4949    123.8597     23.6676
   517.7000      7.9362      2.6257      0.0283      1.4722    119.8451     23.3782
   517.8000      7.9355      2.6260      0.0516      1.4530    121.1639     22.9116
   517.9000      7.9355      2.6259      0.0822      1.4607    124.7765     22.6880
   518.0000      7.9360      2.6217      0.0797      1.7156    125.3878     22.7064
   518.1000      7.9360      2.6120      0.0382      2.3009    123.5620     22.7895
   518.2000      7.9360      2.6052      0.0369      2.7133    120.6073     22.5271
   518.3000      7.9255      2.6101      0.1036      2.4189    115.7512     21.5932
   518.4000      7.9255      2.6239      0.0627      1.5795    110.1340     20.3727
   518.5000      7.9269      2.6405      0.0551      0.5777    105.1898     19.5039
   518.6000      7.9269      2.6527      0.0850     -0.1624    101.2811     18.9307
   518.7000      7.9269      2.6496      0.1169      0.0253    100.1685     18.3468
   518.8000      7.9191      2.6318      0.0451      1.1049    101.1525     17.7763
   518.9000      7.9191      2.6160      0.0270      2.0580     98.7975     17.4424
   519.0000      7.9143      2.6085      0.0385      2.5135     91.6193     17.4136
   519.1000      7.9143      2.6032      0.0046      2.8364     84.9919     17.5353
   519.2000      7.9143      2.6013      0.0318      2.9485     81.5830     17.6588
   519.3000      7.8935      2.6079      0.0332      2.5543     81.7208     17.6388
   519.4000      7.8935      2.6218      0.0340      1.7070     85.7882     17.4018
   519.5000      7.8818      2.6334      0.0682      1.0056     90.5661     17.0139
   519.6000      7.8818      2.6358      0.0722      0.8624     91.8618     16.5073
   519.7000      7.8818      2.6400      0.0651      0.6066     89.5038     15.9287
   519.8000      7.8703      2.6513      0.1111     -0.0779     85.0654     15.4274
   519.9000      7.8703      2.6521      0.0886     -0.1286     79.2579     14.9760
   520.0000      7.8896      2.6332      0.0903      1.0203     74.4709     14.4192
   520.1000      7.8896      2.6063      0.0601      2.6505     72.0987     13.9164
   520.2000      7.8896      2.5860      0.0536      3.8759     71.0316     13.7828
   520.3000      7.8925      2.5745      0.0378      4.5772     70.4746     13.7609
   520.4000      7.8925      2.5663      0.0363      5.0724     70.1398     13.4549
   520.5000      7.9219      2.5632      0.0249      5.2623     70.3509     12.9883
   520.6000      7.9219      2.5658      0.0572      5.1055     71.8747     12.6446
   520.7000      7.9219      2.5632      0.0674      5.2578     74.6494     12.6132
   520.8000      7.9284      2.5484      0.0470      6.1570     77.6182     12.8266
   520.9000      7.9284      2.5243      0.0398      7.6164     80.1130     13.0690
   521.0000      7.9455      2.5034      0.0145      8.8833     81.3903     13.2860
   521.1000      7.9455      2.5052     -0.0293      8.7771     80.7997     13.4952
   521.2000      7.9455      2.5300      0.0472      7.2709     79.4939     13.8818
   521.3000      7.9417      2.5494      0.0689      6.0983     79.4561     14.5089
   521.4000      7.9417      2.5509      0.0003      6.0089     79.9436     14.8153
   521.5000      7.9169      2.5580      0.0298      5.5778     77.8570     14.7058
   521.6000      7.9169      2.5837      0.0795      4.0177     75.0208     14.7777
   521.7000      7.9169      2.6107      0.0836      2.3803     74.8399     15.0545
   521.8000      7.9029      2.6207      0.0917      1.7755     76.9083     15.2163
   521.9000      7.9029      2.6152      0.0730      2.1096     79.2878     15.6052
   522.0000      7.9144      2.6090      0.0392      2.4869     80.5995     16.4461
   522.1000      7.9144      2.6088      0.0611      2.4962     83.1869     17.1577
   522.2000      7.9144      2.6099      0.0523      2.4311     89.8498     17.3109
   522.3000      7.9293      2.6098      0.0677      2.4352     96.6314     17.2465
   522.4000      7.9293      2.6108      0.0652      2.3733    100.0443     17.4537
   522.5000      7.9311      2.6150      0.0863      2.1199    103.2984     18.0499
   522.6000      7.9311      2.6224      0.0838      1.6725    107.5807     18.7851
   522.7000      7.9311      2.6316      0.0479      1.1159    111.1089     19.2592
   522.8000      7.9370      2.6340      0.1090      0.9727    114.4026     19.4098
   522.9000      7.9370      2.6238      0.0335      1.5855    117.5413     19.7364
   523.0000      7.9297      2.6147      0.0754      2.1402    118.2532     20.4039
   523.1000      7.9297      2.6144      0.0663      2.1553    116.3578     20.7886
   523.2000      7.9297      2.6144      0.0452      2.1606    114.8504     20.7021
   523.3000      7.9290      2.6015      0.0833      2.9382    115.4527     20.6898
   523.4000      7.9290      2.5735      0.0049      4.6335    116.1454     20.9911
   523.5000      7.9303      2.5458      0.0037      6.3130    116.4136     21.3981
   523.6000      7.9303      2.5292      0.0006      7.3236    117.6379     21.5729
   523.7000      7.9303      2.5219      0.0120      7.7646    118.9923     21.4246
   523.8000      7.9169      2.5251      0.0059      7.5677    119.1304     21.1771
   523.9000      7.9169      2.5439      0.0292      6.4330    117.0492     21.0878
   524.0000      7.9131      2.5731      0.0745      4.6613    112.6285     21.0632
   524.1000      7.9131      2.5998      0.0804      3.0429    108.5133     20.7794
   524.2000      7.9131      2.6200      0.1114      1.8171    108.0133     20.3377
   524.3000      7.9198      2.6347      0.1295      0.9257    112.4268     19.8928
   524.4000      7.9198      2.6397      0.1423      0.6254    119.4790     19.5199
   524.5000      7.9120      2.6376      0.1041      0.7490    124.8108     19.5876
   524.6000      7.9120      2.6420      0.0654      0.4833    125.3676     20.0856
   524.7000      7.9120      2.6499      0.1243      0.0067    123.0497     20.5263
   524.8000      7.9092      2.6391      0.1141      0.6587    121.2581     20.7572
   524.9000      7.9092      2.6103      0.0369      2.4063    120.2737     20.8797
   525.0000      7.9314      2.5923      0.0234      3.4948    118.1045     20.7697
   525.1000      7.9314      2.5995      0.0709      3.0628    113.3078     20.4183
