~Version Information
VERS.                      2.0: CWLS Log ASCII Standard - VERSION 2.0
WRAP.                       NO: One line per depth step
~Well Information Block
STRT.FT                 0.0000: 
STOP.FT              1147.5000: 
STEP.FT                 0.2500: 
NULL.                -999.2500: 
COMP.          Pioneer Natural Resources: COMPANY
WELL.          Tin Barn 14-20 TR: WELL
FLD.           Purgatorie River: FIELD
LOC.           925 FSL & 1151 FWL: LOCATION
PROV.                 Colorado: PROVINCE
CNTY.               Las Animas: COUNTRY
SRVC.                Patterson: SERVICE COMPANY
DATE.          Wed Jan 18 12:02:25 2006: LOG DATE
UWI.                          : UNIQUE WELL ID
~Curve Information Block
DEPT.FT            0 000 00 00: Depth
CCL.                          : Casing Collar Locator
TT3.usec                      : CBL 3' Travel Time
AMP3.mV                       : CBL 3' Amplitude
GR.GAPI                       : Gamma Ray
~Parameter Information Block
~A  Depth       CCL         TT3         AMP3         GR     
# ...
   603.0000      0.0000    300.7189     28.5515    110.6631
   603.2500      0.0000    300.8076     28.4063    115.2653
   603.5000      0.0000    300.8581     28.2092    116.3673
   603.7500      0.0000    300.8981     27.9284    113.8746
   604.0000      0.0000    300.9752     27.6268    108.1611
   604.2500      0.0000    301.1071     27.3539     99.7342
   604.5000      0.0000    301.2562     27.0603     89.3272
   604.7500      0.0000    301.3859     26.6839     78.1172
   605.0000      0.0000    301.4990     26.2953     67.6114
   605.2500      0.0000    301.5990     26.1074     59.1966
   605.5000      0.0000    301.6607     26.3160     53.7666
   605.7500      0.0000    301.7067     26.8867     51.6143
   606.0000      0.0000    302.2502     27.3519     52.3690
   606.2500      0.0000    305.2152     26.8619     55.1119
   606.5000      0.0000    313.5981     25.0032     59.0053
   606.7500      0.0000    326.8784     22.8015     64.0184
   607.0000      0.0000    337.8335     21.7553     70.7362
   607.2500      0.0000    340.4532     21.6782     79.1958
   607.5000      0.0000    336.5289     21.4500     87.9940
   607.7500      0.0000    329.3656     21.1397     94.8171
   608.0000      0.0000    320.7593     21.2878     98.0786
   608.2500     -2.0000    313.6629     21.6935     98.1539
   608.5000     -2.0000    310.1861     21.9526     97.0055
   608.7500     -2.0000    310.1632     21.9746     96.6055
   609.0000      0.0000    313.2488     21.8187     97.6006
   609.2500      0.0000    318.3889     21.7591     99.2601
   609.5000      0.0000    320.9322     22.7435    100.4981
   609.7500      0.0000    316.0496     25.6025    100.7575
   610.0000      0.0000    306.6601     29.1622    100.1351
   610.2500      0.0000    300.3929     31.3500     99.2695
   610.5000      0.0000    299.2597     32.0187     99.1890
   610.7500      0.0000    299.9707     32.1742    100.6668
   611.0000      0.0000    300.3535     32.1842    103.4739
   611.2500      0.0000    300.3898     32.0895    106.5290
   611.5000      0.0000    300.3912     32.0474    108.7646
   611.7500      0.0000    300.4046     32.1219    109.6910
   612.0000      0.0000    300.3932     32.2008    109.4453
   612.2500      0.0000    300.3462     32.1627    108.8854
   612.5000      0.0000    300.2916     31.9866    109.5087
   612.7500      0.0000    300.2700     31.7349    112.5956
   613.0000      0.0000    300.2778     31.5005    117.9916
   613.2500      0.0000    300.2832     31.3301    123.8460
   613.5000      0.0000    300.2848     31.1997    127.8951
   613.7500      0.0000    300.3077     31.0783    129.1619
   614.0000      0.0000    300.3609     30.9602    128.4019
   614.2500      0.0000    300.4363     30.8048    127.0583
   614.5000      0.0000    300.5352     30.5318    126.0255
   614.7500      0.0000    300.6573     30.1432    125.3070
   615.0000      0.0000    300.7762     29.7705    124.4738
   615.2500      0.0000    300.8701     29.5232    123.0797
   615.5000      0.0000    300.9651     29.3555    120.7107
   615.7500      0.0000    301.0931     29.1708    117.1431
   616.0000      0.0000    301.2174     29.0070    112.6838
   616.2500      0.0000    301.2589     29.0087    108.0315
   616.5000      0.0000    301.1949     29.2130    103.6066
   616.7500      0.0000    301.0922     29.4353     99.2141
   617.0000      0.0000    301.0330     29.4386     94.5288
   617.2500      0.0000    301.0303     29.2038     89.7875
   617.5000      0.0000    301.0481     28.9252     85.7393
   617.7500      0.0000    301.0732     28.7480     82.7938
   618.0000      0.0000    301.1273     28.6435     80.3059
   618.2500      0.0000    301.2221     28.5290     76.8091
   618.5000      0.0000    301.3315     28.4011     71.0939
   618.7500      0.0000    301.4156     28.3360     63.3011
   619.0000      0.0000    301.4623     28.3947     55.1064
   619.2500      0.0000    301.4815     28.5840     48.7500
   619.5000      0.0000    301.4715     28.9020     45.6353
   619.7500      0.0000    301.4232     29.3229     45.6156
   620.0000      0.0000    301.3473     29.7774     47.4500
   620.2500      0.0000    301.2603     30.2502     49.9104
   620.5000      0.0000    301.1619     30.8204     52.6110
   620.7500      0.0000    301.0345     31.5763     56.0767
   621.0000      0.0000    300.8516     32.5615     61.1739
   621.2500      0.0000    300.5993     33.7522     68.3912
   621.5000      0.0000    300.3072     35.0274     77.4609
   621.7500      0.0000    300.0396     36.2244     87.4460
   622.0000      0.0000    299.8433     37.2416     97.0912
   622.2500      0.0000    299.7138     38.0345    105.1479
   622.5000      0.0000    299.6121     38.5424    110.4952
   622.7500      0.0000    299.5131     38.7065    112.3142
   623.0000      0.0000    299.4377     38.5844    110.5204
   623.2500      0.0000    299.4196     38.3635    105.9831
   623.5000      0.0000    299.4474     38.1954    100.0930
   623.7500      0.0000    299.4632     38.0853     94.1833
   624.0000      0.0000    299.4240     37.9644     89.3883
   624.2500      0.0000    299.3495     37.7777     86.6173
   624.5000      0.0000    299.2840     37.5251     86.0958
   624.7500      0.0000    299.2344     37.2736     86.8716
   625.0000      0.0000    299.1839     37.0755     87.1714
   625.2500      0.0000    299.1385     36.8936     85.5789
   625.5000      0.0000    299.1137     36.6894     81.9323
   625.7500      0.0000    299.0980     36.5367     77.2226
   626.0000      0.0000    299.0675     36.5434     72.8374
   626.2500      0.0000    299.0233     36.7163     69.7847
   626.5000      0.0000    298.9904     37.0021     68.3492
   626.7500      0.0000    298.9904     37.3833     68.4951
   627.0000      0.0000    299.0201     37.8280     70.4896
   627.2500      0.0000    299.0504     38.2305     74.8290
   627.5000      0.0000    299.0558     38.4905     81.6123
   627.7500      0.0000    299.0384     38.6014     90.2419
   628.0000      0.0000    299.0146     38.6417     99.6144
   628.2500      0.0000    298.9916     38.7021    108.4460
   628.5000      0.0000    298.9746     38.7842    115.5449
   628.7500      0.0000    298.9782     38.7649    119.9806
   629.0000      0.0000    299.0160     38.5333    121.3245
   629.2500      0.0000    299.0847     38.1618    120.0329
   629.5000      0.0000    299.1782     37.8046    117.3446
   629.7500      0.0000    299.2962     37.4404    114.3671
   630.0000      0.0000    299.4118     36.9392    111.5143
   630.2500      0.0000    299.4605     36.3592    109.2325
   630.5000      0.0000    299.4097     35.9323    108.7950
   630.7500      0.0000    299.3159     35.7543    111.5175
   631.0000      0.0000    299.2740     35.6445    117.1082
   631.2500      0.0000    299.3323     35.3512    123.4391
   631.5000      0.0000    299.4732     34.8182    128.3373
   631.7500      0.0000    299.6574     34.1629    131.3662
   632.0000      0.0000    299.8632     33.4770    133.5735
   632.2500      0.0000    300.0724     32.7996    135.7325
   632.5000      0.0000    300.2515     32.2265    137.2059
   632.7500      0.0000    300.3576     31.9414    136.5330
   633.0000      0.0000    300.3501     32.0843    132.9951
   633.2500      0.0000    300.2279     32.5668    127.6358
   633.5000      0.0000    300.0520     33.1185    122.8144
   633.7500      0.0000    299.9001     33.5233    120.6609
   634.0000      0.0000    299.8069     33.7304    121.9164
   634.2500      0.0000    299.7615     33.7981    126.1241
   634.5000      0.0000    299.7473     33.8064    132.4343
   634.7500      0.0000    299.7617     33.8117    139.8320
   635.0000      0.0000    299.8022     33.8534    146.9279
   635.2500      0.0000    299.8619     33.9517    152.2948
   635.5000      0.0000    299.9270     34.0922    155.2381
   635.7500      0.0000    299.9643     34.2382    155.7826
   636.0000      0.0000    299.9436     34.3317    153.8805
   636.2500      0.0000    299.8846     34.2723    149.2787
