~Version Information
VERS.                      2.0: CWLS Log ASCII Standard - VERSION 2.0
WRAP.                       NO: One line per depth step
~Well Information Block
STRT.FT               260.0000: 
STOP.FT               713.2500: 
STEP.FT                 0.2500: 
NULL.                -999.2500: 
COMP.          Pioneer Natural Resources: COMPANY
WELL.           Quintessa 23-7: WELL
FLD.           Purgatoire River: FIELD
LOC.           1964' FSL & 2589' FWL--: LOCATION
PROV.                 Colorado: PROVINCE
CNTY.               Las Animas: COUNTRY
SRVC.                Patterson: SERVICE COMPANY
DATE.          Fri Nov 18 16:07:34 2005: LOG DATE
UWI.           05 071 08558 00: UNIQUE WELL ID
~Curve Information Block
DEPT.FT            0 000 00 00: Depth
SN.Ohm-m                      : IEL Short Normal
SP.mV                         : IEL Spontaneous Potential
DIR.Ohm-m                     : IEL Induction Resistivity
GR.GAPI                       : Gamma Ray
~Parameter Information Block
~A  Depth        SN          SP         DIR          GR     
# ...
   427.5000     14.8822    117.7745     11.8232    117.7765
   427.7500     14.9522    117.5094     11.7866    123.0965
   428.0000     14.9818    117.2072     11.6945    127.2253
   428.2500     15.0350    116.8656     11.5863    128.3686
   428.5000     15.1350    116.4829     11.5146    129.7890
   428.7500     15.2828    116.0584     11.5307    131.4377
   429.0000     15.4770    115.5931     11.6727    135.0799
   429.2500     15.7166    115.0896     11.9589    137.4648
   429.5000     15.9960    114.5533     12.3860    138.9327
   429.7500     16.3070    113.9923     12.9328    137.7335
   430.0000     16.6480    113.4178     13.5670    132.9454
   430.2500     17.0284    112.8444     14.2538    128.6321
   430.5000     17.4613    112.2893     14.9620    122.1069
   430.7500     17.9530    111.7717     15.6661    118.3494
   431.0000     18.5014    111.3119     16.3458    114.0707
   431.2500     19.1015    110.9295     16.9851    112.1320
   431.5000     19.7439    110.6417     17.5743    110.2100
   431.7500     20.4067    110.4623     18.1107    109.1683
   432.0000     21.0505    110.4000     18.5948    107.2395
   432.2500     21.6183    110.4576     19.0208    105.5882
   432.5000     22.0383    110.6322     19.3642    103.2399
   432.7500     22.2338    110.9146     19.5752    102.4093
   433.0000     22.1506    111.2907     19.5887    102.6484
   433.2500     21.7870    111.7416     19.3554    103.3265
   433.5000     21.1970    112.2450     18.8763    104.1368
   433.7500     20.4648    112.7759     18.2099    104.5541
   434.0000     19.6774    113.3079     17.4450    105.9367
   434.2500     18.9061    113.8132     16.6618    107.8850
   434.5000     18.1962    114.2642     15.9085    112.5808
   434.7500     17.5631    114.6325     15.2015    116.6698
   435.0000     17.0015    114.8902     14.5380    123.5289
   435.2500     16.5035    115.0086     13.9124    128.0781
   435.5000     16.0742    114.9584     13.3274    133.7104
   435.7500     15.7304    114.7093     12.7963    135.8043
   436.0000     15.4890    114.2302     12.3389    135.4528
   436.2500     15.3579    113.4900     11.9777    133.1972
   436.5000     15.3372    112.4601     11.7351    128.7900
   436.7500     15.4284    111.1175     11.6322    126.4655
   437.0000     15.6406    109.4497     11.6877    124.7773
   437.2500     15.9888    107.4602     11.9159    124.1487
   437.5000     16.4893    105.1740     12.3264    121.4342
   437.7500     17.1626    102.6414     12.9250    117.4167
   438.0000     18.0511     99.9395     13.7160    108.5627
   438.2500     19.2499     97.1697     14.7042    101.7499
   438.5000     20.9227     94.4515     15.8964     90.9604
   438.7500     23.2605     91.9127     17.3026     83.3143
   439.0000     26.3564     89.6772     18.9295     71.6971
   439.2500     30.0446     87.8529     20.7624     64.8210
   439.5000     33.8379     86.5209     22.7364     57.3362
   439.7500     37.0795     85.7287     24.7081     54.3838
   440.0000     39.2533     85.4868     26.4547     52.2381
   440.2500     40.2243     85.7710     27.7266     52.0098
   440.5000     40.2254     86.5276     28.3489     54.2130
   440.7500     39.6267     87.6809     28.3091     58.3699
   441.0000     38.6895     89.1425     27.7531     69.4908
   441.2500     37.4795     90.8193     26.8923     79.3291
   441.5000     35.9563     92.6214     25.9065     94.4655
   441.7500     34.1178     94.4673     24.9053    102.9426
   442.0000     32.0696     96.2875     23.9440    111.6182
   442.2500     29.9933     98.0269     23.0529    114.6600
   442.5000     28.0781     99.6439     22.2534    115.8511
   442.7500     26.4676    101.1099     21.5559    115.1060
   443.0000     25.2269    102.4063     20.9540    113.1976
   443.2500     24.3278    103.5221     20.4239    112.1918
   443.5000     23.6671    104.4511     19.9335    111.6432
   443.7500     23.1188    105.1891     19.4532    111.6928
   444.0000     22.5925    105.7327     18.9650    111.5852
   444.2500     22.0609    106.0775     18.4671    111.0940
   444.5000     21.5499    106.2180     17.9742    109.9878
   444.7500     21.1134    106.1478     17.5146    109.5144
   445.0000     20.8135    105.8593     17.1221    110.0621
   445.2500     20.7016    105.3446     16.8255    111.3679
   445.5000     20.7961    104.5957     16.6393    113.9078
   445.7500     21.0698    103.6064     16.5601    115.0876
   446.0000     21.4620    102.3729     16.5694    114.8486
   446.2500     21.9144    100.8967     16.6451    113.4579
   446.5000     22.4107     99.1865     16.7745    111.3010
   446.7500     22.9959     97.2610     16.9637    111.0884
   447.0000     23.7630     95.1517     17.2373    113.5084
   447.2500     24.8065     92.9040     17.6322    116.3751
   447.5000     26.1691     90.5792     18.1880    120.2774
   447.7500     27.8129     88.2536     18.9385    121.1885
   448.0000     29.6396     86.0164     19.8998    118.4977
   448.2500     31.5441     83.9659     21.0605    113.8374
   448.5000     33.4690     82.2029     22.3791    103.0628
   448.7500     35.4194     80.8229     23.7956     93.9062
   449.0000     37.4271     79.9078     25.2550     78.7428
   449.2500     39.4695     79.5163     26.7174     68.9666
   449.5000     41.3883     79.6777     28.1339     56.9005
   449.7500     42.8827     80.3872     29.3963     51.2224
   450.0000     43.6154     81.6055     30.3036     46.2845
   450.2500     43.3839     83.2624     30.6047     45.3030
   450.5000     42.2303     85.2638     30.1288     47.7762
   450.7500     40.4040     87.5016     28.9121     52.4880
   451.0000     38.2121     89.8642     27.1919     64.0522
   451.2500     35.8850     92.2463     25.2742     73.8810
   451.5000     33.5468     94.5570     23.4049     89.4156
   451.7500     31.2737     96.7248     21.7263     98.8849
   452.0000     29.1543     98.6996     20.2978    109.8091
   452.2500     27.2992    100.4517     19.1317    114.1926
   452.5000     25.8031    101.9686     18.2190    116.3591
   452.7500     24.7017    103.2510     17.5411    115.5715
   453.0000     23.9564    104.3078     17.0728    112.7889
   453.2500     23.4750    105.1511     16.7810    110.6374
   453.5000     23.1524    105.7923     16.6230    107.4898
   453.7500     22.9090    106.2381     16.5486    105.4853
   454.0000     22.7118    106.4882     16.5088    102.8241
   454.2500     22.5701    106.5327     16.4691    101.7247
   454.5000     22.5132    106.3511     16.4183    102.1360
   454.7500     22.5636    105.9122     16.3675    103.9876
   455.0000     22.7150    105.1755     16.3398    108.0181
   455.2500     22.9234    104.0950     16.3568    110.3427
   455.5000     23.1175    102.6250     16.4301    111.5311
   455.7500     23.2286    100.7273     16.5581    110.3194
   456.0000     23.2273     98.3805     16.7321    105.5843
   456.2500     23.1597     95.5884     16.9494    100.9699
   456.5000     23.1772     92.3866     17.2287     93.3759
   456.7500     23.5437     88.8458     17.6185     88.9057
   457.0000     24.5935     85.0701     18.1922     84.0347
   457.2500     26.6327     81.1906     19.0339     81.5795
   457.5000     29.8215     77.3543     20.2217     77.2254
   457.7500     34.1016     73.7123     21.8141     73.1198
   458.0000     39.2251     70.4064     23.8415     65.8795
   458.2500     44.8754     67.5589     26.2971     61.7651
   458.5000     50.7805     65.2659     29.1266     59.1889
   458.7500     56.7045     63.5948     32.2138     60.5246
   459.0000     62.3253     62.5850     35.3697     66.5997
   459.2500     67.1578     62.2515     38.3382     72.6674
   459.5000     70.6435     62.5877     40.8331     83.9325
   459.7500     72.3321     63.5686     42.5951     92.4928
   460.0000     72.0062     65.1525     43.4353    105.3961
   460.2500     69.7176     67.2806     43.2560    112.3838
   460.5000     65.7919     69.8781     42.0737    117.2883
   460.7500     60.7960     72.8546     40.0459    115.9543
