~Version Information
VERS.                      2.0: CWLS Log ASCII Standard - VERSION 2.0
WRAP.                       NO: One line per depth step
~Well Information Block
STRT.FT                -7.2500: 
STOP.FT              1196.2500: 
STEP.FT                 0.2500: 
NULL.                -999.2500: 
COMP.          Pioneer Natural Resources: COMPANY
WELL.             Mahalo 12-20: WELL
FLD.           Purgatorie River: FIELD
LOC.           1689' FNL & 479' FWL--: LOCATION
CNTY.               Las Animas: COUNTY
SRVC.          Patterson Wireline: SERVICE COMPANY
DATE.          Tue Mar 14 15:40:32 2006: LOG DATE
UWI.           05 071 08700 00: UNIQUE WELL ID
STAT.                       CO: STATE
~Curve Information Block
DEPT.FT            0 000 00 00: Depth
CCL.                          : Casing Collar Locator
TT3.usec                      : CBL 3' Travel Time
AMP3.mV                       : CBL 3' Amplitude
GR.GAPI                       : Gamma Ray
~Parameter Information Block
~A  Depth       CCL         TT3         AMP3         GR     
# ...
   763.2500      0.0000    733.5283      4.9130    101.8521
   763.5000      0.0000    731.4453      5.0144    104.8442
   763.7500      0.0000    733.6315      5.1032    107.9857
   764.0000      0.0000    738.9767      5.1696    110.2538
   764.2500      0.0000    744.4113      5.2118    110.8940
   764.5000      0.0000    747.0043      5.2318    109.7251
   764.7500      0.0000    745.4960      5.2359    107.1606
   765.0000      0.0000    740.6732      5.2410    104.0286
   765.2500      0.0000    734.6520      5.2747    101.2305
   765.5000      0.0000    728.9709      5.3678     99.3004
   765.7500      0.0000    722.6457      5.5354     98.0361
   766.0000      0.0000    712.8667      5.7506     96.5844
   766.2500      0.0000    698.9362      5.9365     94.2585
   766.5000      0.0000    685.2181      6.0124     91.3747
   766.7500      0.0000    678.8011      5.9651     88.9119
   767.0000      0.0000    684.1705      5.8606     87.2473
   767.2500      0.0000    701.2424      5.7766     85.7042
   767.5000      0.0000    727.8503      5.7405     83.6381
   767.7500     -2.0000    761.2244      5.7373     81.6410
   768.0000      0.0000    794.9950      5.7560     81.1976
   768.2500      0.0000    817.4690      5.8156     83.1083
   768.5000      0.0000    818.9095      5.9489     86.5283
   768.7500      0.0000    802.3973      6.1471     89.7625
   769.0000      0.0000    782.6927      6.3110     91.9567
   769.2500      0.0000    771.7000      6.2923     93.8184
   769.5000      0.0000    768.8439      6.0278     96.5316
   769.7500      0.0000    766.7397      5.6153    100.1488
   770.0000      0.0000    760.9429      5.2217    103.3437
   770.2500      0.0000    752.0400      4.9415    104.5953
   770.5000      0.0000    742.6354      4.7647    103.2764
   770.7500      0.0000    735.3212      4.6440     99.9292
   771.0000      0.0000    731.9224      4.5500     95.9604
   771.2500      0.0000    732.5759      4.4786     92.6355
   771.5000      0.0000    735.3637      4.4363     89.9612
   771.7500      0.0000    737.7418      4.4247     87.0324
   772.0000      0.0000    738.8325      4.4316     83.8111
   772.2500      0.0000    740.0189      4.4343     81.9773
   772.5000      0.0000    742.8681      4.4160     83.3437
   772.7500      0.0000    747.0959      4.3758     87.6046
   773.0000      0.0000    751.0662      4.3246     92.1937
   773.2500      0.0000    753.6086      4.2724     94.4048
   773.5000      0.0000    754.7568      4.2234     93.2618
   773.7500      0.0000    755.1660      4.1795     89.4106
   774.0000      0.0000    755.3959      4.1439     84.0500
   774.2500      0.0000    755.5932      4.1191     78.4613
   774.5000      0.0000    755.4724      4.1027     73.8811
   774.7500      0.0000    754.5531      4.0877     70.9893
   775.0000      0.0000    752.7416      4.0692     69.5569
   775.2500      0.0000    750.8077      4.0510     68.9153
   775.5000      0.0000    749.9333      4.0421     68.7631
   775.7500      0.0000    750.3359      4.0469     69.3014
   776.0000      0.0000    750.5779      4.0606     70.5070
   776.2500      0.0000    748.9084      4.0725     71.5956
   776.5000      0.0000    745.6279      4.0728     71.6648
   776.7500      0.0000    743.8596      4.0562     70.8600
   777.0000      0.0000    747.1881      4.0237     70.4937
   777.2500      0.0000    755.9940      3.9831     71.8127
   777.5000      0.0000    766.6917      3.9479     74.7998
   777.7500      0.0000    775.3428      3.9309     78.2348
   778.0000      0.0000    781.2973      3.9370     80.7927
   778.2500      0.0000    786.3649      3.9602     82.0517
   778.5000      0.0000    791.5126      3.9881     82.6013
   778.7500      0.0000    795.8387      4.0092     83.3500
   779.0000      0.0000    797.8761      4.0185     84.9254
   779.2500      0.0000    796.0878      4.0175     87.6199
   779.5000      0.0000    787.7202      4.0126     91.4141
   779.7500      0.0000    768.3670      4.0118     95.7735
   780.0000      0.0000    734.6450      4.0211     99.8235
   780.2500      0.0000    688.8093      4.0426    103.1874
   780.5000      0.0000    640.1385      4.0756    106.2841
   780.7500      0.0000    599.7300      4.1160    109.2891
   781.0000      0.0000    573.4231      4.1553    111.2295
   781.2500      0.0000    560.4274      4.1809    110.8324
   781.5000      0.0000    557.9844      4.1826    108.1481
   781.7500      0.0000    565.3413      4.1597    104.8038
   782.0000      0.0000    582.8846      4.1236    102.7245
   782.2500      0.0000    609.1674      4.0932    102.7460
   782.5000      0.0000    640.4378      4.0868    104.0603
   782.7500      0.0000    672.6424      4.1145    104.6764
   783.0000      0.0000    702.4195      4.1719    102.7623
   783.2500      0.0000    726.6760      4.2393     97.9974
   783.5000      0.0000    743.2414      4.2921     91.7335
   783.7500      0.0000    752.3197      4.3159     85.7539
   784.0000      0.0000    756.2147      4.3127     80.9137
   784.2500      0.0000    757.4882      4.2934     77.1305
   784.5000      0.0000    757.5766      4.2659     74.5041
   784.7500      0.0000    756.5342      4.2305     73.7112
   785.0000      0.0000    753.1313      4.1874     74.9528
   785.2500      0.0000    745.1070      4.1450     77.1733
   785.5000      0.0000    730.1677      4.1183     78.9042
   785.7500      0.0000    707.4343      4.1174     79.4859
   786.0000      0.0000    678.1185      4.1385     79.0919
   786.2500      0.0000    645.1361      4.1701     77.9544
   786.5000      0.0000    612.8704      4.2042     76.0570
   786.7500      0.0000    586.7941      4.2393     73.4851
   787.0000      0.0000    571.7253      4.2735     70.7267
   787.2500      0.0000    569.6234      4.2979     68.4921
   787.5000      0.0000    578.6296      4.3029     67.2612
   787.7500      0.0000    593.9727      4.2885     67.1090
   788.0000      0.0000    611.1234      4.2652     67.9317
   788.2500      0.0000    629.2646      4.2449     69.5193
   788.5000      0.0000    650.0635      4.2332     71.2275
   788.7500      0.0000    671.6347      4.2296     71.9050
   789.0000      0.0000    685.7038      4.2316     70.5578
   789.2500      0.0000    683.1864      4.2364     67.1673
   789.5000      0.0000    662.8240      4.2373     62.8369
   789.7500      0.0000    634.4186      4.2219     59.2548
   790.0000      0.0000    613.5704      4.1751     57.9452
   790.2500      0.0000    611.8300      4.0899     59.5160
   790.5000      0.0000    629.6939      3.9765     63.1295
   790.7500      0.0000    657.5373      3.8589     66.7340
   791.0000      0.0000    683.3006      3.7593     68.1583
   791.2500      0.0000    700.1832      3.6862     66.3147
   791.5000      0.0000    708.3764      3.6343     61.7389
   791.7500      0.0000    711.4747      3.5929     56.1101
   792.0000      0.0000    712.5919      3.5528     51.0050
   792.2500      0.0000    713.1332      3.5086     47.0301
   792.5000      0.0000    713.4164      3.4578     44.1224
   792.7500      0.0000    713.4602      3.3998     42.1884
   793.0000      0.0000    713.3175      3.3338     41.1022
   793.2500      0.0000    713.1207      3.2614     40.4460
   793.5000      0.0000    713.1262      3.1895     39.6057
   793.7500      0.0000    713.8789      3.1300     38.0593
   794.0000      0.0000    716.2028      3.0923     35.6056
   794.2500      0.0000    720.6881      3.0794     32.5758
   794.5000      0.0000    726.7773      3.0890     29.7192
   794.7500      0.0000    732.3329      3.1177     27.6041
   795.0000      0.0000    734.6484      3.1627     26.2525
   795.2500      0.0000    732.4482      3.2228     25.6115
   795.5000      0.0000    726.9543      3.2982     26.1277
   795.7500      0.0000    720.8427      3.3907     28.3921
   796.0000      0.0000    716.2322      3.5014     32.3068
   796.2500      0.0000    713.6875      3.6274     37.0157
   796.5000      0.0000    712.6904      3.7621     41.7156
