~Version Information
VERS.                      2.0: CWLS Log ASCII Standard - VERSION 2.0
WRAP.                       NO: One line per depth step
~Well Information Block
STRT.FT               330.0000: 
STOP.FT              1876.2000: 
STEP.FT                 0.1000: 
NULL.                -999.2500: 
COMP.          Pioneer Natural Resources: COMPANY
WELL.          Cooper 11-13 Tr: WELL
FLD.           Purgatoire River: FIELD
LOC.           476' FNL & 738' FWL: LOCATION
STAT.                 Colorado: State
CNTY.               Las Animas: COUNTY
CTRY. USA : Country
SECT. 13 : Section
TOWN. 32S : Township
RANG. 67W : Range 
SRVC.                Patterson: SERVICE COMPANY
DATE.          Mon Sep 26 10:28:17 2005: LOG DATE
API.           05 071 08525 00: UNIQUE WELL ID
~Curve Information Block
DEPT.FT            0 000 00 00: Depth
DCAL.in                       : CDL Caliper
RHOB.g/cc                     : CDL Bulk Density
RHOC.g/cc                     : CDL Density Correction
DPOR.pu                       : CDL Density Porosity
NPOR.pu                       : Neutron Porosity
GR.GAPI                       : Gamma Ray
~Parameter Information Block
~A  Depth       DCAL        RHOB        RHOC        DPOR        NPOR         GR     
# ...
  1443.6000      7.9406      2.5977      0.0250      3.1703     26.7747    109.2535
  1443.7000      7.9406      2.5955      0.0170      3.3040     26.8296    102.8458
  1443.8000      7.9398      2.6073      0.0727      2.5906     26.9170     99.9874
  1443.9000      7.9398      2.6228      0.0191      1.6509     26.8166    104.0457
  1444.0000      7.9390      2.6311      0.0590      1.1429     26.4535    110.6362
  1444.1000      7.9390      2.6251      0.0139      1.5111     26.0088    117.1173
  1444.2000      7.9390      2.6154      0.0508      2.0970     25.8962    120.9206
  1444.3000      7.9393      2.6201      0.0430      1.8118     26.1680    119.7976
  1444.4000      7.9393      2.6405      0.0601      0.5753     26.4793    118.0548
  1444.5000      7.9402      2.6586      0.0681     -0.5228     26.7059    116.5662
  1444.6000      7.9402      2.6660      0.0484     -0.9725     26.9512    113.1760
  1444.7000      7.9402      2.6779      0.0243     -1.6915     27.0528    109.5334
  1444.8000      7.9390      2.6938      0.0613     -2.6519     26.7888    111.0053
  1444.9000      7.9390      2.6863      0.0409     -2.1998     26.4620    118.4250
  1445.0000      7.9383      2.6535      0.0381     -0.2101     26.2663    125.9598
  1445.1000      7.9383      2.6240      0.0572      1.5737     26.0031    128.9162
  1445.2000      7.9383      2.6138      0.0413      2.1954     26.0811    123.4780
  1445.3000      7.9388      2.6216      0.0294      1.7208     26.7843    113.6236
  1445.4000      7.9388      2.6349      0.0739      0.9127     27.5442    107.8355
  1445.5000      7.9380      2.6372      0.0574      0.7729     28.1084    106.7705
  1445.6000      7.9380      2.6352      0.0192      0.8995     28.6704    108.1133
  1445.7000      7.9380      2.6414      0.1048      0.5241     28.8684    110.3453
  1445.8000      7.9373      2.6513      0.0727     -0.0802     28.4032    114.0994
  1445.9000      7.9373      2.6612      0.0762     -0.6800     27.6369    120.2684
  1446.0000      7.9395      2.6716      0.0804     -1.3098     27.0460    124.7765
  1446.1000      7.9395      2.6841      0.0639     -2.0652     26.7926    125.7126
  1446.2000      7.9395      2.6962      0.0791     -2.7991     26.8444    124.6908
  1446.3000      7.9401      2.6993      0.0818     -2.9897     27.3839    120.0863
  1446.4000      7.9401      2.6945      0.0403     -2.6943     28.2485    113.3657
  1446.5000      7.9379      2.6871      0.0513     -2.2457     28.6530    110.9853
  1446.6000      7.9379      2.6695     -0.0066     -1.1824     28.3629    112.5136
  1446.7000      7.9379      2.6339      0.0319      0.9770     27.7701    111.2859
  1446.8000      7.9347      2.5907     -0.0114      3.5914     27.3200    108.0351
  1446.9000      7.9347      2.5610      0.0109      5.3930     27.3888    110.5567
  1447.0000      7.9324      2.5483      0.0452      6.1647     27.8519    119.7880
  1447.1000      7.9324      2.5420      0.0573      6.5478     28.0042    125.5681
  1447.2000      7.9324      2.5344      0.0708      7.0052     27.7213    122.6503
  1447.3000      7.9356      2.5254      0.0761      7.5542     27.6219    116.1616
  1447.4000      7.9356      2.5217      0.0434      7.7743     27.6958    112.9319
  1447.5000      7.9377      2.5304      0.0188      7.2457     27.7667    118.8404
  1447.6000      7.9377      2.5491      0.0570      6.1154     28.1980    132.4166
  1447.7000      7.9377      2.5707      0.0654      4.8056     28.7620    144.8813
  1447.8000      7.9336      2.5954      0.0443      3.3067     28.8675    149.1070
  1447.9000      7.9336      2.6242      0.0781      1.5635     28.4638    144.4311
  1448.0000      7.9248      2.6485      0.1241      0.0919     27.7931    136.0145
  1448.1000      7.9248      2.6621      0.0994     -0.7350     27.4771    126.8394
  1448.2000      7.9248      2.6693      0.0742     -1.1722     28.0934    119.1035
  1448.3000      7.9203      2.6713      0.0793     -1.2919     29.1111    116.5936
  1448.4000      7.9203      2.6590      0.0824     -0.5439     29.7494    120.3275
  1448.5000      7.9342      2.6184      0.0494      1.9145     30.0099    127.2046
  1448.6000      7.9342      2.5446      0.0003      6.3868     30.0763    130.2523
  1448.7000      7.9342      2.4520     -0.0339     12.0016     29.8811    125.8378
  1448.8000      7.9637      2.3703     -0.0854     16.9523     29.6938    122.2702
  1448.9000      7.9637      2.3226     -0.0507     19.8443     30.0344    126.2683
  1449.0000      7.9938      2.3003     -0.0304     21.1920     30.9638    131.7837
  1449.1000      7.9938      2.2823     -0.0314     22.2865     32.0168    133.1074
  1449.2000      7.9938      2.2665     -0.0239     23.2435     32.6588    130.8218
  1449.3000      8.0228      2.2568      0.0067     23.8285     32.8060    127.2808
  1449.4000      8.0228      2.2344      0.0882     25.1903     33.0161    121.9787
  1449.5000      8.0499      2.1758      0.0638     28.7414     33.8255    116.5421
  1449.6000      8.0499      2.0898      0.0208     33.9505     34.7180    114.4645
  1449.7000      8.0499      1.9946      0.0792     39.7239     34.6759    115.1948
  1449.8000      8.0584      1.8850      0.0495     46.3662     33.9969    113.2346
  1449.9000      8.0584      1.7612     -0.0389     53.8639     33.5869    103.4494
  1450.0000      8.0291      1.6448     -0.0889     60.9215     33.7519     89.3029
  1450.1000      8.0291      1.5490     -0.0879     66.7266     34.2627     78.9181
  1450.2000      8.0291      1.4732     -0.0658     71.3219     34.6980     72.8024
  1450.3000      7.9917      1.4222     -0.0759     74.4096     35.1978     66.4319
  1450.4000      7.9917      1.4047     -0.0412     75.4706     35.8794     59.5024
  1450.5000      7.9948      1.4117      0.0316     75.0507     35.9951     55.7591
  1450.6000      7.9948      1.4220      0.0642     74.4233     35.2646     55.8835
  1450.7000      7.9948      1.4356      0.0293     73.5976     34.3857     56.5242
  1450.8000      8.0325      1.4736      0.0601     71.2948     34.0151     57.1504
  1450.9000      8.0325      1.5457      0.0804     66.9289     34.2279     58.2141
  1451.0000      8.0470      1.6375      0.1060     61.3664     34.7653     57.5375
  1451.1000      8.0470      1.7254      0.1354     56.0361     35.4256     56.3274
  1451.2000      8.0470      1.7884      0.1380     52.2182     35.6445     58.5132
  1451.3000      8.0189      1.8114      0.1468     50.8225     34.8909     64.4724
  1451.4000      8.0189      1.7965      0.1234     51.7247     33.8080     73.5662
  1451.5000      8.0021      1.7681      0.0724     53.4457     33.2305     82.6466
  1451.6000      8.0021      1.7548      0.0618     54.2567     33.0941     86.8883
  1451.7000      8.0021      1.7675      0.0569     53.4870     32.9676     87.6753
  1451.8000      7.9970      1.8013      0.0239     51.4354     32.3080     88.7591
  1451.9000      7.9970      1.8453     -0.0064     48.7723     31.3890     88.2303
  1452.0000      7.9746      1.8909     -0.0034     46.0085     31.0753     85.7022
  1452.1000      7.9746      1.9449      0.0039     42.7349     31.3052     84.5120
  1452.2000      7.9746      2.0206      0.1064     38.1464     31.4412     86.8379
  1452.3000      7.9734      2.1183      0.1944     32.2226     31.0715     93.2156
  1452.4000      7.9734      2.2284      0.2572     25.5542     30.3439    100.5210
  1452.5000      7.9890      2.3403      0.2651     18.7702     29.6248    103.9957
  1452.6000      7.9890      2.4431      0.2465     12.5389     29.0402    106.3343
  1452.7000      7.9890      2.5171      0.2214      8.0531     28.7675    111.0498
  1452.8000      7.9754      2.5452      0.1586      6.3521     28.9128    114.2060
  1452.9000      7.9754      2.5398      0.0503      6.6762     29.0814    116.6511
  1453.0000      7.9454      2.5297      0.0363      7.2922     28.8598    121.4390
  1453.1000      7.9454      2.5223      0.0731      7.7386     28.3943    126.4731
