~Version Information
VERS.                      2.0: CWLS Log ASCII Standard - VERSION 2.0
WRAP.                       NO: One line per depth step
~Well Information Block
STRT.FT               400.0000: 
STOP.FT              1804.7000: 
STEP.FT                 0.1000: 
NULL.                -999.2500: 
COMP.          Pioneer Natural Resources: COMPANY
WELL.           Lynch 43-30 Tr: WELL
FLD.           Purgatoire River: FIELD
LOC.           1431' FSL & 296' FEL--: LOCATION
PROV.                 Colorado: PROVINCE
CNTY.               Las Animas: COUNTRY
SRVC.                Patterson: SERVICE COMPANY
DATE.          Thu Jul 28 10:43:37 2005: LOG DATE
UWI.           05 071 08447 00: UNIQUE WELL ID
~Curve Information Block
DEPT.FT            0 000 00 00: Depth
DCAL.in                       : CDL Caliper
RHOB.g/cc                     : CDL Bulk Density
RHOC.g/cc                     : CDL Density Correction
DPOR.pu                       : CDL Density Porosity
NPOR.pu                       : Neutron Porosity
GR.GAPI                       : Gamma Ray
~Parameter Information Block
~A  Depth       DCAL        RHOB        RHOC        DPOR        NPOR         GR     
# ...
  1312.0000      8.0042      2.5732      0.0867      4.6569     26.7597    102.9343
  1312.1000      8.0042      2.5769      0.0721      4.4284     26.8739    108.2617
  1312.2000      8.0042      2.5778      0.0867      4.3751     27.2294    110.3654
  1312.3000      8.0105      2.5762      0.0820      4.4706     27.7938    108.8046
  1312.4000      8.0105      2.5758      0.0688      4.4981     28.4479    106.8628
  1312.5000      8.0273      2.5851      0.0759      3.9347     28.9826    107.6921
  1312.6000      8.0273      2.5983      0.0826      3.1306     29.3618    110.5730
  1312.7000      8.0273      2.6005      0.0878      2.9995     29.5517    111.4271
  1312.8000      8.0493      2.5919      0.0606      3.5202     29.4212    111.6481
  1312.9000      8.0493      2.5869      0.0626      3.8248     29.1327    116.6376
  1313.0000      8.0679      2.5866      0.0687      3.8415     28.7860    126.6296
  1313.1000      8.0679      2.5825      0.0555      4.0911     28.4041    134.9125
  1313.2000      8.0679      2.5745      0.0547      4.5786     28.2351    135.7019
  1313.3000      8.0761      2.5675      0.0433      5.0024     28.6548    131.2579
  1313.4000      8.0761      2.5637      0.0468      5.2301     29.3586    126.8139
  1313.5000      8.0770      2.5606      0.0428      5.4173     29.4754    124.8981
  1313.6000      8.0770      2.5553      0.0404      5.7407     29.1012    124.6802
  1313.7000      8.0770      2.5466      0.0397      6.2658     28.9065    123.6804
  1313.8000      8.0794      2.5356      0.0315      6.9319     28.7614    123.8593
  1313.9000      8.0794      2.5246      0.0314      7.6027     28.3136    130.4857
  1314.0000      8.0824      2.5131      0.0310      8.2977     27.7402    140.5759
  1314.1000      8.0824      2.5013      0.0235      9.0130     26.9876    143.6924
  1314.2000      8.0824      2.4904      0.0263      9.6718     25.8939    137.9158
  1314.3000      8.0831      2.4775      0.0280     10.4529     24.9248    129.8080
  1314.4000      8.0831      2.4602      0.0209     11.5043     24.8535    125.7757
  1314.5000      8.0825      2.4430      0.0219     12.5450     25.5702    129.7622
  1314.6000      8.0825      2.4322      0.0146     13.2018     25.9306    139.1107
  1314.7000      8.0825      2.4192      0.0404     13.9887     25.6526    142.8811
  1314.8000      8.0801      2.3783      0.0411     16.4670     25.3008    133.9465
  1314.9000      8.0801      2.2969      0.0144     21.4016     24.6309    121.4137
  1315.0000      8.0721      2.1903     -0.0058     27.8603     23.3096    118.9107
  1315.1000      8.0721      2.0851     -0.0364     34.2349     21.8819    125.5618
  1315.2000      8.0721      2.0016     -0.0382     39.2944     20.6282    129.8729
  1315.3000      8.0614      1.9451     -0.0340     42.7229     19.1148    127.0224
  1315.4000      8.0614      1.9117     -0.0284     44.7426     17.3968    121.0297
  1315.5000      8.0558      1.8916     -0.0013     45.9621     15.9094    114.8319
  1315.6000      8.0558      1.8702      0.0122     47.2630     14.5523    110.8880
  1315.7000      8.0558      1.8506      0.0011     48.4480     13.3446    110.2214
  1315.8000      8.0553      1.8583      0.0157     47.9806     12.7266    111.1428
  1315.9000      8.0553      1.9202      0.0353     44.2303     12.7671    115.1406
  1316.0000      8.0550      2.0526      0.0644     36.2062     13.1447    122.7112
  1316.1000      8.0550      2.2357      0.1657     25.1086     13.6240    129.6030
  1316.2000      8.0550      2.4132      0.2172     14.3545     14.3715    133.8915
  1316.3000      8.0537      2.5518      0.2269      5.9494     15.9347    136.6283
  1316.4000      8.0537      2.6515      0.2543     -0.0938     18.2524    136.8777
  1316.5000      8.0521      2.7043      0.2612     -3.2939     20.3527    134.3269
  1316.6000      8.0521      2.7078      0.2176     -3.5033     21.6782    129.4862
  1316.7000      8.0521      2.6861      0.1783     -2.1872     22.6638    124.2493
  1316.8000      8.0512      2.6603      0.1625     -0.6225     23.5692    123.1381
  1316.9000      8.0512      2.6357      0.1166      0.8660     24.2846    129.4583
  1317.0000      8.0525      2.6185      0.0997      1.9115     24.9724    138.6505
  1317.1000      8.0525      2.6127      0.0815      2.2578     25.7519    142.2342
  1317.2000      8.0525      2.6191      0.0659      1.8714     26.2241    137.4264
  1317.3000      8.0541      2.6316      0.0713      1.1167     26.5028    127.4337
  1317.4000      8.0541      2.6324      0.0736      1.0651     27.0714    119.3081
  1317.5000      8.0526      2.6121      0.0492      2.2988     27.3306    117.3313
  1317.6000      8.0526      2.5836      0.0332      4.0247     26.6234    118.1765
  1317.7000      8.0526      2.5647      0.0236      5.1695     25.6424    119.6529
  1317.8000      8.0483      2.5613      0.0279      5.3753     25.3025    124.3889
  1317.9000      8.0483      2.5710      0.0240      4.7905     25.7163    131.6147
  1318.0000      8.0429      2.5864      0.0447      3.8568     26.4597    134.0322
  1318.1000      8.0429      2.5977      0.0410      3.1708     26.7159    130.3613
  1318.2000      8.0429      2.6036      0.0486      2.8114     26.3251    128.1700
  1318.3000      8.0378      2.6117      0.0374      2.3233     26.1402    129.3766
  1318.4000      8.0378      2.6221      0.0636      1.6928     26.5185    130.0120
  1318.5000      8.0346      2.6227      0.0557      1.6523     26.8736    130.0672
  1318.6000      8.0346      2.6100      0.0515      2.4258     27.0294    131.7000
  1318.7000      8.0346      2.5953      0.0360      3.3145     27.1914    135.3795
  1318.8000      8.0338      2.5916      0.0373      3.5406     27.1025    137.9553
  1318.9000      8.0338      2.6017      0.0355      2.9295     26.7007    136.6208
  1319.0000      8.0353      2.6191      0.0477      1.8740     26.4130    133.8557
  1319.1000      8.0353      2.6364      0.0391      0.8230     26.4318    130.0266
  1319.2000      8.0353      2.6503      0.0512     -0.0197     26.8035    123.6111
  1319.3000      8.0386      2.6604      0.0350     -0.6332     27.4204    118.6665
  1319.4000      8.0386      2.6672      0.0444     -1.0414     27.5930    118.8724
  1319.5000      8.0415      2.6671      0.0363     -1.0385     27.0112    122.1764
  1319.6000      8.0415      2.6622      0.0271     -0.7408     26.2633    126.7479
  1319.7000      8.0415      2.6622      0.0151     -0.7369     25.8670    131.0122
  1319.8000      8.0447      2.6639      0.0362     -0.8424     25.7162    132.5088
  1319.9000      8.0447      2.6509      0.0274     -0.0565     25.3373    132.2285
  1320.0000      8.0439      2.6237      0.0020      1.5951     24.7200    130.2110
  1320.1000      8.0439      2.5975      0.0073      3.1815     24.3365    124.2180
  1320.2000      8.0439      2.5802     -0.0059      4.2320     24.3229    116.2674
  1320.3000      8.0349      2.5747     -0.0011      4.5641     24.4242    109.9444
  1320.4000      8.0349      2.5806      0.0007      4.2079     24.3164    104.7883
  1320.5000      8.0265      2.5905      0.0185      3.6073     24.0406    100.6478
  1320.6000      8.0265      2.6005      0.0073      3.0005     23.8006     99.1648
  1320.7000      8.0265      2.6145      0.0208      2.1518     23.6423     99.6727
  1320.8000      8.0233      2.6271      0.0304      1.3892     23.9626    101.4510
  1320.9000      8.0233      2.6230      0.0392      1.6394     24.7856    102.6982
  1321.0000      8.0230      2.6006      0.0133      2.9919     25.1797     98.9165
  1321.1000      8.0230      2.5775      0.0105      4.3918     24.8812     90.8855
  1321.2000      8.0230      2.5700      0.0067      4.8513     24.6207     84.7912
  1321.3000      8.0241      2.5870      0.0075      3.8191     24.7143     82.6680
  1321.4000      8.0241      2.6276      0.0317      1.3568     25.1226     82.8106
  1321.5000      8.0198      2.6723      0.0592     -1.3529     25.9529     84.0115
