~Version Information
VERS.                      2.0: CWLS Log ASCII Standard - VERSION 2.0
WRAP.                       NO: One line per depth step
~Well Information Block
STRT.FT               350.0000: 
STOP.FT              2803.2000: 
STEP.FT                 0.1000: 
NULL.                -999.2500: 
COMP.          Pioneer Natural Resources: COMPANY
WELL.          Grey Goose 33-30: WELL
FLD.           Purgatoire River: FIELD
LOC.           2136' FSL & 2065' FEL--: LOCATION
STAT.                 Colorado: State
CNTY.               Las Animas: COUNTY
CTRY. USA : Country
SECT. 30 : Section
TOWN. 32S : Township
RANG. 67W : Range
SRVC.                Patterson: SERVICE COMPANY
DATE.          Fri Nov 04 09:27:53 2005: LOG DATE
API.           05 071 08546 00: UNIQUE WELL ID
~Curve Information Block
DEPT.FT            0 000 00 00: Depth
DCAL.in                       : CDL Caliper
DPOR.pu                       : CDL Density Porosity
NPOR.pu                       : Neutron Porosity
RHOB.g/cc                     : CDL Bulk Density
RHOC.g/cc                     : CDL Density Correction
GR.GAPI                       : Gamma Ray
~Parameter Information Block
~A  Depth       DCAL        DPOR        NPOR        RHOB        RHOC         GR     
# ...
  2634.8000      0.0000      0.0000     34.6793      0.0000      0.0000     95.9978
  2634.9000      0.0000      0.0000     34.5674      0.0000      0.0000     81.4286
  2635.0000      0.0000      0.0000     34.3617      0.0000      0.0000     69.6368
  2635.1000      0.0000      0.0000     34.4451      0.0000      0.0000     68.7436
  2635.2000      0.0000      0.0000     35.0641      0.0000      0.0000     73.2326
  2635.3000      0.0000      0.0000     35.7270      0.0000      0.0000     77.1691
  2635.4000      0.0000      0.0000     35.6309      0.0000      0.0000     81.3004
  2635.5000      0.0000      0.0000     34.6677      0.0000      0.0000     84.5654
  2635.6000      0.0000      0.0000     33.5850      0.0000      0.0000     84.2298
  2635.7000      0.0000      0.0000     33.1179      0.0000      0.0000     85.4319
  2635.8000      0.0000      0.0000     33.2114      0.0000      0.0000     88.5081
  2635.9000      0.0000      0.0000     33.1522      0.0000      0.0000     87.5617
  2636.0000      0.0000      0.0000     32.5375      0.0000      0.0000     84.8947
  2636.1000      0.0000      0.0000     31.4680      0.0000      0.0000     81.0736
  2636.2000      0.0000      0.0000     30.1924      0.0000      0.0000     74.0425
  2636.3000      0.0000      0.0000     29.1065      0.0000      0.0000     67.2864
  2636.4000      0.0000      0.0000     28.4288      0.0000      0.0000     61.2969
  2636.5000      0.0000      0.0000     28.0683      0.0000      0.0000     54.9712
  2636.6000      0.0000      0.0000     27.8624      0.0000      0.0000     51.9457
  2636.7000      0.0000      0.0000     27.7761      0.0000      0.0000     53.6869
  2636.8000      0.0000      0.0000     27.7920      0.0000      0.0000     57.3428
  2636.9000      0.0000      0.0000     27.8857      0.0000      0.0000     60.7766
  2637.0000      0.0000      0.0000     28.1710      0.0000      0.0000     60.2397
  2637.1000      0.0000      0.0000     28.7014      0.0000      0.0000     55.8016
  2637.2000      0.0000      0.0000     29.5060      0.0000      0.0000     52.6199
  2637.3000      0.0000      0.0000     30.8241      0.0000      0.0000     53.7581
  2637.4000      0.0000      0.0000     32.4345      0.0000      0.0000     57.2639
  2637.5000      0.0000      0.0000     33.4957      0.0000      0.0000     55.3553
  2637.6000      0.0000      0.0000     33.5610      0.0000      0.0000     46.6021
  2637.7000      0.0000      0.0000     33.0238      0.0000      0.0000     39.7338
  2637.8000      0.0000      0.0000     32.4456      0.0000      0.0000     42.5438
  2637.9000      0.0000      0.0000     32.1895      0.0000      0.0000     54.8211
  2638.0000      0.0000      0.0000     32.3778      0.0000      0.0000     67.9214
  2638.1000      0.0000      0.0000     32.7180      0.0000      0.0000     76.7326
  2638.2000      0.0000      0.0000     32.8139      0.0000      0.0000     81.8985
  2638.3000      0.0000      0.0000     32.7688      0.0000      0.0000     82.9743
  2638.4000      0.0000      0.0000     32.8080      0.0000      0.0000     80.7604
  2638.5000      0.0000      0.0000     32.6411      0.0000      0.0000     77.4232
  2638.6000      0.0000      0.0000     32.1257      0.0000      0.0000     74.1754
  2638.7000      0.0000      0.0000     31.9232      0.0000      0.0000     72.3151
  2638.8000      0.0000      0.0000     32.2700      0.0000      0.0000     74.2465
  2638.9000      0.0000      0.0000     32.5716      0.0000      0.0000     77.1488
  2639.0000      0.0000      0.0000     32.6252      0.0000      0.0000     79.1379
  2639.1000      0.0000      0.0000     32.8149      0.0000      0.0000     82.9528
  2639.2000      0.0000      0.0000     33.2262      0.0000      0.0000     86.2969
  2639.3000      0.0000      0.0000     33.2246      0.0000      0.0000     84.8371
  2639.4000      0.0000      0.0000     32.4890      0.0000      0.0000     82.6890
  2639.5000      0.0000      0.0000     31.7835      0.0000      0.0000     85.4356
  2639.6000      0.0000      0.0000     31.9815      0.0000      0.0000     87.8811
  2639.7000      0.0000      0.0000     33.1568      0.0000      0.0000     85.8882
  2639.8000      0.0000      0.0000     34.4482      0.0000      0.0000     84.5434
  2639.9000      0.0000      0.0000     34.9257      0.0000      0.0000     84.9327
  2640.0000      0.0000      0.0000     34.6134      0.0000      0.0000     79.6030
  2640.1000      0.0000      0.0000     33.9092      0.0000      0.0000     70.4874
  2640.2000      0.0000      0.0000     33.0014      0.0000      0.0000     68.0961
  2640.3000      0.0000      0.0000     32.4096      0.0000      0.0000     74.1399
  2640.4000      0.0000      0.0000     32.3607      0.0000      0.0007     82.3240
  2640.5000      0.0000      0.0000     32.2007      0.0000      0.0281     87.1783
  2640.6000      0.0000      0.0000     31.6892      0.0000      0.0271     86.2371
  2640.7000      0.0000      0.0000     31.0544      0.0000      0.0121     82.7371
  2640.8000      0.0000      0.0000     30.4817      0.0000      0.0013     81.5231
  2640.9000      0.0000     26.6515     30.5034      2.2103     -0.0260     83.0026
  2641.0000     -0.2030     26.1107     31.1993      2.2192      0.0069     84.5887
  2641.1000     -0.2030     26.2294     31.9027      2.2172      0.0261     81.9736
  2641.2000     -0.2030     26.8040     32.4368      2.2077     -0.0058     76.4141
  2641.3000     -0.2032     27.0333     33.0702      2.2039     -0.0279     74.8012
  2641.4000     -0.2032     26.8601     33.4901      2.2068     -0.0001     77.4777
  2641.5000     -0.2046     26.4510     33.2587      2.2136     -0.0243     78.9394
  2641.6000     -0.2046     25.7363     32.5092      2.2254     -0.0412     82.1197
  2641.7000     -0.2046     25.1385     31.6371      2.2352     -0.0079     89.8590
  2641.8000     -0.2052     25.1964     31.1727      2.2343     -0.0366     95.0449
  2641.9000     -0.2052     25.7408     31.4712      2.2253     -0.0321     91.7312
  2642.0000     -0.2031     26.4739     32.1923      2.2132     -0.0264     84.0848
  2642.1000     -0.2031     26.9546     32.6940      2.2052     -0.0750     80.7370
  2642.2000     -0.2031     26.5278     32.8408      2.2123     -0.0557     79.6269
  2642.3000     -0.2001     25.2470     33.0425      2.2334     -0.0765     74.8395
  2642.4000     -0.2001     23.9149     33.4385      2.2554     -0.0449     71.4832
  2642.5000     -0.1997     23.8678     34.1452      2.2562     -0.0134     74.6023
  2642.6000     -0.1997     25.6401     35.1882      2.2269     -0.0647     77.5071
  2642.7000     -0.1997     28.1313     36.0134      2.1858     -0.1038     72.7831
  2642.8000     -0.2029     30.5828     36.3143      2.1454     -0.0932     64.0873
  2642.9000     -0.2029     33.0986     36.1013      2.1039     -0.1356     58.0349
  2643.0000     -0.2038     35.5649     35.5385      2.0632     -0.1585     57.9271
  2643.1000     -0.2038     37.9087     35.2272      2.0245     -0.1386     60.8307
  2643.2000     -0.2038     40.1921     35.5885      1.9868     -0.1572     58.7452
  2643.3000     -0.2019     42.3905     36.3840      1.9506     -0.1342     51.7624
  2643.4000     -0.2019     44.4642     37.0449      1.9163     -0.1472     48.6583
  2643.5000     -0.2010     46.0078     37.3080      1.8909     -0.1913     53.6243
  2643.6000     -0.2010     46.6866     37.3010      1.8797     -0.1749     61.8426
  2643.7000     -0.2010     46.6284     36.9942      1.8806     -0.2142     67.6564
  2643.8000     -0.2007     46.0679     36.3302      1.8899     -0.1755     69.4510
  2643.9000     -0.2007     45.3060     35.7356      1.9025     -0.2023     66.7409
  2644.0000     -0.2000     44.5213     35.3870      1.9154     -0.1664     62.5403
  2644.1000     -0.2000     43.8540     35.0527      1.9264     -0.1852     64.6097
  2644.2000     -0.2000     43.2379     34.8029      1.9366     -0.1956     69.5131
  2644.3000     -0.1986     42.3434     34.5367      1.9513     -0.1847     68.7255
