~Version Information
VERS.                      2.0: CWLS Log ASCII Standard - VERSION 2.0
WRAP.                       NO: One line per depth step
~Well Information Block
STRT.FT                -8.0000: 
STOP.FT              1472.2500: 
STEP.FT                 0.2500: 
NULL.                -999.2500: 
COMP.          Pioneer Natural Resources: COMPANY
WELL.           Amore 32-09 Tr: WELL
FLD.           Purgatoire River: FIELD
LOC.           1941' FNL & 2297' FEL--: LOCATION
PROV.                       CO: PROVINCE
CNTY.               Las Animas: COUNTRY
SRVC.          Patterson Wireline: SERVICE COMPANY
DATE.          Tue Nov 22 11:37:00 2005: LOG DATE
UWI.           05 071 08584 00: UNIQUE WELL ID
~Curve Information Block
DEPT.FT            0 000 00 00: Depth
CCL.                          : Casing Collar Locator
TT3.usec                      : CBL 3' Travel Time
AMP3.mV                       : CBL 3' Amplitude
GR.GAPI                       : Gamma Ray
~Parameter Information Block
~A  Depth       CCL         TT3         AMP3         GR     
# ...
   762.5000      0.0000    696.0078      8.4069     85.9811
   762.7500      0.0000    699.9692      8.2753     82.5375
   763.0000      0.0000    701.5319      8.1815     80.2008
   763.2500      0.0000    698.6849      8.1636     78.2304
   763.5000      0.0000    691.1247      8.2332     76.7066
   763.7500      0.0000    680.7114      8.3631     76.6884
   764.0000      0.0000    668.8619      8.5029     78.9280
   764.2500      0.0000    654.9004      8.6088     82.6479
   764.5000      0.0000    638.5439      8.6580     85.5213
   764.7500      0.0000    623.6876      8.6371     84.9414
   765.0000      0.0000    617.3588      8.5359     79.7355
   765.2500      0.0000    623.2928      8.3637     71.0410
   765.5000      0.0000    637.9317      8.1620     61.5865
   765.7500      0.0000    654.3976      7.9815     53.9680
   766.0000      0.0000    669.1152      7.8438     49.3140
   766.2500      0.0000    683.1497      7.7350     47.2582
   766.5000      0.0000    698.3893      7.6374     46.9809
   766.7500      0.0000    714.3849      7.5602     48.1721
   767.0000      0.0000    729.2359      7.5336     50.9849
   767.2500      0.0000    742.7744      7.5754     55.1790
   767.5000      0.0000    757.9151      7.6676     59.5819
   767.7500      0.0000    777.8569      7.7723     62.5129
   768.0000      0.0000    801.3299      7.8696     62.6344
   768.2500      0.0000    821.7326      7.9690     59.5909
   768.5000      0.0000    833.3737      8.0747     54.3095
   768.7500      0.0000    838.3635      8.1514     48.8157
   769.0000      0.0000    843.8611      8.1432     45.4125
   769.2500      0.0000    851.6123      8.0306     45.6845
   769.5000      0.0000    854.4244      7.8567     50.0136
   769.7500      0.0000    845.4210      7.6920     57.7308
   770.0000      0.0000    827.0458      7.5788     67.6429
   770.2500      0.0000    808.0009      7.5142     78.6563
   770.5000      0.0000    794.2274      7.4832     90.0703
   770.7500      0.0000    785.5715      7.5025    101.2525
   771.0000      0.0000    779.1890      7.6269    111.1842
   771.2500      0.0000    773.6203      7.8993    118.4903
   771.5000      0.0000    769.6807      8.2849    122.0410
   771.7500      0.0000    768.4361      8.6650    121.8165
   772.0000      0.0000    768.9662      8.9064    119.3319
   772.2500      0.0000    768.5844      8.9422    116.9748
   772.5000      0.0000    765.4513      8.7960    116.5782
   772.7500      0.0000    760.3367      8.5466    118.4315
   773.0000      0.0000    755.2944      8.2719    121.4639
   773.2500      0.0000    750.7365      8.0192    124.2025
   773.5000      0.0000    744.3930      7.8200    125.6641
   773.7500      0.0000    733.4825      7.7142    125.6611
   774.0000      0.0000    717.7845      7.7379    124.5114
   774.2500      0.0000    700.4026      7.8762    122.5958
   774.5000      0.0000    685.6235      8.0454    120.3159
   774.7500      0.0000    676.2644      8.1361    118.3109
   775.0000      0.0000    672.9591      8.0763    117.3078
   775.2500      0.0000    675.2073      7.8588    117.6342
   775.5000      0.0000    682.0140      7.5182    119.0718
   775.7500      0.0000    691.2638      7.0996    121.0243
   776.0000      0.0000    699.6854      6.6547    122.6026
   776.2500      0.0000    705.2139      6.2548    122.7940
   776.5000      0.0000    709.9733      5.9782    120.9930
   776.7500      0.0000    720.0240      5.8788    117.6047
   777.0000      0.0000    741.1635      5.9717    113.9659
   777.2500      0.0000    774.3521      6.2287    111.2685
   777.5000      0.0000    814.6962      6.5704    109.5097
   777.7500      0.0000    854.7028      6.8816    107.9027
   778.0000     -2.0000    889.2769      7.0627    106.5646
   778.2500      0.0000    918.3505      7.0719    107.2269
   778.5000      0.0000    943.8707      6.9432    111.5233
   778.7500      0.0000    962.9786      6.7792    118.5656
   779.0000      0.0000    965.4431      6.6883    124.8011
   779.2500      0.0000    941.2026      6.6801    126.4822
   779.5000      0.0000    891.5015      6.6592    122.2330
   779.7500      0.0000    830.9125      6.5827    113.5518
   780.0000      0.0000    777.6606      6.5663    103.4347
   780.2500      0.0000    742.5932      6.7534     94.4918
   780.5000      0.0000    726.2052      7.1258     87.8144
   780.7500      0.0000    722.9271      7.5237     83.0522
   781.0000      0.0000    726.3770      7.8084     79.0840
   781.2500      0.0000    731.8907      7.9418     74.5337
   781.5000      0.0000    736.8069      7.9500     68.3864
   781.7500      0.0000    740.0803      7.8747     60.9653
   782.0000      0.0000    741.8309      7.7613     54.2707
   782.2500      0.0000    742.7325      7.6532     50.7348
   782.5000      0.0000    743.3760      7.5802     51.3833
   782.7500      0.0000    743.9691      7.5528     55.0967
   783.0000      0.0000    744.4129      7.5689     59.3815
   783.2500      0.0000    744.5738      7.6224     61.9864
   783.5000      0.0000    744.4602      7.6965     62.5118
   783.7500      0.0000    744.2079      7.7531     62.7962
   784.0000      0.0000    743.9272      7.7439     65.3070
   784.2500      0.0000    743.5500      7.6477     70.8242
   784.5000      0.0000    742.6927      7.4953     77.8555
   784.7500      0.0000    740.4689      7.3518     84.3957
   785.0000      0.0000    735.4449      7.2692     89.9698
   785.2500      0.0000    726.2695      7.2560     95.8418
   785.5000      0.0000    713.0353      7.2831    103.5205
   785.7500      0.0000    698.1165      7.3171    113.2340
   786.0000      0.0000    685.1376      7.3477    123.5319
   786.2500      0.0000    676.8527      7.3861    132.0578
   786.5000      0.0000    674.2151      7.4391    136.8197
   786.7500      0.0000    677.2034      7.4924    136.9657
   787.0000      0.0000    685.5269      7.5222    132.6262
   787.2500      0.0000    697.8953      7.5157    124.5818
   787.5000      0.0000    711.1071      7.4768    114.5038
   787.7500      0.0000    721.0758      7.4185    105.0631
   788.0000      0.0000    725.5415      7.3611     99.0714
   788.2500      0.0000    725.6408      7.3390     98.2043
   788.5000      0.0000    724.3220      7.3924    102.3742
   788.7500      0.0000    723.2338      7.5399    110.1348
   789.0000      0.0000    722.0250      7.7571    119.7534
   789.2500      0.0000    721.0287      7.9923    129.8647
   789.5000      0.0000    723.1512      8.2025    139.0553
   789.7500      0.0000    731.2665      8.3682    145.5233
   790.0000      0.0000    744.1039      8.4756    148.0034
   790.2500      0.0000    756.4199      8.5018    146.8964
   790.5000      0.0000    763.4526      8.4246    143.9525
   790.7500      0.0000    764.1742      8.2484    140.8273
   791.0000      0.0000    760.5512      8.0171    138.1665
   791.2500      0.0000    755.2298      7.8024    135.9356
   791.5000      0.0000    750.2239      7.6663    134.3782
   791.7500      0.0000    746.6221      7.6244    134.6400
   792.0000      0.0000    744.6237      7.6492    138.2336
   792.2500      0.0000    743.8610      7.7094    145.4198
   792.5000      0.0000    743.9281      7.8016    154.0949
   792.7500      0.0000    744.7381      7.9403    160.5699
   793.0000      0.0000    746.3743      8.1246    161.8234
   793.2500      0.0000    748.2274      8.3226    157.5197
   793.5000      0.0000    748.0136      8.4929    150.1730
   793.7500      0.0000    742.2898      8.6203    143.2431
   794.0000      0.0000    729.2207      8.7262    138.9040
   794.2500      0.0000    711.1701      8.8410    137.2759
   794.5000      0.0000    693.8084      8.9707    137.1684
   794.7500      0.0000    682.4835      9.0921    137.2451
   795.0000      0.0000    679.7816      9.1742    136.7922
   795.2500      0.0000    685.6644      9.1965    135.6698
   795.5000      0.0000    698.1827      9.1567    133.6919
   795.7500      0.0000    713.8575      9.0724    130.3243
