~Version Information
VERS.                      2.0: CWLS Log ASCII Standard - VERSION 2.0
WRAP.                       NO: One line per depth step
~Well Information Block
STRT.FT               345.0000: 
STOP.FT              2167.7000: 
STEP.FT                 0.1000: 
NULL.                -999.2500: 
COMP.          Pioneer Natural Resources: COMPANY
WELL.          Hemisphere 32-24: WELL
FLD.           Purgatoire River: FIELD
LOC.           1850' FNL & 2284' FEL--: LOCATION
PROV.                 Colorado: PROVINCE
CNTY.               Las Animas: COUNTRY
SRVC.                Patterson: SERVICE COMPANY
DATE.          Mon Aug 15 07:19:13 2005: LOG DATE
UWI.           05 071 08440 00: UNIQUE WELL ID
~Curve Information Block
DEPT.FT            0 000 00 00: Depth
DCAL.in                       : CDL Caliper
RHOB.g/cc                     : CDL Bulk Density
RHOC.g/cc                     : CDL Density Correction
DPOR.pu                       : CDL Density Porosity
NPOR.pu                       : Neutron Porosity
GR.GAPI                       : Gamma Ray
~Parameter Information Block
~A  Depth       DCAL        RHOB        RHOC        DPOR        NPOR         GR     
# ...
   825.0000      8.0134      2.5652      0.0907      5.1386     25.0149    127.8574
   825.1000      8.0134      2.5663      0.0929      5.0719     24.4023    131.7519
   825.2000      8.0134      2.5590      0.0771      5.5167     23.9996    130.1877
   825.3000      8.0031      2.5481      0.0997      6.1780     23.7690    126.1499
   825.4000      8.0031      2.5332      0.0512      7.0774     23.6981    122.5194
   825.5000      7.9899      2.5215      0.0622      7.7896     23.5710    119.5679
   825.6000      7.9899      2.5237      0.0771      7.6531     23.4237    117.9921
   825.7000      7.9899      2.5450      0.0802      6.3624     23.5258    116.4855
   825.8000      7.9834      2.5796      0.0630      4.2686     23.7887    113.6625
   825.9000      7.9834      2.6123      0.1307      2.2822     24.1525    111.6553
   826.0000      7.9847      2.6244      0.1275      1.5495     24.6767    111.3130
   826.1000      7.9847      2.6135      0.0689      2.2093     25.2207    110.7990
   826.2000      7.9847      2.6039      0.0444      2.7909     25.6448    109.5213
   826.3000      7.9795      2.6243      0.0959      1.5598     26.0711    109.6154
   826.4000      7.9795      2.6763      0.1522     -1.5912     26.4495    109.3583
   826.5000      7.9695      2.7254      0.2213     -4.5718     26.4589    105.6139
   826.6000      7.9695      2.7345      0.1749     -5.1188     26.1403    102.3615
   826.7000      7.9695      2.7080      0.1446     -3.5144     25.6513    104.4669
   826.8000      7.9754      2.6825      0.0830     -1.9719     25.1895    110.5960
   826.9000      7.9754      2.6710      0.1039     -1.2702     24.9922    115.8776
   827.0000      7.9943      2.6475      0.1105      0.1532     24.8770    119.5384
   827.1000      7.9943      2.6011      0.0182      2.9638     24.5089    123.8941
   827.2000      7.9943      2.5622      0.0504      5.3214     24.2264    126.2716
   827.3000      8.0044      2.5608      0.0219      5.4059     24.3161    123.3138
   827.4000      8.0044      2.5914      0.0866      3.5534     24.4121    119.1298
   827.5000      7.9989      2.6193      0.0887      1.8583     24.4522    119.9974
   827.6000      7.9989      2.6238      0.0817      1.5868     24.5926    123.3307
   827.7000      7.9989      2.6177      0.0459      1.9552     24.7097    122.7163
   827.8000      7.9926      2.6115      0.0578      2.3325     24.8043    118.4161
   827.9000      7.9926      2.5876      0.0994      3.7797     25.1865    115.3805
   828.0000      7.9927      2.5455     -0.0442      6.3362     26.0880    113.3807
   828.1000      7.9927      2.5159     -0.0301      8.1252     27.2472    109.7783
   828.2000      7.9927      2.5055     -0.0489      8.7570     27.9770    105.6450
   828.3000      7.9936      2.4958     -0.0737      9.3426     27.9079    102.7932
   828.4000      7.9936      2.4858     -0.0761      9.9519     27.3390    104.8933
   828.5000      7.9937      2.4862      0.0121      9.9264     26.5209    113.8403
   828.6000      7.9937      2.4978      0.0251      9.2222     25.6645    123.7872
   828.7000      7.9937      2.5107      0.0449      8.4395     24.9959    127.4728
   828.8000      7.9933      2.5189      0.0288      7.9434     24.5145    125.0828
   828.9000      7.9933      2.5261      0.0537      7.5116     24.2016    120.0919
   829.0000      7.9934      2.5304      0.0460      7.2510     24.0276    113.8416
   829.1000      7.9934      2.5309      0.0212      7.2175     23.8218    111.6331
   829.2000      7.9934      2.5332      0.0614      7.0816     23.4195    117.9888
   829.3000      7.9973      2.5385      0.0522      6.7585     23.1431    126.6622
   829.4000      7.9973      2.5405      0.0717      6.6392     23.3110    128.2569
   829.5000      8.0052      2.5288      0.0425      7.3468     23.7022    123.0398
   829.6000      8.0052      2.5086     -0.0256      8.5717     24.2346    117.9222
   829.7000      8.0052      2.4932      0.0187      9.5035     24.8833    114.1857
   829.8000      8.0134      2.4801     -0.0071     10.2976     25.1362    109.6336
   829.9000      8.0134      2.4715     -0.0147     10.8180     24.8585    107.7996
   830.0000      8.0179      2.4789     -0.0112     10.3667     24.5346    110.6204
   830.1000      8.0179      2.5009      0.0038      9.0335     24.3886    112.0424
   830.2000      8.0179      2.5219      0.0802      7.7639     24.3664    111.7877
   830.3000      8.0200      2.5217      0.0555      7.7741     24.4534    115.8083
   830.4000      8.0200      2.4919      0.0533      9.5811     24.5521    122.9021
   830.5000      8.0205      2.4536      0.0037     11.9002     24.3542    128.8187
   830.6000      8.0205      2.4385      0.0166     12.8188     23.8311    132.0083
   830.7000      8.0205      2.4464      0.0490     12.3376     23.3044    132.3270
   830.8000      8.0206      2.4595      0.0167     11.5453     22.8060    130.6717
   830.9000      8.0206      2.4680      0.0317     11.0276     22.4198    129.0527
   831.0000      8.0225      2.4707      0.0446     10.8687     22.3895    130.8052
   831.1000      8.0225      2.4745      0.0381     10.6335     22.6157    136.0069
   831.2000      8.0225      2.4854      0.0460      9.9730     22.7662    140.9326
   831.3000      8.0282      2.4979      0.0395      9.2199     22.6478    142.6739
   831.4000      8.0282      2.5063      0.0711      8.7090     22.4698    140.9493
   831.5000      8.0353      2.5114      0.0585      8.4021     22.5327    136.6916
   831.6000      8.0353      2.5079      0.0899      8.6117     23.1190    131.5537
   831.7000      8.0353      2.4962     -0.0026      9.3188     24.1814    128.6156
   831.8000      8.0385      2.4976      0.0519      9.2336     25.0784    130.4518
   831.9000      8.0385      2.5115      0.0847      8.3960     25.1954    135.2012
   832.0000      8.0340      2.5107      0.1025      8.4446     24.5907    137.2411
   832.1000      8.0340      2.4900      0.0608      9.6951     23.9818    134.0650
   832.2000      8.0340      2.4648      0.1054     11.2225     23.7330    131.0686
   832.3000      8.0250      2.4494      0.0332     12.1598     23.6944    130.9102
   832.4000      8.0250      2.4599      0.0452     11.5236     23.6377    130.1527
   832.5000      8.0265      2.4924      0.0924      9.5534     23.3897    127.8302
   832.6000      8.0265      2.5213      0.0943      7.8016     23.2210    125.2264
   832.7000      8.0265      2.5330      0.1190      7.0889     23.2858    124.1506
   832.8000      8.0359      2.5251      0.1302      7.5671     23.2594    125.7344
   832.9000      8.0359      2.4995      0.1087      9.1190     23.0548    130.2254
   833.0000      8.0405      2.4653      0.0780     11.1962     22.9108    135.4494
   833.1000      8.0405      2.4261      0.0849     13.5716     22.8638    136.7553
   833.2000      8.0405      2.3851      0.0556     16.0519     22.7188    132.4465
   833.3000      8.0418      2.3525      0.0389     18.0324     22.5894    127.0119
   833.4000      8.0418      2.3291      0.0336     19.4477     22.5550    125.2981
   833.5000      8.0438      2.3134     -0.0313     20.3988     22.3961    128.4894
   833.6000      8.0438      2.3107      0.0103     20.5663     22.1429    134.2257
   833.7000      8.0438      2.3168      0.0332     20.1959     21.9011    137.0281
   833.8000      8.0455      2.3275      0.0489     19.5429     21.6476    132.2430
   833.9000      8.0455      2.3496      0.0623     18.2033     21.4810    122.9980
   834.0000      8.0432      2.3825      0.0985     16.2101     21.2815    117.0919
   834.1000      8.0432      2.4139      0.1484     14.3061     20.9959    117.9993
   834.2000      8.0432      2.4327      0.1582     13.1689     20.8915    125.5354
   834.3000      8.0356      2.4391      0.1140     12.7789     20.9999    131.4443
   834.4000      8.0356      2.4420      0.1058     12.6064     20.9966    127.9524
   834.5000      8.0268      2.4450      0.1095     12.4244     20.7559    120.7803
