~Version Information
 VERS.                                  2.0 : CWLS LAS VERSION
 WRAP.                                   NO : WRAPING MODE
 SWARE .                 MController 2.5.0J : SOFTWARE VERSION
~Well Information
 WELL.                     DAYTONA 31-14 TR : WELL
 COMP.    PIONEER NATURAL RESOURCES USA INC : COMPANY
 FLD.                      PURGATOIRE RIVER : FIELD
 LOC.                NW/NE SEC 14 T33S R67W : LOCATION
 DATE.                             01/27/06 : DATE(S) LOGGED
 SRVC.       BLANCO GEOLOGICAL SERVICES LLC : SERVICE COMPANY
 STAT.                             COLORADO : STATE
 CNTY.                           LAS ANIMAS : COUNTY
 CTRY.                                  USA : COUNTRY
 API.                       05-071-08681-00 : API NUMBER
 STRT.FT                             385.00 : START DEPTH
 STOP.FT                            1587.00 : STOP DEPTH
 STEP.FT                               1.00 : DEPTH INCREMENT
 NULL.                                -9999 : NULL VALUE
~Curve information
 DEPTH.FT                                   :
 ROP.MIN/FT                                 :
 GAS.UNITS                                  :
~ASCII Log data
# ...
       585.0         0.10          2.8 
       586.0         0.13          3.0 
       587.0         0.13          2.9 
       588.0         0.13          3.0 
       589.0         0.13          3.2 
       590.0         0.10          3.1 
       591.0         0.13          3.1 
       592.0         0.13          3.1 
       593.0         0.13          2.9 
       594.0         0.13          2.6 
       595.0         0.13          2.8 
       596.0         2.75          3.6 
       597.0         0.13          3.4 
       598.0         0.17          3.5 
       599.0         0.13          3.5 
       600.0         0.13          3.3 
       601.0         0.10          3.2 
       602.0         0.13          3.7 
       603.0         0.10          3.5 
       604.0         0.13          3.7 
       605.0         0.13          3.5 
       606.0         0.10          3.3 
       607.0         0.13          3.4 
       608.0         0.10          3.6 
       609.0         0.13          3.9 
       610.0         0.10          3.7 
       611.0         0.12          3.6 
       612.0         0.10          3.7 
       613.0         0.10          3.8 
       614.0         0.10          4.1 
       615.0         0.07          3.7 
       616.0         0.07          4.1 
       617.0         0.07          3.6 
       618.0         0.13          4.0 
       619.0         0.10          3.9 
       620.0         0.13          4.0 
       621.0         0.13          3.7 
       622.0         0.10          4.0 
       623.0         0.10          4.1 
       624.0         0.07          3.6 
       625.0         0.10          4.3 
       626.0         4.08          5.0 
       627.0         0.20          4.6 
       628.0         0.17          4.8 
       629.0         0.20          5.3 
       630.0         0.23          5.1 
       631.0         0.17          5.0 
       632.0         0.17          5.2 
       633.0         0.25          5.4 
       634.0         0.20          5.0 
       635.0         0.23          5.1 
       636.0         0.20          5.3 
       637.0         0.27          5.5 
       638.0         0.23          5.3 
       639.0         0.30          5.7 
       640.0         0.23          5.7 
       641.0         0.23          5.6 
       642.0         0.20          5.8 
       643.0         0.23          5.8 
       644.0         0.20          5.5 
       645.0         0.20          6.1 
       646.0         0.13          5.6 
       647.0         0.13          5.7 
       648.0         0.22          5.7 
       649.0         0.17          5.3 
       650.0         0.20          5.6 
       651.0         0.20          5.7 
       652.0         0.17          5.1 
       653.0         0.23          5.0 
       654.0         0.23          5.2 
       655.0         0.27          5.3 
       656.0         2.35          4.9 
       657.0         0.13          4.2 
       658.0         0.17          4.3 
       659.0         0.17          4.4 
       660.0         0.20          4.3 
       661.0         0.20          4.2 
       662.0         0.20          3.9 
       663.0         0.17          3.9 
       664.0         0.17          3.7 
       665.0         0.20          3.9 
       666.0         0.27          4.0 
       667.0         0.23          4.1 
       668.0         0.20          4.1 
       669.0         0.17          3.8 
       670.0         0.13          4.1 
       671.0         0.18          3.8 
       672.0         0.23          4.1 
       673.0         0.20          3.7 
       674.0         0.27          4.1 
       675.0         0.20          3.6 
       676.0         0.20          3.4 
       677.0         0.20          3.9 
       678.0         0.23          4.0 
       679.0         0.20          3.9 
       680.0         0.20          3.9 
       681.0         0.20          3.7 
       682.0         0.17          3.8 
       683.0         0.20          3.9 
       684.0         0.20          4.0 
       685.0         0.20          4.0 
       686.0         1.72          4.4 
       687.0         0.13          4.0 
       688.0         0.20          4.1 
       689.0         0.30          4.2 
       690.0         0.27          4.3 
       691.0         0.27          4.1 
       692.0         0.23          4.5 
       693.0         0.52          4.6 
       694.0         0.27          4.6 
       695.0         0.23          4.5 
       696.0         0.23          4.6 
       697.0         0.20          4.3 
       698.0         0.20          4.6 
       699.0         0.17          4.2 
       700.0         0.13          4.0 
       701.0         0.13          4.2 
       702.0         0.10          4.2 
       703.0         0.10          4.2 
       704.0         0.10          4.1 
       705.0         0.13          4.2 
       706.0         0.10          4.4 
       707.0         0.13          4.0 
       708.0         0.10          4.5 
       709.0         0.10          4.6 
       710.0         0.20          4.2 
       711.0         0.13          4.5 
       712.0         0.20          4.7 
       713.0         0.22          4.6 
       714.0         0.10          4.3 
       715.0         0.10          4.1 
       716.0         1.83          4.7 
       717.0         0.30          4.8 
       718.0         0.40          4.8 
       719.0         0.27          4.8 
       720.0         0.35          4.6 
       721.0         0.33          4.4 
       722.0         0.30          4.7 
       723.0         0.30          4.6 
       724.0         0.30          4.6 
       725.0         0.33          4.7 
       726.0         0.27          4.5 
       727.0         0.30          4.6 
       728.0         0.27          4.8 
       729.0         0.30          4.7 
       730.0         0.27          4.6 
       731.0         0.32          4.6 
       732.0         0.30          4.8 
       733.0         0.27          4.4 
       734.0         0.27          4.3 
       735.0         0.30          4.2 
       736.0         0.27          4.3 
       737.0         0.30          4.6 
       738.0         0.30          4.5 
       739.0         0.30          4.4 
       740.0         0.33          4.1 
       741.0         0.30          3.8 
       742.0         0.32          4.2 
       743.0         0.27          4.0 
       744.0         0.27          4.0 
       745.0         0.27          4.1 
       746.0         2.33          4.2 
       747.0         0.25          4.0 
       748.0         0.20          3.5 
       749.0         0.13          3.9 
       750.0         0.13          3.6 
       751.0         0.17          4.0 
       752.0         0.27          3.9 
       753.0         0.20          3.8 
       754.0         0.23          4.0 
       755.0         0.20          3.8 
       756.0         0.23          4.0 
       757.0         0.30          4.0 
       758.0         0.20          3.5 
       759.0         0.17          4.0 
       760.0         0.13          3.6 
       761.0         0.17          3.9 
       762.0         0.17          4.1 
       763.0         0.20          4.0 
       764.0         0.17          3.6 
       765.0         0.18          4.0 
       766.0         0.20          4.0 
       767.0         0.17          4.0 
       768.0         0.20          3.9 
       769.0         0.20          3.8 
       770.0         0.17          3.8 
       771.0         0.17          3.9 
       772.0         0.17          3.7 
       773.0         0.13          3.5 
       774.0         0.17          3.9 
       775.0         0.20          3.9 
       776.0         1.82          4.2 
       777.0         0.27          3.9 
       778.0         0.23          3.6 
       779.0         0.23          3.5 
       780.0         0.20          4.1 
       781.0         0.20          3.8 
       782.0         0.17          3.7 
       783.0         0.07          3.8 
       784.0         0.17          3.7 
