~Version Information
VERS.                      2.0: CWLS Log ASCII Standard - VERSION 2.0
WRAP.                       NO: One line per depth step
~Well Information Block
STRT.FT               325.0000: 
STOP.FT              1013.5000: 
STEP.FT                 0.1000: 
NULL.                -999.2500: 
COMP.          Pioneer Natural Resources: COMPANY
WELL.                Doc 34-30: WELL
FLD.           Purgatoire River: FIELD
LOC.           454' FSL & 1386' FEL: LOCATION
CNTY.               Las Animas: COUNTY
SRVC.                Patterson: SERVICE COMPANY
DATE.          Thu Feb 16 07:19:58 2006: LOG DATE
UWI.           05 071 08694 00: UNIQUE WELL ID
STAT.                 Colorado: STATE
~Curve Information Block
DEPT.FT            0 000 00 00: Depth
DCAL.in                       : CDL Caliper
RHOB.g/cc                     : CDL Bulk Density
RHOC.g/cc                     : CDL Density Correction
DPOR.pu                       : CDL Density Porosity
GR.GAPI                       : Gamma Ray
NPOR.pu                       : Neutron Porosity
~Parameter Information Block
~A  Depth       DCAL        RHOB        RHOC        DPOR         GR         NPOR    
# ...
   373.0000      8.0039      2.4629      0.0169     11.3392    149.1579     26.8375
   373.1000      8.0039      2.4629      0.0118     11.3381    133.7655     25.9805
   373.2000      8.0039      2.4712      0.0298     10.8342    124.6832     25.1926
   373.3000      7.9988      2.4790      0.0404     10.3660    121.4424     24.3212
   373.4000      7.9988      2.4771      0.0499     10.4792    116.9935     23.6385
   373.5000      7.9990      2.4630      0.0435     11.3306    106.5590     22.9984
   373.6000      7.9990      2.4469      0.0035     12.3069     96.7614     22.2692
   373.7000      7.9990      2.4408     -0.0025     12.6809     92.3531     21.7972
   373.8000      7.9996      2.4435      0.0103     12.5165     90.4855     21.5190
   373.9000      7.9996      2.4511      0.0150     12.0555     91.0928     21.1269
   374.0000      7.9990      2.4608      0.0295     11.4691     94.6006     20.8650
   374.1000      7.9990      2.4673      0.0409     11.0720     95.6587     20.8228
   374.2000      7.9990      2.4704      0.0294     10.8846     89.3540     20.9371
   374.3000      7.9985      2.4660      0.0564     11.1506     81.4105     21.1856
   374.4000      7.9985      2.4451      0.0565     12.4181     79.5931     21.0609
   374.5000      7.9984      2.4128      0.0018     14.3783     82.1144     20.5523
   374.6000      7.9984      2.3859     -0.0138     16.0065     85.5606     20.1133
   374.7000      7.9984      2.3789     -0.0342     16.4289     90.9732     19.6740
   374.8000      7.9987      2.3987     -0.0362     15.2306     97.4194     19.2230
   374.9000      7.9987      2.4358      0.0344     12.9820    100.7123     19.0439
   375.0000      7.9998      2.4632      0.0788     11.3207     98.2685     19.3781
   375.1000      7.9998      2.4662      0.0616     11.1392     93.5284     20.0640
   375.2000      7.9998      2.4555      0.0950     11.7871     93.1282     20.8041
   375.3000      8.0006      2.4415      0.0503     12.6394     96.7132     21.5268
   375.4000      8.0006      2.4313      0.0144     13.2540     98.3821     21.9406
   375.5000      7.9997      2.4288      0.0421     13.4071     98.5588     21.8599
   375.6000      7.9997      2.4223      0.0465     13.8008    100.0980     21.7910
   375.7000      7.9997      2.4078      0.0206     14.6804    102.0798     21.6879
   375.8000      7.9987      2.4083     -0.0254     14.6466    101.9436     20.9937
   375.9000      7.9987      2.4376      0.0428     12.8718    100.4376     20.4047
   376.0000      7.9987      2.4706      0.0562     10.8724    101.4008     20.6789
   376.1000      7.9987      2.4832      0.0819     10.1074    104.2859     21.2599
   376.2000      7.9987      2.4838      0.0348     10.0700    106.5942     21.7900
   376.3000      7.9988      2.4883      0.0458      9.8008    111.7119     22.5879
   376.4000      7.9988      2.4965      0.0334      9.3034    124.1978     23.3475
   376.5000      7.9981      2.5030      0.0837      8.9096    135.5929     23.4138
   376.6000      7.9981      2.5084      0.0596      8.5822    134.4825     22.7396
   376.7000      7.9981      2.5154      0.1057      8.1600    126.1940     21.9053
   376.8000      7.9974      2.5212      0.0780      7.8070    119.8992     21.7760
   376.9000      7.9974      2.5293      0.0314      7.3163    116.0385     22.7435
   377.0000      7.9979      2.5393      0.1212      6.7106    114.4052     24.2583
   377.1000      7.9979      2.5344      0.1106      7.0033    114.6367     25.0107
   377.2000      7.9979      2.5204      0.0333      7.8572    115.6744     24.4326
   377.3000      7.9979      2.5238      0.0889      7.6471    118.0432     23.7464
   377.4000      7.9979      2.5467      0.0560      6.2618    122.9131     23.8915
   377.5000      7.9951      2.5694      0.0934      4.8830    131.1959     24.5393
   377.6000      7.9951      2.5834      0.0651      4.0391    136.4868     25.0460
   377.7000      7.9951      2.5933      0.0931      3.4364    135.1509     24.9661
   377.8000      7.9923      2.5981      0.0967      3.1474    135.7346     24.5504
   377.9000      7.9923      2.5949      0.0740      3.3392    141.7979     24.7713
   378.0000      7.9950      2.5837      0.0932      4.0201    148.6992     25.9891
   378.1000      7.9950      2.5635      0.0401      5.2396    153.1105     27.2019
   378.2000      7.9950      2.5375      0.0413      6.8164    154.7408     27.4379
   378.3000      7.9988      2.5132      0.0175      8.2900    152.0333     27.0255
   378.4000      7.9988      2.5002      0.0024      9.0788    145.9885     26.6186
   378.5000      7.9999      2.4970      0.0079      9.2752    141.9641     26.0922
   378.6000      7.9999      2.4940     -0.0188      9.4547    140.4021     25.2977
   378.7000      7.9999      2.4902     -0.0022      9.6848    139.7755     24.7932
   378.8000      7.9993      2.4857      0.0057      9.9557    139.8293     25.0017
   378.9000      7.9993      2.4841     -0.0163     10.0532    138.5528     25.3358
   379.0000      7.9987      2.4919      0.0026      9.5826    136.4265     25.1594
   379.1000      7.9987      2.4979      0.0023      9.2180    136.0518     24.6739
   379.2000      7.9987      2.4834     -0.0008     10.0947    135.5311     23.8362
   379.3000      7.9981      2.4533     -0.0406     11.9216    130.3217     22.4417
   379.4000      7.9981      2.4336     -0.0509     13.1140    122.4165     21.2618
   379.5000      7.9973      2.4420     -0.0612     12.6042    118.7597     21.1286
   379.6000      7.9973      2.4756      0.0003     10.5680    119.9509     21.6966
   379.7000      7.9973      2.5094      0.0375      8.5222    120.5535     22.1231
   379.8000      7.9973      2.5197      0.0377      7.8996    118.3410     21.9221
   379.9000      7.9973      2.5158      0.0146      8.1314    115.3311     21.4125
   380.0000      7.9979      2.5112      0.0646      8.4132    111.3675     21.2569
   380.1000      7.9979      2.4950      0.0616      9.3941    105.9788     21.3570
   380.2000      7.9979      2.4703     -0.0101     10.8903    103.3830     21.0968
   380.3000      7.9983      2.4647      0.0073     11.2279    106.9777     20.7272
   380.4000      7.9983      2.4863      0.0373      9.9229    115.2208     20.9600
   380.5000      7.9985      2.5107      0.0554      8.4419    122.3985     21.7823
   380.6000      7.9985      2.5189      0.0695      7.9431    124.2976     22.6186
   380.7000      7.9985      2.5195      0.0337      7.9073    121.4976     23.0657
   380.8000      7.9998      2.5259      0.0370      7.5187    115.5983     23.2776
   380.9000      7.9998      2.5319      0.1059      7.1583    110.8460     23.4823
   381.0000      8.0008      2.5244      0.1013      7.6147    111.2371     23.6887
   381.1000      8.0008      2.5065      0.0632      8.6989    111.1162     23.8048
   381.2000      8.0008      2.4907      0.0568      9.6563    105.4333     23.8278
   381.3000      7.9994      2.4894     -0.0003      9.7308    100.3167     23.8335
   381.4000      7.9994      2.5058      0.0470      8.7395    101.7466     23.7012
   381.5000      7.9979      2.5266      0.0572      7.4767    105.5817     23.7095
   381.6000      7.9979      2.5387      0.0881      6.7454    109.2164     24.2085
   381.7000      7.9979      2.5405      0.0405      6.6353    115.8205     24.9408
   381.8000      7.9974      2.5416      0.0549      6.5693    121.6866     25.4516
   381.9000      7.9974      2.5479      0.0613      6.1901    120.8588     25.4089
   382.0000      7.9969      2.5559      0.0554      5.7005    115.3595     24.9637
   382.1000      7.9969      2.5628      0.0714      5.2819    111.0849     24.8786
   382.2000      7.9969      2.5696      0.0321      4.8711    110.4942     25.2862
   382.3000      7.9953      2.5806      0.0402      4.2032    112.5259     25.3722
   382.4000      7.9953      2.5936      0.0431      3.4178    115.7885     25.1266
   382.5000      7.9943      2.6006      0.0331      2.9915    120.0376     25.1333
