~Version Information
VERS.                      2.0: CWLS Log ASCII Standard - VERSION 2.0
WRAP.                       NO: One line per depth step
~Well Information Block
STRT.FT               520.0000: 
STOP.FT              2555.2000: 
STEP.FT                 0.1000: 
NULL.                -999.2500: 
COMP.          Pioneer Natural Resources: COMPANY
WELL.          Horsefeathers 24-34: WELL
FLD.           Purgatoire River: FIELD
LOC.           183' FSL & 1570' FWL--: LOCATION
CNTY.               Las Animas: COUNTY
SRVC.                Patterson: SERVICE COMPANY
DATE.          Mon Feb 06 08:03:40 2006: LOG DATE
UWI.           05 071 08675 00: UNIQUE WELL ID
STAT.                 Colorado: STATE
~Curve Information Block
DEPT.FT            0 000 00 00: Depth
DCAL.in                       : CDL Caliper
RHOB.g/cc                     : CDL Bulk Density
RHOC.g/cc                     : CDL Density Correction
DPOR.pu                       : CDL Density Porosity
NPOR.pu                       : Neutron Porosity
GR.GAPI                       : Gamma Ray
~Parameter Information Block
~A  Depth       DCAL        RHOB        RHOC        DPOR        NPOR         GR     
# ...
  2526.4000      7.7683      2.5187      0.0290      7.9560     17.0974   -999.2500
  2526.5000      7.7660      2.5552      0.0802      5.7435     16.8569   -999.2500
  2526.6000      7.7660      2.5815      0.0974      4.1504     16.2411   -999.2500
  2526.7000      7.7660      2.5779      0.1259      4.3698     15.4980   -999.2500
  2526.8000      7.7641      2.5466      0.0824      6.2666     15.0387   -999.2500
  2526.9000      7.7641      2.5128      0.0463      8.3172     15.2159   -999.2500
  2527.0000      7.7587      2.5020      0.0301      8.9671     15.6584   -999.2500
  2527.1000      7.7587      2.5164      0.0324      8.1000     15.7565   -999.2500
  2527.2000      7.7587      2.5409      0.0828      6.6135     15.5180   -999.2500
  2527.3000      7.7481      2.5631      0.0525      5.2684     15.6616   -999.2500
  2527.4000      7.7481      2.5770      0.0849      4.4269     16.6121   -999.2500
  2527.5000      7.7422      2.5758      0.0759      4.4986     17.8152   -999.2500
  2527.6000      7.7422      2.5571      0.0545      5.6313     18.2690   -999.2500
  2527.7000      7.7422      2.5333      0.0469      7.0757     17.5792   -999.2500
  2527.8000      7.7429      2.5215      0.0369      7.7859     16.1817   -999.2500
  2527.9000      7.7429      2.5283      0.0371      7.3743     14.8833   -999.2500
  2528.0000      7.7437      2.5491      0.0600      6.1139     14.2581   -999.2500
  2528.1000      7.7437      2.5722      0.0756      4.7146     14.4010   -999.2500
  2528.2000      7.7437      2.5893      0.0890      3.6806     15.0164   -999.2500
  2528.3000      7.7444      2.6026      0.0540      2.8748     16.1732   -999.2500
  2528.4000      7.7444      2.6118      0.1125      2.3158     19.5346   -999.2500
  2528.5000      7.7450      2.6044      0.0969      2.7635     28.4455   -999.2500
  2528.6000      7.7450      2.5779      0.0861      4.3674     41.7450   -999.2500
  2528.7000      7.7450      2.5537      0.0474      5.8386     51.0764   -999.2500
  2528.8000      7.7447      2.5498      0.0631      6.0714     54.3525   -999.2500
  2528.9000      7.7447      2.5561      0.0658      5.6890     54.9874   -999.2500
  2529.0000      7.7448      2.5514      0.0630      5.9757     55.0546   -999.2500
  2529.1000      7.7448      2.5311      0.0551      7.2052     55.0584   -999.2500
  2529.2000      7.7448      2.5096      0.0211      8.5082   -999.2500   -999.2500
  2529.3000      7.7442      2.5006      0.0344      9.0562   -999.2500   -999.2500
  2529.4000      7.7442      2.5067      0.0234      8.6850   -999.2500   -999.2500
  2529.5000      7.7433      2.5202      0.0480      7.8660   -999.2500   -999.2500
  2529.6000      7.7433      2.5222      0.0601      7.7470   -999.2500   -999.2500
  2529.7000      7.7433      2.5001      0.0548      9.0837   -999.2500   -999.2500
  2529.8000      7.7444      2.4680      0.0152     11.0326   -999.2500   -999.2500
  2529.9000      7.7444      2.4508     -0.0070     12.0699   -999.2500   -999.2500
  2530.0000      7.7455      2.4524      0.0386     11.9771   -999.2500   -999.2500
  2530.1000      7.7455      2.4595      0.0183     11.5433   -999.2500   -999.2500
  2530.2000      7.7455      2.4676      0.0207     11.0570   -999.2500   -999.2500
  2530.3000      7.7456      2.4745      0.0403     10.6342   -999.2500   -999.2500
  2530.4000      7.7456      2.4804      0.0313     10.2802   -999.2500   -999.2500
  2530.5000      7.7444      2.4888      0.0229      9.7698   -999.2500   -999.2500
  2530.6000      7.7444      2.4965      0.0603      9.3048   -999.2500   -999.2500
  2530.7000      7.7444      2.4996      0.0687      9.1149   -999.2500   -999.2500
  2530.8000      7.7429      2.5053      0.0472      8.7689   -999.2500   -999.2500
  2530.9000      7.7429      2.5211      0.0732      7.8096   -999.2500   -999.2500
  2531.0000      7.7423      2.5406      0.0729      6.6307   -999.2500   -999.2500
  2531.1000      7.7423      2.5480      0.0932      6.1812   -999.2500   -999.2500
  2531.2000      7.7423      2.5369      0.0825      6.8541   -999.2500   -999.2500
  2531.3000      7.7403      2.5213      0.0386      7.7975   -999.2500   -999.2500
  2531.4000      7.7403      2.5186      0.0538      7.9666   -999.2500   -999.2500
  2531.5000      7.7391      2.5259      0.0421      7.5223   -999.2500   -999.2500
  2531.6000      7.7391      2.5312      0.0679      7.1988   -999.2500   -999.2500
  2531.7000      7.7391      2.5326      0.0502      7.1181   -999.2500   -999.2500
  2531.8000      7.7407      2.5380      0.0446      6.7863   -999.2500   -999.2500
  2531.9000      7.7407      2.5504      0.0484      6.0346   -999.2500   -999.2500
  2532.0000      7.7392      2.5595      0.0906      5.4820   -999.2500   -999.2500
  2532.1000      7.7392      2.5600      0.0371      5.4566   -999.2500   -999.2500
  2532.2000      7.7392      2.5601      0.0526      5.4515   -999.2500   -999.2500
  2532.3000      7.7272      2.5579      0.0706      5.5799   -999.2500   -999.2500
  2532.4000      7.7272      2.5423      0.0480      6.5265   -999.2500   -999.2500
  2532.5000      7.7001      2.5191      0.0729      7.9334   -999.2500   -999.2500
  2532.6000      7.7001      2.5024      0.0584      8.9470   -999.2500   -999.2500
  2532.7000      7.7001      2.4957      0.0385      9.3522   -999.2500   -999.2500
  2532.8000      7.6653      2.4943      0.0479      9.4386   -999.2500   -999.2500
  2532.9000      7.6653      2.4945      0.0596      9.4220   -999.2500   -999.2500
  2533.0000      7.6400      2.4949      0.0469      9.3978   -999.2500   -999.2500
  2533.1000      7.6400      2.4916      0.0739      9.5974   -999.2500   -999.2500
  2533.2000      7.6400      2.4851      0.0345      9.9964   -999.2500   -999.2500
  2533.3000      7.6297      2.4858      0.0567      9.9540   -999.2500   -999.2500
  2533.4000      7.6297      2.4989      0.0739      9.1549   -999.2500   -999.2500
  2533.5000      7.6287      2.5155      0.0892      8.1540   -999.2500   -999.2500
  2533.6000      7.6287      2.5263      0.0508      7.4970   -999.2500   -999.2500
  2533.7000      7.6287      2.5334      0.0755      7.0689   -999.2500   -999.2500
  2533.8000      7.6327      2.5409      0.0510      6.6096   -999.2500   -999.2500
  2533.9000      7.6327      2.5455      0.0736      6.3309   -999.2500   -999.2500
  2534.0000      7.6371      2.5360      0.0808      6.9117   -999.2500   -999.2500
  2534.1000      7.6371      2.5154      0.0498      8.1602   -999.2500   -999.2500
  2534.2000      7.6371      2.5040      0.0298      8.8514   -999.2500   -999.2500
  2534.3000      7.6392      2.5013      0.0783      9.0127   -999.2500   -999.2500
  2534.4000      7.6392      2.4904      0.0458      9.6744   -999.2500   -999.2500
  2534.5000      7.6388      2.4758      0.0200     10.5596   -999.2500   -999.2500
  2534.6000      7.6388      2.4701      0.0389     10.9052   -999.2500   -999.2500
  2534.7000      7.6388      2.4746      0.0300     10.6297   -999.2500   -999.2500
  2534.8000      7.6351      2.4841      0.0555     10.0567   -999.2500   -999.2500
  2534.9000      7.6351      2.4898      0.0534      9.7112   -999.2500   -999.2500
  2535.0000      7.6296      2.4868      0.0431      9.8894   -999.2500   -999.2500
  2535.1000      7.6296      2.4750      0.0506     10.6055   -999.2500   -999.2500
  2535.2000      7.6296      2.4570      0.0386     11.6992   -999.2500   -999.2500
  2535.3000      7.6265      2.4426      0.0484     12.5709   -999.2500   -999.2500
  2535.4000      7.6265      2.4451      0.0251     12.4165   -999.2500   -999.2500
  2535.5000      7.6249      2.4655      0.0461     11.1826   -999.2500   -999.2500
  2535.6000      7.6249      2.4834      0.0913     10.0990   -999.2500   -999.2500
  2535.7000      7.6249      2.4868      0.0426      9.8918   -999.2500   -999.2500
  2535.8000      7.6218      2.4942      0.0440      9.4439   -999.2500   -999.2500
  2535.9000      7.6218      2.5372      0.0832      6.8345   -999.2500   -999.2500
