~Version Information
VERS.                      2.0: CWLS Log ASCII Standard - VERSION 2.0
WRAP.                       NO: One line per depth step
~Well Information Block
STRT.FT               645.0000: 
STOP.FT              2133.5000: 
STEP.FT                 0.2500: 
NULL.                -999.2500: 
COMP.          Pioneer Natural Resources: COMPANY
WELL.          Gunslinger 13-24: WELL
FLD.           Purgatoire River: FIELD
LOC.           1968' FSL & 633' FWL: LOCATION
PROV.                 Colorado: PROVINCE
CNTY.               Las Animas: COUNTRY
SRVC.                Patterson: SERVICE COMPANY
DATE.          Fri Jul 29 15:04:35 2005: LOG DATE
UWI.           05 071 08442 00: UNIQUE WELL ID
~Curve Information Block
DEPT.FT            0 000 00 00: Depth
SN.Ohm-m                      : IEL Short Normal
SP.mV                         : IEL Spontaneous Potential
DIR.Ohm-m                     : IEL Induction Resistivity
GR.GAPI                       : Gamma Ray
~Parameter Information Block
~A  Depth        SN          SP         DIR          GR     
# ...
  1717.0000     24.3028     93.5954     24.0177     61.5358
  1717.2500     24.4393     93.9248     23.7677     57.9881
  1717.5000     24.5929     94.2632     23.5356     53.9066
  1717.7500     24.7289     94.6189     23.3678     55.7231
  1718.0000     24.8568     94.9821     23.3005     52.7615
  1718.2500     24.9896     95.3281     23.3451     51.0017
  1718.5000     25.1441     95.6264     23.4934     48.6517
  1718.7500     25.3391     95.8460     23.7312     47.4675
  1719.0000     25.5851     95.9603     24.0494     46.7798
  1719.2500     25.8965     95.9576     24.4418     47.0934
  1719.5000     26.2549     95.8484     24.8913     47.8861
  1719.7500     26.5836     95.6533     25.3563     47.8449
  1720.0000     26.8252     95.3772     25.7740     46.1170
  1720.2500     26.9795     95.0021     26.0857     44.0517
  1720.5000     27.0799     94.5077     26.2677     40.7902
  1720.7500     27.1915     93.8947     26.3463     39.2218
  1721.0000     27.3532     93.1859     26.3822     38.3301
  1721.2500     27.5498     92.4179     26.4381     38.6184
  1721.5000     27.8181     91.6367     26.5460     39.8664
  1721.7500     28.2012     90.8929     26.6947     40.9483
  1722.0000     28.5839     90.2238     26.8422     42.7824
  1722.2500     28.8075     89.6321     26.9450     44.3404
  1722.5000     28.8895     89.0892     26.9764     47.9367
  1722.7500     28.9265     88.5666     26.9269     51.6904
  1723.0000     28.8545     88.0666     26.7986     59.8512
  1723.2500     28.5240     87.6196     26.6097     66.7539
  1723.5000     27.9602     87.2517     26.4008     77.8895
  1723.7500     27.3277     86.9578     26.2238     84.6111
  1724.0000     26.7297     86.7087     26.1109     91.6084
  1724.2500     26.2069     86.4788     26.0500     93.5478
  1724.5000     25.8179     86.2592     25.9922     92.6286
  1724.7500     25.5899     86.0484     25.8892     90.2819
  1725.0000     25.4883     85.8428     25.7307     85.7593
  1725.2500     25.4754     85.6427     25.5466     82.5406
  1725.5000     25.5252     85.4639     25.3751     76.8721
  1725.7500     25.6434     85.3420     25.2313     71.8441
  1726.0000     25.8994     85.3233     25.1065     62.2380
  1726.2500     26.2847     85.4456     24.9903     55.4015
  1726.5000     26.6046     85.7171     24.8901     46.9197
  1726.7500     26.6663     86.1112     24.8315     43.3577
  1727.0000     26.4806     86.5785     24.8425     41.1970
  1727.2500     26.2613     87.0700     24.9414     41.4397
  1727.5000     26.2466     87.5567     25.1352     43.6178
  1727.7500     26.4802     88.0357     25.4218     45.8866
  1728.0000     26.7923     88.5150     25.7847     49.5393
  1728.2500     26.9802     88.9923     26.1758     51.4775
  1728.5000     27.0064     89.4507     26.5062     52.9629
  1728.7500     26.9930     89.8715     26.6749     53.0706
  1729.0000     27.0117     90.2443     26.6293     52.5843
  1729.2500     27.0161     90.5598     26.4015     52.3794
  1729.5000     26.9874     90.8006     26.0794     53.3701
  1729.7500     26.9688     90.9484     25.7484     55.4926
  1730.0000     26.9538     91.0026     25.4603     61.2205
  1730.2500     26.9077     90.9928     25.2362     66.4097
  1730.5000     26.8572     90.9709     25.0770     75.1095
  1730.7500     26.7821     90.9859     24.9660     80.7459
  1731.0000     26.5356     91.0601     24.8722     87.5783
  1731.2500     26.0308     91.1858     24.7615     90.2248
  1731.5000     25.3762     91.3437     24.6140     90.1435
  1731.7500     24.7571     91.5210     24.4334     87.1748
  1732.0000     24.2934     91.7128     24.2430     79.2521
  1732.2500     24.0359     91.9129     24.0728     72.7183
  1732.5000     23.9697     92.1142     23.9437     62.8363
  1732.7500     24.0126     92.3197     23.8585     56.9033
  1733.0000     24.0712     92.5458     23.8016     49.6745
  1733.2500     24.0863     92.8118     23.7496     46.2160
  1733.5000     24.0433     93.1261     23.6868     43.3068
  1733.7500     23.9424     93.4800     23.6157     42.8429
  1734.0000     23.7870     93.8520     23.5547     43.7967
  1734.2500     23.6294     94.2160     23.5262     44.9431
  1734.5000     23.5517     94.5519     23.5457     46.4160
  1734.7500     23.5893     94.8547     23.6243     46.9758
  1735.0000     23.7023     95.1370     23.7739     47.4409
  1735.2500     23.8256     95.4250     24.0057     47.7265
  1735.5000     23.9549     95.7448     24.3199     48.0409
  1735.7500     24.1632     96.1030     24.7012     47.9012
  1736.0000     24.5278     96.4738     25.1312     46.7542
  1736.2500     25.0845     96.8054     25.6059     45.2772
  1736.5000     25.8340     97.0449     26.1394     42.1088
  1736.7500     26.7511     97.1621     26.7464     39.5962
  1737.0000     27.7942     97.1562     27.4164     35.9822
  1737.2500     28.8716     97.0440     28.1010     34.2586
  1737.5000     29.8496     96.8477     28.7204     33.3985
  1737.7500     30.6736     96.5875     29.1864     33.8370
  1738.0000     31.3754     96.2781     29.4264     34.8961
  1738.2500     31.9242     95.9252     29.4019     35.2136
  1738.5000     32.2365     95.5259     29.1186     34.8641
  1738.7500     32.3138     95.0722     28.6267     34.6028
  1739.0000     32.2030     94.5538     28.0033     36.0221
  1739.2500     31.8955     93.9631     27.3230     39.5292
  1739.5000     31.3460     93.3074     26.6352     50.4378
  1739.7500     30.5066     92.6213     25.9631     61.6675
  1740.0000     29.3903     91.9660     25.3168     82.8669
  1740.2500     28.1498     91.4100     24.7077     98.1072
  1740.5000     26.9817     90.9980     24.1525    119.1259
  1740.7500     25.9639     90.7263     23.6693    130.2857
  1741.0000     25.0932     90.5399     23.2744    141.6016
  1741.2500     24.3936     90.3606     22.9760    145.8150
  1741.5000     23.8910     90.1245     22.7654    148.2644
  1741.7500     23.5800     89.7984     22.6083    147.8336
  1742.0000     23.4755     89.3679     22.4499    144.8954
  1742.2500     23.6154     88.8227     22.2359    142.1561
  1742.5000     23.9837     88.1637     21.9350    138.3324
  1742.7500     24.4835     87.4247     21.5437    136.3045
  1743.0000     24.9896     86.6838     21.0691    133.2607
  1743.2500     25.4056     86.0498     20.5156    130.5009
  1743.5000     25.6996     85.6254     19.8894    124.9023
  1743.7500     25.9129     85.4605     19.2146    120.6502
  1744.0000     26.0700     85.5265     18.5405    114.6524
  1744.2500     26.0409     85.7352     17.9324    111.5681
  1744.5000     25.5787     85.9933     17.4546    109.6556
  1744.7500     24.5484     86.2421     17.1574    111.0384
  1745.0000     23.1211     86.4612     17.0681    117.7103
  1745.2500     21.7018     86.6482     17.1858    124.5648
  1745.5000     20.6255     86.8051     17.4794    135.5143
  1745.7500     19.9974     86.9398     17.8921    140.9633
  1746.0000     19.7815     87.0719     18.3566    142.8933
  1746.2500     19.8905     87.2309     18.8140    138.9532
  1746.5000     20.2911     87.4431     19.2262    125.3359
  1746.7500     21.1579     87.7156     19.5799    112.1464
  1747.0000     22.8777     88.0314     19.8872     89.3227
  1747.2500     25.9789     88.3624     20.1901     74.5175
  1747.5000     31.0059     88.6925     20.5603     57.0247
  1747.7500     37.9946     89.0322     21.0850     50.0402
  1748.0000     45.8588     89.4090     21.8401     47.1940
  1748.2500     52.6670     89.8398     22.8658     49.9869
  1748.5000     56.7619     90.3098     24.1552     60.2173
  1748.7500     57.5665     90.7799     25.6589     70.3142
  1749.0000     55.5875     91.2169     27.2960     88.1295
  1749.2500     51.9915     91.6211     28.9605     99.9491
  1749.5000     48.0518     92.0314     30.5147    114.7614
  1749.7500     44.6828     92.5065     31.7878    121.7363
  1750.0000     42.2663     93.0880     32.6062    127.0583
  1750.2500     40.7460     93.7743     32.8725    126.9247
