~Version Information
VERS.                      2.0: CWLS Log ASCII Standard - VERSION 2.0
WRAP.                       NO: One line per depth step
~Well Information Block
STRT.FT               245.0000: 
STOP.FT              1102.5000: 
STEP.FT                 0.1000: 
NULL.                -999.2500: 
COMP.          Pioneer Natural Resources: COMPANY
WELL.           Pavilion 44-25: WELL
FLD.           Purgatoire River: FIELD
LOC.           719' FSL & 650' FEL: LOCATION
PROV.                 Colorado: PROVINCE
CNTY.               Las Animas: COUNTRY
SRVC.                Patterson: SERVICE COMPANY
DATE.          Wed Dec 14 09:57:07 2005: LOG DATE
UWI.           05 071 08624 00: UNIQUE WELL ID
~Curve Information Block
DEPT.FT            0 000 00 00: Depth
DCAL.in                       : CDL Caliper
RHOB.g/cc                     : CDL Bulk Density
RHOC.g/cc                     : CDL Density Correction
DPOR.pu                       : CDL Density Porosity
GR.GAPI                       : Gamma Ray
NPOR.pu                       : Neutron Porosity
~Parameter Information Block
~A  Depth       DCAL        RHOB        RHOC        DPOR         GR         NPOR    
# ...
   581.0000      8.0277      2.5563      0.0685      5.6804    124.8355     26.0670
   581.1000      8.0277      2.5825      0.0722      4.0917    116.0646     25.1930
   581.2000      8.0277      2.6077      0.0976      2.5647    109.2182     25.4516
   581.3000      8.0226      2.6222      0.0977      1.6821    101.9921     25.7739
   581.4000      8.0226      2.6250      0.1018      1.5180     97.1606     25.3397
   581.5000      8.0138      2.6183      0.1332      1.9198     99.9863     24.6388
   581.6000      8.0138      2.6065      0.0641      2.6366    107.5275     24.3441
   581.7000      8.0138      2.5980      0.0680      3.1521    113.7083     24.4039
   581.8000      8.0119      2.5961      0.0380      3.2642    116.6984     24.4854
   581.9000      8.0119      2.5990      0.0388      3.0914    117.1948     24.5428
   582.0000      8.0169      2.5950      0.0479      3.3343    118.4323     24.4618
   582.1000      8.0169      2.5729      0.0410      4.6746    120.4185     24.3229
   582.2000      8.0169      2.5504     -0.0031      6.0359    121.2363     24.2105
   582.3000      8.0174      2.5555      0.0145      5.7302    123.7455     23.9708
   582.4000      8.0174      2.5805      0.0550      4.2132    128.8082     23.8324
   582.5000      8.0250      2.5937      0.0585      3.4115    134.1962     24.2191
   582.6000      8.0250      2.5858      0.0233      3.8911    137.0928     25.1841
   582.7000      8.0250      2.5678      0.0140      4.9792    141.0454     26.2068
   582.8000      8.0468      2.5454      0.0547      6.3424    153.1594     26.7935
   582.9000      8.0468      2.5304      0.0088      7.2504    167.5958     27.1253
   583.0000      8.0593      2.5396      0.0205      6.6881    173.5552     27.3138
   583.1000      8.0593      2.5650      0.0125      5.1512    171.0539     27.2070
   583.2000      8.0593      2.5833      0.0409      4.0421    166.2116     26.7973
   583.3000      8.0627      2.5870      0.0050      3.8171    162.3402     26.3033
   583.4000      8.0627      2.5872      0.0198      3.8034    159.8703     26.3792
   583.5000      8.0628      2.5922      0.0105      3.5010    157.1235     27.2212
   583.6000      8.0628      2.5980      0.0335      3.1491    153.0130     28.1951
   583.7000      8.0628      2.5972      0.0483      3.2000    150.3390     28.8070
   583.8000      8.0657      2.5919      0.0298      3.5232    153.5308     28.9328
   583.9000      8.0657      2.5889     -0.0070      3.7057    164.3227     28.4086
   584.0000      8.0648      2.5854      0.0303      3.9165    177.1457     27.4995
   584.1000      8.0648      2.5741     -0.0066      4.5992    183.8079     27.0413
   584.2000      8.0648      2.5588     -0.0049      5.5262    181.9731     27.1931
   584.3000      8.0666      2.5448     -0.0067      6.3765    176.1848     27.3693
   584.4000      8.0666      2.5328     -0.0346      7.1027    172.0968     27.5907
   584.5000      8.0681      2.5259     -0.0100      7.5186    172.4277     27.9022
   584.6000      8.0681      2.5233      0.0060      7.6761    176.7961     27.7144
   584.7000      8.0681      2.5202     -0.0120      7.8642    181.5100     27.3029
   584.8000      8.0683      2.5165     -0.0177      8.0909    185.2413     27.2650
   584.9000      8.0683      2.5143      0.0184      8.2218    188.7045     27.5215
   585.0000      8.0636      2.5127      0.0150      8.3215    188.6017     27.7969
   585.1000      8.0636      2.5127      0.0036      8.3203    181.1219     27.8604
   585.2000      8.0636      2.5179     -0.0011      8.0063    172.9854     27.6745
   585.3000      8.0263      2.5281      0.0104      7.3858    173.0787     27.4549
   585.4000      8.0263      2.5412      0.0140      6.5932    175.4444     27.4212
   585.5000      8.0226      2.5523      0.0430      5.9210    172.3345     27.5395
   585.6000      8.0226      2.5563      0.0273      5.6817    166.1539     27.5984
   585.7000      8.0226      2.5557     -0.0212      5.7136    161.2935     27.5826
   585.8000      8.0218      2.5528      0.0331      5.8884    159.3466     27.7898
   585.9000      8.0218      2.5482      0.0091      6.1714    162.0259     28.1746
   586.0000      8.0206      2.5493      0.0257      6.1007    170.6569     28.3530
   586.1000      8.0206      2.5503      0.0492      6.0438    179.1249     28.2150
   586.2000      8.0206      2.5430      0.0031      6.4848    177.1682     28.0451
   586.3000      8.0199      2.5386      0.0456      6.7512    166.2504     28.1480
   586.4000      8.0199      2.5406      0.0599      6.6286    156.8047     28.2890
   586.5000      8.0203      2.5436      0.0451      6.4493    153.2446     28.1660
   586.6000      8.0203      2.5483      0.0441      6.1609    156.4014     28.0931
   586.7000      8.0203      2.5593      0.0360      5.4967    164.8281     28.5041
   586.8000      8.0214      2.5760      0.0916      4.4825    172.0144     29.1554
   586.9000      8.0214      2.5914      0.0652      3.5530    172.8408     29.5767
   587.0000      8.0206      2.6057      0.0889      2.6847    168.9184     29.9750
   587.1000      8.0206      2.6204      0.1326      1.7951    163.7384     30.4568
   587.2000      8.0206      2.6278      0.1169      1.3442    161.6295     30.3791
   587.3000      8.0220      2.6224      0.0990      1.6745    164.5078     29.6434
   587.4000      8.0220      2.6023      0.1108      2.8932    167.8855     28.8180
   587.5000      8.0178      2.5774      0.0583      4.4009    165.8776     28.5093
   587.6000      8.0178      2.5710      0.0479      4.7891    158.9886     28.9839
   587.7000      8.0178      2.5857      0.0308      3.8968    155.3529     29.3655
   587.8000      8.0190      2.5938      0.0538      3.4088    159.9851     28.9761
   587.9000      8.0190      2.5833      0.0372      4.0446    168.6226     28.6496
   588.0000      8.0186      2.5710      0.0448      4.7862    171.3143     28.8252
   588.1000      8.0186      2.5630      0.0412      5.2726    163.3490     28.6839
   588.2000      8.0186      2.5502      0.0014      6.0514    155.7162     27.8508
   588.3000      8.0182      2.5386     -0.0142      6.7517    156.8042     26.8084
   588.4000      8.0182      2.5469      0.0058      6.2508    161.7924     25.8791
   588.5000      8.0183      2.5729      0.0734      4.6740    166.1541     25.2949
   588.6000      8.0183      2.5956      0.0464      3.2943    171.2196     25.3201
   588.7000      8.0183      2.6037      0.0689      2.8087    176.3875     25.5932
   588.8000      8.0194      2.5966      0.0958      3.2376    176.2230     25.8035
   588.9000      8.0194      2.5795      0.0655      4.2743    168.5295     26.1473
   589.0000      8.0211      2.5610      0.0673      5.3922    159.9370     26.5314
   589.1000      8.0211      2.5464      0.0339      6.2797    159.7228     26.7054
   589.2000      8.0211      2.5367      0.0041      6.8695    167.2318     26.7253
   589.3000      8.0210      2.5270      0.0492      7.4519    173.0979     26.4898
   589.4000      8.0210      2.5145      0.0351      8.2124    175.6932     25.9852
   589.5000      8.0214      2.5100      0.0371      8.4847    181.0291     25.5201
   589.6000      8.0214      2.5188      0.0350      7.9532    187.9181     25.3833
   589.7000      8.0214      2.5261      0.1079      7.5098    193.5783     25.6938
   589.8000      8.0220      2.5244      0.0762      7.6111    201.7642     26.3943
   589.9000      8.0220      2.5268      0.0715      7.4667    209.8226     27.2829
   590.0000      8.0217      2.5379      0.0656      6.7924    205.4164     28.1826
   590.1000      8.0217      2.5483      0.0953      6.1620    192.2441     28.9048
   590.2000      8.0217      2.5525      0.1141      5.9080    185.5008     29.0961
   590.3000      8.0207      2.5571      0.0981      5.6292    184.2264     28.8156
   590.4000      8.0207      2.5709      0.1115      4.7919    179.7926     28.3788
   590.5000      8.0211      2.5846      0.1192      3.9621    171.4724     28.0454
