~Version Information
VERS.                      2.0: CWLS Log ASCII Standard - VERSION 2.0
WRAP.                       NO: One line per depth step
~Well Information Block
STRT.FT                 0.0000: 
STOP.FT              2792.7500: 
STEP.FT                 0.2500: 
NULL.                -999.2500: 
COMP.          Pioneer Natural Resources: COMPANY
WELL.          Black Cat 13-32: WELL
FLD.           Purgatorie River: FIELD
LOC.           1865' FSL & 1120' FWL: LOCATION
PROV.                 Colorado: PROVINCE
CNTY.               Las Animas: COUNTRY
SRVC.                Patterson: SERVICE COMPANY
DATE.          Fri Aug 19 09:19:21 2005: LOG DATE
UWI.                          : UNIQUE WELL ID
~Curve Information Block
DEPT.FT            0 000 00 00: Depth
CCL.                          : Casing Collar Locator
TT3.usec                      : CBL 3' Travel Time
AMP3.mV                       : CBL 3' Amplitude
GR.GAPI                       : Gamma Ray
~Parameter Information Block
~A  Depth       CCL         TT3         AMP3         GR     
# ...
  1641.5000      0.0000    704.1129     13.8594    115.4735
  1641.7500      0.0000    725.0272     12.4195    118.3283
  1642.0000      0.0000    740.8851     10.7753    123.0039
  1642.2500      0.0000    742.1398      9.1219    128.4731
  1642.5000      0.0000    732.1031      7.5813    133.1454
  1642.7500      0.0000    723.3930      6.2449    135.8747
  1643.0000      0.0000    722.2280      5.2016    136.5386
  1643.2500      0.0000    724.7343      4.4917    135.9304
  1643.5000      0.0000    725.6863      4.0877    135.4706
  1643.7500      0.0000    723.0165      3.9169    136.7689
  1644.0000      0.0000    717.1808      3.8738    140.7009
  1644.2500      0.0000    710.2625      3.8538    146.2820
  1644.5000      0.0000    703.6676      3.8059    150.6567
  1644.7500      0.0000    697.9366      3.7455    150.9931
  1645.0000      0.0000    695.4099      3.7034    146.7078
  1645.2500      0.0000    697.9656      3.6777    139.6688
  1645.5000      0.0000    703.7043      3.6611    132.5223
  1645.7500      0.0000    710.2116      3.6706    127.2564
  1646.0000      0.0000    716.9413      3.7283    124.9056
  1646.2500      0.0000    722.5886      3.8646    125.6484
  1646.5000      0.0000    724.9023      4.1426    128.7387
  1646.7500      0.0000    722.2899      4.6253    132.5658
  1647.0000      0.0000    714.1620      5.2981    135.2619
  1647.2500      0.0000    702.9117      6.0559    135.6136
  1647.5000      0.0000    693.8875      6.7652    133.4579
  1647.7500      0.0000    689.0775      7.3190    129.2924
  1648.0000      0.0000    685.1581      7.6929    123.8635
  1648.2500      0.0000    681.5123      7.9582    118.2747
  1648.5000      0.0000    682.2098      8.2035    114.0581
  1648.7500      0.0000    687.2691      8.4478    112.6067
  1649.0000      0.0000    690.4254      8.6088    114.4055
  1649.2500      0.0000    687.6815      8.5586    118.8896
  1649.5000      0.0000    682.9243      8.2271    124.7949
  1649.7500      0.0000    682.0794      7.6334    130.4916
  1650.0000      0.0000    683.2166      6.8655    134.4640
  1650.2500      0.0000    679.8508      6.0202    136.0929
  1650.5000      0.0000    674.6149      5.1560    135.9741
  1650.7500      0.0000    677.1083      4.3861    135.2902
  1651.0000      0.0000    688.6334      3.8925    135.0102
  1651.2500      0.0000    702.0192      3.7166    135.7179
  1651.5000      0.0000    713.0496      3.7211    137.7341
  1651.7500     -2.0000    722.8337      3.7745    140.9626
  1652.0000     -2.0000    730.6852      3.8234    144.5099
  1652.2500      0.0000    731.5999      3.8432    146.8022
  1652.5000      0.0000    723.1953      3.8345    146.7145
  1652.7500      0.0000    710.0389      3.8479    144.6448
  1653.0000      0.0000    699.2650      3.9373    141.9178
  1653.2500      0.0000    696.1185      4.0530    139.1002
  1653.5000      0.0000    701.5172      4.0829    135.4395
  1653.7500      0.0000    710.4037      4.0453    130.0723
  1654.0000      0.0000    714.8021      4.0598    123.3745
  1654.2500      0.0000    710.6945      4.1245    117.0175
  1654.5000      0.0000    701.2992      4.1313    112.7594
  1654.7500      0.0000    692.8893      4.0361    111.1357
  1655.0000      0.0000    688.5292      3.9001    111.3502
  1655.2500      0.0000    687.2402      3.8193    112.4124
  1655.5000      0.0000    687.1393      3.8308    114.1012
  1655.7500      0.0000    687.1311      3.8863    116.7267
  1656.0000      0.0000    686.8334      3.9283    120.1860
  1656.2500      0.0000    686.0981      3.9516    123.3893
  1656.5000      0.0000    683.9772      3.9808    124.4367
  1656.7500      0.0000    678.0696      4.0389    121.3026
  1657.0000      0.0000    666.7554      4.1291    112.7978
  1657.2500      0.0000    653.2427      4.2237     99.3994
  1657.5000      0.0000    644.9284      4.2910     83.3460
  1657.7500      0.0000    647.4975      4.3341     67.8000
  1658.0000      0.0000    660.2612      4.3817     55.4805
  1658.2500      0.0000    675.9936      4.4419     47.5281
  1658.5000      0.0000    686.4960      4.4827     43.3889
  1658.7500      0.0000    688.0468      4.4687     41.7040
  1659.0000      0.0000    682.4003      4.3984     41.2459
  1659.2500      0.0000    676.3817      4.2995     41.2411
  1659.5000      0.0000    674.7852      4.2085     41.2677
  1659.7500      0.0000    673.3497      4.1494     41.0457
  1660.0000      0.0000    665.5359      4.1114     40.3300
  1660.2500      0.0000    651.7595      4.0664     39.1178
  1660.5000      0.0000    637.2137      4.0188     37.9343
  1660.7500      0.0000    626.0649      4.0020     37.6013
  1661.0000      0.0000    621.1815      4.0264     38.5787
  1661.2500      0.0000    623.1469      4.0662     40.7473
  1661.5000      0.0000    628.0958      4.0943     43.8684
  1661.7500      0.0000    631.7318      4.1117     47.8869
  1662.0000      0.0000    633.3048      4.1358     52.5460
  1662.2500      0.0000    633.8764      4.1698     57.0762
  1662.5000      0.0000    634.0753      4.1974     60.6955
  1662.7500      0.0000    634.0802      4.1977     63.1710
  1663.0000      0.0000    634.0757      4.1618     64.5243
  1663.2500      0.0000    634.2422      4.1028     64.4695
  1663.5000      0.0000    634.7605      4.0494     62.6443
  1663.7500      0.0000    636.2635      4.0175     59.2944
  1664.0000      0.0000    639.9097      3.9818     55.4214
  1664.2500      0.0000    645.2465      3.9023     52.4089
  1664.5000      0.0000    648.6877      3.7864     51.7420
  1664.7500      0.0000    648.0663      3.6891     54.8687
  1665.0000      0.0000    646.3199      3.6544     62.9525
  1665.2500      0.0000    647.5219      3.6913     76.4847
  1665.5000      0.0000    655.2332      3.7876     94.7795
  1665.7500      0.0000    672.5281      3.9119    115.4745
  1666.0000      0.0000    695.6699      4.0377    134.6721
  1666.2500      0.0000    713.9525      4.1876    148.4082
  1666.5000      0.0000    719.8754      4.4096    154.7295
  1666.7500      0.0000    713.2724      4.6920    154.4036
  1667.0000      0.0000    698.6359      4.9397    149.6590
  1667.2500      0.0000    684.0150      5.0674    142.7612
  1667.5000      0.0000    677.6208      5.0907    135.9196
  1667.7500      0.0000    681.0120      5.0854    131.5422
  1668.0000      0.0000    688.5093      5.0847    131.4639
  1668.2500      0.0000    695.8409      5.0634    135.6804
  1668.5000      0.0000    703.3528      4.9977    142.1722
  1668.7500      0.0000    708.5987      4.8857    148.3164
  1669.0000      0.0000    706.4546      4.7367    152.7341
  1669.2500      0.0000    696.3716      4.5637    155.7949
  1669.5000      0.0000    680.8466      4.3677    158.4156
  1669.7500      0.0000    662.7646      4.1456    160.7719
  1670.0000      0.0000    647.4562      3.9277    162.3770
  1670.2500      0.0000    638.9241      3.7762    162.9461
  1670.5000      0.0000    635.9892      3.7309    162.6701
  1670.7500      0.0000    635.7933      3.7748    161.8437
  1671.0000      0.0000    637.6592      3.8528    160.9099
  1671.2500      0.0000    643.3879      3.9126    160.8291
  1671.5000      0.0000    654.5142      3.9372    162.5292
  1671.7500      0.0000    668.6553      3.9445    165.7121
  1672.0000      0.0000    680.9587      3.9498    168.9178
  1672.2500      0.0000    689.5070      3.9466    170.8949
  1672.5000      0.0000    695.2700      3.9235    171.2520
  1672.7500      0.0000    698.7222      3.8824    169.9899
  1673.0000      0.0000    701.0734      3.8376    167.3702
  1673.2500      0.0000    704.8499      3.8146    164.2152
  1673.5000      0.0000    710.9688      3.8383    161.5754
  1673.7500      0.0000    718.1796      3.9090    159.7646
  1674.0000      0.0000    724.0543      4.0050    157.9372
  1674.2500      0.0000    726.4045      4.0921    154.9192
  1674.5000      0.0000    724.2852      4.1265    150.4295
  1674.7500      0.0000    718.3019      4.0909    145.1632
