~Version Information
VERS.                      2.0: CWLS Log ASCII Standard - VERSION 2.0
WRAP.                       NO: One line per depth step
~Well Information Block
STRT.FT               875.0000: 
STOP.FT              2947.2000: 
STEP.FT                 0.1000: 
NULL.                -999.2500: 
COMP.          Pioneer Natural Resources: COMPANY
WELL.          Hanginstone 21-27: WELL
FLD.           Purgatoire River: FIELD
LOC.           1186' FNL & 1606' FWL--: LOCATION
PROV.                 Colorado: PROVINCE
CNTY.               Las Animas: COUNTRY
SRVC.                Patterson: SERVICE COMPANY
DATE.          Mon Jan 09 07:31:45 2006: LOG DATE
UWI.           05 071 08632 00: UNIQUE WELL ID
~Curve Information Block
DEPT.FT            0 000 00 00: Depth
DCAL.in                       : CDL Caliper
RHOB.g/cc                     : CDL Bulk Density
RHOC.g/cc                     : CDL Density Correction
DPOR.pu                       : CDL Density Porosity
NPOR.pu                       : Neutron Porosity
GR.GAPI                       : Gamma Ray
~Parameter Information Block
~A  Depth       DCAL        RHOB        RHOC        DPOR        NPOR         GR     
# ...
  1969.4000      7.8250      2.5594      0.0157      5.4924     21.9349    100.1856
  1969.5000      7.8248      2.5460      0.0191      6.3012     22.1232    106.3530
  1969.6000      7.8248      2.5366     -0.0046      6.8734     22.7855    119.6267
  1969.7000      7.8248      2.5352      0.0318      6.9584     23.8928    135.5630
  1969.8000      7.8274      2.5398      0.0467      6.6803     24.8884    148.2901
  1969.9000      7.8274      2.5485      0.0354      6.1509     25.1805    152.1420
  1970.0000      7.8340      2.5523      0.0514      5.9211     25.0686    148.5981
  1970.1000      7.8340      2.5418      0.0450      6.5603     25.3058    144.0813
  1970.2000      7.8340      2.5267      0.0067      7.4727     25.9807    145.6063
  1970.3000      7.8444      2.5203      0.0415      7.8589     26.5598    154.2094
  1970.4000      7.8444      2.5229      0.0436      7.7033     26.7431    165.4478
  1970.5000      7.8526      2.5317      0.0565      7.1709     26.6316    175.2936
  1970.6000      7.8526      2.5380      0.0602      6.7854     26.5859    182.0726
  1970.7000      7.8526      2.5304      0.0695      7.2500     27.0917    186.2330
  1970.8000      7.8548      2.5116      0.0606      8.3888     27.8807    185.4032
  1970.9000      7.8548      2.4974      0.0192      9.2482     28.1810    178.8217
  1971.0000      7.8535      2.4942      0.0563      9.4431     27.9151    173.4430
  1971.1000      7.8535      2.4947      0.0537      9.4120     27.4830    173.9426
  1971.2000      7.8535      2.4973      0.0611      9.2564     27.0847    176.2296
  1971.3000      7.8515      2.5003      0.1017      9.0707     26.7805    173.2607
  1971.4000      7.8515      2.5026      0.0258      8.9333     26.5770    163.2987
  1971.5000      7.8516      2.5136      0.0689      8.2638     26.2943    154.3872
  1971.6000      7.8516      2.5341      0.0654      7.0223     25.7220    154.6281
  1971.7000      7.8516      2.5511      0.0652      5.9964     25.0307    159.3758
  1971.8000      7.8542      2.5571      0.0655      5.6291     24.4581    158.4485
  1971.9000      7.8542      2.5552      0.0744      5.7440     24.3176    155.4149
  1972.0000      7.8545      2.5551      0.0553      5.7495     24.8186    157.6190
  1972.1000      7.8545      2.5657      0.0647      5.1076     25.4397    163.0122
  1972.2000      7.8545      2.5800      0.1053      4.2439     25.5134    166.4789
  1972.3000      7.8474      2.5914      0.0420      3.5527     25.0301    162.6830
  1972.4000      7.8474      2.6045      0.0795      2.7557     24.4672    151.4751
  1972.5000      7.8339      2.6097      0.1174      2.4394     24.0177    139.2403
  1972.6000      7.8339      2.5992      0.0348      3.0810     23.6565    132.5414
  1972.7000      7.8339      2.5860      0.0453      3.8793     23.3600    133.7665
  1972.8000      7.8224      2.5759      0.0586      4.4935     23.0107    137.2503
  1972.9000      7.8224      2.5710      0.0283      4.7874     22.8037    137.3079
  1973.0000      7.8150      2.5800      0.0333      4.2447     22.9640    137.2574
  1973.1000      7.8150      2.5912      0.0932      3.5665     23.4035    135.5955
  1973.2000      7.8150      2.5849      0.0867      3.9429     23.8648    126.7449
  1973.3000      7.8094      2.5764      0.0205      4.4618     24.1687    116.3472
  1973.4000      7.8094      2.5867      0.0990      3.8394     24.2186    112.9773
  1973.5000      7.8073      2.6037      0.0656      2.8075     23.7786    116.2633
  1973.6000      7.8073      2.6178      0.0544      1.9529     23.1310    120.7170
  1973.7000      7.8073      2.6284      0.0915      1.3069     23.0550    122.4494
  1973.8000      7.8133      2.6241      0.0858      1.5716     23.4990    123.3878
  1973.9000      7.8133      2.6081      0.0616      2.5374     23.9464    125.4684
  1974.0000      7.8280      2.5995      0.0628      3.0610     24.2798    127.0943
  1974.1000      7.8280      2.5972      0.0855      3.2011     24.2416    129.7958
  1974.2000      7.8280      2.5935      0.0595      3.4256     23.7519    132.4867
  1974.3000      7.8453      2.6013      0.0355      2.9494     23.2882    130.5628
  1974.4000      7.8453      2.6234      0.0857      1.6140     22.8821    127.4837
  1974.5000      7.8577      2.6376      0.0898      0.7493     22.5173    133.0942
  1974.6000      7.8577      2.6407      0.0704      0.5628     22.6760    144.1708
  1974.7000      7.8577      2.6434      0.0753      0.4000     23.4363    146.1539
  1974.8000      7.8675      2.6444      0.0895      0.3365     24.2167    139.3023
  1974.9000      7.8675      2.6389      0.0818      0.6711     24.4262    134.6120
  1975.0000      7.8748      2.6290      0.0620      1.2704     23.9540    131.1971
  1975.1000      7.8748      2.6284      0.0329      1.3084     23.2724    126.7318
  1975.2000      7.8748      2.6452      0.0557      0.2880     22.9747    125.6119
  1975.3000      7.8766      2.6618      0.1192     -0.7150     23.3223    125.3910
  1975.4000      7.8766      2.6551      0.0658     -0.3089     24.0625    124.5439
  1975.5000      7.8751      2.6248      0.0470      1.5284     24.5801    126.2458
  1975.6000      7.8751      2.5894      0.0318      3.6720     24.6388    129.2730
  1975.7000      7.8751      2.5679      0.0258      4.9745     24.7003    131.8321
  1975.8000      7.8742      2.5605      0.0364      5.4233     25.3488    135.0066
  1975.9000      7.8742      2.5518      0.0410      5.9518     26.3789    139.1913
  1976.0000      7.8754      2.5351      0.0155      6.9637     27.1000    146.5971
  1976.1000      7.8754      2.5179      0.0041      8.0035     27.5246    160.0112
  1976.2000      7.8754      2.5054      0.0129      8.7658     27.9646    172.5476
  1976.3000      7.8779      2.4939      0.0310      9.4627     28.4290    173.5612
  1976.4000      7.8779      2.4753      0.0399     10.5853     28.8751    166.2762
  1976.5000      7.8789      2.4423      0.0338     12.5876     28.9211    161.7554
  1976.6000      7.8789      2.3986      0.0329     15.2361     28.4020    161.1071
  1976.7000      7.8789      2.3565      0.0400     17.7867     28.1108    161.4895
  1976.8000      7.8728      2.3269      0.0151     19.5830     28.4444    163.5470
  1976.9000      7.8728      2.3132     -0.0044     20.4101     28.5667    161.6367
  1977.0000      7.8605      2.3090     -0.0100     20.6653     28.0262    151.5731
  1977.1000      7.8605      2.3125     -0.0374     20.4543     27.3048    142.5089
  1977.2000      7.8605      2.3365      0.0014     18.9970     26.7776    140.1466
  1977.3000      7.8531      2.3875      0.0716     15.9083     26.3956    139.5502
  1977.4000      7.8531      2.4559      0.1588     11.7655     25.8111    137.9883
  1977.5000      7.8511      2.5283      0.1716      7.3758     24.9507    137.5802
  1977.6000      7.8511      2.5798      0.2458      4.2519     24.2881    139.5052
  1977.7000      7.8511      2.5844      0.1102      3.9777     23.9770    139.8320
  1977.8000      7.8511      2.5605      0.0440      5.4248     23.8221    135.9041
  1977.9000      7.8511      2.5467      0.0433      6.2627     23.8182    130.7813
  1978.0000      7.8524      2.5453      0.0264      6.3478     23.9550    127.7612
  1978.1000      7.8524      2.5354      0.0586      6.9437     24.1473    127.0372
  1978.2000      7.8524      2.5200     -0.0135      7.8762     24.3413    130.7507
  1978.3000      7.8531      2.5265      0.0038      7.4821     24.5615    141.3753
  1978.4000      7.8531      2.5631      0.0436      5.2678     24.7511    155.6229
  1978.5000      7.8549      2.6059      0.0882      2.6741     24.5788    164.8395
  1978.6000      7.8549      2.6288      0.0970      1.2829     24.1242    165.7733
  1978.7000      7.8549      2.6255      0.0674      1.4844     24.0081    163.0441
  1978.8000      7.8581      2.6101      0.0446      2.4164     24.3776    160.6285
  1978.9000      7.8581      2.6022      0.0392      2.8970     24.6513    162.1774
