~Version Information
VERS.                      2.0: CWLS Log ASCII Standard - VERSION 2.0
WRAP.                       NO: One line per depth step
~Well Information Block
STRT.FT               460.0000: 
STOP.FT              1509.0000: 
STEP.FT                 0.2500: 
NULL.                -999.2500: 
COMP.          Pioneer Natural Resources: COMPANY
WELL.           Amore 32-09 Tr: WELL
FLD.           Purgatoire River: FIELD
LOC.           1941' FNL & 2297' FEL: LOCATION
PROV.                 Colorado: PROVINCE
CNTY.               Las Animas: COUNTRY
SRVC.                Patterson: SERVICE COMPANY
DATE.          Mon Nov 14 11:07:52 2005: LOG DATE
UWI.           05 071 08584 00: UNIQUE WELL ID
~Curve Information Block
DEPT.FT            0 000 00 00: Depth
SN.Ohm-m                      : IEL Short Normal
SP.mV                         : IEL Spontaneous Potential
DIR.Ohm-m                     : IEL Induction Resistivity
GR.GAPI                       : Gamma Ray
~Parameter Information Block
~A  Depth        SN          SP         DIR          GR     
# ...
  1130.0000     12.9253    129.7745 100000.0000    123.0376
  1130.2500     13.5863    130.0157 100000.0000    122.2840
  1130.5000     14.2960    130.2155  14905.6641    123.4420
  1130.7500     14.9469    130.3896    112.6492    124.5294
  1131.0000     15.4564    130.5566     59.6998    124.3470
  1131.2500     15.8224    130.7260     44.8058    122.4486
  1131.5000     16.0655    130.8932     38.7593    117.5621
  1131.7500     16.1891    131.0470     34.6871    113.8313
  1132.0000     16.2764    131.1810     30.0206    109.0693
  1132.2500     16.4358    131.2995     24.8493    107.1093
  1132.5000     16.5696    131.4155     20.2986    106.7393
  1132.7500     16.4484    131.5436     16.9430    108.5124
  1133.0000     15.9973    131.6947     14.7169    114.2963
  1133.2500     15.2969    131.8720     13.3425    119.7736
  1133.5000     14.4451    132.0725     12.5558    128.6686
  1133.7500     13.6041    132.2890     12.1622    133.8180
  1134.0000     13.0148    132.5126     12.0375    138.7191
  1134.2500     12.8358    132.7323     12.1134    139.5969
  1134.5000     13.0627    132.9343     12.3550    137.3134
  1134.7500     13.5693    133.1026     12.7313    134.0060
  1135.0000     14.1455    133.2222     13.1943    128.6072
  1135.2500     14.5723    133.2889     13.6763    126.3340
  1135.5000     14.7517    133.3159     14.1086    126.8778
  1135.7500     14.7741    133.3301     14.4453    129.9913
  1136.0000     14.8020    133.3569     14.6749    137.1948
  1136.2500     14.8690    133.4056     14.8111    142.2035
  1136.5000     14.8508    133.4686     14.8754    147.7378
  1136.7500     14.6272    133.5297     14.8845    149.3527
  1137.0000     14.1931    133.5741     14.8496    148.5110
  1137.2500     13.6309    133.5957     14.7829    146.1554
  1137.5000     13.0619    133.6004     14.7053    140.9072
  1137.7500     12.6166    133.6023     14.6466    136.9133
  1138.0000     12.4091    133.6157     14.6382    131.4717
  1138.2500     12.4969    133.6465     14.7035    128.9789
  1138.5000     12.8397    133.6885     14.8515    127.6330
  1138.7500     13.3390    133.7252     15.0745    128.0311
  1139.0000     13.9037    133.7382     15.3516    128.9592
  1139.2500     14.4401    133.7171     15.6560    128.7368
  1139.5000     14.8233    133.6625     15.9625    126.2023
  1139.7500     14.9975    133.5818     16.2521    123.1625
  1140.0000     15.0974    133.4812     16.5118    117.3329
  1140.2500     15.3215    133.3611     16.7340    113.1143
  1140.5000     15.7306    133.2181     16.9178    107.4715
  1140.7500     16.2494    133.0501     17.0737    105.0622
  1141.0000     16.7555    132.8597     17.2213    104.5623
  1141.2500     17.1305    132.6542     17.3807    106.1485
  1141.5000     17.3474    132.4396     17.5615    109.7565
  1141.7500     17.5071    132.2168     17.7587    111.8025
  1142.0000     17.6718    131.9841     17.9598    113.2440
  1142.2500     17.7318    131.7429     18.1531    113.3090
  1142.5000     17.5654    131.5003     18.3283    113.2782
  1142.7500     17.2200    131.2665     18.4698    113.8254
  1143.0000     16.8494    131.0500     18.5526    115.6618
  1143.2500     16.5699    130.8536     18.5496    117.0402
  1143.5000     16.4006    130.6727     18.4449    118.1951
  1143.7500     16.3019    130.4961     18.2410    118.1466
  1144.0000     16.2425    130.3127     17.9554    117.4804
  1144.2500     16.1810    130.1172     17.6134    117.1279
  1144.5000     16.0597    129.9115     17.2444    117.0641
  1144.7500     15.9026    129.7020     16.8818    117.2941
  1145.0000     15.7865    129.4963     16.5590    117.9307
  1145.2500     15.6737    129.3023     16.2991    118.4714
  1145.5000     15.4596    129.1281     16.1043    119.3705
  1145.7500     15.1573    128.9799     15.9517    120.0619
  1146.0000     14.8740    128.8633     15.8020    121.3236
  1146.2500     14.6540    128.7856     15.6185    122.3084
  1146.5000     14.4601    128.7567     15.3860    123.9513
  1146.7500     14.2653    128.7816     15.1171    125.0957
  1147.0000     14.1080    128.8497     14.8412    126.6907
  1147.2500     14.0710    128.9311     14.5877    127.6260
  1147.5000     14.1616    128.9843     14.3760    129.0019
  1147.7500     14.2747    128.9738     14.2158    129.9426
  1148.0000     14.3273    128.8876     14.1123    131.1516
  1148.2500     14.3122    128.7419     14.0707    131.7847
  1148.5000     14.2267    128.5680     14.0947    133.0665
  1148.7500     14.0453    128.3923     14.1825    134.6185
  1149.0000     13.8042    128.2261     14.3245    137.9813
  1149.2500     13.6575    128.0682     14.5064    140.1773
  1149.5000     13.7365    127.9144     14.7163    141.3745
  1149.7500     14.0227    127.7652     14.9513    139.6357
  1150.0000     14.3983    127.6285     15.2206    132.3451
  1150.2500     14.7440    127.5166     15.5420    124.9649
  1150.5000     15.0392    127.4408     15.9389    113.1345
  1150.7500     15.4241    127.4057     16.4348    106.8983
  1151.0000     16.1821    127.4074     17.0475    102.2604
  1151.2500     17.5979    127.4345     17.7784    102.1486
  1151.5000     19.6687    127.4741     18.6032    104.2319
  1151.7500     22.0331    127.5181     19.4711    105.5542
  1152.0000     24.2748    127.5635     20.3200    105.7488
  1152.2500     26.1521    127.6089     21.1012    104.5849
  1152.5000     27.5473    127.6481     21.7936    101.8038
  1152.7500     28.4257    127.6680     22.3938     99.9784
  1153.0000     28.8853    127.6578     22.8953     98.4247
  1153.2500     29.0911    127.6243     23.2811     98.6633
  1153.5000     29.1299    127.5957     23.5401    100.9960
  1153.7500     28.9751    127.6044     23.6888    103.3746
  1154.0000     28.5464    127.6646     23.7674    107.1382
  1154.2500     27.7860    127.7702     23.8024    109.5418
  1154.5000     26.7675    127.9092     23.7625    113.2369
  1154.7500     25.7402    128.0737     23.5517    115.8617
  1155.0000     24.9599    128.2531     23.0656    119.5060
  1155.2500     24.4553    128.4290     22.2810    121.1436
  1155.5000     23.9618    128.5843     21.2887    121.8639
  1155.7500     23.1852    128.7170     20.2320    121.5967
  1156.0000     22.1362    128.8423     19.2223    121.8670
  1156.2500     21.0063    128.9823     18.3079    123.5300
  1156.5000     19.8575    129.1570     17.4989    128.7341
  1156.7500     18.6770    129.3762     16.8000    133.4204
  1157.0000     17.5545    129.6367     16.2184    140.5484
  1157.2500     16.6378    129.9236     15.7521    144.3975
  1157.5000     15.9884    130.2172     15.3777    147.6474
  1157.7500     15.5584    130.4993     15.0560    147.8972
  1158.0000     15.2976    130.7582     14.7520    145.9541
  1158.2500     15.1891    130.9904     14.4506    143.9139
  1158.5000     15.1566    131.1994     14.1573    141.3488
  1158.7500     15.0723    131.3903     13.8871    140.5648
  1159.0000     14.8652    131.5630     13.6562    140.5593
  1159.2500     14.5418    131.7130     13.4806    140.6222
  1159.5000     14.1359    131.8369     13.3742    139.5991
  1159.7500     13.6903    131.9367     13.3415    137.9272
  1160.0000     13.2907    132.0191     13.3717    134.4546
  1160.2500     13.1187    132.0914     13.4400    132.1139
  1160.5000     13.3783    132.1600     13.5202    129.5703
  1160.7500     14.0713    132.2293     13.5986    128.8610
  1161.0000     14.9446    132.3001     13.6777    129.3673
  1161.2500     15.6890    132.3656     13.7686    130.6334
  1161.5000     16.1470    132.4127     13.8797    133.6956
  1161.7500     16.3603    132.4301     14.0078    136.3359
  1162.0000     16.4698    132.4149     14.1382    140.5296
  1162.2500     16.5524    132.3718     14.2527    142.8595
  1162.5000     16.5323    132.3088     14.3413    144.6461
  1162.7500     16.3174    132.2354     14.4086    144.5212
  1163.0000     15.9530    132.1636     14.4668    143.0886
  1163.2500     15.5674    132.1040     14.5227    142.0078
