~Version Information
VERS.                      2.0: CWLS Log ASCII Standard - VERSION 2.0
WRAP.                       NO: One line per depth step
~Well Information Block
STRT.FT               428.8000: 
STOP.FT               951.7000: 
STEP.FT                 0.1000: 
NULL.                -999.2500: 
COMP.          Pioneer Natural Resources: COMPANY
WELL.          Sculpin 32-30 Tr: WELL
FLD.           Purgatoire River: FIELD
LOC.           1600' FNL & 1857' FEL--: LOCATION
CNTY.               Las Animas: COUNTY
SRVC.                Patterson: SERVICE COMPANY
DATE.          Wed Jul 19 09:12:32 2006: LOG DATE
UWI.           05 071 08706 00: UNIQUE WELL ID
STAT.                 Colorado: STATE
~Curve Information Block
DEPT.FT            0 000 00 00: Depth
DCAL.in                       : CDL Caliper
RHOB.g/cc                     : CDL Bulk Density
RHOC.g/cc                     : CDL Density Correction
DPOR.pu                       : CDL Density Porosity
GR.GAPI                       : Gamma Ray
~Parameter Information Block
~A  Depth       DCAL        RHOB        RHOC        DPOR         GR     
# ...
   921.6000      7.6939      2.4918      0.1146      9.5903    126.3586
   921.7000      7.6939      2.4587      0.0829     11.5965    132.8055
   921.8000      7.6802      2.4452      0.0907     12.4124    136.3373
   921.9000      7.6802      2.4507      0.0701     12.0807    136.3290
   922.0000      7.6721      2.4619      0.1130     11.3973    130.9824
   922.1000      7.6721      2.4685      0.0893     11.0000    126.2599
   922.2000      7.6721      2.4758      0.0779     10.5578    126.7919
   922.3000      7.6781      2.4884      0.1324      9.7949    127.4841
   922.4000      7.6781      2.4958      0.1664      9.3431    126.0317
   922.5000      7.6991      2.4895      0.1458      9.7247    125.6543
   922.6000      7.6991      2.4798      0.0753     10.3149    126.4659
   922.7000      7.6991      2.4845      0.1061     10.0306    126.7065
   922.8000      7.7344      2.5003      0.1172      9.0710    126.1669
   922.9000      7.7344      2.5064      0.1081      8.7028    122.8969
   923.0000      7.7662      2.4985      0.0889      9.1798    116.9918
   923.1000      7.7662      2.4936      0.0832      9.4760    115.0104
   923.2000      7.7662      2.5008      0.0910      9.0404    119.5706
   923.3000      7.7780      2.5086      0.1245      8.5703    126.2625
   923.4000      7.7780      2.4999      0.1223      9.0943    130.1937
   923.5000      7.7773      2.4814      0.0466     10.2174    127.2359
   923.6000      7.7773      2.4752      0.0744     10.5939    118.8289
   923.7000      7.7773      2.4841      0.0682     10.0536    115.1152
   923.8000      7.7697      2.4951      0.0811      9.3891    120.2070
   923.9000      7.7697      2.4969      0.0886      9.2793    126.4241
   924.0000      7.7466      2.4936      0.0750      9.4784    124.3722
   924.1000      7.7466      2.5003      0.0742      9.0748    106.6660
   924.2000      7.7466      2.5237      0.0723      7.6558     72.0388
   924.3000      7.7131      2.5528      0.1073      5.8884     34.0859
   924.4000      7.7131      2.5657      0.1369      5.1094     10.2092
   924.5000      7.6916      2.5579      0.1145      5.5843      1.7984
   924.6000      7.6916      2.5476      0.0884      6.2083      0.1774
   924.7000      7.6916      2.5473      0.0980      6.2219      0.0092
   924.8000      7.6901      2.5601      0.0601      5.4462      0.0000
   924.9000      7.6901      2.5831      0.1024      4.0545   -999.2500
   925.0000      7.6985      2.5990      0.0814      3.0882   -999.2500
   925.1000      7.6985      2.5937      0.0817      3.4131   -999.2500
   925.2000      7.6985      2.5754      0.0353      4.5241   -999.2500
   925.3000      7.7050      2.5623      0.0254      5.3127   -999.2500
   925.4000      7.7050      2.5613      0.0350      5.3742   -999.2500
   925.5000      7.7059      2.5657      0.0441      5.1086   -999.2500
   925.6000      7.7059      2.5680      0.0387      4.9669   -999.2500
   925.7000      7.7059      2.5631      0.0834      5.2678   -999.2500
   925.8000      7.7052      2.5516      0.0280      5.9640   -999.2500
   925.9000      7.7052      2.5508      0.0373      6.0123   -999.2500
   926.0000      7.7072      2.5611      0.0972      5.3874   -999.2500
   926.1000      7.7072      2.5563      0.0781      5.6816   -999.2500
   926.2000      7.7072      2.5365      0.0577      6.8767   -999.2500
   926.3000      7.7095      2.5269      0.0477      7.4627   -999.2500
   926.4000      7.7095      2.5314      0.0565      7.1868   -999.2500
   926.5000      7.7087      2.5332      0.0951      7.0782   -999.2500
   926.6000      7.7087      2.5219      0.0815      7.7607   -999.2500
   926.7000      7.7087      2.5084      0.0264      8.5845   -999.2500
   926.8000      7.7034      2.5067      0.0511      8.6844   -999.2500
   926.9000      7.7034      2.5137      0.0783      8.2584   -999.2500
   927.0000      7.6983      2.5250      0.0614      7.5763   -999.2500
   927.1000      7.6983      2.5382      0.0991      6.7760   -999.2500
   927.2000      7.6983      2.5385      0.0851      6.7573   -999.2500
   927.3000      7.6996      2.5199      0.0439      7.8823   -999.2500
   927.4000      7.6996      2.4973      0.0571      9.2520   -999.2500
   927.5000      7.6989      2.4826      0.0404     10.1453   -999.2500
   927.6000      7.6989      2.4801      0.0185     10.2968   -999.2500
   927.7000      7.6989      2.4911      0.0344      9.6326   -999.2500
   927.8000      7.6922      2.5026      0.0816      8.9318   -999.2500
   927.9000      7.6922      2.5029      0.0353      8.9162   -999.2500
   928.0000      7.6848      2.5009      0.0531      9.0367   -999.2500
   928.1000      7.6848      2.5003      0.0762      9.0729   -999.2500
   928.2000      7.6848      2.4936      0.0287      9.4767   -999.2500
   928.3000      7.6789      2.4883      0.0713      9.7984   -999.2500
   928.4000      7.6789      2.4926      0.0719      9.5380   -999.2500
   928.5000      7.6752      2.5018      0.0383      8.9796   -999.2500
   928.6000      7.6752      2.5099      0.0701      8.4908   -999.2500
   928.7000      7.6752      2.5151      0.0291      8.1746   -999.2500
   928.8000      7.6751      2.5221      0.0530      7.7526   -999.2500
   928.9000      7.6751      2.5323      0.0905      7.1342   -999.2500
   929.0000      7.6716      2.5395      0.0858      6.6997   -999.2500
   929.1000      7.6716      2.5392      0.0942      6.7156   -999.2500
   929.2000      7.6716      2.5365      0.0809      6.8759   -999.2500
   929.3000      7.6644      2.5382      0.1152      6.7742   -999.2500
   929.4000      7.6644      2.5457      0.0775      6.3218   -999.2500
   929.5000      7.6602      2.5588      0.0698      5.5273   -999.2500
   929.6000      7.6602      2.5691      0.0916      4.9016   -999.2500
   929.7000      7.6602      2.5705      0.0590      4.8189   -999.2500
   929.8000      7.6594      2.5736      0.0698      4.6280   -999.2500
   929.9000      7.6594      2.5846      0.0972      3.9660   -999.2500
   930.0000      7.6593      2.5953      0.0737      3.3129   -999.2500
   930.1000      7.6593      2.5967      0.0823      3.2333   -999.2500
   930.2000      7.6593      2.5842      0.0721      3.9877   -999.2500
   930.3000      7.6589      2.5661      0.0167      5.0826   -999.2500
   930.4000      7.6589      2.5531      0.0608      5.8729   -999.2500
   930.5000      7.6576      2.5447      0.0503      6.3845   -999.2500
   930.6000      7.6576      2.5374      0.0461      6.8228   -999.2500
   930.7000      7.6576      2.5349      0.0271      6.9762   -999.2500
   930.8000      7.6565      2.5450      0.0300      6.3658   -999.2500
   930.9000      7.6565      2.5653      0.0691      5.1322   -999.2500
   931.0000      7.6558      2.5817      0.0750      4.1422   -999.2500
   931.1000      7.6558      2.5867      0.1021      3.8377   -999.2500
   931.2000      7.6558      2.5810      0.1013      4.1790   -999.2500
   931.3000      7.6549      2.5665      0.0775      5.0632   -999.2500
   931.4000      7.6549      2.5474      0.0657      6.2190   -999.2500
   931.5000      7.6533      2.5299      0.0746      7.2775   -999.2500
   931.6000      7.6533      2.5228     -0.0106      7.7109   -999.2500
   931.7000      7.6533      2.5320      0.0470      7.1539   -999.2500
   931.8000      7.6480      2.5495      0.0722      6.0903   -999.2500
   931.9000      7.6480      2.5634      0.0565      5.2462   -999.2500
   932.0000      7.6400      2.5667      0.0792      5.0506   -999.2500
   932.1000      7.6400      2.5576      0.0733      5.5978   -999.2500
   932.2000      7.6400      2.5426      0.0521      6.5106   -999.2500
   932.3000      7.6312      2.5304      0.0843      7.2492   -999.2500
   932.4000      7.6312      2.5438      0.0369      6.4383   -999.2500
   932.5000      7.5933      2.6246      0.0234      1.5403   -999.2500
   932.6000      7.5933      2.6561      0.0621     -0.3721   -999.2500
   932.7000      7.5933      2.2209      0.6161     26.0061   -999.2500
