~Version Information
 VERS.                                  2.0 : CWLS LAS VERSION
 WRAP.                                   NO : WRAPING MODE
 SWARE .                 MController 2.5.0J : SOFTWARE VERSION
~Well Information
 WELL.                         Kraft 17-23R : WELL
 COMP.                Petrogulf Corporation : COMPANY
 FLD.                      Purgatoire River : FIELD
 LOC.                NE/SW Sec 17 T33S R67W : LOCATION
 DATE.                          10/10-11/05 : DATE(S) LOGGED
 SRVC.       BLANCO Geological Services LLC : SERVICE COMPANY
 STAT.                                   CO : STATE
 CNTY.                           Las Animas : COUNTY
 CTRY.                                  USA : COUNTRY
 API.                       05-071-08560-00 : API NUMBER
 STRT.FT                             101.00 : START DEPTH
 STOP.FT                            1920.00 : STOP DEPTH
 STEP.FT                               1.00 : DEPTH INCREMENT
 NULL.                                -9999 : NULL VALUE
~Curve information
 DEPTH.FT                                   :
 ROP.MIN/FT                                 :
 GAS.UNITS                                  :
~ASCII Log data
# ...
       301.0         0.33          4.1 
       302.0         0.17          4.0 
       303.0         0.13          4.0 
       304.0         0.22          4.0 
       305.0         0.20          4.4 
       306.0         0.20          5.0 
       307.0         0.27          6.2 
       308.0         0.23          6.4 
       309.0         0.23          6.0 
       310.0         0.30          5.7 
       311.0         0.27          5.1 
       312.0         0.30          4.6 
       313.0         0.23          4.2 
       314.0         0.20          4.2 
       315.0         0.20          3.9 
       316.0         0.17          3.9 
       317.0         0.13          4.1 
       318.0         0.17          4.2 
       319.0         0.18          4.2 
       320.0         0.20          4.3 
       321.0         0.17          4.3 
       322.0         0.17          4.0 
       323.0         0.13          4.1 
       324.0         0.17          3.9 
       325.0         0.23          3.8 
       326.0         1.20          5.0 
       327.0         0.30          4.4 
       328.0         0.17          4.3 
       329.0         0.33          4.0 
       330.0         0.28          4.1 
       331.0         0.17          3.8 
       332.0         0.23          3.9 
       333.0         0.27          4.1 
       334.0         0.17          3.9 
       335.0         0.27          3.9 
       336.0         0.20          3.9 
       337.0         0.23          4.0 
       338.0         0.23          4.2 
       339.0         0.27          4.1 
       340.0         0.23          4.0 
       341.0         0.23          4.1 
       342.0         2.52          4.5 
       343.0         0.33          4.8 
       344.0         0.33          5.3 
       345.0         0.33          6.0 
       346.0         0.48          6.6 
       347.0         0.43          7.1 
       348.0         0.27          6.6 
       349.0         0.23          6.3 
       350.0         0.33          8.7 
       351.0         0.33         12.4 
       352.0         0.37         17.1 
       353.0         0.30         22.5 
       354.0         0.23         26.0 
       355.0         0.20         27.1 
       356.0         2.48        134.1 
       357.0         0.17         54.8 
       358.0         0.23         52.3 
       359.0         0.17         49.8 
       360.0         0.10         47.0 
       361.0         0.13         46.2 
       362.0         0.20         45.4 
       363.0         0.18         44.0 
       364.0         0.23         43.6 
       365.0         0.30         43.7 
       366.0         0.30         43.3 
       367.0         0.33         43.0 
       368.0         0.33         42.7 
       369.0         0.33         42.3 
       370.0         0.40         41.4 
       371.0         0.37         39.4 
       372.0         0.27         37.1 
       373.0         0.20         37.6 
       374.0         0.18         38.5 
       375.0         0.17         39.0 
       376.0         0.13         38.5 
       377.0         0.13         38.0 
       378.0         0.17         37.7 
       379.0         0.20         36.6 
       380.0         0.17         36.3 
       381.0         0.20         35.7 
       382.0         0.13         37.5 
       383.0         0.13         41.1 
       384.0         0.17         47.2 
       385.0         0.10         51.5 
       386.0         1.03        131.3 
       387.0         0.13         67.4 
       388.0         0.10         51.5 
       389.0         0.13         44.4 
       390.0         0.13         37.1 
       391.0         0.15         32.9 
       392.0         0.17         28.7 
       393.0         0.20         26.9 
       394.0         0.17         25.6 
       395.0         0.17         25.6 
       396.0         0.17         24.7 
       397.0         0.27         24.3 
       398.0         0.40         22.4 
       399.0         0.30         21.7 
       400.0         0.27         20.1 
       401.0         0.23         20.2 
       402.0         0.27         19.9 
       403.0         0.27         19.5 
       404.0         0.28         18.5 
       405.0         0.30         17.1 
       406.0         0.27         16.1 
       407.0         0.27         15.8 
       408.0         0.27         15.1 
       409.0         0.27         14.6 
       410.0         0.27         14.0 
       411.0         0.23         13.5 
       412.0         0.23         14.0 
       413.0         0.23         13.9 
       414.0         0.23         13.2 
       415.0         0.33         13.5 
       416.0         2.28         65.9 
       417.0         0.13         21.0 
       418.0         0.23         18.6 
       419.0         0.27         16.2 
       420.0         0.60         15.4 
       421.0         0.25         17.3 
       422.0         0.13         17.3 
       423.0         0.13         17.9 
       424.0         0.13         17.6 
       425.0         0.17         17.4 
       426.0         0.17         17.1 
       427.0         0.13         16.6 
       428.0         0.17         16.2 
       429.0         0.20         15.8 
       430.0         0.30         15.2 
       431.0         0.23         14.2 
       432.0         0.17         13.9 
       433.0         0.17         14.0 
       434.0         0.27         13.5 
       435.0         0.27         13.0 
       436.0         0.30         12.2 
       437.0         0.28         11.3 
       438.0         0.33         10.2 
       439.0         0.33          9.8 
       440.0         0.27         10.1 
       441.0         0.30         10.1 
       442.0         0.30          9.9 
       443.0         0.30          9.9 
       444.0         0.33          9.4 
       445.0         0.33          8.7 
       446.0         1.95         58.9 
       447.0         0.23         21.6 
       448.0         0.30         14.9 
       449.0         0.27         11.6 
       450.0         0.27         10.7 
       451.0         0.35         10.5 
       452.0         0.27          9.7 
       453.0         0.23         10.0 
       454.0         0.27         10.3 
       455.0         0.27         10.9 
       456.0         0.23         10.7 
       457.0         0.23         11.4 
       458.0         0.20         11.4 
       459.0         0.43         11.6 
       460.0         0.45         10.2 
       461.0         0.40          8.5 
       462.0         0.27          9.7 
       463.0         0.20         10.3 
       464.0         0.30         12.2 
       465.0         0.27         12.4 
       466.0         0.30         12.2 
       467.0         0.33         11.5 
       468.0         0.27         11.5 
       469.0         0.23         10.5 
       470.0         0.13         10.0 
       471.0         0.20         10.6 
       472.0         0.13         10.0 
       473.0         0.17          9.9 
       474.0         0.15         11.8 
       475.0         0.10         13.8 
       476.0         1.83         57.0 
       477.0         0.23         10.4 
       478.0         0.27          6.6 
       479.0         0.23          5.6 
       480.0         0.27          5.7 
       481.0         0.28          6.3 
       482.0         0.27          6.5 
       483.0         0.33          6.9 
       484.0         0.30          7.2 
       485.0         0.23          8.0 
       486.0         0.17          9.3 
       487.0         0.23          9.5 
       488.0         0.27          9.5 
       489.0         0.33         10.1 
       490.0         0.27          9.9 
       491.0         0.27         11.2 
       492.0         0.30         12.4 
       493.0         0.27         14.0 
       494.0         0.32         14.3 
       495.0         0.23         14.5 
       496.0         0.20         15.5 
       497.0         0.23         16.5 
       498.0         0.17         17.5 
       499.0         0.13         18.0 
       500.0         0.10         18.0 
