~Version Information
VERS.                      2.0: CWLS Log ASCII Standard - VERSION 2.0
WRAP.                       NO: One line per depth step
~Well Information Block
STRT.FT                -8.2500: 
STOP.FT              1653.2500: 
STEP.FT                 0.2500: 
NULL.                -999.2500: 
COMP.          Pioneer Natural Resources: COMPANY
WELL.            Relay 12-7 Tr: WELL
FLD.           Purgatorie River: FIELD
LOC.           2025' FNL & 790' FWL--: LOCATION
PROV.                       CO: PROVINCE
CNTY.               Las Animas: COUNTRY
SRVC.          Patterson Wireline: SERVICE COMPANY
DATE.          Tue Jan 24 10:25:08 2006: LOG DATE
UWI.           05 071 08603 00: UNIQUE WELL ID
~Curve Information Block
DEPT.FT            0 000 00 00: Depth
CCL.                          : Casing Collar Locator
TT3.usec                      : CBL 3' Travel Time
AMP3.mV                       : CBL 3' Amplitude
GR.GAPI                       : Gamma Ray
~Parameter Information Block
~A  Depth       CCL         TT3         AMP3         GR     
# ...
  1532.7500      0.0000    662.7083      4.1411     59.1367
  1533.0000      0.0000    672.9495      4.1019     56.8860
  1533.2500      0.0000    682.7159      3.9519     55.1328
  1533.5000      0.0000    690.5550      3.7458     54.3568
  1533.7500      0.0000    696.2643      3.5527     54.9768
  1534.0000      0.0000    699.4543      3.4174     57.2291
  1534.2500      0.0000    697.0068      3.3385     61.0233
  1534.5000      0.0000    682.6789      3.2839     66.3553
  1534.7500      0.0000    650.8969      3.2246     73.9051
  1535.0000      0.0000    602.7886      3.1565     84.5667
  1535.2500      0.0000    548.8823      3.0962     97.9636
  1535.5000      0.0000    504.6998      3.0652    111.7995
  1535.7500      0.0000    481.9074      3.0739    123.0588
  1536.0000      0.0000    481.6704      3.1169    129.7790
  1536.2500      0.0000    494.5768      3.1789    131.5525
  1536.5000      0.0000    507.1587      3.2462    128.7805
  1536.7500      0.0000    510.9593      3.3124    122.1908
  1537.0000      0.0000    507.3032      3.3770    113.1719
  1537.2500      0.0000    504.0575      3.4430    103.8924
  1537.5000      0.0000    508.7804      3.5160     96.5285
  1537.7500      0.0000    524.6748      3.6002     92.2871
  1538.0000      0.0000    550.2360      3.6918     91.0234
  1538.2500      0.0000    580.1285      3.7767     91.4408
  1538.5000      0.0000    607.1672      3.8383     91.6390
  1538.7500      0.0000    625.5052      3.8676     90.0641
  1539.0000      0.0000    632.1082      3.8672     86.6443
  1539.2500      0.0000    625.4583      3.8458     83.1731
  1539.5000      0.0000    605.4759      3.8106     82.1718
  1539.7500      0.0000    575.7806      3.7652     84.9023
  1540.0000      0.0000    543.4804      3.7128     90.3312
  1540.2500      0.0000    515.1791      3.6586     96.0746
  1540.5000      0.0000    494.5071      3.6123    100.4629
  1540.7500      0.0000    483.7172      3.5848    103.6880
  1541.0000      0.0000    485.6270      3.5790    106.9495
  1541.2500      0.0000    502.7103      3.5864    110.6059
  1541.5000      0.0000    534.3621      3.5953    113.5958
  1541.7500      0.0000    574.8359      3.6018    114.8719
  1542.0000      0.0000    613.9408      3.6080    114.8393
  1542.2500      0.0000    640.3168      3.6145    114.9032
  1542.5000      0.0000    644.9515      3.6189    116.0222
  1542.7500      0.0000    623.8063      3.6208    118.1961
  1543.0000      0.0000    580.5366      3.6257    121.2417
  1543.2500      0.0000    527.7335      3.6432    125.5606
  1543.5000      0.0000    483.1422      3.6784    131.6492
  1543.7500      0.0000    461.8109      3.7195    138.8018
  1544.0000      0.0000    469.5198      3.7349    144.7347
  1544.2500      0.0000    500.3728      3.6948    146.8254
  1544.5000      0.0000    538.3401      3.5998    143.9361
  1544.7500      0.0000    563.3485      3.4838    137.3427
  1545.0000      0.0000    560.9908      3.3847    130.1288
  1545.2500      0.0000    530.5365      3.3183    125.2682
  1545.5000      0.0000    485.1020      3.2818    123.6011
  1545.7500      0.0000    443.2647      3.2710    123.3567
  1546.0000      2.0000    418.7018      3.2861    121.8156
  1546.2500      0.0000    415.9282      3.3229    117.5737
  1546.5000     -2.0000    433.2707      3.3676    111.2915
  1546.7500      0.0000    466.8477      3.4092    104.5886
  1547.0000      0.0000    510.8538      3.4615     98.8246
  1547.2500      0.0000    556.4146      3.5578     94.9447
  1547.5000      0.0000    593.3259      3.7074     93.6085
  1547.7500      0.0000    613.9175      3.8681     94.6609
  1548.0000      0.0000    615.0236      3.9795     96.5948
  1548.2500      0.0000    597.2161      4.0189     97.1986
  1548.5000      0.0000    563.6757      4.0072     95.1166
  1548.7500      0.0000    520.3725      3.9723     90.7095
  1549.0000      0.0000    476.8011      3.9282     85.5139
  1549.2500      0.0000    444.8797      3.8798     81.2491
  1549.5000      0.0000    434.5785      3.8297     79.2879
  1549.7500      0.0000    447.8264      3.7772     80.3400
  1550.0000      0.0000    474.4605      3.7190     83.9998
  1550.2500      0.0000    495.3665      3.6550     88.6732
  1550.5000      0.0000    494.6313      3.5883     92.4265
  1550.7500      0.0000    471.5816      3.5218     94.1838
  1551.0000      0.0000    439.6561      3.4591     94.2041
  1551.2500      0.0000    413.5177      3.4072     93.4681
  1551.5000      0.0000    399.0433      3.3740     92.7198
  1551.7500      0.0000    393.9978      3.3614     92.1396
  1552.0000      0.0000    393.7845      3.3621     91.6860
  1552.2500      0.0000    395.1548      3.3642     91.4202
  1552.5000      0.0000    396.6742      3.3594     91.4481
  1552.7500      0.0000    397.9322      3.3468     91.8787
  1553.0000      0.0000    398.8549      3.3299     93.0332
  1553.2500      0.0000    399.4443      3.3129     95.3723
  1553.5000      0.0000    399.7482      3.3002     98.8433
  1553.7500      0.0000    399.7958      3.2987    102.5973
  1554.0000      0.0000    399.4540      3.3170    105.7275
  1554.2500      0.0000    398.3085      3.3586    108.0006
  1554.5000      0.0000    395.6821      3.4180    109.4522
  1554.7500      0.0000    390.8249      3.4839    109.6162
  1555.0000      0.0000    383.3646      3.5490    107.7079
  1555.2500      0.0000    374.0007      3.6145    103.4846
  1555.5000      0.0000    365.0901      3.6817     97.4501
  1555.7500      0.0000    360.6196      3.7401     90.2524
  1556.0000      0.0000    365.6667      3.7655     82.3720
  1556.2500      0.0000    385.5249      3.7377     74.6107
  1556.5000      0.0000    423.4671      3.6609     68.3877
  1556.7500      0.0000    476.7550      3.5667     65.0691
  1557.0000      0.0000    533.8643      3.4945     65.1195
  1557.2500      0.0000    577.9832      3.4685     68.2775
  1557.5000      0.0000    596.9280      3.4901     74.3876
  1557.7500      0.0000    592.1154      3.5444     83.5690
  1558.0000      0.0000    578.0238      3.6094     95.4760
  1558.2500      0.0000    571.6260      3.6654    108.6806
  1558.5000      0.0000    580.3329      3.7004    121.0360
  1558.7500      0.0000    598.2814      3.7114    130.8239
  1559.0000      0.0000    613.3211      3.7034    137.5686
  1559.2500      0.0000    618.2656      3.6852    141.8268
  1559.5000      0.0000    616.4328      3.6599    144.6291
  1559.7500      0.0000    617.1772      3.6186    147.2905
  1560.0000      0.0000    627.1022      3.5461    151.0381
  1560.2500      0.0000    645.3105      3.4365    156.0890
  1560.5000      0.0000    665.4277      3.3028    161.0653
  1560.7500      0.0000    681.1879      3.1725    163.6867
  1561.0000      0.0000    690.2921      3.0739    162.3161
  1561.2500      0.0000    694.1239      3.0212    156.9335
  1561.5000      0.0000    695.1583      3.0080    148.6952
  1561.7500      0.0000    695.1505      3.0140    138.9144
  1562.0000      0.0000    694.8613      3.0188    128.7789
  1562.2500      0.0000    694.5035      3.0179    119.5702
  1562.5000      0.0000    694.1158      3.0285    112.1837
  1562.7500      0.0000    693.7629      3.0745    106.2837
  1563.0000      0.0000    693.5120      3.1535    100.6882
  1563.2500      0.0000    693.3602      3.2272     95.0205
  1563.5000      0.0000    693.2276      3.2554     90.6849
  1563.7500      0.0000    693.0465      3.2353     89.9866
  1564.0000      0.0000    692.8299      3.1986     94.4002
  1564.2500      0.0000    692.6435      3.1749    103.4612
  1564.5000      0.0000    692.5537      3.1676    114.7935
  1564.7500      0.0000    692.6187      3.1601    125.3274
  1565.0000      0.0000    692.8881      3.1385    133.1336
  1565.2500      0.0000    693.3726      3.1080    138.1548
  1565.5000      0.0000    694.0124      3.0940    141.1570
  1565.7500      0.0000    694.6888      3.1198    142.6133
  1566.0000      0.0000    695.2545      3.1832    142.8109
