~Version Information
VERS.                      2.0: CWLS Log ASCII Standard - VERSION 2.0
WRAP.                       NO: One line per depth step
~Well Information Block
STRT.FT                -8.2500: 
STOP.FT              1439.2500: 
STEP.FT                 0.2500: 
NULL.                -999.2500: 
COMP.          Pioneer Natural Resources: COMPANY
WELL.          Old Faithful 21-2: WELL
FLD.           Purgatorie River: FIELD
LOC.           806' FNL & 2509' FWL--: LOCATION
PROV.                       CO: PROVINCE
CNTY.               Las Animas: COUNTRY
SRVC.          Patterson Wireline: SERVICE COMPANY
DATE.          Mon Dec 12 11:21:25 2005: LOG DATE
UWI.           08 071 08617 00: UNIQUE WELL ID
~Curve Information Block
DEPT.FT            0 000 00 00: Depth
CCL.                          : Casing Collar Locator
TT3.usec                      : CBL 3' Travel Time
AMP3.mV                       : CBL 3' Amplitude
GR.GAPI                       : Gamma Ray
~Parameter Information Block
~A  Depth       CCL         TT3         AMP3         GR     
# ...
   829.2500      0.0000    730.8394      8.4448    114.3477
   829.5000      0.0000    732.4329      8.3737    117.7658
   829.7500      0.0000    732.7062      8.2602    126.9443
   830.0000      0.0000    731.5535      8.0908    141.7402
   830.2500      0.0000    729.7529      7.8818    159.2161
   830.5000      0.0000    727.8905      7.6740    174.1342
   830.7500      0.0000    725.8511      7.5035    181.7038
   831.0000      0.0000    723.5131      7.3854    180.9408
   831.2500      0.0000    721.5200      7.3195    175.2895
   831.5000      0.0000    721.0352      7.3037    169.6140
   831.7500      0.0000    722.5660      7.3354    166.8066
   832.0000      0.0000    724.9640      7.4063    167.0742
   832.2500      0.0000    726.0405      7.5043    169.0276
   832.5000      0.0000    724.6038      7.6239    170.5996
   832.7500      0.0000    721.6219      7.7736    169.9655
   833.0000      0.0000    719.0280      7.9713    166.7505
   833.2500      0.0000    717.7475      8.2205    161.9209
   833.5000      0.0000    717.3989      8.4853    155.8604
   833.7500      0.0000    717.6311      8.6985    147.2955
   834.0000      0.0000    719.0408      8.8082    134.8972
   834.2500      0.0000    722.4776      8.8155    119.4296
   834.5000      0.0000    727.7114      8.7571    103.6824
   834.7500      0.0000    733.2477      8.6617     90.5873
   835.0000      0.0000    737.5181      8.5440     81.7225
   835.2500      0.0000    739.9144      8.4403     77.2145
   835.5000      0.0000    740.6270      8.4188     76.3317
   835.7500      0.0000    739.8199      8.5288     77.8881
   836.0000      0.0000    737.1916      8.7416     80.5636
   836.2500      0.0000    732.3819      8.9542     83.5496
   836.5000      0.0000    725.9016      9.0569     87.1807
   836.7500      0.0000    719.5936      8.9988     92.5722
   837.0000      0.0000    715.7491      8.7973    100.2599
   837.2500      0.0000    715.4499      8.5029    109.3208
   837.5000      0.0000    717.7972      8.1694    118.2152
   837.7500      0.0000    720.7002      7.8516    126.2809
   838.0000      0.0000    722.3332      7.6036    133.8598
   838.2500      0.0000    722.2267      7.4618    141.1201
   838.5000      0.0000    721.3522      7.4291    147.5125
   838.7500      0.0000    720.8892      7.4777    152.3814
   839.0000      0.0000    720.8483      7.5654    155.2112
   839.2500      0.0000    720.4240      7.6498    155.0982
   839.5000      0.0000    719.5855      7.6990    151.1340
   839.7500      0.0000    719.4395      7.7005    144.1611
   840.0000      0.0000    720.9038      7.6622    137.3385
   840.2500      0.0000    723.5817      7.6039    133.8674
   840.5000      0.0000    725.9642      7.5470    134.4935
   840.7500      0.0000    726.5921      7.5106    137.7273
   841.0000      0.0000    725.4354      7.5080    141.8080
   841.2500      0.0000    724.2763      7.5388    145.8793
   841.5000      0.0000    725.2345      7.5859    149.8908
   841.7500      0.0000    728.7449      7.6273    153.9646
   842.0000      0.0000    733.2928      7.6550    158.0644
   842.2500      0.0000    736.9783      7.6784    162.3131
   842.5000      0.0000    738.8272      7.7078    167.1629
   842.7500      0.0000    738.6471      7.7392    172.5345
   843.0000      0.0000    736.2734      7.7611    177.1647
   843.2500      0.0000    731.4250      7.7753    179.6781
   843.5000      0.0000    724.3365      7.8081    180.1010
   843.7500      0.0000    716.2604      7.8890    179.5521
   844.0000      0.0000    709.0051      8.0146    178.3184
   844.2500      0.0000    703.8402      8.1439    174.8225
   844.5000      0.0000    700.8981      8.2381    167.1308
   844.7500      0.0000    699.5191      8.2992    155.5488
   845.0000      0.0000    698.9443      8.3596    143.2664
   845.2500      0.0000    698.7009      8.4391    134.1889
   845.5000      0.0000    698.6285      8.5229    130.3197
   845.7500      0.0000    698.8035      8.5802    130.9462
   846.0000      0.0000    699.5416      8.5976    133.3544
   846.2500      0.0000    701.3308      8.5931    134.0322
   846.5000      0.0000    704.4917      8.5982    130.4274
   846.7500      0.0000    708.6857      8.6291    122.6076
   847.0000      0.0000    712.8597      8.6778    113.1163
   847.2500      0.0000    715.8365      8.7304    104.8697
   847.5000      0.0000    716.9128      8.7859     99.3362
   847.7500      0.0000    715.9482      8.8486     96.6330
   848.0000      0.0000    713.3066      8.9142     96.8083
   848.2500      0.0000    710.0161      8.9708    100.4203
   848.5000      0.0000    707.6188      9.0101    107.5113
   848.7500      0.0000    707.2292      9.0270    116.2988
   849.0000      0.0000    708.6573      9.0108    123.8611
   849.2500      0.0000    710.7839      8.9435    128.6781
   849.5000      0.0000    712.7780      8.8097    132.0368
   849.7500      0.0000    714.4944      8.6093    136.4292
   850.0000      0.0000    715.7253      8.3628    142.8383
   850.2500      0.0000    715.7258      8.1026    150.0608
   850.5000      0.0000    713.8640      7.8582    156.4698
   850.7500      0.0000    710.4589      7.6482    161.6112
   851.0000      0.0000    706.7106      7.4884    165.8670
   851.2500      0.0000    703.7873      7.4024    169.4118
   851.5000      0.0000    702.0977      7.4145    172.0396
   851.7500      0.0000    701.4225      7.5314    173.4806
   852.0000      0.0000    701.5516      7.7323    173.2920
   852.2500      0.0000    702.6211      7.9807    170.5120
   852.5000      0.0000    704.7917      8.2408    163.9612
   852.7500      0.0000    707.7885      8.4903    153.4546
   853.0000      0.0000    711.0995      8.7213    140.9072
   853.2500      0.0000    714.6295      8.9334    130.0345
   853.5000      0.0000    718.5706      9.1230    124.5044
   853.7500      0.0000    722.3820      9.2829    125.7822
   854.0000      0.0000    724.5736      9.4112    132.2676
   854.2500      0.0000    723.9755      9.5139    140.2983
   854.5000      0.0000    720.8781      9.5975    146.1596
   854.7500      0.0000    716.8597      9.6591    147.7286
   855.0000      0.0000    714.0156      9.6890    144.9986
   855.2500      0.0000    714.1949      9.6803    139.6222
   855.5000      0.0000    718.0154      9.6362    133.8999
   855.7500      0.0000    724.1785      9.5672    129.5523
   856.0000      0.0000    730.1310      9.4859    126.8544
   856.2500      0.0000    733.5815      9.4060    124.8873
   856.5000      0.0000    733.3598      9.3403    122.8055
   856.7500      0.0000    729.3552      9.2959    120.7006
   857.0000      0.0000    722.4521      9.2749    118.9474
   857.2500      0.0000    714.6331      9.2828    117.2478
   857.5000      0.0000    708.4671      9.3319    115.3749
   857.7500      0.0000    705.9559      9.4274    114.8174
   858.0000      0.0000    707.5832      9.5514    118.3223
   858.2500      0.0000    712.1773      9.6668    127.1350
   858.5000      0.0000    717.6810      9.7428    139.3704
   858.7500      0.0000    722.5322      9.7791    151.4467
   859.0000      0.0000    726.5074      9.8053    160.6881
   859.2500      0.0000    730.0908      9.8535    166.3315
   859.5000      0.0000    733.3360      9.9304    168.3728
   859.7500      0.0000    735.7776     10.0161    166.1381
   860.0000      0.0000    737.1532     10.0859    158.9259
   860.2500      0.0000    737.6692     10.1268    148.2451
   860.5000      0.0000    737.6070     10.1266    138.4468
   860.7500      0.0000    736.6994     10.0448    134.1907
   861.0000      0.0000    733.5936      9.8092    137.2579
   861.2500      0.0000    725.6783      9.3788    145.6993
   861.5000      0.0000    710.6218      8.8366    155.5340
   861.7500      0.0000    690.2986      8.3808    163.2746
   862.0000      0.0000    673.4548      8.1642    167.3017
   862.2500      0.0000    671.0676      8.1557    167.3612
   862.5000      0.0000    686.3448      8.2043    163.5890
