~Version Information
VERS.                      2.0: CWLS Log ASCII Standard - VERSION 2.0
WRAP.                       NO: One line per depth step
~Well Information Block
STRT.FT               460.0000: 
STOP.FT              2311.7000: 
STEP.FT                 0.1000: 
NULL.                -999.2500: 
COMP.          Pioneer Natural Resources: COMPANY
WELL.          McDonald 33-31 R: WELL
FLD.           Purgatoire River: FIELD
LOC.           1386' FSL & 1926' FEL: LOCATION
STAT.                 Colorado: State
CNTY.               Las Animas: COUNTY
CTRY.                      USA: Country
SECT.                       31: Section
TOWN.                      32S: Township
RANG.                      66W: Range
SRVC.                Patterson: SERVICE COMPANY
DATE.          Sat Sep 24 09:00:13 2005: LOG DATE
API.           05 071 08533 00: API
~Curve Information Block
DEPT.FT            0 000 00 00: Depth
DCAL.in                       : CDL Caliper
RHOB.g/cc                     : CDL Bulk Density
RHOC.g/cc                     : CDL Density Correction
DPOR.pu                       : CDL Density Porosity
NPOR.pu                       : Neutron Porosity
GR.GAPI                       : Gamma Ray
~Parameter Information Block
~A  Depth       DCAL        RHOB        RHOC        DPOR        NPOR         GR     
# ...
  1429.6000      7.9608      2.4480      0.0101     12.2422     16.0991     76.3682
  1429.7000      7.9608      2.4618      0.0580     11.4059     16.1038     76.4571
  1429.8000      7.9604      2.4791      0.0470     10.3551     15.3393     73.2330
  1429.9000      7.9604      2.4941      0.0650      9.4490     14.5406     69.7155
  1430.0000      7.9581      2.5042      0.0718      8.8352     14.3505     69.7689
  1430.1000      7.9581      2.5156      0.0430      8.1458     14.4791     72.8861
  1430.2000      7.9581      2.5351      0.0303      6.9606     14.5714     77.6958
  1430.3000      7.9560      2.5497      0.0859      6.0762     14.7499     80.7981
  1430.4000      7.9560      2.5396      0.0623      6.6909     14.9412     78.1159
  1430.5000      7.9544      2.5078      0.0477      8.6193     14.9488     73.0311
  1430.6000      7.9544      2.4717      0.0117     10.8033     14.9375     70.7494
  1430.7000      7.9544      2.4468     -0.0022     12.3149     15.0932     71.8502
  1430.8000      7.9527      2.4442      0.0031     12.4745     15.4372     73.4846
  1430.9000      7.9527      2.4656      0.0102     11.1746     15.6700     72.0450
  1431.0000      7.9545      2.4976      0.0474      9.2364     15.4984     67.5086
  1431.1000      7.9545      2.5228      0.0692      7.7080     15.0182     64.8195
  1431.2000      7.9545      2.5293      0.0979      7.3141     14.4978     67.3890
  1431.3000      7.9580      2.5151      0.0677      8.1763     14.0012     71.2607
  1431.4000      7.9580      2.4920      0.0508      9.5745     13.6069     73.1673
  1431.5000      7.9577      2.4663      0.0641     11.1343     13.4862     73.9924
  1431.6000      7.9577      2.4397      0.0145     12.7455     13.3847     73.4864
  1431.7000      7.9577      2.4251      0.0503     13.6304     13.1379     72.0333
  1431.8000      7.9548      2.4199      0.0734     13.9450     13.0310     72.1193
  1431.9000      7.9548      2.4089      0.0169     14.6100     12.9996     72.8550
  1432.0000      7.9531      2.3964      0.0373     15.3717     12.7696     69.9152
  1432.1000      7.9531      2.3915      0.0229     15.6688     12.5495     62.8906
  1432.2000      7.9531      2.3939      0.0358     15.5189     12.4397     58.7168
  1432.3000      7.9546      2.4060      0.0220     14.7851     12.2627     60.6216
  1432.4000      7.9546      2.4292      0.0668     13.3835     11.9780     63.7173
  1432.5000      7.9576      2.4533      0.0946     11.9194     11.7779     64.7965
  1432.6000      7.9576      2.4669      0.1137     11.0948     11.8230     64.1548
  1432.7000      7.9576      2.4712      0.0961     10.8387     11.9153     61.5839
  1432.8000      7.9572      2.4780      0.0965     10.4212     11.7847     57.8458
  1432.9000      7.9572      2.4935      0.0927      9.4852     11.6754     54.6710
  1433.0000      7.9502      2.5089      0.1163      8.5514     11.8813     52.1712
  1433.1000      7.9502      2.5108      0.0731      8.4366     12.2332     52.2039
  1433.2000      7.9502      2.4966      0.0859      9.2959     12.5999     56.6455
  1433.3000      7.9393      2.4822      0.0771     10.1707     13.0436     62.3705
  1433.4000      7.9393      2.4865      0.0705      9.9111     13.4248     67.1539
  1433.5000      7.9324      2.5026      0.1244      8.9317     13.6126     71.5104
  1433.6000      7.9324      2.5099      0.0543      8.4908     13.6658     72.8468
  1433.7000      7.9324      2.5069      0.0892      8.6708     13.7206     69.6229
  1433.8000      7.9298      2.5090      0.0545      8.5454     13.9471     68.9304
  1433.9000      7.9298      2.5254      0.0781      7.5529     14.3002     73.9192
  1434.0000      7.9326      2.5392      0.0995      6.7134     14.4828     77.2291
  1434.1000      7.9326      2.5294      0.0457      7.3067     14.4765     76.4156
  1434.2000      7.9326      2.5030      0.0106      8.9087     14.4376     76.3586
  1434.3000      7.9427      2.4732      0.0414     10.7153     14.4184     78.0693
  1434.4000      7.9427      2.4445      0.0278     12.4575     14.5444     79.4797
  1434.5000      7.9535      2.4337     -0.0069     13.1074     14.6389     79.6352
  1434.6000      7.9535      2.4494      0.0282     12.1576     14.3401     79.4856
  1434.7000      7.9535      2.4704      0.0378     10.8838     14.0424     80.3699
  1434.8000      7.9572      2.4839      0.0052     10.0644     14.1629     79.9220
  1434.9000      7.9572      2.4951      0.0109      9.3869     14.3096     76.9700
  1435.0000      7.9559      2.5022      0.0253      8.9549     14.2536     76.0508
  1435.1000      7.9559      2.5026      0.0190      8.9328     14.3347     79.9818
  1435.2000      7.9559      2.5014      0.0194      9.0044     14.6566     84.7228
  1435.3000      7.9561      2.5067      0.0056      8.6854     14.9802     85.7595
  1435.4000      7.9561      2.5201      0.0874      7.8742     15.1303     84.5572
  1435.5000      7.9585      2.5346      0.0430      6.9927     15.3176     84.6175
  1435.6000      7.9585      2.5446      0.0605      6.3874     15.9305     85.0507
  1435.7000      7.9585      2.5478      0.0564      6.1967     16.6304     84.6611
  1435.8000      7.9597      2.5486      0.0167      6.1445     16.7855     85.0867
  1435.9000      7.9597      2.5513      0.0703      5.9794     16.2735     84.2682
  1436.0000      7.9584      2.5491      0.0403      6.1153     15.3582     80.5224
  1436.1000      7.9584      2.5375      0.0408      6.8170     14.6658     78.9006
  1436.2000      7.9584      2.5220      0.0229      7.7595     14.6483     81.8110
  1436.3000      7.9577      2.5096      0.0449      8.5089     15.0467     86.3536
  1436.4000      7.9577      2.5081      0.0174      8.5975     15.5567     90.7688
  1436.5000      7.9583      2.5269      0.0161      7.4590     16.2526     93.9127
  1436.6000      7.9583      2.5582      0.0706      5.5635     17.0973     95.4530
  1436.7000      7.9583      2.5778      0.0790      4.3753     18.1251     96.9178
  1436.8000      7.9585      2.5772      0.0715      4.4130     19.3443     99.4320
  1436.9000      7.9585      2.5660      0.0756      5.0921     20.5378    100.4189
  1437.0000      7.9540      2.5500      0.0630      6.0604     21.7844     99.6789
  1437.1000      7.9540      2.5358      0.0223      6.9186     23.0415    102.4320
  1437.2000      7.9540      2.5332      0.0378      7.0776     23.5838    108.6161
  1437.3000      7.9434      2.5380      0.0958      6.7879     23.0831    113.4155
  1437.4000      7.9434      2.5370      0.0832      6.8494     22.2210    112.2599
  1437.5000      7.9344      2.5314      0.0544      7.1909     21.3144    105.5017
  1437.6000      7.9344      2.5327      0.0578      7.1063     20.1024     99.6184
  1437.7000      7.9344      2.5377      0.0564      6.8057     18.7899     98.2519
  1437.8000      7.9313      2.5287      0.0496      7.3490     17.8500     99.9180
  1437.9000      7.9313      2.4993      0.0484      9.1339     17.3555    102.9271
  1438.0000      7.9343      2.4643      0.0279     11.2575     17.2989    104.7284
  1438.1000      7.9343      2.4400      0.0247     12.7248     17.5451    100.8762
  1438.2000      7.9343      2.4309      0.0020     13.2799     17.4513     93.0992
  1438.3000      7.9420      2.4322      0.0340     13.2005     16.7728     87.4777
  1438.4000      7.9420      2.4346      0.0350     13.0524     15.7365     85.5106
  1438.5000      7.9503      2.4339      0.0379     13.0972     14.5261     84.2435
  1438.6000      7.9503      2.4324      0.0285     13.1894     13.6417     81.8893
  1438.7000      7.9503      2.4269      0.0873     13.5213     13.5954     78.1982
  1438.8000      7.9536      2.4160      0.0389     14.1822     14.2801     73.0251
  1438.9000      7.9536      2.4137      0.0497     14.3195     14.8834     68.4406
  1439.0000      7.9542      2.4222      0.0753     13.8046     14.8772     66.0601
  1439.1000      7.9542      2.4257      0.0793     13.5943     14.7164     64.4903
