~Version Information
 VERS.                                  2.0 : CWLS LAS VERSION
 WRAP.                                   NO : WRAPING MODE
 SWARE .                MController 2.5.0QA : SOFTWARE VERSION
~Well Information
 WELL.                      Sculpin 32-30Tr : WELL
 COMP.    Pioneer Natural Resources USA Inc : COMPANY
 FLD.                      Purgatoire River : FIELD
 LOC.                 SW/NE Sec30 T32S R65W : LOCATION
 DATE.                             07/19/06 : DATE(S) LOGGED
 SRVC.       Blanco Geological Services LLC : SERVICE COMPANY
 STAT.                             Colorado : STATE
 CNTY.                           Las Animas : COUNTY
 CTRY.                                  USA : COUNTRY
 API.                       05-071-08706-00 : API NUMBER
 STRT.FT                             411.00 : START DEPTH
 STOP.FT                             950.00 : STOP DEPTH
 STEP.FT                               1.00 : DEPTH INCREMENT
 NULL.                                -9999 : NULL VALUE
~Curve information
 DEPTH.FT                                   :
 ROP.MIN/FT                                 :
 GAS.UNITS                                  :
~ASCII Log data
       411.0     -9999.00          2.1 
       412.0        43.88          3.4 
       413.0         0.17          3.1 
       414.0         0.10          2.3 
       415.0         0.13          2.6 
       416.0         0.10          2.7 
       417.0         0.13          2.4 
       418.0         0.13          2.1 
       419.0         0.12          2.4 
       420.0         0.10          2.4 
       421.0         0.10          2.4 
       422.0         0.13          2.3 
       423.0         0.10          2.3 
       424.0         0.13          2.4 
       425.0         0.10          2.0 
       426.0         0.13          2.3 
       427.0         0.10          2.9 
       428.0         0.13          2.4 
       429.0         0.13          2.4 
       430.0         0.10          2.3 
       431.0         0.13          3.0 
       432.0         0.13          2.6 
       433.0         0.10          2.4 
       434.0         0.13          2.4 
       435.0         0.13          2.3 
       436.0         0.13          2.4 
       437.0         0.13          2.4 
       438.0         0.13          2.4 
       439.0         0.17          3.0 
       440.0         0.13          3.0 
       441.0         0.13          2.1 
       442.0         2.88          4.7 
       443.0         0.30          1.4 
       444.0         0.20          2.0 
       445.0         0.13          1.7 
       446.0         0.17          3.1 
       447.0         0.17          4.8 
       448.0         0.18          5.5 
       449.0         0.17          2.9 
       450.0         0.17          2.4 
       451.0         0.17          2.3 
       452.0         0.13          2.2 
       453.0         0.17          2.8 
       454.0         0.17          2.1 
       455.0         0.13          2.3 
       456.0         0.13          2.0 
       457.0         0.13          2.4 
       458.0         0.13          2.1 
       459.0         0.13          2.0 
       460.0         0.13          1.9 
       461.0         0.13          1.9 
       462.0         0.17          1.8 
       463.0         0.10          1.8 
       464.0         0.17          2.4 
       465.0         0.13          2.5 
       466.0         0.13          2.0 
       467.0         0.13          2.0 
       468.0         0.13          2.2 
       469.0         0.13          2.2 
       470.0         0.13          1.6 
       471.0         0.18          1.7 
       472.0         3.17          2.1 
       473.0         0.22          1.5 
       474.0         0.20          1.3 
       475.0         0.23          1.1 
       476.0         0.23          1.3 
       477.0         0.20          1.6 
       478.0         0.27          1.1 
       479.0         0.23          1.1 
       480.0         0.23          1.6 
       481.0         0.23          2.0 
       482.0         0.27          1.5 
       483.0         0.30          1.4 
       484.0         0.30          1.1 
       485.0         0.30          1.3 
       486.0         0.25          1.1 
       487.0         0.27          1.4 
       488.0         0.27          1.2 
       489.0         0.23          1.2 
       490.0         0.23          0.9 
       491.0         0.20          1.1 
       492.0         0.20          1.6 
       493.0         0.20          1.4 
       494.0         0.20          2.2 
       495.0         0.13          2.1 
       496.0         0.13          2.1 
       497.0         0.23          1.8 
       498.0         0.23          1.5 
       499.0         0.23          1.9 
       500.0         0.20          1.3 
       501.0         0.23          1.3 
       502.0         3.22          1.8 
       503.0         0.28          1.4 
       504.0         0.33          1.7 
       505.0         0.27          1.8 
       506.0         0.23          1.2 
       507.0         0.20          1.9 
       508.0         0.23          1.1 
       509.0         0.20          1.4 
       510.0         0.17          1.4 
       511.0         0.17          1.8 
       512.0         0.20          1.1 
       513.0         0.23          1.4 
       514.0         0.23          1.3 
       515.0         0.23          1.3 
       516.0         0.23          1.2 
       517.0         0.27          1.3 
       518.0         0.25          1.0 
       519.0         0.23          2.0 
       520.0         0.27          1.7 
       521.0         0.27          1.2 
       522.0         0.20          1.4 
       523.0         0.23          1.4 
       524.0         0.23          1.1 
       525.0         0.20          2.1 
       526.0         0.20          1.4 
       527.0         0.20          2.4 
       528.0         0.17          2.2 
       529.0         0.17          2.2 
       530.0         0.20          1.7 
       531.0         0.43          1.5 
       532.0         3.67          1.9 
       533.0         0.20          1.9 
       534.0         0.30          1.6 
       535.0         0.23          1.4 
       536.0         0.27          1.6 
       537.0         0.23          1.3 
       538.0         0.20          1.3 
       539.0         0.20          1.0 
       540.0         0.23          1.0 
       541.0         0.27          1.0 
       542.0         0.27          0.9 
       543.0         0.33          1.9 
       544.0         0.37          2.9 
       545.0         0.38         88.0 
       546.0         0.37         89.0 
       547.0         0.33         60.6 
       548.0         0.30         14.8 
       549.0         0.37          6.9 
       550.0         0.30          2.4 
       551.0         0.30          2.5 
       552.0         0.33          3.0 
       553.0         0.33          2.1 
       554.0         0.27          2.7 
       555.0         0.25          2.4 
       556.0         0.20          2.4 
       557.0         0.23          2.8 
       558.0         0.20          2.7 
       559.0         0.23          3.1 
       560.0         0.20          2.5 
       561.0         0.23          4.9 
       562.0         3.42          3.8 
       563.0         0.43          4.4 
       564.0         0.23          5.2 
       565.0         0.20          6.0 
       566.0         0.20          6.0 
       567.0         0.23          5.6 
       568.0         0.23          4.6 
       569.0         0.23          4.9 
       570.0         0.25          4.4 
       571.0         0.20          4.0 
       572.0         0.20          3.6 
       573.0         0.20          3.7 
       574.0         0.43          4.0 
       575.0         0.30          3.2 
       576.0         0.20          3.7 
       577.0         0.23          2.9 
       578.0         0.23          3.4 
       579.0         0.23          3.8 
       580.0         0.23          3.7 
       581.0         0.23          3.2 
       582.0         0.20          3.2 
       583.0         0.23          3.4 
       584.0         0.25          4.0 
       585.0         0.27          3.5 
       586.0         0.33          3.4 
       587.0         0.30          3.9 
       588.0         0.20          3.2 
       589.0         0.27          4.2 
       590.0         0.33          3.5 
       591.0         0.37          3.2 
       592.0         4.42          4.3 
       593.0         0.32          3.7 
       594.0         0.57          3.7 
       595.0         0.33          3.9 
       596.0         0.40          3.8 
       597.0         0.37          4.5 
       598.0         0.43          4.3 
       599.0         0.43          5.3 
       600.0         0.33          5.3 
       601.0         0.45          4.6 
       602.0         0.40          4.4 
       603.0         0.30          4.5 
       604.0         0.20          4.7 
       605.0         0.23          4.6 
       606.0         0.30          5.1 
       607.0         0.33          4.4 
       608.0         0.27          4.6 
       609.0         0.23          5.2 
       610.0         0.23          6.9 
