~Version Information
VERS.                      2.0: CWLS Log ASCII Standard - VERSION 2.0
WRAP.                       NO: One line per depth step
~Well Information Block
STRT.FT               370.0000: 
STOP.FT              2831.7500: 
STEP.FT                 0.2500: 
NULL.                -999.2500: 
COMP.          Pioneer Natural Resources: COMPANY
WELL.          Black Cat 13-32: WELL
FLD.           Purgatoire River: FIELD
LOC.           1865' FSL & 1120' FWL--: LOCATION
PROV.                 Colorado: PROVINCE
CNTY.               Las Animas: COUNTRY
SRVC.                Patterson: SERVICE COMPANY
DATE.          Sun Jul 31 08:49:16 2005: LOG DATE
UWI.           05 071 08450 00: UNIQUE WELL ID
~Curve Information Block
DEPT.FT            0 000 00 00: Depth
DIR.Ohm-m                     : IEL Induction Resistivity
SN.Ohm-m                      : IEL Short Normal
SP.mV                         : IEL Spontaneous Potential
GR.GAPI                       : Gamma Ray
~Parameter Information Block
~A  Depth       DIR          SN          SP          GR     
# ...
   537.5000     19.8502   2000.0000   1966.0000    129.7876
   537.7500     19.6624   2000.0000   1966.0000    132.0179
   538.0000     19.5287   2000.0000   1966.0000    132.4595
   538.2500     19.4675   2000.0000   1966.0000    130.9116
   538.5000     19.4856   2000.0000   1966.0000    127.0819
   538.7500     19.5750   2000.0000   1966.0000    124.3473
   539.0000     19.7113   2000.0000   1966.0000    120.6628
   539.2500     19.8558   2000.0000   1966.0000    118.3344
   539.5000     19.9660   2000.0000   1966.0000    114.6375
   539.7500     20.0105   2000.0000   1966.0000    112.4402
   540.0000     19.9821   2000.0000   1966.0000    111.4515
   540.2500     19.8938   2000.0000   1966.0000    113.2880
   540.5000     19.7631   2000.0000   1966.0000    119.6652
   540.7500     19.5951   2000.0000   1966.0000    125.3157
   541.0000     19.3795   2000.0000   1966.0000    133.8283
   541.2500     19.1030   2000.0000   1966.0000    138.7128
   541.5000     18.7654   2000.0000   1966.0000    144.3575
   541.7500     18.3885   2000.0000   1966.0000    147.0854
   542.0000     18.0117   2000.0000   1966.0000    150.1584
   542.2500     17.6781   2000.0000   1966.0000    152.0026
   542.5000     17.4239   2000.0000   1966.0000    155.1635
   542.7500     17.2731   2000.0000   1966.0000    157.3616
   543.0000     17.2368   2000.0000   1966.0000    158.9676
   543.2500     17.3128   2000.0000   1966.0000    157.5456
   543.5000     17.4856   2000.0000   1966.0000    150.8784
   543.7500     17.7284   2000.0000   1966.0000    144.3436
   544.0000     18.0087   2000.0000   1966.0000    134.3101
   544.2500     18.2938   2000.0000   1966.0000    128.9295
   544.5000     18.5572   2000.0000   1966.0000    123.7131
   544.7500     18.7829   2000.0000   1966.0000    121.7075
   545.0000     18.9678   2000.0000   1966.0000    119.5003
   545.2500     19.1206   2000.0000   1966.0000    117.9739
   545.5000     19.2595   2000.0000   1966.0000    115.4210
   545.7500     19.4072   2000.0000   1966.0000    113.7726
   546.0000     19.5826   2000.0000   1966.0000    111.8779
   546.2500     19.7915   2000.0000   1966.0000    111.1697
   546.5000     20.0201   2000.0000   1966.0000    110.7721
   546.7500     20.2397   2000.0000   1966.0000    110.5899
   547.0000     20.4210   2000.0000   1966.0000    109.8335
   547.2500     20.5506   2000.0000   1966.0000    109.0279
   547.5000     20.6349   2000.0000   1966.0000    108.1936
   547.7500     20.6896   2000.0000   1966.0000    108.4608
   548.0000     20.7257   2000.0000   1966.0000    110.4184
   548.2500     20.7422   2000.0000   1966.0000    112.4425
   548.5000     20.7290   2000.0000   1966.0000    115.6379
   548.7500     20.6785   2000.0000   1966.0000    117.5425
   549.0000     20.5941   2000.0000   1966.0000    120.3223
   549.2500     20.4912   2000.0000   1966.0000    122.5676
   549.5000     20.3866   2000.0000   1966.0000    126.8600
   549.7500     20.2883   2000.0000   1966.0000    129.9779
   550.0000     20.1947   2000.0000   1966.0000    133.8439
   550.2500     20.1013   2000.0000   1966.0000    135.2861
   550.5000     20.0077   2000.0000   1966.0000    135.4114
   550.7500     19.9161   2000.0000   1966.0000    134.3881
   551.0000     19.8288   2000.0000   1966.0000    132.3268
   551.2500     19.7498   2000.0000   1966.0000    131.4699
   551.5000     19.6925   2000.0000   1966.0000    131.9247
   551.7500     19.6828   2000.0000   1966.0000    133.2506
   552.0000     19.7549   2000.0000   1966.0000    135.6183
   552.2500     19.9404   2000.0000   1966.0000    136.7092
   552.5000     20.2569   2000.0000   1966.0000    136.7806
   552.7500     20.7005   2000.0000   1966.0000    135.6031
   553.0000     21.2446   2000.0000   1966.0000    132.1956
   553.2500     21.8487   2000.0000   1966.0000    129.1647
   553.5000     22.4732   2000.0000   1966.0000    124.1838
   553.7500     23.0912   2000.0000   1966.0000    120.9687
   554.0000     23.6869   2000.0000   1966.0000    116.8111
   554.2500     24.2427   2000.0000   1966.0000    114.5370
   554.5000     24.7317   2000.0000   1966.0000    111.4390
   554.7500     25.1272   2000.0000   1966.0000    109.2597
   555.0000     25.4216   2000.0000   1966.0000    105.8144
   555.2500     25.6335   2000.0000   1966.0000    103.8153
   555.5000     25.7923   2000.0000   1966.0000    102.2395
   555.7500     25.9135   2000.0000   1966.0000    102.5135
   556.0000     25.9886   2000.0000   1966.0000    104.8549
   556.2500     25.9939   2000.0000   1966.0000    107.2896
   556.5000     25.9072   2000.0000   1966.0000    111.1830
   556.7500     25.7208   2000.0000   1966.0000    113.2357
   557.0000     25.4475   2000.0000   1966.0000    114.4450
   557.2500     25.1235   2000.0000   1966.0000    113.8259
   557.5000     24.8046   2000.0000   1966.0000    111.6514
   557.7500     24.5498   2000.0000   1966.0000    110.2826
   558.0000     24.4019   2000.0000   1966.0000    109.3054
   558.2500     24.3744   2000.0000   1966.0000    109.2601
   558.5000     24.4539   2000.0000   1966.0000    109.3814
   558.7500     24.6103   2000.0000   1966.0000    109.3192
   559.0000     24.8083   2000.0000   1966.0000    108.9460
   559.2500     25.0147   2000.0000   1966.0000    108.5863
   559.5000     25.2030   2000.0000   1966.0000    108.1805
   559.7500     25.3583   2000.0000   1966.0000    108.2105
   560.0000     25.4831   2000.0000   1966.0000    108.7412
   560.2500     25.5996   2000.0000   1966.0000    109.1958
   560.5000     25.7435   2000.0000   1966.0000    109.6213
   560.7500     25.9493   2000.0000   1966.0000    109.6547
   561.0000     26.2334   2000.0000   1966.0000    109.4553
   561.2500     26.5826   2000.0000   1966.0000    109.3386
   561.5000     26.9546   2000.0000   1966.0000    109.6298
   561.7500     27.2876   2000.0000   1966.0000    110.3759
   562.0000     27.5181   2000.0000   1966.0000    112.4493
   562.2500     27.6034   2000.0000   1966.0000    114.2063
   562.5000     27.5444   2000.0000   1966.0000    116.3182
   562.7500     27.3899   2000.0000   1966.0000    116.7080
   563.0000     27.2119   2000.0000   1966.0000    115.6654
   563.2500     27.0656   2000.0000   1966.0000    114.6650
   563.5000     26.9580   2000.0000   1966.0000    114.4080
   563.7500     26.8457   2000.0000   1966.0000    115.4194
   564.0000     26.6610   2000.0000   1966.0000    117.8716
   564.2500     26.3530   2000.0000   1966.0000    119.4333
   564.5000     25.9150   2000.0000   1966.0000    121.2271
   564.7500     25.3818   2000.0000   1966.0000    122.2016
   565.0000     24.8006   2000.0000   1966.0000    123.7164
   565.2500     24.2042   2000.0000   1966.0000    125.0348
   565.5000     23.6058   2000.0000   1966.0000    128.0407
   565.7500     23.0123   2000.0000   1966.0000    130.7880
   566.0000     22.4378   2000.0000   1966.0000    135.0937
   566.2500     21.9042   2000.0000   1966.0000    137.2121
   566.5000     21.4298   2000.0000   1966.0000    138.5358
   566.7500     21.0188   2000.0000   1966.0000    138.6284
   567.0000     20.6602   2000.0000   1966.0000    139.2111
   567.2500     20.3356   2000.0000   1966.0000    140.5903
   567.5000     20.0281   2000.0000   1966.0000    143.9170
   567.7500     19.7260   2000.0000   1966.0000    145.9816
   568.0000     19.4229   2000.0000   1966.0000    146.7132
   568.2500     19.1173   2000.0000   1966.0000    145.0243
   568.5000     18.8114   2000.0000   1966.0000    140.2167
   568.7500     18.5099   2000.0000   1966.0000    136.7240
   569.0000     18.2159   2000.0000   1966.0000    132.4402
   569.2500     17.9323   2000.0000   1966.0000    130.3050
   569.5000     17.6645   2000.0000   1966.0000    128.0569
   569.7500     17.4244   2000.0000   1966.0000    127.3645
   570.0000     17.2274   2000.0000   1966.0000    127.6470
   570.2500     17.0874   2000.0000   1966.0000    128.2446
   570.5000     17.0127   2000.0000   1966.0000    128.4270
   570.7500     17.0067   2000.0000   1966.0000    127.6604
