~Version Information
VERS.                      2.0: CWLS Log ASCII Standard - VERSION 2.0
WRAP.                       NO: One line per depth step
~Well Information Block
STRT.FT               295.7500: 
STOP.FT              1461.0000: 
STEP.FT                 0.2500: 
NULL.                -999.2500: 
COMP.          Pioneer Natural Resources: COMPANY
WELL.              Lucky 21-36: WELL
FLD.           Purgatoire River: FIELD
LOC.           799' FNL & 1578' FWL--: LOCATION
CDN. :
PROV. :
UWI. :
STAT. :
CNTY. :
CTRY. :
API. :
COMP. :
WELL. :
FLD. :
LOC. :
DATE. :
SRVC. :
CNTY.               Las Animas: COUNTY
SRVC.          Superior Well Services: SERVICE COMPANY
DATE.          Mon Jul 07 19-13-01 2008: LOG DATE
UWI.           05 071 08456 00: UNIQUE WELL ID
STAT.                 Colorado: STATE
~Curve Information Block
DEPT.FT            0 000 00 00: Depth
SN.Ohm-m                      : IEL Short Normal
SP.mV                         : IEL Spontaneous Potential
DIR.Ohm-m                     : IEL Induction Resistivity
GR.GAPI                       : Gamma Ray
~Parameter Information Block
~A  Depth        SN          SP         DIR          GR     
# ...
  1367.7500     27.3745     54.4687     26.5588     81.2757
  1368.0000     27.4105     54.5432     26.6163     82.6239
  1368.2500     27.3512     54.6260     26.6499     86.0531
  1368.5000     27.2803     54.7167     26.6623     88.9965
  1368.7500     27.3178     54.8136     26.6668     93.6374
  1369.0000     27.4493     54.9139     26.6765     96.5251
  1369.2500     27.5875     55.0140     26.6980    100.2882
  1369.5000     27.7266     55.1099     26.7368    102.4061
  1369.7500     27.8915     55.1965     26.8035    105.1886
  1370.0000     28.0576     55.2688     26.9125    107.0093
  1370.2500     28.2286     55.3209     27.0724    109.9123
  1370.5000     28.4411     55.3471     27.2813    111.7591
  1370.7500     28.7261     55.3409     27.5325    113.6493
  1371.0000     29.0713     55.2963     27.8223    114.1320
  1371.2500     29.4566     55.2076     28.1547    114.5811
  1371.5000     29.8432     55.0705     28.5388    115.8427
  1371.7500     30.2417     54.8829     28.9869    120.9405
  1372.0000     30.7600     54.6462     29.5123    126.5440
  1372.2500     31.4876     54.3659     30.1260    136.0738
  1372.5000     32.2985     54.0522     30.8315    140.9689
  1372.7500     33.0444     53.7201     31.6188    142.4629
  1373.0000     33.6389     53.3884     32.4558    138.5891
  1373.2500     33.9409     53.0782     33.2820    127.0027
  1373.5000     33.9291     52.8108     34.0158    117.6746
  1373.7500     33.7342     52.6056     34.5846    104.8242
  1374.0000     33.6273     52.4775     34.9591     97.9966
  1374.2500     33.7795     52.4355     35.1537     90.8679
  1374.5000     34.0664     52.4821     35.1865     88.4054
  1374.7500     34.2471     52.6125     35.0412     88.0277
  1375.0000     34.2056     52.8163     34.6741     89.1980
  1375.2500     33.8841     53.0788     34.0609     91.1578
  1375.5000     33.2773     53.3825     33.2362     92.0298
  1375.7500     32.4749     53.7098     32.2888     93.4930
  1376.0000     31.6071     54.0441     31.3236     95.6234
  1376.2500     30.8330     54.3712     30.4212    101.4975
  1376.5000     30.1980     54.6804     29.6231    106.4633
  1376.7500     29.7081     54.9638     28.9411    112.4207
  1377.0000     29.3308     55.2169     28.3793    113.7850
  1377.2500     29.0127     55.4376     27.9501    111.5475
  1377.5000     28.7286     55.6252     27.6719    108.3721
  1377.7500     28.4815     55.7802     27.5542    103.6919
  1378.0000     28.3369     55.9035     27.5800    101.5656
  1378.2500     28.2903     55.9955     27.7019     99.9483
  1378.5000     28.3060     56.0565     27.8547     99.4131
  1378.7500     28.3368     56.0863     27.9810     98.6675
  1379.0000     28.3841     56.0844     28.0545     98.2436
  1379.2500     28.4798     56.0506     28.0877     98.4411
  1379.5000     28.6026     55.9847     28.1205     99.4732
  1379.7500     28.6812     55.8878     28.1948    102.1266
  1380.0000     28.7228     55.7615     28.3319    104.0597
  1380.2500     28.7795     55.6090     28.5187    106.0941
  1380.5000     28.8332     55.4343     28.7131    106.4169
  1380.7500     28.8590     55.2427     28.8689    105.2650
  1381.0000     28.9145     55.0403     28.9674    103.8740
  1381.2500     29.0346     54.8341     29.0333    102.1436
  1381.5000     29.1609     54.6315     29.1243    101.7833
  1381.7500     29.2645     54.4406     29.3003    102.5201
  1382.0000     29.3694     54.2697     29.5934    103.4976
  1382.2500     29.4763     54.1272     29.9895    104.7960
  1382.5000     29.5981     54.0210     30.4276    105.0783
  1382.7500     29.7701     53.9579     30.8217    104.1910
  1383.0000     29.9353     53.9434     31.0986    102.7518
  1383.2500     30.0397     53.9805     31.2309     99.7426
  1383.5000     30.1078     54.0694     31.2425     97.5203
  1383.7500     30.1583     54.2077     31.1843     94.5272
  1384.0000     30.1971     54.3895     31.1052     93.1546
  1384.2500     30.2564     54.6069     31.0379     92.4002
  1384.5000     30.3591     54.8494     30.9983     92.5508
  1384.7500     30.5071     55.1056     30.9883     92.8243
  1385.0000     30.6187     55.3634     30.9975     92.7744
  1385.2500     30.6863     55.6110     31.0080     93.0651
  1385.5000     30.7374     55.8379     31.0057     94.0889
  1385.7500     30.7411     56.0348     30.9900     96.7760
  1386.0000     30.7145     56.1947     30.9683     98.7250
  1386.2500     30.7226     56.3129     30.9427    101.2239
  1386.5000     30.7758     56.3870     30.9025    102.7121
  1386.7500     30.8246     56.4176     30.8377    104.9050
  1387.0000     30.8480     56.4075     30.7604    106.1157
  1387.2500     30.8730     56.3617     30.7099    106.9597
  1387.5000     30.9391     56.2871     30.7326    106.9684
  1387.7500     31.0485     56.1915     30.8480    107.3814
  1388.0000     31.1141     56.0834     31.0288    108.7602
  1388.2500     31.0901     55.9708     31.2105    113.0196
  1388.5000     31.0093     55.8607     31.3229    116.9422
  1388.7500     30.9272     55.7584     31.3242    122.8458
  1389.0000     30.8934     55.6672     31.2171    125.5613
  1389.2500     30.8880     55.5884     31.0424    126.2157
  1389.5000     30.8351     55.5218     30.8563    124.3769
  1389.7500     30.7971     55.4660     30.7084    119.8741
  1390.0000     30.7866     55.4189     30.6314    116.9519
  1390.2500     30.7686     55.3790     30.6404    113.7386
  1390.5000     30.6845     55.3451     30.7363    112.1386
  1390.7500     30.5792     55.3171     30.9035    109.6622
  1391.0000     30.5367     55.2957     31.1034    107.7722
  1391.2500     30.5036     55.2818     31.2733    104.9118
  1391.5000     30.4402     55.2767     31.3435    103.2204
  1391.7500     30.3435     55.2808     31.2731    101.1125
  1392.0000     30.2014     55.2938     31.0763     99.8854
  1392.2500     30.0543     55.3140     30.8144     97.9867
  1392.5000     29.9462     55.3381     30.5590     96.6653
  1392.7500     29.8937     55.3620     30.3569     95.3128
  1393.0000     29.8235     55.3803     30.2199     95.3961
  1393.2500     29.7172     55.3875     30.1326     96.9223
  1393.5000     29.6356     55.3787     30.0649     98.0360
  1393.7500     29.5407     55.3495     29.9834     98.4516
  1394.0000     29.4368     55.2977     29.8631     97.8305
  1394.2500     29.3614     55.2227     29.6963     96.4175
  1394.5000     29.3106     55.1265     29.4949     95.5758
  1394.7500     29.3133     55.0129     29.2846     94.5947
  1395.0000     29.2822     54.8878     29.0978     94.0701
  1395.2500     29.1868     54.7580     28.9691     93.6197
  1395.5000     29.0853     54.6315     28.9293     93.8153
  1395.7500     29.0345     54.5159     28.9933     95.1858
  1396.0000     29.0546     54.4185     29.1452     96.5768
  1396.2500     29.1100     54.3455     29.3338     98.2417
  1396.5000     29.1284     54.3017     29.4863     98.4786
  1396.7500     29.1010     54.2905     29.5380     97.5466
  1397.0000     29.0423     54.3134     29.4613     96.6801
  1397.2500     28.9384     54.3706     29.2730     96.1269
  1397.5000     28.7770     54.4605     29.0177     96.3342
  1397.7500     28.6045     54.5803     28.7411     96.5798
  1398.0000     28.4214     54.7264     28.4716     96.2095
  1398.2500     28.2598     54.8941     28.2181     95.0838
  1398.5000     28.1283     55.0786     27.9794     94.4180
  1398.7500     28.0004     55.2750     27.7541     93.6782
  1399.0000     27.8754     55.4785     27.5462     92.9617
  1399.2500     27.7683     55.6846     27.3626     91.1470
  1399.5000     27.6647     55.8895     27.2095     89.8257
  1399.7500     27.5497     56.0901     27.0897     88.8047
  1400.0000     27.4363     56.2839     27.0047     88.9821
  1400.2500     27.3553     56.4691     26.9557     89.8848
  1400.5000     27.2921     56.6448     26.9428     90.5006
  1400.7500     27.2093     56.8108     26.9594     91.4212
  1401.0000     27.1427     56.9671     26.9914     92.0937
