~Version Information
VERS.                      2.0: CWLS Log ASCII Standard - VERSION 2.0
WRAP.                       NO: One line per depth step
~Well Information Block
STRT.FT               245.0000: 
STOP.FT              1273.7500: 
STEP.FT                 0.2500: 
NULL.                -999.2500: 
COMP.          Pioneer Natural Resources: COMPANY
WELL.                 Ray 34-6: WELL
FLD.           Purgatoire River: FIELD
LOC.           684' FSL & 2254' FEL--: LOCATION
CNTY.               Las Animas: COUNTY
SRVC.                Patterson: SERVICE COMPANY
DATE.          Fri May 26 03:08:09 2006: LOG DATE
UWI.           05 071 08695 00: UNIQUE WELL ID
STAT.                 Colorado: STATE
~Curve Information Block
DEPT.FT            0 000 00 00: Depth
SN.Ohm-m                      : IEL Short Normal
SP.mV                         : IEL Spontaneous Potential
DIR.Ohm-m                     : IEL Induction Resistivity
GR.GAPI                       : Gamma Ray
~Parameter Information Block
~A  Depth        SN          SP         DIR          GR     
# ...
  1116.0000    685.7410   -562.9225     15.5316    135.1245
  1116.2500    685.7410   -562.8976     16.2268    129.8641
  1116.5000    685.7410   -562.8704     17.1144    119.5737
  1116.7500    685.7410   -562.8410     18.2002    112.5814
  1117.0000    685.7410   -562.8096     19.4913    105.7980
  1117.2500    685.7410   -562.7764     20.9948    105.9627
  1117.5000    685.7410   -562.7418     22.7077    115.0100
  1117.7500    685.7410   -562.7062     24.6004    126.3266
  1118.0000    685.7410   -562.6700     26.5998    148.5272
  1118.2500    685.7410   -562.6337     28.5734    165.4886
  1118.5000    685.7410   -562.5981     30.3247    194.3449
  1118.7500    685.7410   -562.5639     31.6184    217.6057
  1119.0000    685.7410   -562.5320     32.2571    262.9415
  1119.2500    685.7410   -562.5036     32.1854    301.9509
  1119.5000    685.7410   -562.4797     31.5325    371.4660
  1119.7500    685.7410   -562.4614     30.5390    418.9858
  1120.0000    685.7410   -562.4495     29.4294    474.0095
  1120.2500    685.7410   -562.4448     28.3338    488.9701
  1120.5000    685.7410   -562.4471     27.2871    470.0736
  1120.7500    685.7410   -562.4561     26.2709    433.8079
  1121.0000    685.7410   -562.4709     25.2524    362.0485
  1121.2500    685.7410   -562.4901     24.2056    314.1989
  1121.5000    685.7410   -562.5121     23.1222    255.1638
  1121.7500    685.7410   -562.5353     22.0178    226.4937
  1122.0000    685.7410   -562.5582     20.9302    197.5724
  1122.2500    685.7410   -562.5795     19.9053    185.6385
  1122.5000    685.7410   -562.5988     18.9791    176.0039
  1122.7500    685.7410   -562.6157     18.1692    173.7931
  1123.0000    685.7410   -562.6304     17.4770    174.3001
  1123.2500    685.7410   -562.6434     16.8932    175.7161
  1123.5000    685.7410   -562.6553     16.4052    177.6359
  1123.7500    685.7410   -562.6671     16.0026    178.0438
  1124.0000    685.7410   -562.6791     15.6824    176.1375
  1124.2500    685.7410   -562.6918     15.4471    172.6898
  1124.5000    685.7410   -562.7055     15.2967    164.5790
  1124.7500    685.7410   -562.7200     15.2217    158.0545
  1125.0000    685.7410   -562.7350     15.2019    148.3203
  1125.2500    685.7410   -562.7502     15.2141    142.7755
  1125.5000    685.7410   -562.7649     15.2422    137.2078
  1125.7500    685.7410   -562.7787     15.2794    135.8433
  1126.0000    685.7410   -562.7911     15.3237    137.3201
  1126.2500    685.7410   -562.8021     15.3701    140.1256
  1126.5000    685.7410   -562.8116     15.4081    145.7297
  1126.7500    685.7410   -562.8203     15.4273    149.7153
  1127.0000    685.7410   -562.8288     15.4237    155.6110
  1127.2500    685.7410   -562.8383     15.4025    159.7936
  1127.5000    685.7410   -562.8498     15.3740    167.6696
  1127.7500    685.7410   -562.8644     15.3474    174.5443
  1128.0000    685.7410   -562.8829     15.3271    186.6370
  1128.2500    685.7410   -562.9056     15.3136    194.2620
  1128.5000    685.7410   -562.9319     15.3077    201.2342
  1128.7500    685.7410   -562.9611     15.3137    201.3892
  1129.0000    685.7410   -562.9917     15.3428    195.3676
  1129.2500    685.7410   -563.0220     15.4127    188.9666
  1129.5000    685.7410   -563.0503     15.5452    178.8699
  1129.7500    685.7410   -563.0749     15.7614    172.5537
  1130.0000    685.7410   -563.0947     16.0761    163.3438
  1130.2500    685.7410   -563.1089     16.4934    156.8488
  1130.5000    685.7410   -563.1177     17.0052    145.7773
  1130.7500    685.7410   -563.1216     17.5911    137.2840
  1131.0000    685.7410   -563.1217     18.2224    123.3596
  1131.2500    685.7410   -563.1192     18.8673    114.1302
  1131.5000    685.7410   -563.1155     19.4956    102.1313
  1131.7500    685.7410   -563.1118     20.0812     96.1057
  1132.0000    685.7410   -563.1088     20.6041     90.3940
  1132.2500    685.7410   -563.1069     21.0555     88.5698
  1132.5000    685.7410   -563.1061     21.4421     88.0202
  1132.7500    685.7410   -563.1064     21.7806     88.5911
  1133.0000    685.7410   -563.1074     22.0849     90.1142
  1133.2500    685.7410   -563.1084     22.3580     91.4477
  1133.5000    685.7410   -563.1092     22.5982     94.3073
  1133.7500    685.7410   -563.1095     22.8150     96.9438
  1134.0000    685.7410   -563.1092     23.0352    101.1946
  1134.2500    685.7410   -563.1082     23.2933    103.2381
  1134.5000    685.7410   -563.1068     23.6149    103.8999
  1134.7500    685.7410   -563.1050     24.0076    102.8442
  1135.0000    685.7410   -563.1031     24.4642    100.0657
  1135.2500    685.7410   -563.1013     24.9734     97.8959
  1135.5000    685.7410   -563.0997     25.5267     94.4817
  1135.7500    685.7410   -563.0982     26.1164     92.3702
  1136.0000    685.7410   -563.0969     26.7256     90.4213
  1136.2500    685.7410   -563.0956     27.3174     90.4662
  1136.5000    685.7410   -563.0941     27.8342     92.6134
  1136.7500    685.7410   -563.0921     28.2167     94.8899
  1137.0000    685.7410   -563.0895     28.4356     98.2058
  1137.2500    685.7410   -563.0862     28.5124     99.7276
  1137.5000    685.7410   -563.0822     28.5086    100.7100
  1137.7500    685.7410   -563.0773     28.4909    100.7601
  1138.0000    685.7410   -563.0717     28.4971    100.6407
  1138.2500    685.7410   -563.0654     28.5255    100.7536
  1138.5000    685.7410   -563.0585     28.5507    101.2723
  1138.7500    685.7410   -563.0508     28.5507    101.5703
  1139.0000    685.7410   -563.0425     28.5241    101.4784
  1139.2500    685.7410   -563.0333     28.4841    101.2294
  1139.5000    685.7410   -563.0233     28.4366    101.6647
  1139.7500    685.7410   -563.0125     28.3615    103.0166
  1140.0000    685.7410   -563.0007     28.2175    106.2465
  1140.2500    685.7410   -562.9881     27.9685    108.2997
  1140.5000    685.7410   -562.9749     27.6130    109.6549
  1140.7500    685.7410   -562.9611     27.1904    108.9517
  1141.0000    685.7410   -562.9473     26.7621    105.6026
  1141.2500    685.7410   -562.9338     26.3860    102.3460
  1141.5000    685.7410   -562.9212     26.0999     97.2614
  1141.7500    685.7410   -562.9100     25.9154     94.4549
  1142.0000    685.7410   -562.9011     25.8198     91.6179
  1142.2500    685.7410   -562.8951     25.7847     90.5337
  1142.5000    685.7410   -562.8925     25.7785     89.8366
  1142.7500    685.7410   -562.8937     25.7755     90.0231
  1143.0000    685.7410   -562.8991     25.7599     91.5879
  1143.2500    685.7410   -562.9086     25.7281     93.5394
  1143.5000    685.7410   -562.9216     25.6917     97.3000
  1143.7500    685.7410   -562.9379     25.6741     99.8137
  1144.0000    685.7410   -562.9565     25.6970    102.9020
  1144.2500    685.7410   -562.9767     25.7622    104.3889
  1144.5000    685.7410   -562.9979     25.8449    105.6156
  1144.7500    685.7410   -563.0192     25.9044    105.4949
  1145.0000    685.7410   -563.0404     25.9050    103.4600
  1145.2500    685.7410   -563.0612     25.8288    100.9492
  1145.5000    685.7410   -563.0816     25.6757     96.4852
  1145.7500    685.7410   -563.1016     25.4561     94.0346
  1146.0000    685.7410   -563.1213     25.1914     92.5724
  1146.2500    685.7410   -563.1410     24.9164     93.1396
  1146.5000    685.7410   -563.1608     24.6768     95.2021
  1146.7500    685.7410   -563.1808     24.5146     96.7378
  1147.0000    685.7410   -563.2012     24.4508     98.8969
  1147.2500    685.7410   -563.2221     24.4754    100.1518
  1147.5000    685.7410   -563.2437     24.5524    101.3519
  1147.7500    685.7410   -563.2660     24.6369    101.4604
  1148.0000    685.7410   -563.2890     24.6987    100.5063
  1148.2500    685.7410   -563.3127     24.7363     99.2260
  1148.5000    685.7410   -563.3369     24.7749     96.7062
  1148.7500    685.7410   -563.3612     24.8481     95.0621
  1149.0000    685.7410   -563.3851     24.9805     93.6593
  1149.2500    685.7410   -563.4081     25.1793     93.7990
