~Version Information
VERS.                      2.0: CWLS Log ASCII Standard - VERSION 2.0
WRAP.                       NO: One line per depth step
~Well Information Block
STRT.FT                10.0000: 
STOP.FT              1350.5000: 
STEP.FT                 0.1000: 
NULL.                -999.2500: 
COMP.          Pioneer Natural Resources: COMPANY
WELL.              Dicks 32-5R: WELL
FLD.           Purgatorie River: FIELD
LOC.           1485' FNL & 1684' FEL: LOCATION
PROV.                 Colorado: PROVINCE
CNTY.               Las Animas: COUNTRY
SRVC.                Patterson: SERVICE COMPANY
DATE.          Fri Dec 09 10:06:15 2005: LOG DATE
UWI.                          : UNIQUE WELL ID
~Curve Information Block
DEPT.FT            0 000 00 00: Depth
DCAL.in                       : CDL Caliper
RHOB.g/cc                     : CDL Bulk Density
RHOC.g/cc                     : CDL Density Correction
DPOR.pu                       : CDL Density Porosity
GR.GAPI                       : Gamma Ray
NPOR.pu                       : Neutron Porosity
~Parameter Information Block
~A  Depth       DCAL        RHOB        RHOC        DPOR         GR         NPOR    
# ...
   624.4000      8.0418      2.5412      0.0210      6.5958    127.7365     25.1753
   624.5000      8.0306      2.5550      0.0480      5.7547    127.2350     25.0147
   624.6000      8.0306      2.5460      0.0380      6.3021    129.2363     24.9033
   624.7000      8.0306      2.5245      0.0185      7.6088    130.1227     24.8650
   624.8000      8.0075      2.5153      0.0257      8.1649    129.0984     24.7261
   624.9000      8.0075      2.5212      0.0539      7.8056    128.3555     24.3382
   625.0000      8.0261      2.5324      0.0406      7.1246    129.9431     23.8603
   625.1000      8.0261      2.5487      0.0666      6.1376    133.8292     23.7484
   625.2000      8.0261      2.5719      0.0673      4.7313    138.9196     24.0805
   625.3000      8.0043      2.5973      0.1219      3.1926    142.3314     24.4531
   625.4000      8.0043      2.6192      0.1319      1.8695    141.0987     24.7200
   625.5000      7.9880      2.6421      0.1449      0.4812    136.8745     25.1156
   625.6000      7.9880      2.6644      0.1961     -0.8734    131.8405     25.6363
   625.7000      7.9880      2.6663      0.1712     -0.9872    125.8844     25.9377
   625.8000      7.9654      2.6455      0.0624      0.2747    119.6984     26.0879
   625.9000      7.9654      2.6219      0.0467      1.7033    116.1075     26.4794
   626.0000      8.0184      2.5990      0.0667      3.0936    116.5440     26.8989
   626.1000      8.0184      2.5715      0.0116      4.7596    119.2207     26.8775
   626.2000      8.0184      2.5519     -0.0233      5.9452    120.7231     26.4346
   626.3000      8.0837      2.5510     -0.0089      5.9972    119.9096     26.0070
   626.4000      8.0837      2.5570      0.0552      5.6372    119.1445     25.8516
   626.5000      8.0353      2.5537      0.0505      5.8379    120.6381     25.8341
   626.6000      8.0353      2.5445      0.0042      6.3918    123.1986     25.7484
   626.7000      8.0353      2.5405      0.0519      6.6342    125.1704     25.3007
   626.8000      8.0162      2.5447      0.0456      6.3812    127.3453     24.5101
   626.9000      8.0162      2.5607      0.0406      5.4091    131.2478     23.7368
   627.0000      8.0125      2.5863      0.0972      3.8599    134.5664     23.1033
   627.1000      8.0125      2.6066      0.0818      2.6274    134.4480     22.8720
   627.2000      8.0125      2.6178      0.1081      1.9527    132.6493     23.2797
   627.3000      7.9814      2.6325      0.1052      1.0627    131.0516     23.9144
   627.4000      7.9814      2.6602      0.1416     -0.6185    128.7083     24.3469
   627.5000      7.9973      2.6868      0.1875     -2.2281    126.7079     24.6943
   627.6000      7.9973      2.6837      0.1586     -2.0430    127.1448     25.0394
   627.7000      7.9973      2.6439      0.1162      0.3676    127.9863     25.1923
   627.8000      7.9906      2.5901      0.0439      3.6288    126.3498     25.0618
   627.9000      7.9906      2.5517     -0.0081      5.9552    121.6474     24.7338
   628.0000      8.0281      2.5431     -0.0014      6.4773    114.2298     24.5178
   628.1000      8.0281      2.5563      0.0127      5.6767    107.4114     24.4498
   628.2000      8.0281      2.5744      0.0014      4.5792    105.5633     24.2464
   628.3000      8.0609      2.5836      0.0458      4.0257    106.8918     23.9823
   628.4000      8.0609      2.5688      0.0670      4.9193    107.6634     23.9537
   628.5000      8.0721      2.5289      0.0311      7.3415    110.1306     24.1691
   628.6000      8.0721      2.4916     -0.0084      9.5975    114.9105     24.4341
   628.7000      8.0721      2.4849      0.0594     10.0050    117.6273     24.6433
   628.8000      8.0433      2.5062      0.0473      8.7161    117.4988     24.8104
   628.9000      8.0433      2.5357      0.0292      6.9263    117.4871     24.9074
   629.0000      7.9890      2.5605      0.0329      5.4228    118.5601     24.8384
   629.1000      7.9890      2.5852      0.0488      3.9289    119.4619     24.5722
   629.2000      7.9890      2.6200      0.0937      1.8196    119.6051     24.1582
   629.3000      8.0221      2.6587      0.1554     -0.5279    121.6808     23.8258
   629.4000      8.0221      2.6804      0.2230     -1.8442    126.8793     23.7835
   629.5000      8.0045      2.6725      0.1912     -1.3652    130.0725     23.9988
   629.6000      8.0045      2.6456      0.1542      0.2691    128.6740     24.4824
   629.7000      8.0045      2.6211      0.0921      1.7493    127.7621     24.9591
   629.8000      7.9954      2.6070      0.0722      2.6063    129.9763     25.0488
   629.9000      7.9954      2.5966      0.0624      3.2365    133.5423     24.9263
   630.0000      8.0044      2.5812      0.0718      4.1678    137.1046     24.9028
   630.1000      8.0044      2.5563      0.0479      5.6814    138.0992     25.0435
   630.2000      8.0044      2.5326      0.0225      7.1155    135.2290     25.1825
   630.3000      8.0538      2.5277      0.0104      7.4102    131.0128     25.1966
   630.4000      8.0538      2.5407      0.0707      6.6258    128.0245     25.0951
   630.5000      8.0958      2.5624      0.0375      5.3075    126.5956     24.9952
   630.6000      8.0958      2.5935      0.0822      3.4241    126.8326     25.0438
   630.7000      8.0958      2.6257      0.1060      1.4734    129.3352     25.2352
   630.8000      8.0900      2.6397      0.1438      0.6218    134.3155     25.3221
   630.9000      8.0900      2.6304      0.1519      1.1907    140.6660     25.1948
   631.0000      8.0686      2.6121      0.1079      2.2952    146.4416     25.0307
   631.1000      8.0686      2.5924      0.0947      3.4902    151.0622     24.9802
   631.2000      8.0686      2.5680      0.1023      4.9690    154.0335     25.1644
   631.3000      8.0745      2.5471      0.0307      6.2387    154.1171     25.3800
   631.4000      8.0745      2.5387      0.0625      6.7474    152.5437     25.2522
   631.5000      8.0931      2.5334      0.0677      7.0696    152.9328     25.0162
   631.6000      8.0931      2.5216      0.0558      7.7805    155.6094     25.0651
   631.7000      8.0931      2.5015      0.0605      8.9985    158.9557     25.1682
   631.8000      8.1084      2.4675      0.1046     11.0631    162.0784     25.2171
   631.9000      8.1084      2.4259      0.0326     13.5789    162.5216     25.5788
   632.0000      8.1071      2.4053      0.0271     14.8309    160.1989     26.2660
   632.1000      8.1071      2.4237      0.0438     13.7145    160.1753     26.6395
   632.2000      8.1071      2.4707      0.0736     10.8673    163.9313     26.2495
   632.3000      8.0915      2.5214      0.1495      7.7917    167.1023     25.5947
   632.4000      8.0915      2.5603      0.1692      5.4368    165.3235     25.1648
   632.5000      8.0744      2.5881      0.2146      3.7541    160.7075     24.8175
   632.6000      8.0744      2.6127      0.2095      2.2608    160.2699     24.5557
   632.7000      8.0744      2.6372      0.2907      0.7759    164.1639     24.6809
   632.8000      8.0759      2.6504      0.2737     -0.0221    167.6115     25.1701
   632.9000      8.0759      2.6436      0.2003      0.3903    169.1712     25.7353
   633.0000      8.0872      2.6202      0.1748      1.8052    169.3256     26.1828
   633.1000      8.0872      2.5865      0.0857      3.8456    167.8097     26.4199
   633.2000      8.0872      2.5560      0.0120      5.6967    163.8449     26.4387
   633.3000      8.2852      2.5461      0.0094      6.2994    158.5633     26.3840
   633.4000      8.2852      2.5622      0.0001      5.3237    152.9133     26.5675
   633.5000      8.4596      2.5869      0.0748      3.8271    147.7932     26.9945
   633.6000      8.4596      2.5979      0.0328      3.1573    146.0856     27.2317
   633.7000      8.4596      2.6042     -0.0195      2.7783    147.6648     27.2044
   633.8000      8.3153      2.6202      0.0470      1.8085    149.7680     27.2938
   633.9000      8.3153      2.6308      0.0834      1.1618    150.6061     27.6001
