~Version Information
VERS.                      2.0: CWLS Log ASCII Standard - VERSION 2.0
WRAP.                       NO: One line per depth step
~Well Information Block
STRT.FT               264.2500: 
STOP.FT              1134.7500: 
STEP.FT                 0.2500: 
NULL.                -999.2500: 
COMP.          Pioneer Natural Resources: COMPANY
WELL.          Black Cat 13-32 Tr: WELL
FLD.           Purgatoire River: FIELD
LOC.           1679' FSL & 1150' FWL--: LOCATION
CNTY.               Las Animas: COUNTY
SRVC.                Patterson: SERVICE COMPANY
DATE.          Tue Mar 07 10:58:06 2006: LOG DATE
UWI.           05 071 08721 00: UNIQUE WELL ID
STAT.                 Colorado: STATE
~Curve Information Block
DEPT.FT            0 000 00 00: Depth
SN.Ohm-m                      : IEL Short Normal
SP.mV                         : IEL Spontaneous Potential
DIR.Ohm-m                     : IEL Induction Resistivity
GR.GAPI                       : Gamma Ray
~Parameter Information Block
~A  Depth        SN          SP         DIR          GR     
# ...
   398.2500    581.8799   -565.5896     53.1432     63.4776
   398.5000    583.8510   -565.6614     53.5747     62.2302
   398.7500    585.0764   -565.6702     54.0783     61.7608
   399.0000    586.5851   -565.6140     54.4871     62.1777
   399.2500    588.8751   -565.4976     54.6416     63.0818
   399.5000    591.5770   -565.3312     54.4867     64.6828
   399.7500    593.8268   -565.1295     54.1002     65.6200
   400.0000    594.8221   -564.9082     53.6091     66.7702
   400.2500    593.6882   -564.6833     53.0692     67.4638
   400.5000    588.6116   -564.4692     52.4230     68.6257
   400.7500    576.8234   -564.2785     51.5620     69.6528
   401.0000    556.5344   -564.1212     50.4178     71.9831
   401.2500    529.6936   -564.0048     48.9946     74.3964
   401.5000    501.9949   -563.9334     47.3351     79.8256
   401.7500    479.4975   -563.9080     45.4815     84.6282
   402.0000    466.3329   -563.9258     43.4754     92.7447
   402.2500    465.8233   -563.9814     41.3804     98.0854
   402.5000    480.3842   -564.0666     39.2927    105.3669
   402.7500    507.5904   -564.1717     37.3284    109.7356
   403.0000    538.6054   -564.2868     35.5943    115.5392
   403.2500    563.7548   -564.4027     34.1586    118.7187
   403.5000    578.9526   -564.5119     33.0399    122.2529
   403.7500    585.2767   -564.6088     32.2190    123.8244
   404.0000    583.6558   -564.6899     31.6639    124.8354
   404.2500    571.5765   -564.7534     31.3502    124.3480
   404.5000    544.4141   -564.7978     31.2634    121.9564
   404.7500    499.3668   -564.8222     31.3857    119.9012
   405.0000    438.2084   -564.8254     31.6766    117.5404
   405.2500    367.0471   -564.8067     32.0654    116.8407
   405.5000    294.3479   -564.7661     32.4664    116.8364
   405.7500    229.1206   -564.7050     32.8070    117.2915
   406.0000    178.7544   -564.6269     33.0443    118.7399
   406.2500    146.5789   -564.5371     33.1547    120.3649
   406.5000    131.2557   -564.4429     33.1183    123.6846
   406.7500    128.5916   -564.3519     32.9293    126.2208
   407.0000    133.8421   -564.2715     32.6223    129.8123
   407.2500    143.3021   -564.2069     32.2791    131.4706
   407.5000    155.8777   -564.1605     32.0022    131.8825
   407.7500    174.4212   -564.1310     31.8797    130.6358
   408.0000    204.5799   -564.1144     31.9632    127.1312
   408.2500    250.1465   -564.1046     32.2617    124.2747
   408.5000    307.7195   -564.0943     32.7443    120.0535
   408.7500    365.4352   -564.0759     33.3500    117.6351
   409.0000    408.1367   -564.0421     34.0079    114.6555
   409.2500    427.1753   -563.9851     34.6643    112.6165
   409.5000    427.9546   -563.8946     35.3037    108.2782
   409.7500    425.8348   -563.7556     35.9494    104.2930
   410.0000    430.5620   -563.5452     36.6368     97.6005
   410.2500    435.3412   -563.2283     37.3686     93.5633
   410.5000    424.7017   -562.7537     38.0724     89.2912
   410.7500    392.6985   -562.0506     38.5956     87.9188
   411.0000    349.8622   -561.0250     38.7533     88.2044
   411.2500    311.4120   -559.5594     38.4121     89.9711
   411.5000    281.4716   -557.5135     37.5510     94.6891
   411.7500    251.3744   -554.7232     36.2570     98.5901
   412.0000    212.3376   -551.0137     34.6727    103.8910
   412.2500    166.2698   -546.2138     32.9424    106.3428
   412.5000    123.4522   -540.1764     31.1843    108.6156
   412.7500     92.8541   -532.8139     29.4881    109.9780
   413.0000     76.4477   -524.1410     27.9192    113.1188
   413.2500     70.6921   -514.3220     26.5165    116.2894
   413.5000     70.9812   -503.7123     25.2885    122.3584
   413.7500     74.6437   -492.8776     24.2151    126.6523
   414.0000     80.8932   -482.5718     23.2641    132.0304
   414.2500     88.8802   -473.6611     22.4136    134.2978
   414.5000     96.5963   -466.9969     21.6655    135.6953
   414.7500    102.0467   -463.2532     21.0415    135.7468
   415.0000    104.8246   -462.7771     20.5669    135.3550
   415.2500    105.7651   -465.4872     20.2539    135.1403
   415.5000    105.4847   -470.8607     20.0935    135.3919
   415.7500    104.0628   -478.0171     20.0587    136.1033
   416.0000    101.8734   -485.8829     20.1143    137.7024
   416.2500    100.0096   -493.3926     20.2295    138.6840
   416.5000     99.8512   -499.6745     20.3837    139.3339
   416.7500    102.3763   -504.1748     20.5646    139.0127
   417.0000    107.6895   -506.6902     20.7640    137.2659
   417.2500    115.1687   -507.3080     20.9806    135.2875
   417.5000    124.1395   -506.2756     21.2258    131.5822
   417.7500    134.3017   -503.8391     21.5227    129.2186
   418.0000    145.7088   -500.0955     21.8953    127.0000
   418.2500    159.7193   -494.9023     22.3546    126.7760
   418.5000    180.6165   -487.8654     22.8904    127.8828
   418.7500    213.8345   -478.4066     23.4735    128.7676
   419.0000    259.3563   -465.8905     24.0701    128.7824
   419.2500    307.7080   -449.7881     24.6588    127.4113
   419.5000    345.7921   -429.8484     25.2422    123.3167
   419.7500    366.7598   -406.2469     25.8403    119.6276
   420.0000    372.4913   -379.6920     26.4705    113.7465
   420.2500    368.2313   -351.4664     27.1261    110.3663
   420.5000    358.1808   -323.3949     27.7678    107.1560
   420.7500    346.0891   -297.7215     28.3309    106.3441
   421.0000    336.5458   -276.8856     28.7418    106.2947
   421.2500    333.5569   -263.2194     28.9389    106.3409
   421.5000    339.4145   -258.5977     28.8951    105.6794
   421.7500    356.4922   -264.1002     28.6328    104.6824
   422.0000    387.1895   -279.7615     28.2188    103.1176
   422.2500    428.0235   -304.4803     27.7382    102.8244
   422.5000    464.6003   -336.1345     27.2637    104.5361
   422.7500    477.5983   -371.8984     26.8437    107.0597
   423.0000    457.8371   -408.7026     26.5080    111.7975
   423.2500    417.0701   -443.7233     26.2787    114.6936
   423.5000    383.0806   -474.7898     26.1722    117.1701
   423.7500    380.6389   -500.6118     26.1960    116.9589
   424.0000    413.2642   -520.7953     26.3436    113.7221
   424.2500    461.5939   -535.6790     26.5983    110.1802
   424.5000    499.1242   -546.0697     26.9443    104.3981
   424.7500    510.9154   -552.9666     27.3797    101.1619
   425.0000    500.9478   -557.3414     27.9232     98.1268
   425.2500    485.5486   -560.0079     28.6039     97.1624
   425.5000    479.8354   -561.5742     29.4418     96.1535
   425.7500    487.0551   -562.4556     30.4305     95.1545
   426.0000    498.6090   -562.9153     31.5305     92.9695
   426.2500    504.6071   -563.1133     32.6758     91.1897
   426.5000    504.5845   -563.1440     33.7924     87.7616
   426.7500    507.2298   -563.0646     34.8273     84.5602
   427.0000    520.0577   -562.9124     35.7719     78.4356
   427.2500    541.2778   -562.7160     36.6595     74.2699
   427.5000    562.1852   -562.4992     37.5374     69.6412
   427.7500    575.5092   -562.2809     38.4355     68.1833
   428.0000    580.3326   -562.0797     39.3493     68.3783
   428.2500    580.4446   -561.9154     40.2385     69.6984
   428.5000    579.5228   -561.8078     41.0283     72.1995
   428.7500    577.3792   -561.7748     41.6147     73.2183
   429.0000    569.7736   -561.8264     41.8879     72.6652
   429.2500    551.9487   -561.9594     41.7764     71.2106
   429.5000    523.0115   -562.1527     41.2884     69.2886
   429.7500    487.7985   -562.3661     40.5127     69.2715
   430.0000    455.8247   -562.5414     39.5794     71.7696
   430.2500    438.4455   -562.6052     38.6103     74.8051
   430.5000    443.2069   -562.4715     37.6951     80.6241
   430.7500    466.7034   -562.0413     36.8919     85.0222
   431.0000    493.8452   -561.2017     36.2343     91.6750
   431.2500    507.4242   -559.8212     35.7329     95.3823
   431.5000    499.4320   -557.7457     35.3732     98.4335
