~Version Information
VERS.                      2.0: CWLS Log ASCII Standard - VERSION 2.0
WRAP.                       NO: One line per depth step
~Well Information Block
STRT.FT               742.7000: 
STOP.FT              1614.5000: 
STEP.FT                 0.1000: 
NULL.                -999.2500: 
COMP.          Pioneer Natural Resources: COMPANY
WELL.           Kermit 32-7 Tr: WELL
FLD.           Purgatoire River: FIELD
LOC.           2009' FNL & 2196' FEL: LOCATION
PROV.                 Colorado: PROVINCE
CNTY.               Las Animas: COUNTRY
SRVC.                Patterson: SERVICE COMPANY
DATE.          Mon Jan 16 13:19:56 2006: LOG DATE
UWI.           05 071 08664 00: UNIQUE WELL ID
~Curve Information Block
DEPT.FT            0 000 00 00: Depth
DCAL.in                       : CDL Caliper
RHOB.g/cc                     : CDL Bulk Density
RHOC.g/cc                     : CDL Density Correction
DPOR.pu                       : CDL Density Porosity
GR.GAPI                       : Gamma Ray
~Parameter Information Block
~A  Depth       DCAL        RHOB        RHOC        DPOR         GR     
# ...
  1000.3000      7.8725      2.6108     -0.0405      2.3750    112.7777
  1000.4000      7.8725      2.6236      0.0061      1.5984    106.7769
  1000.5000      7.8787      2.6250      0.0644      1.5155    103.8361
  1000.6000      7.8787      2.6124      0.0149      2.2775    109.6960
  1000.7000      7.8787      2.6027      0.0521      2.8666    120.0305
  1000.8000      7.8911      2.5981      0.0153      3.1438    126.5900
  1000.9000      7.8911      2.5977      0.0305      3.1707    125.9984
  1001.0000      7.8676      2.6063      0.0230      2.6502    123.2099
  1001.1000      7.8676      2.6243     -0.0007      1.5601    122.1780
  1001.2000      7.8676      2.6456      0.0663      0.2683    121.5405
  1001.3000      7.8625      2.6668      0.0311     -1.0160    119.3073
  1001.4000      7.8625      2.6931      0.0573     -2.6131    113.9217
  1001.5000      7.8658      2.7176      0.1011     -4.0940    104.2012
  1001.6000      7.8658      2.7286      0.0405     -4.7606     94.5544
  1001.7000      7.8658      2.7309      0.0561     -4.9004     94.0860
  1001.8000      7.8686      2.7237      0.0863     -4.4684    104.4611
  1001.9000      7.8686      2.6978      0.0217     -2.8965    114.0668
  1002.0000      7.8762      2.6611      0.0255     -0.6730    112.7983
  1002.1000      7.8762      2.6396     -0.0633      0.6284    105.5959
  1002.2000      7.8762      2.6458     -0.0008      0.2524    101.9483
  1002.3000      7.8578      2.6557     -0.0129     -0.3427    101.0790
  1002.4000      7.8578      2.6539     -0.0166     -0.2336     99.5395
  1002.5000      7.8541      2.6494      0.0585      0.0377     99.8755
  1002.6000      7.8541      2.6434      0.0074      0.4014    104.2009
  1002.7000      7.8541      2.6351     -0.0178      0.9015    109.5930
  1002.8000      7.8636      2.6307      0.0146      1.1710    112.7932
  1002.9000      7.8636      2.6311      0.0414      1.1482    109.8795
  1003.0000      7.8769      2.6257      0.0167      1.4735    101.3027
  1003.1000      7.8769      2.6021      0.0190      2.9046     96.2277
  1003.2000      7.8769      2.5546     -0.0036      5.7841    100.6569
  1003.3000      7.8880      2.4909     -0.0212      9.6451    108.5758
  1003.4000      7.8880      2.4323     -0.0601     13.1954    109.3882
  1003.5000      7.8572      2.3922      0.0303     15.6214    102.4042
  1003.6000      7.8572      2.3567      0.0460     17.7737     97.1936
  1003.7000      7.8572      2.3208     -0.0384     19.9490     99.4310
  1003.8000      7.8510      2.3071     -0.0002     20.7847    106.0446
  1003.9000      7.8510      2.3218      0.0366     19.8911    115.1339
  1004.0000      7.8628      2.3484      0.0756     18.2785    127.2591
  1004.1000      7.8628      2.3808      0.1121     16.3173    135.4104
  1004.2000      7.8628      2.4230      0.1769     13.7572    133.1744
  1004.3000      7.8622      2.4648      0.2237     11.2228    130.0008
  1004.4000      7.8622      2.4958      0.1760      9.3445    136.3878
  1004.5000      7.8927      2.5279      0.1620      7.3982    147.2746
  1004.6000      7.8927      2.5709      0.1258      4.7958    153.7278
  1004.7000      7.8927      2.6097      0.1873      2.4398    153.3896
  1004.8000      7.8513      2.6296      0.1741      1.2337    146.7809
  1004.9000      7.8513      2.6437      0.1113      0.3848    137.7438
  1005.0000      7.8626      2.6659      0.1780     -0.9613    131.6367
  1005.1000      7.8626      2.6822      0.1665     -1.9524    129.0838
  1005.2000      7.8626      2.6779      0.1962     -1.6895    127.1979
  1005.3000      7.8850      2.6512      0.1424     -0.0757    124.3558
  1005.4000      7.8850      2.6023      0.0720      2.8892    120.3580
  1005.5000      7.9023      2.5513     -0.0009      5.9791    117.8261
  1005.6000      7.9023      2.5290      0.0274      7.3345    118.2321
  1005.7000      7.9023      2.5382      0.0377      6.7750    118.5825
  1005.8000      7.8702      2.5693      0.0436      4.8917    117.5166
  1005.9000      7.8702      2.6166      0.0681      2.0220    118.3452
  1006.0000      7.8569      2.6601      0.1695     -0.6125    123.6684
  1006.1000      7.8569      2.6809      0.1491     -1.8700    127.6663
  1006.2000      7.8569      2.6879      0.1500     -2.2941    124.5125
  1006.3000      7.8496      2.6928      0.1681     -2.5951    119.5549
  1006.4000      7.8496      2.6928      0.1159     -2.5910    117.9559
  1006.5000      7.8501      2.6795      0.1702     -1.7871    117.2660
  1006.6000      7.8501      2.6454      0.1040      0.2768    115.1426
  1006.7000      7.8501      2.6025      0.0376      2.8791    114.0524
  1006.8000      7.8621      2.5758      0.0294      4.4963    113.7025
  1006.9000      7.8621      2.5750      0.0031      4.5468    113.0241
  1007.0000      7.8766      2.5917      0.0422      3.5330    113.2382
  1007.1000      7.8766      2.6141      0.0429      2.1764    114.1102
  1007.2000      7.8766      2.6311      0.1186      1.1472    112.7243
  1007.3000      7.8762      2.6332      0.0722      1.0158    108.9961
  1007.4000      7.8762      2.6346      0.0369      0.9341    109.4664
  1007.5000      7.8698      2.6576      0.0519     -0.4632    114.4972
  1007.6000      7.8698      2.6906      0.0781     -2.4597    118.0077
  1007.7000      7.8698      2.7060      0.0659     -3.3946    119.6395
  1007.8000      7.8737      2.6969      0.0649     -2.8410    119.2823
  1007.9000      7.8737      2.6742      0.0154     -1.4655    113.8697
  1008.0000      7.8814      2.6549      0.0337     -0.2977    106.1387
  1008.1000      7.8814      2.6493      0.0281      0.0452    103.1317
  1008.2000      7.8814      2.6600      0.0417     -0.6089    105.6224
  1008.3000      7.8711      2.6730      0.0431     -1.3920    105.5838
  1008.4000      7.8711      2.6552      0.0766     -0.3132     99.1842
  1008.5000      7.8697      2.5962      0.0151      3.2586     94.4524
  1008.6000      7.8697      2.5287     -0.0812      7.3487    100.3628
  1008.7000      7.8697      2.4834     -0.0536     10.0965    114.5070
  1008.8000      7.8728      2.4582     -0.0225     11.6261    127.8616
  1008.9000      7.8728      2.4417      0.0014     12.6251    135.6336
  1009.0000      7.8579      2.4292      0.0784     13.3796    139.0560
  1009.1000      7.8579      2.4220      0.0423     13.8203    140.9846
  1009.2000      7.8579      2.4201      0.1301     13.9336    141.3610
  1009.3000      7.8367      2.4314      0.0398     13.2471    140.9420
  1009.4000      7.8367      2.4768      0.0776     10.4975    143.9133
  1009.5000      7.8389      2.5474      0.1852      6.2200    149.3845
  1009.6000      7.8389      2.6163      0.1928      2.0400    150.3140
  1009.7000      7.8389      2.6848      0.2309     -2.1088    140.9728
  1009.8000      7.8326      2.7500      0.2771     -6.0598    124.9252
  1009.9000      7.8326      2.7819      0.2908     -7.9937    110.6733
  1010.0000      7.8564      2.7669      0.2114     -7.0823     98.7826
  1010.1000      7.8564      2.7296      0.1189     -4.8272     85.5097
  1010.2000      7.8564      2.6937      0.1016     -2.6463     74.4398
  1010.3000      7.7944      2.6637      0.0788     -0.8315     70.2993
  1010.4000      7.7944      2.6498     -0.0003      0.0147     71.5101
  1010.5000      7.8395      2.6585      0.0414     -0.5125     73.8187
  1010.6000      7.8395      2.6777      0.0452     -1.6816     74.1720
  1010.7000      7.8395      2.6971      0.0545     -2.8516     73.1833
  1010.8000      7.8469      2.7091      0.1310     -3.5808     74.0092
  1010.9000      7.8469      2.7041      0.0610     -3.2782     73.1755
  1011.0000      7.9021      2.6864      0.0279     -2.2055     67.0836
  1011.1000      7.9021      2.6634      0.0787     -0.8151     60.5033
  1011.2000      7.9021      2.6388      0.0175      0.6816     56.4848
  1011.3000      7.8975      2.6271      0.0377      1.3864     53.9116
  1011.4000      7.8975      2.6413      0.0056      0.5299     54.4426
