~Version Information
 VERS.                                  2.0 : CWLS LAS VERSION
 WRAP.                                   NO : WRAPING MODE
 SWARE .                 MController 2.5.0J : SOFTWARE VERSION
~Well Information
 WELL.                       Montoya 12-44R : WELL
 COMP.                Petrogulf Corporation : COMPANY
 FLD.                      Purgatoire River : FIELD
 LOC.               SE/SE Sec 12 T33S R68W  : LOCATION
 DATE.                             10/01/05 : DATE(S) LOGGED
 SRVC.       BLANCO Geological Services LLC : SERVICE COMPANY
 STAT.                                  CO  : STATE
 CNTY.                           Las Animas : COUNTY
 CTRY.                                  USA : COUNTRY
 API.                       05 071 08538 00 : API NUMBER
 STRT.FT                              22.00 : START DEPTH
 STOP.FT                            2100.00 : STOP DEPTH
 STEP.FT                               1.00 : DEPTH INCREMENT
 NULL.                                -9999 : NULL VALUE
~Curve information
 DEPTH.FT                                   :
 ROP.MIN/FT                                 :
 GAS.UNITS                                  :
~ASCII Log data
# ...
       422.0         0.22         17.3 
       423.0         0.23         17.1 
       424.0         0.17         16.8 
       425.0         0.20         17.1 
       426.0         0.13         16.8 
       427.0         0.17         17.1 
       428.0         0.13         17.0 
       429.0         0.17         16.9 
       430.0         0.23         17.3 
       431.0         0.23         17.0 
       432.0         0.20         17.1 
       433.0         0.23         17.0 
       434.0         0.23         16.3 
       435.0         0.23         16.9 
       436.0         0.23         16.7 
       437.0         0.28         15.9 
       438.0         0.27         16.4 
       439.0         0.23         16.4 
       440.0         0.20         16.4 
       441.0         0.17         16.9 
       442.0         0.23         17.1 
       443.0         0.17         16.2 
       444.0         0.27         17.0 
       445.0         0.33         17.2 
       446.0         6.07         19.3 
       447.0         0.47         17.9 
       448.0         0.27         17.8 
       449.0         0.33         18.1 
       450.0         0.33         18.3 
       451.0         0.33         18.2 
       452.0         0.25         17.6 
       453.0         0.23         18.3 
       454.0         0.40         18.5 
       455.0         0.43         18.5 
       456.0         0.23         18.8 
       457.0         0.30         18.9 
       458.0         0.17         19.0 
       459.0         0.17         18.8 
       460.0         0.20         18.1 
       461.0         0.17         18.5 
       462.0         0.20         18.8 
       463.0         0.23         18.9 
       464.0         0.20         18.9 
       465.0         0.17         19.1 
       466.0         0.18         18.8 
       467.0         0.20         18.9 
       468.0         0.30         19.0 
       469.0         0.30         18.9 
       470.0         0.37         18.7 
       471.0         0.37         18.6 
       472.0         0.50         19.3 
       473.0         0.40         19.2 
       474.0         0.33         19.1 
       475.0         0.30         19.2 
       476.0         2.02         20.1 
       477.0         0.50         19.5 
       478.0         0.33         19.4 
       479.0         0.40         19.2 
       480.0         0.35         19.4 
       481.0         0.40         19.4 
       482.0         0.47         19.4 
       483.0         0.27         19.3 
       484.0         0.30         19.3 
       485.0         0.30         19.6 
       486.0         0.23         18.9 
       487.0         0.27         19.6 
       488.0         0.30         19.4 
       489.0         0.30         19.6 
       490.0         0.38         19.6 
       491.0         0.27         19.6 
       492.0         0.27         19.7 
       493.0         0.23         19.7 
       494.0         0.30         19.4 
       495.0         0.27         19.7 
       496.0         0.30         19.6 
       497.0         0.30         19.9 
       498.0         0.27         19.7 
       499.0         0.13         19.8 
       500.0         0.10         20.0 
       501.0         0.13         20.0 
       502.0         0.17         19.8 
       503.0         0.23         19.9 
       504.0         0.28         19.7 
       505.0         0.20         19.9 
       506.0         2.30         21.1 
       507.0         0.27         20.0 
       508.0         0.37         19.7 
       509.0         0.42         19.8 
       510.0         0.33         20.0 
       511.0         0.23         19.9 
       512.0         0.27         20.1 
       513.0         0.47         20.1 
       514.0         0.33         20.1 
       515.0         0.40         19.4 
       516.0         0.37         20.0 
       517.0         0.57         20.2 
       518.0         0.48         20.0 
       519.0         0.33         20.2 
       520.0         0.23         20.2 
       521.0         0.27         20.0 
       522.0         0.23         19.4 
       523.0         0.20         20.3 
       524.0         0.17         20.3 
       525.0         0.17         20.1 
       526.0         0.27         20.0 
       527.0         0.30         20.3 
       528.0         0.27         20.2 
       529.0         0.30         20.0 
       530.0         0.35         19.9 
       531.0         0.40         19.8 
       532.0         0.53         20.0 
       533.0         0.37         20.0 
       534.0         0.30         19.8 
       535.0         0.33         19.9 
       536.0         1.45         21.2 
       537.0         0.30         19.8 
       538.0         0.30         19.8 
       539.0         0.30         19.7 
       540.0         0.27         20.1 
       541.0         0.27         20.2 
       542.0         0.17         20.2 
       543.0         0.13         20.1 
       544.0         0.23         20.1 
       545.0         0.32         20.0 
       546.0         0.30         19.9 
       547.0         0.33         19.9 
       548.0         0.30         19.8 
       549.0         0.30         19.8 
       550.0         0.23         19.8 
       551.0         0.33         20.8 
       552.0         0.37         22.5 
       553.0         0.63         22.2 
       554.0         0.30         20.9 
       555.0         0.28         23.1 
       556.0         0.23         24.1 
       557.0         0.27         24.3 
       558.0         0.27         24.0 
       559.0         0.30         23.5 
       560.0         0.30         22.7 
       561.0         0.20         21.8 
       562.0         0.23         20.3 
       563.0         0.27         20.0 
       564.0         0.23         19.7 
       565.0         0.20         18.8 
       566.0         1.35         58.2 
       567.0         0.23         37.3 
       568.0         0.20         27.7 
       569.0         0.30         23.7 
       570.0         0.33         21.1 
       571.0         0.30         20.1 
       572.0         0.27         19.8 
       573.0         0.20         19.8 
       574.0         0.20         20.2 
       575.0         0.27         22.4 
       576.0         0.28         24.6 
       577.0         0.27         26.4 
       578.0         0.27         26.8 
       579.0         0.30         27.4 
       580.0         0.33         26.6 
       581.0         0.30         23.6 
       582.0         0.33         20.7 
       583.0         0.33         19.7 
       584.0         0.33         19.6 
       585.0         0.40         19.6 
       586.0         0.30         18.9 
       587.0         0.28         19.4 
       588.0         0.30         19.5 
       589.0         0.23         19.8 
       590.0         0.30         22.0 
       591.0         0.33         24.3 
       592.0         0.30         26.0 
       593.0         0.30         27.1 
       594.0         0.37         27.2 
       595.0         0.33         25.5 
       596.0         1.72         77.3 
       597.0         0.43         42.4 
       598.0         0.37         22.4 
       599.0         0.37         20.6 
       600.0         0.27         19.5 
       601.0         0.30         19.2 
       602.0         0.27         19.3 
       603.0         0.25         19.1 
       604.0         0.30         20.0 
       605.0         0.57         19.9 
       606.0         0.27         19.2 
       607.0         0.27         19.4 
       608.0         0.30         19.7 
       609.0         0.27         20.2 
       610.0         0.30         20.5 
       611.0         0.23         20.4 
       612.0         0.27         20.0 
       613.0         0.23         20.2 
       614.0         0.22         20.4 
       615.0         0.13         20.0 
       616.0         0.20         20.1 
       617.0         0.27         19.6 
       618.0         0.27         19.1 
       619.0         0.20         18.8 
       620.0         0.23         18.9 
       621.0         0.23         19.0 
