~Version Information
VERS.                      2.0: CWLS Log ASCII Standard - VERSION 2.0
WRAP.                       NO: One line per depth step
~Well Information Block
STRT.FT               350.0000: 
STOP.FT              2808.2500: 
STEP.FT                 0.2500: 
NULL.                -999.2500: 
COMP.          Pioneer Natural Resources: COMPANY
WELL.          Grey Goose 33-30: WELL
FLD.           Purgatoire River: FIELD
LOC.           2136' FSL & 2065' FEL--: LOCATION
STAT.                 Colorado: State
CNTY.               Las Animas: COUNTY
CTRY. USA : Country
SECT. 30 : Section
TOWN. 32S : Township
RANG. 67W : Range
SRVC.                Patterson: SERVICE COMPANY
DATE.          Fri Nov 04 09:00:45 2005: LOG DATE
API.           05 071 08546 00: UNIQUE WELL ID
~Curve Information Block
DEPT.FT            0 000 00 00: Depth
DIR.Ohm-m                     : IEL Induction Resistivity
SN.Ohm-m                      : IEL Short Normal
SP.mV                         : IEL Spontaneous Potential
GR.GAPI                       : Gamma Ray
~Parameter Information Block
~A  Depth       DIR          SN          SP          GR     
# ...
  1958.0000     19.0356     22.9723     14.3890     99.3972
  1958.2500     19.6494     23.6309     14.2350    100.7002
  1958.5000     20.1639     24.2200     13.9875    102.8612
  1958.7500     20.6444     24.7472     13.6436    103.9593
  1959.0000     21.1496     25.2295     13.2057    104.3896
  1959.2500     21.7127     25.6898     12.6784    103.5282
  1959.5000     22.3315     26.1485     12.0679    100.1312
  1959.7500     22.9741     26.6295     11.3829     96.4712
  1960.0000     23.5970     27.1742     10.6354     89.5025
  1960.2500     24.1617     27.8359      9.8414     84.5599
  1960.5000     24.6420     28.6455      9.0200     77.9707
  1960.7500     25.0226     29.5792      8.1921     74.5767
  1961.0000     25.2984     30.5636      7.3792     71.1560
  1961.2500     25.4732     31.5083      6.6028     70.0390
  1961.5000     25.5537     32.3265      5.8859     70.4987
  1961.7500     25.5383     32.9280      5.2540     72.3777
  1962.0000     25.4082     33.2107      4.7367     76.7657
  1962.2500     25.1230     33.0715      4.3685     79.5841
  1962.5000     24.6242     32.4287      4.1868     81.7460
  1962.7500     23.8512     31.2400      4.2282     81.5736
  1963.0000     22.7693     29.5145      4.5225     80.0066
  1963.2500     21.3996     27.3303      5.0866     78.9129
  1963.5000     19.8281     24.8483      5.9187     78.1291
  1963.7500     18.1819     22.2942      6.9953     78.6483
  1964.0000     16.5879     19.8966      8.2722     82.0698
  1964.2500     15.1372     17.8095      9.6881     86.7157
  1964.5000     13.8725     16.0775     11.1718     97.4638
  1964.7500     12.7955     14.6601     12.6511    106.5383
  1965.0000     11.8836     13.4854     14.0613    120.8653
  1965.2500     11.1068     12.4918     15.3515    129.4816
  1965.5000     10.4390     11.6427     16.4888    139.4076
  1965.7500      9.8644     10.9204     17.4587    143.8895
  1966.0000      9.3766     10.3155     18.2632    148.1776
  1966.2500      8.9754      9.8194     18.9169    149.9492
  1966.5000      8.6613      9.4210     19.4424    151.4082
  1966.7500      8.4320      9.1074     19.8653    151.5365
  1967.0000      8.2801      8.8682     20.2102    150.1092
  1967.2500      8.1937      8.6987     20.4972    147.8815
  1967.5000      8.1577      8.5960     20.7399    142.7291
  1967.7500      8.1577      8.5525     20.9449    138.4558
  1968.0000      8.1820      8.5568     21.1125    131.4850
  1968.2500      8.2234      8.5987     21.2393    126.7551
  1968.5000      8.2779      8.6713     21.3208    120.2465
  1968.7500      8.3425      8.7667     21.3543    117.0044
  1969.0000      8.4149      8.8734     21.3415    114.8260
  1969.2500      8.4939      8.9781     21.2889    115.0762
  1969.5000      8.5806      9.0713     21.2077    116.4300
  1969.7500      8.6774      9.1494     21.1124    116.7871
  1970.0000      8.7855      9.2133     21.0186    115.3062
  1970.2500      8.9021      9.2667     20.9410    113.0440
  1970.5000      9.0194      9.3156     20.8912    108.7104
  1970.7500      9.1270      9.3659     20.8765    105.9063
  1971.0000      9.2145      9.4180     20.8989    102.9010
  1971.2500      9.2743      9.4615     20.9541    102.0854
  1971.5000      9.3022      9.4806     21.0327    102.7690
  1971.7500      9.2980      9.4656     21.1202    104.3316
  1972.0000      9.2655      9.4232     21.1986    107.8026
  1972.2500      9.2122      9.3750     21.2480    110.4666
  1972.5000      9.1496      9.3466     21.2484    114.3606
  1972.7500      9.0908      9.3575     21.1813    116.6640
  1973.0000      9.0491      9.4181     21.0313    119.5046
  1973.2500      9.0375      9.5323     20.7878    120.9686
  1973.5000      9.0691      9.7001     20.4451    122.5134
  1973.7500      9.1582      9.9206     20.0035    122.9431
  1974.0000      9.3206     10.1956     19.4677    121.9830
  1974.2500      9.5714     10.5277     18.8462    119.8827
  1974.5000      9.9224     10.9160     18.1495    114.6049
  1974.7500     10.3790     11.3558     17.3887    110.1503
  1975.0000     10.9400     11.8439     16.5743    102.9356
  1975.2500     11.6013     12.3883     15.7168     97.9594
  1975.5000     12.3596     13.0183     14.8264     90.3146
  1975.7500     13.2139     13.7911     13.9146     85.4173
  1976.0000     14.1615     14.7813     12.9942     79.3732
  1976.2500     15.1915     16.0441     12.0803     76.5517
  1976.5000     16.2797     17.5634     11.1894     73.8125
  1976.7500     17.3898     19.2218     10.3388     72.5485
  1977.0000     18.4752     20.8274      9.5459     71.0016
  1977.2500     19.4802     22.1947      8.8263     70.1501
  1977.5000     20.3458     23.2222      8.1934     69.2846
  1977.7500     21.0239     23.9086      7.6570     69.0717
  1978.0000     21.4963     24.3140      7.2219     69.4031
  1978.2500     21.7800     24.5113      6.8880     70.1582
  1978.5000     21.9149     24.5578      6.6494     72.4037
  1978.7500     21.9457     24.4897      6.4967     74.9089
  1979.0000     21.9116     24.3326      6.4180     80.7435
  1979.2500     21.8434     24.1112      6.4027     86.1898
  1979.5000     21.7620     23.8449      6.4436     95.9226
  1979.7500     21.6734     23.5333      6.5388    102.2172
  1980.0000     21.5643     23.1476      6.6917    108.8361
  1980.2500     21.4037     22.6427      6.9086    110.4743
  1980.5000     21.1546     21.9899      7.1953    108.9013
  1980.7500     20.7968     21.2149      7.5528    105.8666
  1981.0000     20.3475     20.4163      7.9742     99.8939
  1981.2500     19.8647     19.7449      8.4426     96.1993
  1981.5000     19.4295     19.3442      8.9322     93.9794
  1981.7500     19.1190     19.2906      9.4101     96.1601
  1982.0000     18.9834     19.5712      9.8406    104.6751
  1982.2500     19.0337     20.0963     10.1907    111.5167
  1982.5000     19.2397     20.7327     10.4347    117.5825
  1982.7500     19.5412     21.3607     10.5591    116.2890
  1983.0000     19.8755     21.9460     10.5642    106.3101
  1983.2500     20.2132     22.5718     10.4645     96.4845
  1983.5000     20.5802     23.3937     10.2851     81.5779
  1983.7500     21.0473     24.5376     10.0569     73.4088
  1984.0000     21.6933     26.0077      9.8111     65.2512
  1984.2500     22.5658     27.6672      9.5738     62.6006
  1984.5000     23.6590     29.3068      9.3627     61.7087
  1984.7500     24.9136     30.7485      9.1865     62.0480
  1985.0000     26.2350     31.9090      9.0452     62.5498
  1985.2500     27.5191     32.7967      8.9328     62.9126
  1985.5000     28.6738     33.4723      8.8394     64.2557
  1985.7500     29.6368     34.0122      8.7534     65.7022
  1986.0000     30.3912     34.4896      8.6627     67.7558
  1986.2500     30.9706     34.9675      8.5554     68.5132
  1986.5000     31.4452     35.4921      8.4193     68.6333
  1986.7500     31.8960     36.0881      8.2425     68.3116
  1987.0000     32.3924     36.7583      8.0134     67.5577
  1987.2500     32.9797     37.4855      7.7209     66.8046
  1987.5000     33.6645     38.2387      7.3553     64.9257
  1987.7500     34.3960     38.9862      6.9093     63.0328
  1988.0000     35.0619     39.7097      6.3793     59.4505
  1988.2500     35.5198     40.4077      5.7670     56.9632
  1988.5000     35.6672     41.0865      5.0816     53.8232
  1988.7500     35.5049     41.7466      4.3418     52.3146
  1989.0000     35.1417     42.3705      3.5783     50.7186
  1989.2500     34.7324     42.9128      2.8348     49.8091
  1989.5000     34.3951     43.2921      2.1679     48.2059
  1989.7500     34.1543     43.3896      1.6448     46.8407
  1990.0000     33.9224     43.0557      1.3381     44.5833
  1990.2500     33.5157     42.1291      1.3182     43.3592
  1990.5000     32.7114     40.4736      1.6437     42.7434
  1990.7500     31.3384     38.0394      2.3525     43.4348
  1991.0000     29.3673     34.9280      3.4532     46.4266
  1991.2500     26.9403     31.4140      4.9210     49.9896
