~Version Information
VERS.                      2.0: CWLS Log ASCII Standard - VERSION 2.0
WRAP.                       NO: One line per depth step
~Well Information Block
STRT.FT                -9.5000: 
STOP.FT              1304.7500: 
STEP.FT                 0.2500: 
NULL.                -999.2500: 
COMP.          Pioneer Natural Resources: COMPANY
WELL.            Hamburg 43-35: WELL
FLD.           Purgatorie River: FIELD
LOC.           2444' FSL & 950' FEL--: LOCATION
PROV.                       CO: PROVINCE
CNTY.               Las Animas: COUNTRY
SRVC.          Patterson Wireline: SERVICE COMPANY
DATE.          Thu Dec 08 14:29:45 2005: LOG DATE
UWI.           08 071 08607 00: UNIQUE WELL ID
~Curve Information Block
DEPT.FT            0 000 00 00: Depth
CCL.                          : Casing Collar Locator
TT3.usec                      : CBL 3' Travel Time
AMP3.mV                       : CBL 3' Amplitude
GR.GAPI                       : Gamma Ray
~Parameter Information Block
~A  Depth       CCL         TT3         AMP3         GR     
# ...
   158.0000      0.0000    835.8951     13.4637     74.8852
   158.2500      0.0000    848.4008     13.2143     72.2864
   158.5000      0.0000    862.1840     13.0655     70.3874
   158.7500      0.0000    872.9398     13.0671     70.5530
   159.0000      0.0000    875.0329     13.1767     72.9184
   159.2500      0.0000    866.2170     13.2794     75.8490
   159.5000      0.0000    850.0094     13.2430     77.0324
   159.7500      0.0000    833.1074     12.9746     75.4575
   160.0000      0.0000    823.2253     12.4514     72.3235
   160.2500      0.0000    830.0876     11.7333     69.8639
   160.5000      0.0000    862.7804     10.9600     69.3096
   160.7500      0.0000    920.2028     10.3147     69.9735
   161.0000      0.0000    985.8445      9.9581     70.0143
   161.2500      0.0000   1037.6440      9.9587     68.0358
   161.5000      0.0000   1064.0612     10.2637     64.3026
   161.7500      2.0000   1068.7811     10.7303     60.6768
   162.0000      2.0000   1061.8552     11.2022     59.2515
   162.2500      0.0000   1049.7446     11.5944     60.8513
   162.5000      0.0000   1030.9888     11.9603     64.6627
   162.7500      0.0000    996.8653     12.4959     68.9418
   163.0000      0.0000    940.2202     13.3961     72.0873
   163.2500      0.0000    869.9554     14.5949     73.5155
   163.5000      0.0000    812.2910     15.6666     73.6874
   163.7500      0.0000    789.8550     16.1221     73.3784
   164.0000      0.0000    801.4489     15.8343     73.2960
   164.2500      0.0000    826.4115     15.1086     74.2612
   164.5000      0.0000    845.1972     14.3642     76.8359
   164.7500      0.0000    851.8998     13.8355     80.4426
   165.0000      0.0000    851.0966     13.5351     83.5703
   165.2500      0.0000    849.1320     13.3782     85.3241
   165.5000      0.0000    850.1583     13.2934     86.3472
   165.7500      0.0000    856.9304     13.2597     87.7550
   166.0000      0.0000    869.7159     13.2874     89.4922
   166.2500      0.0000    882.5719     13.3781     90.3867
   166.5000      0.0000    884.9611     13.5032     89.9286
   166.7500      0.0000    871.3467     13.6184     89.4447
   167.0000      0.0000    847.4006     13.6966     91.1096
   167.2500      0.0000    824.3593     13.7443     95.8304
   167.5000      0.0000    809.4239     13.7826    102.0051
   167.7500      0.0000    803.2400     13.8188    106.2074
   168.0000      0.0000    803.8602     13.8419    105.4758
   168.2500      0.0000    809.9244     13.8406     99.5981
   168.5000      0.0000    819.9084     13.8198     91.4781
   168.7500      0.0000    830.0386     13.7954     85.2073
   169.0000      0.0000    835.2803     13.7814     83.3400
   169.2500      0.0000    833.5972     13.7905     85.3053
   169.5000      0.0000    828.3010     13.8428     88.0246
   169.7500      0.0000    824.8210     13.9551     88.3507
   170.0000      0.0000    825.6629     14.1147     85.3646
   170.2500      0.0000    829.0015     14.2741     80.5602
   170.5000      0.0000    831.3357     14.3836     76.2748
   170.7500      0.0000    831.0662     14.4259     74.2773
   171.0000      0.0000    829.7821     14.4134     75.3363
   171.2500      0.0000    830.0751     14.3644     79.3410
   171.5000      0.0000    832.4433     14.2930     85.5936
   171.7500      0.0000    835.1320     14.2156     93.0631
   172.0000      0.0000    836.6993     14.1501    100.4195
   172.2500      0.0000    837.4015     14.1099    106.0199
   172.5000      0.0000    838.0455     14.1030    108.2760
   172.7500      0.0000    838.6255     14.1334    106.4844
   173.0000      0.0000    838.3092     14.1923    101.5752
   173.2500      0.0000    836.0289     14.2535     95.9156
   173.5000      0.0000    831.0651     14.2936     91.8723
   173.7500      0.0000    823.7574     14.3152     90.2234
   174.0000      0.0000    815.9610     14.3345     90.1603
   174.2500      0.0000    810.5684     14.3516     90.7880
   174.5000      0.0000    810.1806     14.3531     92.0045
   174.7500      0.0000    815.7478     14.3427     93.6922
   175.0000      0.0000    825.7963     14.3512     94.8345
   175.2500      0.0000    837.0048     14.4141     94.2325
   175.5000      0.0000    846.4451     14.5441     91.8946
   175.7500      0.0000    853.8737     14.7210     89.0233
   176.0000      0.0000    861.3738     14.9001     86.5190
   176.2500      0.0000    870.3094     15.0421     84.0480
   176.5000      0.0000    879.0269     15.1423     80.9515
   176.7500      0.0000    884.1564     15.2309     77.7018
   177.0000      0.0000    884.0518     15.3339     75.9863
   177.2500      0.0000    880.5823     15.4292     77.3213
   177.5000      0.0000    877.6340     15.4511     81.6563
   177.7500      0.0000    877.9280     15.3553     87.2977
   178.0000      0.0000    880.7823     15.1770     92.2545
   178.2500      0.0000    882.6713     15.0058     95.4753
   178.5000      0.0000    880.6185     14.8993     96.6619
   178.7500      0.0000    875.6025     14.8456     95.5620
   179.0000      0.0000    872.0508     14.8116     92.3857
   179.2500      0.0000    873.3661     14.7986     88.6724
   179.5000      0.0000    878.3743     14.8304     86.6335
   179.7500      0.0000    882.9687     14.9020     87.3738
   180.0000      0.0000    885.1670     14.9550     90.2884
   180.2500      0.0000    887.4474     14.9083     94.0355
   180.5000      0.0000    893.4857     14.7225     97.3676
   180.7500      0.0000    903.8209     14.4396     99.0886
   181.0000      0.0000    915.9672     14.1479     98.0450
   181.2500      0.0000    927.7009     13.9075     93.5130
   181.5000      0.0000    938.4320     13.7178     85.6096
   181.7500      0.0000    948.1354     13.5557     75.6292
   182.0000      0.0000    957.5458     13.4208     66.0140
   182.2500      0.0000    969.7866     13.3324     59.4014
   182.5000      0.0000    988.8384     13.2937     57.2480
   182.7500      0.0000   1014.3002     13.2752     59.1171
   183.0000      0.0000   1039.2235     13.2349     63.1606
   183.2500      0.0000   1054.4528     13.1555     67.5669
   183.5000      0.0000   1054.3778     13.0688     71.7031
   183.7500      0.0000   1039.7961     13.0419     75.6375
   184.0000      0.0000   1018.5774     13.1306     79.0010
   184.2500      0.0000   1003.0478     13.3425     81.2166
   184.5000      0.0000   1001.7418     13.6397     82.6461
   184.7500      0.0000   1011.1803     13.9700     84.4911
   185.0000      0.0000   1017.9948     14.2929     87.4195
   185.2500      0.0000   1010.9995     14.5821     90.8246
   185.5000      0.0000    990.4775     14.8078     93.4309
   185.7500      0.0000    965.7143     14.9355     94.3532
   186.0000      0.0000    945.5863     14.9476     93.6683
   186.2500      0.0000    932.6000     14.8614     92.2358
   186.5000      0.0000    924.1091     14.7207     91.1201
   186.7500      0.0000    916.7249     14.5780     91.0725
   187.0000      0.0000    909.1581     14.4805     92.3014
   187.2500      0.0000    901.6811     14.4536     94.4665
   187.5000      0.0000    893.6116     14.4862     96.8282
   187.7500      0.0000    882.2708     14.5423     98.5906
   188.0000      0.0000    865.7171     14.5940     99.2129
   188.2500      0.0000    846.8289     14.6395     98.2982
   188.5000      0.0000    833.3105     14.6932     95.4202
   188.7500      0.0000    832.3838     14.7727     90.5541
   189.0000      0.0000    844.9235     14.8938     84.6493
   189.2500      0.0000    863.5674     15.0572     79.3131
   189.5000      0.0000    875.4055     15.2384     75.8290
   189.7500      0.0000    869.1317     15.4059     74.6082
   190.0000      0.0000    843.7028     15.5504     75.3530
   190.2500      0.0000    809.7565     15.6831     77.4215
   190.5000      0.0000    780.5932     15.8089     80.0645
   190.7500      0.0000    762.5525     15.9152     82.5554
   191.0000      0.0000    754.1069     15.9824     84.3678
   191.2500      0.0000    750.9247     15.9896     85.5032
