~Version Information
VERS.                      2.0: CWLS Log ASCII Standard - VERSION 2.0
WRAP.                       NO: One line per depth step
~Well Information Block
STRT.FT               -12.0000: 
STOP.FT              1728.0000: 
STEP.FT                 0.2500: 
NULL.                -999.2500: 
COMP.          XTO Energy Inc.: COMPANY
WELL.          Apache Canyon 35-06: WELL
FLD.              Vermejo Coal: FIELD
LOC.           2422' FNL & 1889' FWL--: LOCATION
STAT.                       CO: State
CNTY.               Las Animas: COUNTY
CTRY. USA : Country
SECT.  : Section
TOWN.  : Township
RANG.  : Range
SRVC.          Patterson Wireline: SERVICE COMPANY
DATE.          Fri Jan 06 08:11:44 2006: LOG DATE
API.              05 071 08540: UNIQUE WELL ID
~Curve Information Block
DEPT.FT            0 000 00 00: Depth
CCL.                          : Casing Collar Locator
TT3.usec                      : CBL 3' Travel Time
AMP3.mV                       : CBL 3' Amplitude
GR.GAPI                       : Gamma Ray
~Parameter Information Block
~A  Depth       CCL         TT3         AMP3         GR     
   -12.0000   -999.2500   -999.2500   -999.2500     96.6580
   -11.7500   -999.2500   -999.2500   -999.2500     96.6583
   -11.5000   -999.2500   -999.2500   -999.2500     95.7858
   -11.2500   -999.2500   -999.2500   -999.2500     92.3570
   -11.0000   -999.2500   -999.2500   -999.2500     86.1551
   -10.7500   -999.2500   -999.2500   -999.2500     78.8743
   -10.5000   -999.2500   -999.2500   -999.2500     72.9384
   -10.2500   -999.2500   -999.2500   -999.2500     70.1541
   -10.0000   -999.2500   -999.2500   -999.2500     71.3011
    -9.7500   -999.2500   -999.2500   -999.2500     76.2760
    -9.5000   -999.2500   -999.2500   -999.2500     83.9295
    -9.2500   -999.2500   -999.2500   -999.2500     91.9669
    -9.0000   -999.2500   -999.2500   -999.2500     97.9403
    -8.7500   -999.2500   -999.2500   -999.2500    100.9059
    -8.5000   -999.2500   -999.2500   -999.2500    101.8634
    -8.2500   -999.2500   -999.2500   -999.2500    102.2643
    -8.0000   -999.2500   -999.2500   -999.2500    102.3286
    -7.7500   -999.2500   -999.2500   -999.2500    101.0710
    -7.5000   -999.2500   -999.2500   -999.2500     97.6753
    -7.2500   -999.2500   -999.2500   -999.2500     92.3413
    -7.0000   -999.2500   1167.0000      2.7330     85.8369
    -6.7500   -999.2500   1167.0000      2.7279     78.7821
    -6.5000   -999.2500   1167.0000      2.7246     71.6630
    -6.2500   -999.2500   1167.0000      2.7238     65.3035
    -6.0000   -999.2500   1167.0000      2.7243     60.8015
    -5.7500   -999.2500   1167.0000      2.7239     58.6535
    -5.5000   -999.2500   1167.0000      2.7215     57.9910
    -5.2500   -999.2500   1167.0000      2.7198     57.0025
    -5.0000   -999.2500   1167.0000      2.7236     54.3340
    -4.7500   -999.2500   1167.0000      2.7357     50.2001
    -4.5000   -999.2500   1167.0000      2.7527     46.2851
    -4.2500   -999.2500   1167.0000      2.7666     44.5576
    -4.0000   -999.2500   1167.0000      2.7712     45.8640
    -3.7500   -999.2500   1167.0000      2.7670     49.4163
    -3.5000   -999.2500   1167.0000      2.7607     53.6333
    -3.2500   -999.2500   1167.0000      2.7584     57.4881
    -3.0000   -999.2500   1167.0000      2.7609     61.1150
    -2.7500   -999.2500   1167.0000      2.7640     65.3620
    -2.5000   -999.2500   1167.0000      2.7633     70.7263
    -2.2500   -999.2500   1167.0000      2.7582     76.4447
    -2.0000   -999.2500   1167.0000      2.7519     80.6102
    -1.7500   -999.2500   1167.0000      2.7487     81.4488
    -1.5000      2.0000   1167.0000      2.7502     78.6357
    -1.2500      0.0000   1167.0000      2.7545     73.4706
    -1.0000      0.0000   1167.0000      2.7581     67.8810
    -0.7500      0.0000   1167.0000      2.7596     63.1261
    -0.5000      0.0000   1167.0000      2.7605     59.1073
    -0.2500      0.0000   1167.0000      2.7630     54.8544
     0.0000      0.0000   1167.0000      2.7676     49.8762
     0.2500      2.0000   1167.0000      2.7740     44.9976
     0.5000      0.0000   1167.0000      2.7889     41.0734
     0.7500      0.0000   1167.0000      2.7901     42.8705
     1.0000      0.0000   1167.0000      2.7798     46.2044
     1.2500      0.0000   1167.0000      2.7567     49.8493
     1.5000      0.0000   1167.0000      2.7265     52.7661
     1.7500      0.0000   1167.0000      2.6995     54.5130
     2.0000      0.0000   1167.0000      2.6837     55.1541
     2.2500      0.0000   1167.0000      2.6802     54.6463
     2.5000      0.0000   1167.0000      2.6854     52.6530
     2.7500      0.0000   1166.9799      2.6970     49.2382
     3.0000      0.0000   1166.8434      2.7150     45.4741
     3.2500      0.0000   1166.1075      2.7446     43.0243
     3.5000      0.0000   1163.0681      2.8088     43.1180
     3.7500      0.0000   1153.0955      3.0185     45.8005
     4.0000      0.0000   1126.8958      3.7454     49.7715
     4.2500      0.0000   1071.2679      5.8850     52.9534
     4.5000      0.0000    974.9247     10.9138     53.8334
     4.7500      0.0000    837.8743     20.2032     52.5704
     5.0000      0.0000    677.3844     33.6218     50.5251
     5.2500      0.0000    523.1717     48.7519     48.6701
     5.5000      0.0000    402.4922     62.0741     46.8906
     5.7500      0.0000    326.3019     71.2784     44.8854
     6.0000      0.0000    287.8480     76.3605     43.1270
     6.2500      0.0000    272.4552     78.7457     42.4029
     6.5000      0.0000    267.6057     79.8674     42.6556
     6.7500      0.0000    266.4208     80.5251     42.8947
     7.0000      0.0000    266.2139     81.0038     42.3644
     7.2500      0.0000    266.2028     81.3750     41.3520
     7.5000      0.0000    266.2225     81.6667     40.6018
     7.7500      0.0000    266.2382     81.9030     40.2616
     8.0000      0.0000    266.2507     82.0911     39.8035
     8.2500      0.0000    266.2603     82.2244     38.8295
     8.5000      0.0000    266.2668     82.3015     37.5826
     8.7500      0.0000    266.2696     82.3456     36.6515
     9.0000      0.0000    266.2681     82.3979     36.3713
     9.2500      0.0000    266.2620     82.4856     36.6597
     9.5000      0.0000    266.2524     82.6037     37.3892
     9.7500      0.0000    266.2422     82.7363     38.6161
    10.0000      0.0000    266.2352     82.8814     40.3268
    10.2500      0.0000    266.2340     83.0411     42.2985
    10.5000      0.0000    266.2381     83.1978     44.3595
    10.7500      0.0000    266.2436     83.3169     46.5109
    11.0000      0.0000    266.2458     83.3772     48.7607
    11.2500      0.0000    266.2423     83.3900     51.1329
    11.5000      0.0000    266.2344     83.3834     53.8215
    11.7500      0.0000    266.2247     83.3712     57.0289
    12.0000      0.0000    266.2155     83.3386     60.5988
    12.2500      0.0000    266.2081     83.2385     63.9919
    12.5000      0.0000    266.2084     82.9627     66.7308
    12.7500      0.0000    266.2376     82.2751     68.8245
    13.0000      0.0000    266.3708     80.7799     70.6008
    13.2500      0.0000    266.8198     78.0434     72.0099
    13.5000      0.0000    268.0476     73.8555     72.3411
    13.7500      0.0000    270.7796     68.4048     70.9186
    14.0000      0.0000    275.6745     62.1738     67.7652
    14.2500      0.0000    282.7108     55.6691     63.3312
    14.5000      0.0000    290.9365     49.2527     58.1887
    14.7500      0.0000    299.1866     43.1524     53.3487
    15.0000      0.0000    307.3347     37.5274     50.1111
    15.2500      0.0000    316.9254     32.4981     49.0441
    15.5000      0.0000    330.7914     28.1368     49.5739
    15.7500      0.0000    351.9404     24.4481     50.8304
    16.0000      0.0000    381.1993     21.3779     52.4242
    16.2500      0.0000    413.7405     18.8705     54.3449
    16.5000      0.0000    438.7813     16.9226     56.7112
    16.7500      0.0000    446.8498     15.5562     59.8500
    17.0000      0.0000    439.6759     14.7369     64.2224
    17.2500      0.0000    430.2182     14.3388     69.9661
    17.5000      0.0000    429.8313     14.1933     76.4324
    17.7500      0.0000    436.1917     14.1614     82.1653
    18.0000      0.0000    436.4362     14.1663     85.5607
    18.2500      0.0000    421.9916     14.1780     85.8867
    18.5000      0.0000    397.2969     14.1837     83.8444
    18.7500      0.0000    373.5959     14.1708     81.1154
    19.0000      0.0000    358.0798     14.1308     79.3232
    19.2500      0.0000    350.7076     14.0704     79.3459
    19.5000      0.0000    348.0805     14.0134     81.2176
    19.7500      0.0000    347.3159     13.9859     84.1730
    20.0000      0.0000    347.0272     14.0004     86.8347
    20.2500      0.0000    346.7757     14.0536     87.9725
    20.5000      0.0000    346.4925     14.1331     87.3158
    20.7500      0.0000    346.1716     14.2261     85.4377
    21.0000      0.0000    345.8141     14.3237     83.0011
    21.2500      0.0000    345.4221     14.4196     80.4575
