~Version Information
 VERS.                                  2.0 : CWLS LAS VERSION
 WRAP.                                   NO : WRAPING MODE
 SWARE .                 MController 2.5.0J : SOFTWARE VERSION
~Well Information
 WELL.                     Montoya 18-11V B : WELL
 COMP.                 Petrogulf Corporation: COMPANY
 FLD.                      Purgatoire River : FIELD
 LOC.                NW/NW Sec 18 T33S R67W : LOCATION
 DATE.                            10/3-4/05 : DATE(S) LOGGED
 SRVC.       BLANCO Geological Services LLC : SERVICE COMPANY
 STAT.                                   CO : STATE
 CNTY.                           Las Animas : COUNTY
 CTRY.                                  USA : COUNTRY
 API.                       05-071-08539-00 : API NUMBER
 STRT.FT                              86.00 : START DEPTH
 STOP.FT                            2495.00 : STOP DEPTH
 STEP.FT                               1.00 : DEPTH INCREMENT
 NULL.                                9999 : NULL VALUE
~Curve information
 DEPTH.FT                                   :
 ROP.MIN/FT                                 :
 GAS.UNITS                                  :
~ASCII Log data 
# ...
      1486.0         0.30          8.5 
      1487.0         0.30          8.4 
      1488.0         0.30          8.5 
      1489.0         0.32          8.9 
      1490.0         0.33          8.8 
      1491.0         0.33          8.3 
      1492.0         0.27          8.8 
      1493.0         0.23          8.5 
      1494.0         0.23          8.6 
      1495.0         0.33          8.7 
      1496.0         0.43          8.5 
      1497.0         0.30          8.0 
      1498.0         0.30          8.8 
      1499.0         0.23          9.3 
      1500.0         3.32         16.6 
      1501.0         0.25          9.8 
      1502.0         0.17          9.9 
      1503.0         0.30         10.0 
      1504.0         0.37         10.1 
      1505.0         0.53          9.6 
      1506.0         0.57          9.0 
      1507.0         0.33          9.0 
      1508.0         0.37          8.7 
      1509.0         0.37          9.0 
      1510.0         0.38          9.0 
      1511.0         0.30          8.6 
      1512.0         0.37          8.8 
      1513.0         0.33          9.1 
      1514.0         0.37          9.3 
      1515.0         0.33          9.0 
      1516.0         0.30          8.9 
      1517.0         0.33          8.9 
      1518.0         0.33          8.8 
      1519.0         0.35          8.9 
      1520.0         0.33          9.0 
      1521.0         0.27          9.2 
      1522.0         0.37          9.0 
      1523.0         0.30          8.8 
      1524.0         0.37          8.9 
      1525.0         0.33          8.6 
      1526.0         0.33          8.3 
      1527.0         0.37          8.6 
      1528.0         0.43          9.2 
      1529.0         0.32         11.4 
      1530.0         2.23         14.0 
      1531.0         0.43         10.0 
      1532.0         0.45          9.7 
      1533.0         0.47          9.6 
      1534.0         0.43          9.6 
      1535.0         0.40          9.5 
      1536.0         0.43          9.5 
      1537.0         0.40          9.3 
      1538.0         0.37          9.5 
      1539.0         0.37          9.2 
      1540.0         0.33          9.9 
      1541.0         0.32          9.9 
      1542.0         0.40          9.9 
      1543.0         0.13          9.6 
      1544.0         0.17          9.6 
      1545.0         0.17          9.5 
      1546.0         0.20          9.7 
      1547.0         0.20          9.4 
      1548.0         0.17          9.4 
      1549.0         0.30          9.5 
      1550.0         0.40          9.7 
      1551.0         0.30          9.3 
      1552.0         0.37          9.6 
      1553.0         0.28          9.8 
      1554.0         0.30          9.7 
      1555.0         0.30          9.5 
      1556.0         0.30          9.4 
      1557.0         0.27          9.4 
      1558.0         0.27          9.6 
      1559.0         0.30         10.5 
      1560.0         3.42         21.6 
      1561.0         0.53         10.4 
      1562.0         0.40         10.1 
      1563.0         0.37         10.1 
      1564.0         0.35          9.8 
      1565.0         0.33          9.6 
      1566.0         0.30         10.2 
      1567.0         0.37          9.9 
      1568.0         0.30         10.1 
      1569.0         0.30         10.2 
      1570.0         0.27         10.0 
      1571.0         0.30         10.0 
      1572.0         0.27          9.8 
      1573.0         0.33          9.5 
      1574.0         0.32          9.7 
      1575.0         0.30          9.4 
      1576.0         0.37          9.7 
      1577.0         0.23          9.5 
      1578.0         0.50          9.9 
      1579.0         0.37          9.7 
      1580.0         0.33          9.1 
      1581.0         0.27          9.1 
      1582.0         0.30          9.2 
      1583.0         0.28          9.6 
      1584.0         0.23          9.5 
      1585.0         0.30          8.8 
      1586.0         0.33          9.2 
      1587.0         0.33         10.0 
      1588.0         0.33         10.9 
      1589.0         0.27         12.7 
      1590.0         2.38         15.8 
      1591.0         0.37         10.0 
      1592.0         0.37          9.9 
      1593.0         0.33         10.2 
      1594.0         0.58         10.0 
      1595.0         0.33          9.9 
      1596.0         0.43          9.9 
      1597.0         0.40          9.9 
      1598.0         0.33          9.6 
      1599.0         0.27          9.6 
      1600.0         0.30          9.4 
      1601.0         0.37          9.4 
      1602.0         0.33          9.6 
      1603.0         0.58          9.4 
      1604.0         0.53          9.2 
      1605.0         0.37          9.4 
      1606.0         0.30          9.3 
      1607.0         0.37          9.4 
      1608.0         0.37          9.3 
      1609.0         0.37          9.0 
      1610.0         0.45          9.5 
      1611.0         0.33          9.2 
      1612.0         0.27          8.8 
      1613.0         0.27          9.1 
      1614.0         0.27          8.9 
      1615.0         0.30          8.7 
      1616.0         0.27          8.8 
      1617.0         0.23          9.0 
      1618.0         0.30          9.7 
      1619.0         0.23          9.9 
      1620.0         3.80         11.5 
      1621.0         0.27          9.8 
      1622.0         0.40         10.7 
      1623.0         0.53         10.9 
      1624.0         0.47         11.0 
      1625.0         0.20         10.0 
      1626.0         0.43         10.4 
      1627.0         0.27         10.1 
      1628.0         0.27         10.1 
      1629.0         0.33         10.0 
      1630.0         0.48          9.7 
      1631.0         0.40          9.7 
      1632.0         0.30          9.7 
      1633.0         0.53          9.9 
      1634.0         0.37          9.9 
      1635.0         0.33          9.8 
      1636.0         0.27          9.4 
      1637.0         0.30          9.5 
      1638.0         0.30          9.9 
      1639.0         0.45          9.9 
      1640.0         0.37          9.7 
      1641.0         0.33         10.2 
      1642.0         0.33          9.9 
      1643.0         0.30         10.1 
      1644.0         0.30         10.2 
      1645.0         0.50         10.4 
      1646.0         0.27         10.1 
      1647.0         0.23         10.3 
      1648.0         0.28         10.4 
      1649.0         0.43         11.2 
      1650.0         0.47         13.5 
      1651.0         0.53         19.7 
      1652.0         2.85         28.7 
      1653.0         0.37         11.3 
      1654.0         0.53         11.1 
      1655.0         0.57         11.0 
      1656.0         0.57         10.9 
      1657.0         0.45         10.9 
      1658.0         0.37         10.7 
      1659.0         0.37         10.7 
      1660.0         0.30         10.3 
      1661.0         0.30         10.6 
      1662.0         0.27         10.7 
      1663.0         0.23         10.4 
      1664.0         0.30         10.5 
      1665.0         0.37         10.7 
      1666.0         0.30         10.9 
      1667.0         0.38         10.4 
      1668.0         0.37         10.7 
      1669.0         0.47         10.9 
      1670.0         0.40         11.1 
      1671.0         0.47         10.9 
      1672.0         0.50         10.9 
      1673.0         0.50         11.2 
      1674.0         0.30         11.2 
      1675.0         0.35         11.2 
      1676.0         0.37         11.2 
      1677.0         0.43         11.3 
      1678.0         0.33         11.2 
      1679.0         0.30         10.5 
      1680.0         0.30         11.0 
      1681.0         0.33         11.4 
      1682.0         3.38         13.1 
      1683.0         0.33         12.5 
      1684.0         0.37         12.3 
      1685.0         0.35         12.2 
