~Version Information
VERS.                      2.0: CWLS Log ASCII Standard - VERSION 2.0
WRAP.                       NO: One line per depth step
~Well Information Block
STRT.FT                -8.0000: 
STOP.FT              1323.7500: 
STEP.FT                 0.2500: 
NULL.                -999.2500: 
COMP.          Pioneer Natural Resources: COMPANY
WELL.              Geyser 41-2: WELL
FLD.           Purgatorie River: FIELD
LOC.           506' FNL & 1127' FEL--: LOCATION
PROV.                       CO: PROVINCE
CNTY.               Las Animas: COUNTRY
SRVC.          Patterson Wireline: SERVICE COMPANY
DATE.          Tue Dec 06 09:28:14 2005: LOG DATE
UWI.           08 071 08598 00: UNIQUE WELL ID
~Curve Information Block
DEPT.FT            0 000 00 00: Depth
CCL.                          : Casing Collar Locator
TT3.usec                      : CBL 3' Travel Time
AMP3.mV                       : CBL 3' Amplitude
GR.GAPI                       : Gamma Ray
~Parameter Information Block
~A  Depth       CCL         TT3         AMP3         GR     
# ...
   260.0000      0.0000    790.0725     10.4505    118.7671
   260.2500      0.0000    771.2935     11.1667    119.9611
   260.5000      0.0000    760.6708     11.5733    118.5357
   260.7500      0.0000    755.2550     11.7194    116.4773
   261.0000      0.0000    752.9172     11.6804    115.7826
   261.2500      0.0000    752.1815     11.5058    117.2999
   261.5000      0.0000    752.0882     11.2285    120.2917
   261.7500      0.0000    752.0948     10.8999    122.8868
   262.0000      0.0000    751.9959     10.6030    123.4074
   262.2500      0.0000    751.7810     10.4218    121.7386
   262.5000      0.0000    751.4781     10.3924    119.4506
   262.7500      0.0000    750.9505     10.4718    118.4822
   263.0000      0.0000    749.7574     10.5608    119.6513
   263.2500      0.0000    747.2408     10.5790    122.2826
   263.5000      0.0000    743.0791     10.5315    124.9929
   263.7500      0.0000    738.1238     10.4961    126.8226
   264.0000      0.0000    734.4990     10.5393    127.7693
   264.2500      0.0000    734.1526     10.6493    128.4177
   264.5000      0.0000    736.9799     10.7508    129.2204
   264.7500      0.0000    740.6456     10.7793    130.1013
   265.0000      0.0000    742.3674     10.7346    130.6465
   265.2500      0.0000    740.9034     10.6674    130.6078
   265.5000      0.0000    737.3442     10.6239    130.2634
   265.7500      0.0000    734.3963     10.6074    130.4173
   266.0000      0.0000    734.4121     10.5881    132.0389
   266.2500      0.0000    737.5063     10.5401    135.5737
   266.5000      0.0000    741.5568     10.4655    140.2919
   266.7500      0.0000    744.1031     10.3846    144.4294
   267.0000      0.0000    744.2009     10.3052    146.3614
   267.2500      0.0000    742.7139     10.2118    145.7459
   267.5000      0.0000    741.0362     10.0868    143.3026
   267.7500      0.0000    739.4452      9.9349    139.7146
   268.0000      0.0000    736.8656      9.7847    135.3637
   268.2500      0.0000    732.5696      9.6739    131.0594
   268.5000      0.0000    727.7766      9.6386    128.1781
   268.7500      0.0000    724.8387      9.7007    127.5188
   269.0000      0.0000    724.7354      9.8537    128.2774
   269.2500      0.0000    725.9766     10.0674    128.7134
   269.5000      0.0000    726.2786     10.3147    127.9742
   269.7500      0.0000    724.7712     10.5909    126.7027
   270.0000      0.0000    722.0513     10.9049    125.6104
   270.2500      0.0000    718.7629     11.2578    124.2312
   270.5000      0.0000    715.1243     11.6329    121.7763
   270.7500      0.0000    711.6682     12.0041    118.8286
   271.0000      0.0000    709.6666     12.3466    117.3952
   271.2500      0.0000    710.9615     12.6446    119.1075
   271.5000      0.0000    717.6910     12.8936    123.6726
   271.7500      0.0000    731.3842     13.0891    129.1560
   272.0000      0.0000    751.2540     13.2132    133.4018
   272.2500      0.0000    773.6074     13.2480    135.1368
   272.5000      0.0000    793.9144     13.2057    134.2368
   272.7500      0.0000    809.4759     13.1269    131.4706
   273.0000      0.0000    819.7999     13.0397    128.1491
   273.2500      0.0000    825.3922     12.9327    125.7013
   273.5000      0.0000    827.1906     12.7762    125.1626
   273.7500      0.0000    826.4730     12.5638    126.8779
   274.0000      0.0000    824.3045     12.3272    130.4812
   274.2500      0.0000    821.2560     12.1143    134.8611
   274.5000      0.0000    817.8527     11.9523    138.4025
   274.7500      0.0000    814.6902     11.8317    139.8921
   275.0000      0.0000    812.0091     11.7281    139.3379
   275.2500      0.0000    809.9285     11.6363    137.5918
   275.5000      0.0000    809.1337     11.5756    135.0488
   275.7500      0.0000    810.4628     11.5626    130.9888
   276.0000      0.0000    813.4916     11.5901    124.3980
   276.2500      0.0000    816.1679     11.6367    115.3024
   276.5000      0.0000    816.5606     11.6883    105.0562
   276.7500      0.0000    814.8848     11.7428     95.3919
   277.0000      0.0000    813.1763     11.7993     87.3916
   277.2500      0.0000    812.8612     11.8521     81.2974
   277.5000      0.0000    813.4789     11.9021     76.9714
   277.7500      0.0000    814.1526     11.9618     74.2668
   278.0000      0.0000    815.3728     12.0412     72.9575
   278.2500      0.0000    818.3967     12.1297     72.5574
   278.5000      0.0000    823.4130     12.1957     72.5144
   278.7500      0.0000    829.0563     12.2046     72.6877
   279.0000      0.0000    833.2562     12.1427     73.4793
   279.2500      0.0000    834.3083     12.0286     75.2628
   279.5000      0.0000    832.0237     11.8931     77.7614
   279.7500      0.0000    828.3432     11.7467     80.2484
   280.0000      0.0000    826.1933     11.5748     82.3879
   280.2500      0.0000    827.1744     11.3700     84.6588
   280.5000      0.0000    830.5042     11.1545     87.8897
   280.7500      0.0000    834.2317     10.9595     92.4457
   281.0000      0.0000    836.9999     10.7943     97.9242
   281.2500      0.0000    838.5511     10.6455    103.6229
   281.5000      0.0000    839.2086     10.4947    109.2071
   281.7500      0.0000    839.3417     10.3224    114.7359
   282.0000      0.0000    839.0930     10.1062    120.0630
   282.2500      0.0000    838.0894      9.8365    124.4184
   282.5000      0.0000    835.1005      9.5430    126.5432
   282.7500      0.0000    828.2196      9.2980    125.1930
   283.0000      0.0000    816.2876      9.1817    119.8920
   283.2500      0.0000    800.9562      9.2300    111.6416
   283.5000      0.0000    786.7507      9.4045    102.8670
   283.7500      0.0000    777.7639      9.6144     96.1918
   284.0000      0.0000    774.3555      9.7752     92.9992
   284.2500      0.0000    774.0958      9.8524     93.3442
   284.5000      0.0000    775.3517      9.8499     96.9849
   284.7500      0.0000    778.3760      9.7782    103.8266
   285.0000      0.0000    783.1806      9.6509    113.3311
   285.2500      0.0000    788.0689      9.5114    124.0097
   285.5000      0.0000    790.8278      9.4395    133.5705
   285.7500      0.0000    790.7092      9.5083    139.5275
   286.0000      0.0000    788.9614      9.7251    140.4935
   286.2500      0.0000    787.6076     10.0172    137.5839
   286.5000      0.0000    787.6076     10.2808    134.0355
   286.7500      0.0000    788.1598     10.4466    132.8988
   287.0000      0.0000    787.8881     10.5077    135.1759
   287.2500      0.0000    786.5127     10.5066    139.6162
   287.5000      0.0000    785.1239     10.5069    143.2911
   287.7500      0.0000    785.1934     10.5663    142.8269
   288.0000      0.0000    787.8391     10.7183    136.6346
   288.2500      0.0000    793.4442     10.9694    126.3916
   288.5000      0.0000    800.7109     11.2999    115.7726
   288.7500      0.0000    806.1140     11.6568    107.6571
   289.0000      0.0000    805.6711     11.9599    102.5274
   289.2500      0.0000    797.9654     12.1407     99.1406
   289.5000      0.0000    785.2134     12.1809     96.4975
   289.7500      0.0000    771.4112     12.1074     95.1429
   290.0000      0.0000    759.5909     11.9538     96.5511
   290.2500      0.0000    750.4529     11.7382    101.5168
   290.5000      0.0000    743.1332     11.4751    109.2938
   290.7500      0.0000    737.1322     11.1947    117.9771
   291.0000      0.0000    733.3032     10.9429    125.3672
   291.2500      0.0000    732.6808     10.7604    129.7771
   291.5000      0.0000    734.6866     10.6652    130.7921
   291.7500      0.0000    737.3002     10.6575    129.5159
   292.0000      0.0000    739.1043     10.7299    127.7277
   292.2500      0.0000    740.4236     10.8628    126.4913
   292.5000      0.0000    742.2302     11.0148    125.4109
   292.7500      0.0000    744.6464     11.1344    123.1355
   293.0000      0.0000    746.9554     11.1837    118.8160
   293.2500      0.0000    748.5576     11.1464    113.4791
