~Version Information
VERS.                      2.0: CWLS Log ASCII Standard - VERSION 2.0
WRAP.                       NO: One line per depth step
~Well Information Block
STRT.FT                 0.0000: 
STOP.FT              1981.7500: 
STEP.FT                 0.2500: 
NULL.                -999.2500: 
COMP.          Petrogulf Corporation: COMPANY
WELL.          Collister 17-31R: WELL
FLD.           Purgatorie River: FIELD
LOC.           962' FNL & 1520' FEL: LOCATION
STAT.                 Colorado: State
CNTY.               Las Animas: COUNTY
CTRY. USA : Country
SECT. 17 : Section
TOWN. 33S : Township
RANG. 67W : Range
SRVC.                Patterson: SERVICE COMPANY
DATE.          Fri Jan 06 10:32:29 2006: LOG DATE
API. 05-071-08436                         : UNIQUE WELL ID
~Curve Information Block
DEPT.FT            0 000 00 00: Depth
CCL.                          : Casing Collar Locator
TT3.usec                      : CBL 3' Travel Time
AMP3.mV                       : CBL 3' Amplitude
GR.GAPI                       : Gamma Ray
~Parameter Information Block
~A  Depth       CCL         TT3         AMP3         GR     
# ...
  1541.0000      0.0000    577.4461      5.9158    139.3548
  1541.2500      0.0000    570.5620      5.6053    140.2490
  1541.5000      0.0000    578.7167      5.3207    140.2397
  1541.7500      0.0000    595.9265      5.1175    139.5134
  1542.0000      0.0000    616.2888      4.9963    139.3261
  1542.2500      0.0000    635.1580      4.9193    141.2277
  1542.5000      0.0000    649.8818      4.8441    145.2840
  1542.7500      0.0000    659.7368      4.7594    149.6872
  1543.0000      0.0000    664.8984      4.6851    152.3990
  1543.2500      0.0000    667.4771      4.6561    152.6039
  1543.5000      0.0000    671.4902      4.7034    150.3542
  1543.7500      0.0000    677.5785      4.8136    145.6473
  1544.0000      0.0000    681.4293      4.9259    138.5968
  1544.2500      0.0000    678.8600      4.9920    130.3239
  1544.5000      0.0000    669.3623      5.0044    123.1063
  1544.7500      0.0000    656.6644      4.9829    119.2766
  1545.0000      0.0000    646.6221      4.9555    119.7554
  1545.2500      0.0000    642.9819      4.9180    123.5632
  1545.5000      0.0000    646.4727      4.8518    128.6939
  1545.7500      0.0000    655.7737      4.7730    133.5078
  1546.0000      0.0000    665.9694      4.6916    137.4816
  1546.2500      0.0000    670.3976      4.5753    140.8550
  1546.5000      0.0000    667.5566      4.3935    143.7412
  1546.7500      0.0000    662.0481      4.1445    145.7878
  1547.0000      0.0000    658.5606      3.8437    146.5548
  1547.2500      0.0000    659.1794      3.5343    145.7370
  1547.5000      0.0000    664.1147      3.2708    143.0090
  1547.7500      0.0000    671.1064      3.0572    138.1410
  1548.0000      0.0000    676.5302      2.8562    131.3260
  1548.2500      0.0000    679.0827      2.6618    123.0968
  1548.5000      0.0000    680.5822      2.5059    114.1381
  1548.7500      0.0000    683.3162      2.4141    105.5779
  1549.0000      0.0000    686.9490      2.3756     99.0686
  1549.2500      0.0000    687.7476      2.3501     95.8126
  1549.5000      0.0000    683.3743      2.3087     95.5912
  1549.7500      0.0000    676.9146      2.2568     97.2822
  1550.0000      0.0000    672.3112      2.2171    100.0922
  1550.2500      0.0000    669.5114      2.1985    103.7653
  1550.5000      0.0000    666.8304      2.1919    107.8191
  1550.7500      0.0000    663.9828      2.1867    111.2257
  1551.0000      0.0000    660.9438      2.1775    113.0824
  1551.2500      0.0000    658.3951      2.1689    113.4399
  1551.5000      0.0000    658.8249      2.1705    113.1998
  1551.7500      0.0000    661.9094      2.1888    113.1334
  1552.0000      0.0000    664.0970      2.2360    113.2315
  1552.2500      0.0000    665.3262      2.3383    113.2102
  1552.5000      0.0000    667.9298      2.4986    113.4389
  1552.7500      0.0000    670.1585      2.6518    114.7564
  1553.0000      0.0000    667.2437      2.7274    117.0578
  1553.2500      0.0000    656.1443      2.7326    118.6382
  1553.5000      0.0000    637.1559      2.7184    117.6564
  1553.7500      0.0000    613.2753      2.7298    114.0760
  1554.0000      0.0000    590.3325      2.8085    109.5697
  1554.2500      0.0000    576.2039      2.9750    105.7761
  1554.5000      0.0000    574.6767      3.1970    103.2633
  1554.7500      0.0000    582.0735      3.4067    101.8564
  1555.0000      0.0000    592.6772      3.5564    101.0909
  1555.2500      0.0000    603.9664      3.6548    100.3945
  1555.5000      0.0000    617.8480      3.7466     99.5412
  1555.7500      0.0000    636.7334      3.8458     98.9717
  1556.0000      0.0000    656.6193      3.9198     99.1385
  1556.2500      0.0000    669.5731      3.9459     99.6886
  1556.5000      0.0000    672.5007      3.9106     99.8259
  1556.7500      0.0000    669.2952      3.7887     99.2574
  1557.0000      0.0000    666.8878      3.5846     98.2215
  1557.2500      0.0000    669.1172      3.3517     96.9142
  1557.5000      0.0000    673.7667      3.1456     95.4368
  1557.7500      0.0000    677.1547      2.9835     93.9184
  1558.0000      0.0000    678.4515      2.8642     92.2076
  1558.2500      0.0000    678.5908      2.7929     89.9806
  1558.5000      0.0000    678.4636      2.7774     87.5285
  1558.7500      0.0000    678.5891      2.8311     85.8617
  1559.0000      0.0000    679.0606      2.9473     85.7215
  1559.2500      0.0000    679.5236      3.0821     86.8742
  1559.5000      0.0000    679.2563      3.2142     88.5035
  1559.7500      0.0000    676.8564      3.3900     90.1227
  1560.0000      0.0000    670.3364      3.6781     92.1572
  1560.2500      0.0000    659.9172      4.1138     95.5532
  1560.5000      0.0000    650.2822      4.6924    100.4844
  1560.7500      0.0000    646.4193      5.3847    105.5644
  1561.0000      0.0000    648.7655      6.1584    108.7136
  1561.2500      0.0000    652.9120      6.9919    108.8273
  1561.5000      0.0000    652.3545      7.8688    106.5185
  1561.7500      0.0000    645.7010      8.7718    103.3689
  1562.0000      0.0000    638.6176      9.6532    100.5000
  1562.2500      0.0000    636.4279     10.3760     97.7969
  1562.5000      0.0000    640.5323     10.7687     94.5653
  1562.7500      0.0000    649.0140     10.7628     90.8323
  1563.0000      0.0000    653.6000     10.4074     87.5225
  1563.2500      0.0000    641.5524      9.8170     85.3015
  1563.5000      0.0000    613.9417      9.1340     83.8052
  1563.7500      0.0000    597.1243      8.4358     82.1691
  1564.0000      0.0000    612.8030      7.6951     80.0060
  1564.2500      0.0000    647.1116      6.8701     77.8263
  1564.5000      0.0000    673.2044      5.9925     76.5851
  1564.7500      0.0000    681.3751      5.1600     76.7195
  1565.0000      0.0000    675.4288      4.4708     77.7913
  1565.2500      0.0000    662.0127      3.9842     79.3866
  1565.5000      0.0000    646.5926      3.6856     82.0325
  1565.7500      0.0000    633.5064      3.4847     86.5958
  1566.0000      0.0000    631.1015      3.3123     92.7039
  1566.2500      0.0000    645.2977      3.1673     98.1307
  1566.5000      2.0000    664.8621      3.0627    100.1206
  1566.7500     -2.0000    672.7388      2.9909     97.6149
  1567.0000     -2.0000    668.1667      2.9290     92.3404
  1567.2500      0.0000    661.4737      2.8628     87.7645
  1567.5000      0.0000    658.0656      2.8087     86.8511
  1567.7500      0.0000    656.8765      2.7994     90.2267
  1568.0000      0.0000    656.9683      2.8560     95.7449
  1568.2500      0.0000    659.0577      2.9361     99.7416
  1568.5000      0.0000    659.9934      2.9177     99.4027
  1568.7500      0.0000    653.5029      2.7320     94.4760
  1569.0000      0.0000    640.3625      2.4578     86.9063
  1569.2500      0.0000    628.6609      2.2119     79.0186
  1569.5000      0.0000    623.8197      2.0366     72.1244
  1569.7500      0.0000    625.6335      1.9162     66.5756
  1570.0000      0.0000    630.8546      1.8315     62.5905
  1570.2500      0.0000    634.8128      1.7738     60.5144
  1570.5000      0.0000    635.4637      1.7362     60.2161
  1570.7500      0.0000    634.3983      1.7122     60.7228
  1571.0000      0.0000    630.5446      1.6894     60.9619
  1571.2500      0.0000    620.9709      1.6647     60.8534
  1571.5000      0.0000    608.4918      1.6691     61.3817
  1571.7500      0.0000    599.4056      1.7322     63.5188
  1572.0000      0.0000    596.2521      1.8355     67.1447
  1572.2500      0.0000    597.3360      1.9318     70.8757
  1572.5000      0.0000    597.9403      1.9905     72.8673
  1572.7500      0.0000    589.2759      2.0177     72.1061
  1573.0000      0.0000    564.3237      2.0305     69.1869
  1573.2500      0.0000    529.8287      2.0301     65.8219
  1573.5000      0.0000    503.8011      2.0158     63.7047
  1573.7500      0.0000    498.0740      2.0035     63.8880
  1574.0000      0.0000    509.7533      2.0178     66.8164
  1574.2500      0.0000    525.8879      2.0633     72.3439
