~Version Information
VERS.                      2.0: CWLS Log ASCII Standard - VERSION 2.0
WRAP.                       NO: One line per depth step
~Well Information Block
STRT.FT               830.0000: 
STOP.FT              1792.5000: 
STEP.FT                 0.1000: 
NULL.                -999.2500: 
COMP.          Pioneer Natural Resources: COMPANY
WELL.           Rolls 14-14 Tr: WELL
FLD.           Purgatoire River: FIELD
LOC.           473' FSL & 817' FWL: LOCATION
PROV.                 Colorado: PROVINCE
CNTY.               Las Animas: COUNTRY
SRVC.                Patterson: SERVICE COMPANY
DATE.          Wed Aug 03 07:11:37 2005: LOG DATE
UWI.           05 071 08454 00: UNIQUE WELL ID
~Curve Information Block
DEPT.FT            0 000 00 00: Depth
DCAL.in                       : CDL Caliper
RHOB.g/cc                     : CDL Bulk Density
RHOC.g/cc                     : CDL Density Correction
DPOR.pu                       : CDL Density Porosity
GR.GAPI                       : Gamma Ray
NPOR.pu                       : Neutron Porosity
~Parameter Information Block
~A  Depth       DCAL        RHOB        RHOC        DPOR         GR         NPOR    
   830.0000      5.0511      0.0777     -0.5521    155.8980     70.9305     16.1448
   830.1000      5.0511      0.0803     -0.5822    155.7370     70.7755     16.5330
   830.2000      5.0511      0.0834     -0.5951    155.5531     66.3979     16.7451
   830.3000      5.0644      0.0862     -0.5402    155.3835     63.4599     16.4319
   830.4000      5.0644      0.0788     -0.5714    155.8325     64.3968     15.9553
   830.5000      5.0612      0.0662     -0.6146    156.5969     66.7641     15.9523
   830.6000      5.0612      0.0643     -0.6267    156.7064     69.4065     16.7093
   830.7000      5.0612      0.0733     -0.5711    156.1645     71.6289     17.4308
   830.8000      5.0510      0.0786     -0.5535    155.8404     72.2253     17.4909
   830.9000      5.0510      0.0775     -0.6092    155.9098     71.1702     17.2593
   831.0000      5.0450      0.0778     -0.5667    155.8902     70.0962     17.5591
   831.1000      5.0450      0.0850     -0.6063    155.4565     72.1948     18.6795
   831.2000      5.0450      0.1013     -0.5682    154.4639     80.3529     19.8683
   831.3000      5.0540      0.1198     -0.5451    153.3467     91.5333     20.1874
   831.4000      5.0540      0.1279     -0.5161    152.8550    101.5056     19.7503
   831.5000      5.0538      0.1243     -0.5759    153.0734    107.2083     20.0225
   831.6000      5.0538      0.1170     -0.5325    153.5126    107.5851     21.2156
   831.7000      5.0538      0.1098     -0.5615    153.9523    109.4214     22.1181
   831.8000      5.0474      0.0976     -0.5332    154.6938    117.5607     22.6042
   831.9000      5.0474      0.0736     -0.5769    156.1473    125.3852     23.0811
   832.0000      5.0542      0.0510     -0.6704    157.5153    128.5207     23.2317
   832.1000      5.0542      0.0519     -0.6094    157.4578    131.6275     22.8868
   832.2000      5.0542      0.0695     -0.5614    156.3955    133.9005     22.7224
   832.3000      5.0505      0.0793     -0.5477    155.8008    132.3478     23.4238
   832.4000      5.0505      0.0741     -0.5941    156.1162    131.8529     24.9055
   832.5000      5.0491      0.0651     -0.6033    156.6607    134.1160     26.1741
   832.6000      5.0491      0.0607     -0.6000    156.9260    135.1271     26.5612
   832.7000      5.0491      0.0591     -0.5820    157.0214    134.0948     26.5425
   832.8000      5.0511      0.0646     -0.6380    156.6889    133.8413     26.4484
   832.9000      5.0511      0.0904     -0.6014    155.1264    135.5685     26.0905
   833.0000      5.0559      0.1330     -0.5494    152.5481    138.5383     25.6577
   833.1000      5.0559      0.1671     -0.4613    150.4782    140.3286     25.3493
   833.2000      5.0559      0.1788     -0.5262    149.7690    134.8166     24.9865
   833.3000      5.0568      0.1780     -0.5020    149.8163    123.0502     24.5901
   833.4000      5.0568      0.1745     -0.5032    150.0277    114.0573     24.6085
   833.5000      5.0574      0.1749     -0.5555    150.0078    110.5547     24.9699
   833.6000      5.0574      0.1843     -0.5012    149.4368    106.6270     24.7893
   833.7000      5.0574      0.1970     -0.4938    148.6676     98.4926     24.1163
   833.8000      5.0498      0.2084     -0.5016    147.9787     89.8704     24.2320
   833.9000      5.0498      0.2207     -0.4720    147.2273     87.0910     25.4142
   834.0000      5.0591      0.2307     -0.4426    146.6232     90.8893     26.5237
   834.1000      5.0591      0.2309     -0.4416    146.6127     91.7606     26.7748
   834.2000      5.0591      0.2250     -0.4869    146.9702     83.5774     26.3461
   834.3000      5.0541      0.2253     -0.4732    146.9510     75.1495     25.9233
   834.4000      5.0541      0.2335     -0.4539    146.4537     77.5207     25.5051
   834.5000      5.0471      0.2406     -0.4569    146.0220     88.6895     24.6585
   834.6000      5.0471      0.2413     -0.4533    145.9801     97.1560     23.8151
   834.7000      5.0471      0.2368     -0.4783    146.2545     98.7591     23.1854
   834.8000      5.0492      0.2270     -0.4451    146.8514     98.3010     22.9233
   834.9000      5.0492      0.2103     -0.4792    147.8595     98.6926     23.5198
   835.0000      5.0512      0.1894     -0.4817    149.1256    103.6950     24.7493
   835.1000      5.0512      0.1653     -0.5122    150.5888    115.1444     26.2325
   835.2000      5.0512      0.1390     -0.5354    152.1810    126.1248     27.4303
   835.3000      5.0511      0.1200     -0.5961    153.3314    131.3338     27.3878
   835.4000      5.0511      0.1171     -0.5466    153.5117    133.4940     26.1209
   835.5000      5.0411      0.1248     -0.5632    153.0427    134.9469     24.8808
   835.6000      5.0411      0.1319     -0.5013    152.6126    136.5684     24.2096
   835.7000      5.0411      0.1342     -0.5455    152.4723    138.2523     23.5663
   835.8000      5.0567      0.1366     -0.5526    152.3298    138.9304     22.7437
   835.9000      5.0567      0.1404     -0.5257    152.0985    140.4059     22.3086
   836.0000      5.0532      0.1416     -0.5485    152.0223    141.5985     22.4788
   836.1000      5.0532      0.1376     -0.5143    152.2642    137.4899     22.6379
   836.2000      5.0532      0.1316     -0.5558    152.6278    131.6349     22.5313
   836.3000      5.0596      0.1338     -0.5421    152.4993    132.1188     22.7682
   836.4000      5.0596      0.1458     -0.5374    151.7712    137.2641     23.4317
   836.5000      5.0591      0.1547     -0.5022    151.2333    140.2599     23.7188
   836.6000      5.0591      0.1520     -0.5117    151.3969    138.0389     23.3584
   836.7000      5.0591      0.1465     -0.5610    151.7243    133.5865     22.7177
   836.8000      5.0541      0.1467     -0.5003    151.7172    133.1138     22.4114
   836.9000      5.0541      0.1526     -0.5418    151.3549    134.7179     22.5162
   837.0000      5.0534      0.1647     -0.5010    150.6257    133.5504     22.4282
   837.1000      5.0534      0.1705     -0.4533    150.2720    132.7240     21.9371
   837.2000      5.0534      0.1601     -0.5214    150.9013    137.5518     21.6093
   837.3000      5.0594      0.1469     -0.5345    151.7033    144.0979     21.9823
   837.4000      5.0594      0.1406     -0.4918    152.0830    145.5904     22.7706
   837.5000      5.0565      0.1351     -0.5499    152.4160    146.2000     23.6164
   837.6000      5.0565      0.1301     -0.5351    152.7187    147.3937     24.4443
   837.7000      5.0565      0.1324     -0.5566    152.5829    143.5309     24.6964
   837.8000      5.0555      0.1445     -0.5225    151.8483    137.0911     23.9603
   837.9000      5.0555      0.1618     -0.5141    150.7975    133.2135     22.4922
   838.0000      5.0523      0.1749     -0.4767    150.0045    130.5817     21.0451
   838.1000      5.0523      0.1765     -0.4968    149.9117    126.1732     20.5582
   838.2000      5.0523      0.1690     -0.4838    150.3613    122.6576     21.4394
   838.3000      5.0528      0.1641     -0.5373    150.6611    122.3609     22.9413
   838.4000      5.0528      0.1700     -0.5014    150.3047    122.4226     23.6927
   838.5000      5.0558      0.1782     -0.4587    149.8067    125.6383     23.4588
   838.6000      5.0558      0.1791     -0.5118    149.7510    133.7244     22.8144
   838.7000      5.0558      0.1762     -0.4907    149.9280    139.0362     22.2827
   838.8000      5.0542      0.1700     -0.4989    150.3058    137.1639     22.4048
   838.9000      5.0542      0.1549     -0.4861    151.2183    133.1346     22.9561
   839.0000      5.0552      0.1371     -0.5802    152.2971    133.2066     23.1624
   839.1000      5.0552      0.1325     -0.5638    152.5729    133.6590     23.0928
   839.2000      5.0552      0.1399     -0.5015    152.1266    128.8160     23.1282
   839.3000      5.0525      0.1467     -0.5380    151.7154    124.8828     23.2068
   839.4000      5.0525      0.1449     -0.4773    151.8218    127.1688     23.0959
   839.5000      5.0610      0.1284     -0.5333    152.8238    130.9062     22.6382
