~Version Information
VERS.                      2.0: CWLS Log ASCII Standard - VERSION 2.0
WRAP.                       NO: One line per depth step
~Well Information Block
STRT.FT               239.2000: 
STOP.FT              1618.0000: 
STEP.FT                 0.1000: 
NULL.                -999.2500: 
COMP.          Pioneer Natural Resources: COMPANY
WELL.          Daytona 31-14 Tr: WELL
FLD.           Purgatoire River: FIELD
LOC.           683' FNL & 1943' FEL: LOCATION
CNTY.               Las Animas: COUNTY
SRVC.                         : SERVICE COMPANY
DATE.          Fri Jan 27 14:32:28 2006: LOG DATE
UWI.           05 071 08681 00: UNIQUE WELL ID
STAT.                 Colorado: STATE
~Curve Information Block
DEPT.FT            0 000 00 00: Depth
DCAL.in                       : CDL Caliper
RHOB.g/cc                     : CDL Bulk Density
RHOC.g/cc                     : CDL Density Correction
DPOR.pu                       : CDL Density Porosity
GR.GAPI                       : Gamma Ray
~Parameter Information Block
~A  Depth       DCAL        RHOB        RHOC        DPOR         GR     
# ...
  1068.0000      8.0457      2.6259      0.1807      1.4619    135.4912
  1068.1000      8.0457      2.5971      0.1614      3.2089    137.3732
  1068.2000      8.0457      2.5842      0.1656      3.9867    143.1990
  1068.3000      8.0432      2.5730      0.0799      4.6650    149.0531
  1068.4000      8.0432      2.5561      0.0818      5.6919    149.9782
  1068.5000      8.0378      2.5406      0.0461      6.6317    147.4765
  1068.6000      8.0378      2.5433      0.1016      6.4661    142.5449
  1068.7000      8.0378      2.5713      0.1235      4.7710    135.6821
  1068.8000      8.0238      2.6251      0.1234      1.5088    127.5644
  1068.9000      8.0238      2.6912      0.2123     -2.4950    121.8324
  1069.0000      7.9822      2.7364      0.2015     -5.2360    124.9026
  1069.1000      7.9822      2.7514      0.1970     -6.1473    133.6357
  1069.2000      7.9822      2.7555      0.2098     -6.3946    138.3675
  1069.3000      7.9794      2.7575      0.2357     -6.5168    138.5792
  1069.4000      7.9794      2.7483      0.2812     -5.9579    137.6561
  1069.5000      8.0051      2.7312      0.1502     -4.9207    134.5937
  1069.6000      8.0051      2.7248      0.1544     -4.5306    129.2987
  1069.7000      8.0051      2.7241      0.1442     -4.4918    125.5317
  1069.8000      8.0377      2.7185      0.0105     -4.1507    126.2109
  1069.9000      8.0377      2.7244      0.0436     -4.5079    131.0204
  1070.0000      8.0482      2.7479      0.1724     -5.9314    136.1713
  1070.1000      8.0482      2.7619      0.2238     -6.7837    136.4507
  1070.2000      8.0482      2.7415      0.1679     -5.5479    132.9617
  1070.3000      8.0477      2.6848      0.1587     -2.1098    134.5941
  1070.4000      8.0477      2.6119      0.0640      2.3091    143.4075
  1070.5000      8.0486      2.5556      0.0488      5.7196    151.6469
  1070.6000      8.0486      2.5302      0.0264      7.2583    155.9765
  1070.7000      8.0486      2.5297      0.0052      7.2921    157.4463
  1070.8000      8.0475      2.5485      0.0409      6.1506    154.0954
  1070.9000      8.0475      2.5750      0.0804      4.5432    144.1505
  1071.0000      8.0448      2.5959      0.0919      3.2777    134.3495
  1071.1000      8.0448      2.6133      0.1312      2.2214    132.0437
  1071.2000      8.0448      2.6280      0.1483      1.3363    134.1803
  1071.3000      8.0428      2.6293      0.1572      1.2568    132.9848
  1071.4000      8.0428      2.6155      0.1083      2.0904    125.4532
  1071.5000      8.0397      2.5895      0.1248      3.6683    116.8785
  1071.6000      8.0397      2.5475      0.1331      6.2117    113.8425
  1071.7000      8.0397      2.5042      0.0269      8.8354    116.2238
  1071.8000      8.0395      2.4852      0.0068      9.9907    121.1381
  1071.9000      8.0395      2.4863      0.0497      9.9208    125.7151
  1072.0000      8.0241      2.4856      0.0579      9.9614    128.1915
  1072.1000      8.0241      2.4827      0.0600     10.1419    130.8128
  1072.2000      8.0241      2.4913      0.1470      9.6193    134.3498
  1072.3000      7.9644      2.5099      0.2180      8.4916    137.1626
  1072.4000      7.9644      2.5320      0.2154      7.1498    140.4897
  1072.5000      7.9669      2.5748      0.1586      4.5586    143.6854
  1072.6000      7.9669      2.6647      0.2283     -0.8910    141.6128
  1072.7000      7.9669      2.7895      0.3693     -8.4540    136.8263
  1072.8000      7.9738      2.8978      0.4230    -15.0154    135.4567
  1072.9000      7.9738      2.9466      0.4764    -17.9732    135.0882
  1073.0000      8.0102      2.9335      0.3923    -17.1820    131.5122
  1073.1000      8.0102      2.8863      0.3496    -14.3187    126.1222
  1073.2000      8.0102      2.8229      0.2938    -10.4794    123.0538
  1073.3000      8.0351      2.7529      0.2147     -6.2358    123.3007
  1073.4000      8.0351      2.6916      0.1378     -2.5204    123.8135
  1073.5000      8.0579      2.6469      0.0833      0.1852    123.6982
  1073.6000      8.0579      2.6154      0.0499      2.0970    124.2017
  1073.7000      8.0579      2.5918      0.0738      3.5283    124.2821
  1073.8000      8.0622      2.5810      0.0306      4.1828    124.5319
  1073.9000      8.0622      2.5910      0.1113      3.5777    127.3289
  1074.0000      8.0349      2.6093      0.1772      2.4653    129.6740
  1074.1000      8.0349      2.6162      0.1715      2.0497    127.9559
  1074.2000      8.0349      2.6133      0.1966      2.2259    126.0338
  1074.3000      8.0254      2.6073      0.2017      2.5882    125.6679
  1074.4000      8.0254      2.5861      0.1840      3.8731    123.1806
  1074.5000      8.0444      2.5440      0.0932      6.4254    120.5605
  1074.6000      8.0444      2.5007      0.0448      9.0498    126.4909
  1074.7000      8.0444      2.4754      0.0287     10.5810    139.4429
  1074.8000      8.0487      2.4680      0.0960     11.0310    144.4262
  1074.9000      8.0487      2.4673      0.1032     11.0711    139.2068
  1075.0000      8.0628      2.4725      0.0994     10.7576    136.6408
  1075.1000      8.0628      2.4955      0.0938      9.3634    139.3866
  1075.2000      8.0628      2.5463      0.1200      6.2834    139.9942
  1075.3000      8.0203      2.6189      0.1917      1.8835    139.4792
  1075.4000      8.0203      2.6877      0.2394     -2.2828    141.4209
  1075.5000      8.0096      2.7219      0.2599     -4.3580    140.9890
  1075.6000      8.0096      2.7080      0.2465     -3.5146    137.5785
  1075.7000      8.0096      2.6630      0.1758     -0.7901    135.9462
  1075.8000      8.0093      2.6197      0.1482      1.8372    136.9706
  1075.9000      8.0093      2.5911      0.0829      3.5701    141.5401
  1076.0000      8.0553      2.5708     -0.0014      4.8015    147.1277
  1076.1000      8.0553      2.5590      0.0022      5.5177    148.4955
  1076.2000      8.0553      2.5542      0.0483      5.8058    146.1423
  1076.3000      8.1028      2.5432      0.0349      6.4743    142.1162
  1076.4000      8.1028      2.5285      0.0546      7.3609    139.2898
  1076.5000      8.1070      2.5313      0.1245      7.1930    140.9286
  1076.6000      8.1070      2.5513      0.2034      5.9820    143.6500
  1076.7000      8.1070      2.5658      0.1880      5.1035    140.0748
  1076.8000      8.1011      2.5623      0.1518      5.3174    133.2027
  1076.9000      8.1011      2.5465      0.1160      6.2713    134.0217
  1077.0000      8.0988      2.5303      0.0981      7.2529    141.1721
  1077.1000      8.0988      2.5179      0.0885      8.0054    142.8658
  1077.2000      8.0988      2.5115      0.0711      8.3966    136.6241
  1077.3000      8.0913      2.5149      0.0828      8.1895    130.0085
  1077.4000      8.0913      2.5217      0.0727      7.7736    129.0080
  1077.5000      8.0923      2.5269      0.0137      7.4598    132.0804
  1077.6000      8.0923      2.5394      0.0304      6.7050    132.5212
  1077.7000      8.0923      2.5626      0.0421      5.2971    129.5258
  1077.8000      8.0611      2.5859      0.0781      3.8826    128.1642
  1077.9000      8.0611      2.5998      0.0727      3.0412    130.9042
  1078.0000      8.0398      2.6029      0.0920      2.8545    135.4306
  1078.1000      8.0398      2.5925      0.0834      3.4857    137.8949
  1078.2000      8.0398      2.5701      0.0554      4.8444    137.5633
  1078.3000      8.0243      2.5465      0.0560      6.2742    135.6273
  1078.4000      8.0243      2.5274      0.0368      7.4288    132.2068
  1078.5000      8.0257      2.5139      0.0126      8.2514    128.9953
  1078.6000      8.0257      2.5054     -0.0020      8.7664    129.1972
  1078.7000      8.0257      2.4949      0.0013      9.3995    132.3527
  1078.8000      8.0436      2.4723      0.0518     10.7695    137.3715
  1078.9000      8.0436      2.4372     -0.0105     12.8957    143.8651
  1079.0000      8.0616      2.4065     -0.0084     14.7561    151.6996
  1079.1000      8.0616      2.4008      0.0176     15.1021    159.8082
