~Version Information
VERS.                      2.0: CWLS Log ASCII Standard - VERSION 2.0
WRAP.                       NO: One line per depth step
~Well Information Block
STRT.FT               875.0000: 
STOP.FT              2054.5000: 
STEP.FT                 0.2500: 
NULL.                -999.2500: 
COMP.          Pioneer Natural Resources: COMPANY
WELL.          Woodstock 43-19: WELL
FLD.           Purgatoire River: FIELD
LOC.           2195' FSL & 250' FEL: LOCATION
CNTY.               Las Animas: COUNTY
SRVC.                Patterson: SERVICE COMPANY
DATE.          Thu Feb 02 03:08:19 2006: LOG DATE
UWI.           05 071 08677 00: UNIQUE WELL ID
STAT.                 Colorado: STATE
~Curve Information Block
DEPT.FT            0 000 00 00: Depth
SN.Ohm-m                      : IEL Short Normal
SP.mV                         : IEL Spontaneous Potential
DIR.Ohm-m                     : IEL Induction Resistivity
GR.GAPI                       : Gamma Ray
~Parameter Information Block
~A  Depth        SN          SP         DIR          GR     
# ...
  1712.5000     19.5445     81.5137     18.6520     66.1625
  1712.7500     19.9813     81.5723     19.0630     68.0343
  1713.0000     20.4839     81.6137     19.4773     67.9235
  1713.2500     21.2384     81.6343     19.8917     65.5946
  1713.5000     22.3534     81.6230     20.3078     59.4842
  1713.7500     23.7447     81.5676     20.7301     54.5318
  1714.0000     25.1641     81.4631     21.1663     47.4397
  1714.2500     26.3440     81.3192     21.6270     43.7252
  1714.5000     27.1368     81.1573     22.1187     40.3939
  1714.7500     27.5332     81.0016     22.6314     39.7140
  1715.0000     27.6315     80.8696     23.1293     40.5654
  1715.2500     27.6291     80.7648     23.5534     41.8659
  1715.5000     27.6565     80.6758     23.8372     43.8857
  1715.7500     27.5995     80.5807     23.9298     44.8049
  1716.0000     27.2758     80.4577     23.8223     45.1573
  1716.2500     26.6781     80.2986     23.5613     44.7520
  1716.5000     25.9507     80.1154     23.2375     43.7944
  1716.7500     25.2819     79.9335     22.9501     43.5305
  1717.0000     24.8143     79.7783     22.7712     44.5588
  1717.2500     24.5775     79.6625     22.7276     46.1925
  1717.5000     24.4848     79.5848     22.8024     49.1708
  1717.7500     24.4202     79.5342     22.9492     50.8750
  1718.0000     24.4018     79.4962     23.1132     52.4034
  1718.2500     24.5847     79.4545     23.2505     52.6839
  1718.5000     25.0334     79.3913     23.3361     52.1592
  1718.7500     25.6044     79.2934     23.3613     51.2979
  1719.0000     26.0728     79.1616     23.3290     49.3534
  1719.2500     26.3326     79.0142     23.2513     47.7026
  1719.5000     26.5265     78.8802     23.1466     45.1257
  1719.7500     26.9795     78.7852     23.0340     43.7316
  1720.0000     27.8895     78.7421     22.9262     42.5954
  1720.2500     29.0968     78.7495     22.8255     42.5175
  1720.5000     30.2069     78.7922     22.7234     43.2171
  1720.7500     30.8286     78.8437     22.6019     43.9892
  1721.0000     30.7490     78.8733     22.4398     45.0844
  1721.2500     30.0605     78.8618     22.2228     45.6790
  1721.5000     29.0907     78.8108     21.9526     47.0620
  1721.7500     28.1345     78.7355     21.6495     49.0206
  1722.0000     27.2784     78.6498     21.3443     54.1231
  1722.2500     26.4443     78.5617     21.0641     58.5483
  1722.5000     25.5281     78.4779     20.8196     65.0103
  1722.7500     24.5231     78.4079     20.6015     68.2160
  1723.0000     23.5344     78.3650     20.3912     70.6264
  1723.2500     22.7239     78.3638     20.1816     70.9007
  1723.5000     22.2803     78.4151     19.9935     70.6947
  1723.7500     22.3076     78.5167     19.8730     71.1400
  1724.0000     22.6588     78.6480     19.8714     73.7787
  1724.2500     22.9909     78.7768     20.0243     76.7059
  1724.5000     23.1293     78.8761     20.3443     81.3282
  1724.7500     23.3596     78.9367     20.8280     83.4482
  1725.0000     24.1842     78.9723     21.4674     83.7162
  1725.2500     25.7681     79.0128     22.2536     81.4822
  1725.5000     27.8047     79.0899     23.1683     74.5093
  1725.7500     29.9710     79.2200     24.1675     67.9816
  1726.0000     32.2869     79.3979     25.1674     56.8554
  1726.2500     34.9436     79.6055     26.0437     49.3921
  1726.5000     38.0707     79.8248     26.6547     39.2598
  1726.7500     41.8133     80.0453     26.8901     33.7363
  1727.0000     46.2845     80.2624     26.7253     27.9115
  1727.2500     51.1000     80.4763     26.2382     25.7708
  1727.5000     55.0727     80.6925     25.5613     25.1128
  1727.7500     56.7127     80.9192     24.8025     26.4822
  1728.0000     55.1632     81.1583     23.9993     31.8087
  1728.2500     50.6963     81.4001     23.1367     37.7750
  1728.5000     44.5396     81.6285     22.1992     49.9435
  1728.7500     38.2635     81.8317     21.2090     59.4484
  1729.0000     33.0563     82.0077     20.2203     74.0204
  1729.2500     29.3005     82.1632     19.2867     82.8939
  1729.5000     26.6628     82.3056     18.4369     93.6252
  1729.7500     24.5967     82.4383     17.6731     98.8066
  1730.0000     22.7980     82.5586     16.9868    104.0531
  1730.2500     21.2145     82.6591     16.3738    106.2971
  1730.5000     19.8753     82.7289     15.8383    108.2696
  1730.7500     18.8507     82.7568     15.3868    108.7930
  1731.0000     18.2197     82.7389     15.0240    108.6931
  1731.2500     18.0065     82.6853     14.7545    108.3122
  1731.5000     18.1451     82.6197     14.5856    107.7314
  1731.7500     18.4884     82.5709     14.5265    107.4241
  1732.0000     18.8757     82.5608     14.5805    106.7303
  1732.2500     19.2041     82.5949     14.7411    105.7472
  1732.5000     19.4605     82.6620     14.9937    103.2347
  1732.7500     19.6732     82.7428     15.3208    101.1323
  1733.0000     19.8700     82.8205     15.7022     97.9686
  1733.2500     20.1050     82.8876     16.1103     95.8113
  1733.5000     20.4151     82.9460     16.5083     91.6321
  1733.7500     20.7309     83.0054     16.8549     87.9354
  1734.0000     20.9365     83.0782     17.1156     82.1269
  1734.2500     21.0232     83.1728     17.2723     79.3735
  1734.5000     21.0734     83.2895     17.3297     78.4017
  1734.7500     21.1177     83.4206     17.3184     79.7157
  1735.0000     21.1277     83.5519     17.2871     83.2997
  1735.2500     21.1133     83.6614     17.2813     85.9934
  1735.5000     21.1125     83.7217     17.3194     89.6538
  1735.7500     21.1100     83.7103     17.3846     91.6012
  1736.0000     21.0590     83.6227     17.4395     93.7106
  1736.2500     20.9463     83.4755     17.4525     94.6515
  1736.5000     20.7773     83.2986     17.4164     95.5892
  1736.7500     20.5670     83.1223     17.3478     96.0939
  1737.0000     20.3537     82.9693     17.2754     96.9789
  1737.2500     20.1732     82.8527     17.2276     97.6181
  1737.5000     20.0718     82.7761     17.2247     98.2055
  1737.7500     20.0951     82.7327     17.2760     98.1672
  1738.0000     20.2265     82.7090     17.3790     97.6653
  1738.2500     20.4351     82.6911     17.5216     97.3084
  1738.5000     20.7376     82.6672     17.6874     97.0837
  1738.7500     21.1230     82.6246     17.8619     97.1778
  1739.0000     21.4881     82.5480     18.0384     97.2812
  1739.2500     21.7662     82.4250     18.2190     96.8226
  1739.5000     22.0357     82.2551     18.4130     94.7183
  1739.7500     22.3746     82.0538     18.6328     92.5873
  1740.0000     22.7610     81.8473     18.8914     89.5230
  1740.2500     23.2158     81.6630     19.2031     88.2854
  1740.5000     23.7996     81.5202     19.5877     88.1135
  1740.7500     24.4652     81.4246     20.0748     88.8473
  1741.0000     25.1371     81.3636     20.7021     90.0155
  1741.2500     25.8362     81.3090     21.5013     90.0215
  1741.5000     26.5874     81.2263     22.4681     87.9233
  1741.7500     27.3814     81.0888     23.5283     84.9710
  1742.0000     28.3024     80.8879     24.5269     78.5953
  1742.2500     29.5381     80.6351     25.2683     73.6044
  1742.5000     31.3008     80.3548     25.6048     66.3849
  1742.7500     33.7936     80.0759     25.5079     62.5478
  1743.0000     37.1195     79.8256     25.0614     59.0798
  1743.2500     40.9955     79.6247     24.4002     58.2630
  1743.5000     44.4298     79.4819     23.6592     58.4408
  1743.7500     46.0687     79.3913     22.9526     58.9443
  1744.0000     45.2158     79.3349     22.3648     60.2804
  1744.2500     42.3213     79.2922     21.9372     62.2787
  1744.5000     38.5249     79.2505     21.6579     68.4202
  1744.7500     34.9914     79.2086     21.4579     74.8734
  1745.0000     32.4390     79.1724     21.2219     87.0940
  1745.2500     30.9383     79.1473     20.8224     95.9446
  1745.5000     30.0487     79.1353     20.1747    108.7891
  1745.7500     29.1491     79.1374     19.2809    116.3726
