~Version Information
 VERS.                                  2.0 : CWLS LAS VERSION
 WRAP.                                   NO : WRAPING MODE
 SWARE .                 MController 2.5.0N : SOFTWARE VERSION
~Well Information
 WELL.                        ROLLS 14-14Tr : WELL
 COMP.   Pioneer Natural Resources, USA INC : COMPANY
 FLD.                      PURGATOIRE RIVER : FIELD
 LOC.                SW/SW SEC 14 T32S R66W : LOCATION
 DATE.                           08/02/2005 : DATE(S) LOGGED
 SRVC.       BLANCO GEOLOGICAL SERVICES LLC : SERVICE COMPANY
 STAT.                             COLORADO : STATE
 CNTY.                           LAS ANIMAS : COUNTY
 CTRY.                                  USA : COUNTRY
 API.                       05-071-08454-00 : API NUMBER
 STRT.FT                             744.00 : START DEPTH
 STOP.FT                            1800.00 : STOP DEPTH
 STEP.FT                               1.00 : DEPTH INCREMENT
 NULL.                                -9999 : NULL VALUE
~Curve information
 DEPTH.FT                                   :
 ROP.MIN/FT                                 :
 GAS.UNITS                                  :
~ASCII Log data
       744.0     -9999.00         98.7 
       745.0         3.85        151.3 
       746.0         1.00          8.1 
       747.0         0.10          7.6 
       748.0         0.23          8.1 
       749.0         0.07          7.5 
       750.0         0.62          8.1 
       751.0         0.23          7.7 
       752.0         0.20          8.4 
       753.0         0.13          7.7 
       754.0         0.80        168.8 
       755.0         1.17        186.3 
       756.0         0.27         33.0 
       757.0         2.25         19.9 
       758.0         0.40          6.1 
       759.0         0.30          6.1 
       760.0         0.10          5.8 
       761.0         0.95          5.8 
       762.0         0.37          6.1 
       763.0         0.53          5.7 
       764.0         0.13          5.7 
       765.0         2.15         81.6 
       766.0         1.17          8.8 
       767.0         0.53          5.4 
       768.0         0.23          5.1 
       769.0         0.37          5.0 
       770.0         0.85          5.2 
       771.0         0.77          5.4 
       772.0         0.47          5.5 
       773.0         0.30          5.3 
       774.0         0.40          5.6 
       775.0         0.47          5.7 
       776.0         0.57          5.4 
       777.0         0.45          5.5 
       778.0         0.73         19.6 
       779.0         0.73         40.3 
       780.0         0.37         22.1 
       781.0         0.87         11.4 
       782.0         1.35          3.2 
       783.0         0.37          3.4 
       784.0         0.10          2.6 
       785.0         0.20          3.5 
       786.0         0.10          3.5 
       787.0         0.10          3.0 
       788.0         0.07          3.0 
       789.0         0.10          3.7 
       790.0         0.07          3.0 
       791.0         0.10          2.9 
       792.0         0.07          3.6 
       793.0         0.10          3.0 
       794.0         0.07          3.0 
       795.0         0.10          3.6 
       796.0         0.07          3.7 
       797.0         0.60          3.7 
       798.0         0.65          3.6 
       799.0         0.20          3.7 
       800.0         0.07          3.1 
       801.0         0.23          3.3 
       802.0         0.17          3.8 
       803.0         0.13          3.7 
       804.0         0.13          3.5 
       805.0         0.13          3.3 
       806.0         0.13          3.9 
       807.0         0.10          3.6 
       808.0         0.53          3.8 
       809.0         0.97          3.7 
       810.0         0.07          3.6 
       811.0         0.12          2.8 
       812.0         0.07          2.8 
       813.0         0.07          3.1 
       814.0         0.10          3.0 
       815.0         0.07          2.9 
       816.0         0.13          3.4 
       817.0         0.10          3.2 
       818.0         0.07          2.9 
       819.0         0.10          3.5 
       820.0         0.10          3.0 
       821.0         0.10          3.2 
       822.0         0.07          3.3 
       823.0         0.10          3.4 
       824.0         0.10          3.2 
       825.0         0.07          2.7 
       826.0         0.13          3.5 
       827.0         1.03          3.5 
       828.0         0.17          2.9 
       829.0         0.33          3.2 
       830.0         0.10          2.1 
       831.0         0.10          2.3 
       832.0         0.10          2.8 
       833.0         0.12          2.8 
       834.0         0.10          2.8 
       835.0         0.07          2.0 
       836.0         0.07          2.0 
       837.0         0.10          2.5 
       838.0         0.13          2.8 
       839.0         0.07          2.0 
       840.0         0.13          2.8 
       841.0         0.10          2.6 
       842.0         0.07          2.6 
       843.0         0.10          2.9 
       844.0         0.07          2.4 
       845.0         0.10          2.8 
       846.0         0.07          2.7 
       847.0         0.10          2.5 
       848.0         0.13          2.6 
       849.0         0.07          2.4 
       850.0         0.13          2.8 
       851.0         0.07          2.2 
       852.0         0.13          2.6 
       853.0         0.07          2.6 
       854.0         0.10          2.9 
       855.0         1.85          3.3 
       856.0         0.10          2.2 
       857.0         0.13          3.2 
       858.0         0.33          3.0 
       859.0         0.30          2.6 
       860.0         0.23          2.6 
       861.0         0.23          3.0 
       862.0         0.23          2.9 
       863.0         0.17          3.1 
       864.0         0.13          2.9 
       865.0         0.43         30.4 
       866.0         0.17         59.1 
       867.0         0.13         64.9 
       868.0         0.42         73.6 
       869.0         0.17         66.9 
       870.0         0.13         61.8 
       871.0         0.20         62.9 
       872.0         0.23         68.9 
       873.0         0.17         70.6 
       874.0         0.17         72.4 
       875.0         0.40         79.8 
       876.0         0.27        107.2 
       877.0         0.27        155.5 
       878.0         0.13        182.5 
       879.0         0.13        186.5 
       880.0         0.17        186.2 
       881.0         0.13        168.9 
       882.0         0.13        164.9 
       883.0         0.10        140.4 
       884.0         0.13        133.1 
       885.0         0.13        115.7 
       886.0         0.15        111.7 
       887.0         0.17        103.8 
       888.0         0.20        101.6 
       889.0         0.47        112.1 
       890.0         0.53        213.3 
       891.0         0.20        296.4 
       892.0         0.50        330.0 
       893.0         0.50        282.6 
       894.0         0.50        192.0 
       895.0         0.10        129.2 
       896.0         3.70        119.1 
       897.0         0.30         73.9 
       898.0         0.23         69.6 
       899.0         0.47         67.2 
       900.0         0.17         61.9 
       901.0         0.17         60.4 
       902.0         0.17         58.7 
       903.0         0.20         57.2 
       904.0         0.27         56.3 
       905.0         0.20         54.8 
       906.0         0.27         53.3 
       907.0         0.20         50.9 
       908.0         0.20         50.6 
       909.0         0.20         49.2 
       910.0         0.22         48.6 
       911.0         0.20         47.2 
       912.0         0.20         44.9 
       913.0         0.20         40.8 
       914.0         0.23         37.3 
       915.0         0.23         38.3 
       916.0         0.20         41.8 
       917.0         0.17         52.8 
       918.0         0.50        113.0 
       919.0         0.37        116.3 
       920.0         0.13        105.0 
       921.0         0.40         90.0 
       922.0         0.42         72.9 
       923.0         0.30         67.8 
       924.0         0.37         66.0 
       925.0         0.17         59.6 
       926.0         0.90         57.8 
       927.0         0.37         42.1 
       928.0         0.20         40.1 
       929.0         0.23         38.9 
       930.0         0.23         36.9 
       931.0         0.20         36.4 
       932.0         0.22         35.3 
       933.0         0.20         35.2 
       934.0         0.20         35.1 
       935.0         0.23         35.2 
       936.0         0.20         35.0 
       937.0         0.20         34.6 
       938.0         0.20         33.3 
       939.0         0.23         30.8 
       940.0         0.17         29.6 
       941.0         0.20         28.9 
       942.0         0.20         26.6 
       943.0         0.20         23.3 
