~Version Information
VERS.                      2.0: CWLS Log ASCII Standard - VERSION 2.0
WRAP.                       NO: One line per depth step
~Well Information Block
STRT.FT               235.0000: 
STOP.FT              1271.0000: 
STEP.FT                 0.1000: 
NULL.                -999.2500: 
COMP.          Pioneer Natural Resources: COMPANY
WELL.              Julie 11-30: WELL
FLD.           Purgatoire River: FIELD
LOC.           672' FNL & 1052' FWL: LOCATION
CNTY.               Las Animas: COUNTY
SRVC.                Patterson: SERVICE COMPANY
DATE.          Fri Apr 14 07:21:24 2006: LOG DATE
UWI.           05 071 08724 00: UNIQUE WELL ID
STAT.                 Colorado: STATE
~Curve Information Block
DEPT.FT            0 000 00 00: Depth
DCAL.in                       : CDL Caliper
RHOB.g/cc                     : CDL Bulk Density
RHOC.g/cc                     : CDL Density Correction
DPOR.pu                       : CDL Density Porosity
GR.GAPI                       : Gamma Ray
NPOR.pu                       : Neutron Porosity
~Parameter Information Block
~A  Depth       DCAL        RHOB        RHOC        DPOR         GR         NPOR    
# ...
   369.4000      8.1496      2.5411      0.1571      6.5985    104.1205     25.8223
   369.5000      8.1410      2.6365      0.1982      0.8189    104.4402     26.8405
   369.6000      8.1410      2.6919      0.2528     -2.5386    102.4144     27.0735
   369.7000      8.1410      2.6964      0.2097     -2.8110     99.2196     26.3968
   369.8000      8.1259      2.6539      0.2173     -0.2390     95.3358     25.5416
   369.9000      8.1259      2.5714      0.1446      4.7643     92.0821     25.0773
   370.0000      8.1450      2.4846      0.0390     10.0255     91.6046     25.0464
   370.1000      8.1450      2.4333      0.0518     13.1333     93.8624     25.3027
   370.2000      8.1450      2.4153      0.0310     14.2228     96.0671     25.8973
   370.3000      8.1559      2.4103     -0.0128     14.5282     95.6249     26.8279
   370.4000      8.1559      2.4096      0.0027     14.5705     94.5078     27.4346
   370.5000      8.1576      2.4161     -0.0157     14.1732     95.9219     27.1920
   370.6000      8.1576      2.4374     -0.0026     12.8830     99.3942     26.6403
   370.7000      8.1576      2.4724      0.0243     10.7655    102.7664     26.4153
   370.8000      8.1542      2.5145      0.0674      8.2132    103.1317     26.4628
   370.9000      8.1542      2.5605      0.1905      5.4231    100.2899     26.4102
   371.0000      8.1388      2.6071      0.2547      2.5982     98.0122     26.2654
   371.1000      8.1388      2.6526      0.2986     -0.1550     99.0579     26.2813
   371.2000      8.1388      2.6996      0.3288     -3.0078    101.8340     26.3964
   371.3000      8.1073      2.7462      0.3399     -5.8297    101.9317     26.5939
   371.4000      8.1073      2.7708      0.3327     -7.3240     98.7979     26.8164
   371.5000      8.1107      2.7592      0.2294     -6.6186     98.8522     26.7877
   371.6000      8.1107      2.7281      0.1648     -4.7360    104.3943     26.6114
   371.7000      8.1107      2.6923      0.1865     -2.5634    109.2918     26.6278
   371.8000      8.1352      2.6500      0.1595      0.0005    109.3647     26.6817
   371.9000      8.1352      2.6068      0.1271      2.6203    107.1900     26.6259
   372.0000      8.2020      2.5787      0.0798      4.3235    106.0606     26.7139
   372.1000      8.2020      2.5772      0.0721      4.4094    106.9627     26.8699
   372.2000      8.2020      2.5922      0.1036      3.5046    109.9533     27.1237
   372.3000      8.2135      2.6041      0.0304      2.7788    113.6387     27.8980
   372.4000      8.2135      2.6133      0.1007      2.2220    115.1585     28.8859
   372.5000      8.2101      2.6264      0.1391      1.4313    112.5962     29.2327
   372.6000      8.2101      2.6303      0.1875      1.1926    109.5165     28.9334
   372.7000      8.2101      2.5988      0.1807      3.1026    110.0979     28.7015
   372.8000      8.1917      2.5446      0.0965      6.3879    111.4847     28.6480
   372.9000      8.1917      2.5136      0.0862      8.2643    112.5756     28.4770
   373.0000      8.1984      2.5202      0.0978      7.8638    115.2934     28.1575
   373.1000      8.1984      2.5419      0.0625      6.5514    120.0954     27.7104
   373.2000      8.1984      2.5620      0.0811      5.3338    126.9287     27.3836
   373.3000      8.2082      2.5773      0.1197      4.4076    133.3012     27.5074
   373.4000      8.2082      2.5806      0.1143      4.2033    136.7090     27.9155
   373.5000      8.2382      2.5615      0.1032      5.3617    134.1411     27.8644
   373.6000      8.2382      2.5292      0.0615      7.3214    127.3059     27.1717
   373.7000      8.2382      2.5097      0.1475      8.5056    123.4996     26.6107
   373.8000      8.2394      2.5055      0.0821      8.7571    125.4599     26.5800
   373.9000      8.2394      2.4994      0.0423      9.1301    129.4571     26.5245
   374.0000      8.2323      2.4805      0.0265     10.2715    130.4505     25.8461
   374.1000      8.2323      2.4476      0.0330     12.2689    127.6873     24.6256
   374.2000      8.2323      2.3947      0.0528     15.4703    120.9684     23.0780
   374.3000      8.2410      2.3078      0.0684     20.7368    110.0499     21.3566
   374.4000      8.2410      2.1835      0.0036     28.2725    101.4427     19.4431
   374.5000      8.2507      2.0334      0.0103     37.3667    101.1190     17.2546
   374.6000      8.2507      1.8682     -0.0003     47.3813    106.9133     15.2229
   374.7000      8.2507      1.7096     -0.1237     56.9921    109.9487     14.0202
   374.8000      8.3015      1.5902     -0.1405     64.2273    102.5221     13.6807
   374.9000      8.3015      1.5157     -0.1275     68.7445     90.4063     13.7121
   375.0000      8.3288      1.4628     -0.0798     71.9506     83.7414     13.6881
   375.1000      8.3288      1.4301     -0.0504     73.9348     81.1017     13.7496
   375.2000      8.3288      1.4539      0.0452     72.4880     79.3451     14.1611
   375.3000      8.3957      1.5511      0.2052     66.5997     80.7155     14.7774
   375.4000      8.3957      1.6963      0.2435     57.8027     83.5850     15.2823
   375.5000      8.4055      1.8539      0.3071     48.2506     84.6459     15.7521
   375.6000      8.4055      1.9905      0.3311     39.9684     86.0201     16.6339
   375.7000      8.4055      2.0963      0.2560     33.5604     90.1236     17.9793
   375.8000      8.3429      2.1965      0.2475     27.4825     95.9082     19.6650
   375.9000      8.3429      2.2994      0.4013     21.2457    102.3185     21.7203
   376.0000      8.2030      2.3770      0.3185     16.5475    107.0927     23.5521
   376.1000      8.2030      2.4195      0.2599     13.9718    108.7131     24.7625
   376.2000      8.2030      2.4407      0.1847     12.6854    109.8055     25.6566
   376.3000      8.1825      2.4553      0.0633     11.8012    113.2074     26.1533
   376.4000      8.1825      2.4765      0.0078     10.5168    118.3909     25.9795
   376.5000      8.1849      2.5077      0.0404      8.6216    122.8487     25.4376
   376.6000      8.1849      2.5447      0.0840      6.3822    124.0271     25.4176
   376.7000      8.1849      2.5741      0.1013      4.6022    120.6319     26.0641
   376.8000      8.1830      2.5781      0.0690      4.3592    115.0434     26.5376
   376.9000      8.1830      2.5613      0.0598      5.3783    111.9351     26.5869
   377.0000      8.1827      2.5496      0.0150      6.0850    113.3754     26.5307
   377.1000      8.1827      2.5499      0.0822      6.0680    114.3794     26.7450
   377.2000      8.1827      2.5449      0.0425      6.3678    109.3700     27.3630
   377.3000      8.1827      2.5285      0.0175      7.3622    102.3281     27.6615
   377.4000      8.1827      2.4934      0.0629      9.4932    101.5475     27.3088
   377.5000      8.1853      2.4439     -0.0563     12.4904    107.2345     27.2135
   377.6000      8.1853      2.4238     -0.0140     13.7078    111.2305     27.7493
   377.7000      8.1853      2.4603      0.0306     11.4948    108.2790     28.2436
   377.8000      8.1871      2.5303      0.0610      7.2573    102.4834     28.0569
   377.9000      8.1871      2.5846      0.0600      3.9608     97.9527     27.3278
   378.0000      8.1811      2.5892      0.0613      3.6826     93.4814     26.8312
   378.1000      8.1811      2.5584      0.0440      5.5535     87.9596     26.9016
   378.2000      8.1811      2.5344      0.0048      7.0037     82.8944     27.0252
   378.3000      8.1804      2.5355      0.0292      6.9375     80.7066     26.5564
   378.4000      8.1804      2.5455      0.0524      6.3349     80.6206     25.5068
   378.5000      8.1773      2.5610      0.0115      5.3933     79.1698     24.6461
   378.6000      8.1773      2.5877      0.1080      3.7765     77.8210     24.4362
   378.7000      8.1773      2.6069      0.1403      2.6107     80.5281     24.3534
   378.8000      8.1774      2.6057      0.1061      2.6859     87.3532     23.7196
   378.9000      8.1774      2.5905      0.1175      3.6073     92.7507     22.7495
