~Version Information
VERS.                      2.0: CWLS Log ASCII Standard - VERSION 2.0
WRAP.                       NO: One line per depth step
~Well Information Block
STRT.FT               350.0000: 
STOP.FT              2808.2500: 
STEP.FT                 0.2500: 
NULL.                -999.2500: 
COMP.          Pioneer Natural Resources: COMPANY
WELL.          Grey Goose 33-30: WELL
FLD.           Purgatoire River: FIELD
LOC.           2136' FSL & 2065' FEL--: LOCATION
STAT.                 Colorado: State
CNTY.               Las Animas: COUNTY
CTRY. USA : Country
SECT. 30 : Section
TOWN. 32S : Township
RANG. 67W : Range
SRVC.                Patterson: SERVICE COMPANY
DATE.          Fri Nov 04 09:00:45 2005: LOG DATE
API.           05 071 08546 00: UNIQUE WELL ID
~Curve Information Block
DEPT.FT            0 000 00 00: Depth
DIR.Ohm-m                     : IEL Induction Resistivity
SN.Ohm-m                      : IEL Short Normal
SP.mV                         : IEL Spontaneous Potential
GR.GAPI                       : Gamma Ray
~Parameter Information Block
~A  Depth       DIR          SN          SP          GR     
# ...
  2762.0000     18.4289     20.2999    125.0992     91.8205
  2762.2500     18.7218     20.3519    125.1090     87.8549
  2762.5000     18.9541     20.4096    125.1279     81.1181
  2762.7500     19.1181     20.4790    125.1551     77.3951
  2763.0000     19.2215     20.5593    125.1851     73.9868
  2763.2500     19.2773     20.6400    125.2087     73.4343
  2763.5000     19.2921     20.6997    125.2137     75.2867
  2763.7500     19.2613     20.7118    125.1861     77.8294
  2764.0000     19.1756     20.6600    125.1126     81.5218
  2764.2500     19.0332     20.5514    124.9816     82.5992
  2764.5000     18.8474     20.4152    124.7853     81.8223
  2764.7500     18.6450     20.2869    124.5203     80.9442
  2765.0000     18.4575     20.1915    124.1879     81.6028
  2765.2500     18.3125     20.1346    123.7941     83.6164
  2765.5000     18.2284     20.1037    123.3490     86.7481
  2765.7500     18.2105     20.0785    122.8654     87.1338
  2766.0000     18.2510     20.0453    122.3585     84.2585
  2766.2500     18.3318     20.0074    121.8449     81.2487
  2766.5000     18.4329     19.9864    121.3415     77.9839
  2766.7500     18.5390     20.0120    120.8649     77.3843
  2767.0000     18.6445     20.1064    120.4295     78.4699
  2767.2500     18.7514     20.2716    120.0471     80.1894
  2767.5000     18.8639     20.4834    119.7249     83.9766
  2767.7500     18.9810     20.6971    119.4656     86.7596
  2768.0000     19.0939     20.8639    119.2665     89.4973
  2768.2500     19.1876     20.9509    119.1211     89.5372
  2768.5000     19.2449     20.9541    119.0192     87.4355
  2768.7500     19.2509     20.8959    118.9493     85.8776
  2769.0000     19.1964     20.8078    118.8993     85.3151
  2769.2500     19.0807     20.7119    118.8583     86.4389
  2769.5000     18.9150     20.6134    118.8180     89.4720
  2769.7500     18.7204     20.5065    118.7732     91.2883
  2770.0000     18.5209     20.3849    118.7229     91.5778
  2770.2500     18.3358     20.2496    118.6707     89.6456
  2770.5000     18.1748     20.1107    118.6243     85.0712
  2770.7500     18.0398     19.9831    118.5955     82.5357
  2771.0000     17.9306     19.8796    118.5979     81.3819
  2771.2500     17.8494     19.8067    118.6456     82.4835
  2771.5000     17.8019     19.7664    118.7500     85.7585
  2771.7500     17.7927     19.7616    118.9178     87.8527
  2772.0000     17.8208     19.8003    119.1485     89.1984
  2772.2500     17.8803     19.8941    119.4332     88.9495
  2772.5000     17.9637     20.0526    119.7548     88.5840
  2772.7500     18.0668     20.2774    120.0891     89.2350
  2773.0000     18.1904     20.5603    120.4080     91.4625
  2773.2500     18.3392     20.8860    120.6825     93.2378
  2773.5000     18.5167     21.2387    120.8876     96.2494
  2773.7500     18.7201     21.6086    121.0048     99.0109
  2774.0000     18.9395     21.9909    121.0255    104.4933
  2774.2500     19.1636     22.3801    120.9516    108.1448
  2774.5000     19.3887     22.7667    120.7952    111.4830
  2774.7500     19.6215     23.1413    120.5764    111.7476
  2775.0000     19.8719     23.5004    120.3212    109.8750
  2775.2500     20.1404     23.8426    120.0579    107.7539
  2775.5000     20.4114     24.1615    119.8148    103.6874
  2775.7500     20.6581     24.4401    119.6175    100.3195
  2776.0000     20.8557     24.6543    119.4869     94.5349
  2776.2500     20.9898     24.7814    119.4380     90.6899
  2776.5000     21.0550     24.8092    119.4789     85.5805
  2776.7500     21.0472     24.7362    119.6105     82.5345
  2777.0000     20.9602     24.5677    119.8268     78.0634
  2777.2500     20.7913     24.3178    120.1154     75.1511
  2777.5000     20.5487     24.0148    120.4585     71.6092
  2777.7500     20.2562     23.6992    120.8346     70.5140
  2778.0000     19.9502     23.4087    121.2194     71.8485
  2778.2500     19.6712     23.1651    121.5881     74.7241
  2778.5000     19.4538     22.9732    121.9168     80.3034
  2778.7500     19.3181     22.8301    122.1848     83.2542
  2779.0000     19.2672     22.7363    122.3756     84.5828
  2779.2500     19.2913     22.7023    122.4785     83.4910
  2779.5000     19.3742     22.7489    122.4889     80.6964
  2779.7500     19.5001     22.9062    122.4082     79.2307
  2780.0000     19.6592     23.2069    122.2432     78.7135
  2780.2500     19.8525     23.6768    122.0057     79.5003
  2780.5000     20.0952     24.3244    121.7118     81.6913
  2780.7500     20.4114     25.1337    121.3812     83.3014
  2781.0000     20.8206     26.0604    121.0368     85.4361
  2781.2500     21.3181     27.0291    120.7037     86.7080
  2781.5000     21.8630     27.9383    120.4087     88.4760
  2781.7500     22.3839     28.6782    120.1779     89.2114
  2782.0000     22.8018     29.1559    120.0361     88.7333
  2782.2500     23.0581     29.3239    120.0042     87.4343
  2782.5000     23.1301     29.1998    120.0980     85.7749
  2782.7500     23.0288     28.8642    120.3263     85.9937
  2783.0000     22.7867     28.4247    120.6898     88.4759
  2783.2500     22.4434     27.9603    121.1806     90.6879
  2783.5000     22.0323     27.4807    121.7824     93.2881
  2783.7500     21.5729     26.9334    122.4718     94.1347
  2784.0000     21.0748     26.2506    123.2209     94.0040
  2784.2500     20.5462     25.4030    123.9997     93.1115
  2784.5000     20.0003     24.4230    124.7791     90.9669
  2784.7500     19.4554     23.3923    125.5329     89.3037
  2785.0000     18.9314     22.4092    126.2390     87.0516
  2785.2500     18.4478     21.5569    126.8796     86.0525
  2785.5000     18.0225     20.8832    127.4402     85.5106
  2785.7500     17.6700     20.3956    127.9096     85.5611
  2786.0000     17.3991     20.0721    128.2783     85.5804
  2786.2500     17.2130     19.8803    128.5388     85.3363
  2786.5000     17.1112     19.7942    128.6858     84.9508
  2786.7500     17.0917     19.8003    128.7161     85.2294
  2787.0000     17.1515     19.8947    128.6292     87.0881
  2787.2500     17.2847     20.0777    128.4268     89.0228
  2787.5000     17.4811     20.3521    128.1129     91.6771
  2787.7500     17.7313     20.7272    127.6929     92.5880
  2788.0000     18.0339     21.2232    127.1731     91.9460
  2788.2500     18.4002     21.8677    126.5605     89.6767
  2788.5000     18.8480     22.6805    125.8628     81.9531
  2788.7500     19.3880     23.6503    125.0890     72.9961
  2789.0000     20.0124     24.7220    124.2503     54.1170
  2789.2500     20.6943     25.8080    123.3612     39.7941
  2789.5000     21.3963     26.8211    122.4404     20.5987
  2789.7500     22.0825     27.7045    121.5108     11.4528
  2790.0000     22.7249     28.4410    120.5990      3.7224
  2790.2500     23.3031     29.0407    119.7339      1.4822
  2790.5000     23.8020     29.5205    118.9443      0.2834
  2790.7500     24.2080     29.8890    118.2567      0.0774
  2791.0000     24.5080     30.1447    117.6936      0.0071
  2791.2500     24.6909     30.2841    117.2715      0.0000
  2791.5000     24.7486     30.3079    116.9998   -999.2500
  2791.7500     24.6760     30.2215    116.8798   -999.2500
  2792.0000     24.4702     30.0340    116.9048   -999.2500
  2792.2500     24.1375     29.7564    117.0598   -999.2500
  2792.5000     23.7028     29.3974    117.3227   -999.2500
  2792.7500     23.2124     28.9590    117.6659   -999.2500
  2793.0000     22.7206     28.4393    118.0584   -999.2500
  2793.2500     22.2694     27.8463    118.4687   -999.2500
  2793.5000     21.8759     27.2101    118.8667   -999.2500
  2793.7500     21.5366     26.5771    119.2264   -999.2500
  2794.0000     21.2402     25.9898    119.5270   -999.2500
  2794.2500     20.9787     25.4734    119.7529   -999.2500
  2794.5000     20.7513     25.0363    119.8936   -999.2500
  2794.7500     20.5609     24.6747    119.9432   -999.2500
  2795.0000     20.4110     24.3711    119.8988   -999.2500
  2795.2500     20.4275     24.0983    119.7604   -999.2500
