~Version Information
VERS.                      2.0: CWLS Log ASCII Standard - VERSION 2.0
WRAP.                       NO: One line per depth step
~Well Information Block
STRT.FT               330.0000: 
STOP.FT              2874.7000: 
STEP.FT                 0.1000: 
NULL.                -999.2500: 
COMP.          Pioneer Natural Resources: COMPANY
WELL.                AMX 13-13: WELL
FLD.           Purgatoire River: FIELD
LOC.           2316' FSL & 865' FWL--: LOCATION
PROV.                 Colorado: PROVINCE
CNTY.               Las Animas: COUNTRY
SRVC.                Patterson: SERVICE COMPANY
DATE.          Tue Dec 20 09:57:28 2005: LOG DATE
UWI.           05 071 08630 00: UNIQUE WELL ID
~Curve Information Block
DEPT.FT            0 000 00 00: Depth
DCAL.in                       : CDL Caliper
RHOB.g/cc                     : CDL Bulk Density
RHOC.g/cc                     : CDL Density Correction
DPOR.pu                       : CDL Density Porosity
NPOR.pu                       : Neutron Porosity
GR.GAPI                       : Gamma Ray
~Parameter Information Block
~A  Depth       DCAL        RHOB        RHOC        DPOR        NPOR         GR     
   330.0000     -0.1307      1.2942      0.2917     82.1721     41.0399     73.9475
   330.1000     -0.1307      1.2978      0.2776     81.9539     41.0112     69.0008
   330.2000     -0.1307      1.3068      0.3099     81.4043     40.9826     63.3383
   330.3000     -0.1299      1.3153      0.3137     80.8894     40.9400     61.3965
   330.4000     -0.1299      1.3192      0.3283     80.6525     40.9156     64.0431
   330.5000     -0.1299      1.3184      0.3108     80.7012     40.8919     69.6429
   330.6000     -0.1299      1.3154      0.3080     80.8832     40.9256     75.1534
   330.7000     -0.1299      1.3119      0.3080     81.0972     41.0330     78.5043
   330.8000     -0.1298      1.3053      0.3084     81.4974     41.1541     79.1951
   330.9000     -0.1298      1.2956      0.2900     82.0849     41.2621     77.2320
   331.0000     -0.1280      1.2919      0.2774     82.3090     41.4790     74.6797
   331.1000     -0.1280      1.2984      0.3146     81.9172     41.8582     73.4808
   331.2000     -0.1280      1.3068      0.3188     81.4089     42.2423     72.6694
   331.3000     -0.1277      1.3118      0.3073     81.1042     42.5251     72.7608
   331.4000     -0.1277      1.3137      0.3373     80.9886     42.5654     76.6764
   331.5000     -0.1313      1.3105      0.3257     81.1836     42.3634     81.5641
   331.6000     -0.1313      1.3034      0.3085     81.6142     42.2911     83.1473
   331.7000     -0.1313      1.2972      0.3147     81.9906     42.4317     82.4997
   331.8000     -0.1331      1.2935      0.3083     82.2139     42.3712     81.7994
   331.9000     -0.1331      1.2925      0.2964     82.2730     41.9324     82.5071
   332.0000     -0.1316      1.2946      0.3053     82.1442     41.3859     85.4121
   332.1000     -0.1316      1.2977      0.3193     81.9556     40.9614     88.1168
   332.2000     -0.1316      1.2995      0.3104     81.8487     40.7052     87.6030
   332.3000     -0.1280      1.2996      0.3150     81.8429     40.6086     84.1841
   332.4000     -0.1280      1.2983      0.3051     81.9200     40.6026     81.2547
   332.5000     -0.1264      1.2958      0.3226     82.0754     40.6554     81.5480
   332.6000     -0.1264      1.2919      0.3127     82.3109     40.8144     82.5221
   332.7000     -0.1264      1.2899      0.2946     82.4306     40.9336     81.0699
   332.8000     -0.1293      1.2914      0.2977     82.3386     40.7288     78.8274
   332.9000     -0.1293      1.2918      0.3154     82.3169     40.3774     78.6329
   333.0000     -0.1332      1.2892      0.3055     82.4729     40.1139     80.9150
   333.1000     -0.1332      1.2894      0.2940     82.4610     39.8239     84.3640
   333.2000     -0.1332      1.2939      0.3199     82.1894     39.6412     86.4689
   333.3000     -0.1339      1.2952      0.3168     82.1095     39.7896     84.1985
   333.4000     -0.1339      1.2895      0.3071     82.4560     39.9454     78.2014
   333.5000     -0.1346      1.2814      0.2961     82.9464     39.8229     73.7265
   333.6000     -0.1346      1.2744      0.2988     83.3719     39.6658     72.0038
   333.7000     -0.1346      1.2659      0.2982     83.8848     39.6727     69.5484
   333.8000     -0.1352      1.2570      0.2789     84.4245     39.7587     67.1171
   333.9000     -0.1352      1.2521      0.2892     84.7223     39.8063     68.1889
   334.0000     -0.1361      1.2500      0.2859     84.8495     39.8381     71.9804
   334.1000     -0.1361      1.2491      0.2815     84.9005     40.1567     74.6416
   334.2000     -0.1361      1.2500      0.2930     84.8480     40.9463     74.2832
   334.3000     -0.1388      1.2496      0.2947     84.8699     41.7535     71.8740
   334.4000     -0.1388      1.2452      0.2827     85.1420     42.0598     69.1441
   334.5000     -0.1410      1.2384      0.2805     85.5498     41.9068     68.0509
   334.6000     -0.1410      1.2329      0.2803     85.8841     41.5529     71.3755
   334.7000     -0.1410      1.2277      0.2967     86.1985     41.1352     78.2729
   334.8000     -0.1367      1.2199      0.2683     86.6705     40.8362     83.8339
   334.9000     -0.1367      1.2097      0.2852     87.2918     40.8415     84.4056
   335.0000     -0.1283      1.1970      0.2743     88.0577     40.9816     82.5366
   335.1000     -0.1283      1.1826      0.2562     88.9356     40.8347     83.6379
   335.2000     -0.1283      1.1678      0.2590     89.8299     40.3408     86.4231
   335.3000     -0.1228      1.1518      0.2595     90.7981     39.8223     86.3064
   335.4000     -0.1228      1.1344      0.2407     91.8541     39.5477     82.6066
   335.5000     -0.1232      1.1178      0.2377     92.8617     39.5353     77.5933
   335.6000     -0.1232      1.1020      0.2296     93.8208     39.6593     74.7647
   335.7000     -0.1232      1.0845      0.2276     94.8771     39.8145     75.4391
   335.8000     -0.1281      1.0649      0.2094     96.0665     39.8316     77.6370
   335.9000     -0.1281      1.0479      0.1844     97.0961     39.4441     78.7196
   336.0000     -0.1326      1.0384      0.1871     97.6749     38.9344     77.5044
   336.1000     -0.1326      1.0335      0.2010     97.9688     38.9988     75.4235
   336.2000     -0.1326      1.0285      0.1844     98.2736     39.7746     74.6804
   336.3000     -0.1372      1.0230      0.1904     98.6045     40.5758     76.2869
   336.4000     -0.1372      1.0188      0.1709     98.8622     40.8654     78.7126
   336.5000     -0.1409      1.0139      0.1845     99.1582     40.9057     78.1703
   336.6000     -0.1409      1.0040      0.1713     99.7592     40.9595     73.8009
   336.7000     -0.1409      0.9901      0.1566    100.6015     40.9109     69.6499
   336.8000     -0.1432      0.9783      0.1356    101.3122     40.8848     69.3884
   336.9000     -0.1432      0.9718      0.1552    101.7067     41.0333     70.5395
   337.0000     -0.1437      0.9703      0.1377    101.7989     41.1634     69.0396
   337.1000     -0.1437      0.9741      0.1529    101.5710     41.1771     67.2158
   337.2000     -0.1437      0.9785      0.1641    101.3044     41.1690     69.8522
   337.3000     -0.1409      0.9774      0.1581    101.3714     41.2696     76.7693
   337.4000     -0.1409      0.9736      0.1509    101.5998     41.2805     84.2061
   337.5000     -0.1381      0.9732      0.1588    101.6245     40.9766     86.9165
   337.6000     -0.1381      0.9742      0.1471    101.5637     40.8093     83.3451
   337.7000     -0.1381      0.9702      0.1529    101.8071     40.9576     78.3614
   337.8000     -0.1390      0.9581      0.1491    102.5368     41.0319     75.5553
   337.9000     -0.1390      0.9421      0.1353    103.5094     41.0011     72.8761
   338.0000     -0.1407      0.9347      0.1118    103.9589     41.0443     68.0875
   338.1000     -0.1407      0.9448      0.1375    103.3471     41.0564     64.7358
   338.2000     -0.1407      0.9594      0.1656    102.4584     40.8876     68.3381
   338.3000     -0.1412      0.9554      0.1450    102.7015     40.6128     75.7997
   338.4000     -0.1412      0.9299      0.1401    104.2511     40.3535     79.0923
   338.5000     -0.1435      0.9072      0.0996    105.6256     40.2336     79.2935
   338.6000     -0.1435      0.9122      0.1037    105.3201     40.3035     80.6986
   338.7000     -0.1435      0.9419      0.1156    103.5223     40.4488     81.7517
   338.8000     -0.1435      0.9728      0.1532    101.6479     40.5418     80.8727
   338.9000     -0.1435      0.9846      0.1770    100.9322     40.5703     80.9909
   339.0000     -0.1379      0.9763      0.1319    101.4342     40.6799     83.7503
   339.1000     -0.1379      0.9675      0.1020    101.9684     40.8612     85.9210
   339.2000     -0.1379      0.9746      0.1184    101.5391     40.8869     86.6501
   339.3000     -0.1330      0.9926      0.1499    100.4459     40.7741     87.6481
   339.4000     -0.1330      1.0082      0.1733     99.5016     40.6794     88.0153
   339.5000     -0.1329      1.0185      0.1615     98.8759     40.5774     86.8872
