~Version Information
VERS.                      2.0: CWLS Log ASCII Standard - VERSION 2.0
WRAP.                       NO: One line per depth step
~Well Information Block
STRT.FT               410.0000: 
STOP.FT              1252.0000: 
STEP.FT                 0.2500: 
NULL.                -999.2500: 
COMP.          Petrogulf Corporation: COMPANY
WELL.           Parsons 15-23R: WELL
FLD.           Purgatorie River: FIELD
LOC.           2244' FSL & 1932' FWL: LOCATION
PROV.                 Colorado: PROVINCE
CNTY.               Las Animas: COUNTRY
SRVC.                Patterson: SERVICE COMPANY
DATE.          Mon Sep 12 10:30:11 2005: LOG DATE
UWI.                          : UNIQUE WELL ID
~Curve Information Block
DEPT.FT            0 000 00 00: Depth
SP.mV                         : DIL Spontaneous Potential
RILD.Ohm-m                    : DIL Deep Resistivity
RILM.Ohm-m                    : DIL Medium Resistivity
RLL3.Ohm-m                    : DIL Shallow Resistivity
GR.GAPI                       : Gamma Ray
~Parameter Information Block
~A  Depth        SP         RILD        RILM        RLL3         GR     
# ...
   998.0000    221.5082     11.1517     13.3307     24.8605    142.6934
   998.2500    221.8532     11.9216     13.3779     22.7008    160.0330
   998.5000    222.0243     12.9743     13.6442     17.4873    143.0865
   998.7500    221.8042     14.1000     14.5824     13.7469    137.7585
   999.0000    221.2521     15.0696     16.0031     15.3090    113.7038
   999.2500    220.5994     15.8766     17.8141     20.3411     96.9277
   999.5000    220.1922     16.6548     20.0714     26.2637     96.3014
   999.7500    220.0258     17.4583     22.0918     33.3531     96.0114
  1000.0000    219.5667     17.3711     25.3714     42.2346     78.6146
  1000.2500    219.3033     17.6138     26.9147     50.0055     70.2913
  1000.5000    219.1196     17.6654     26.7967     56.0787     92.8639
  1000.7500    218.9386     17.4639     28.4445     60.0879     95.6617
  1001.0000    218.8649     17.8535     28.4176     64.4274     83.8767
  1001.2500    218.6726     18.0782     27.2664     62.7681     95.9038
  1001.5000    218.5643     18.5016     26.9024     46.4276     91.3217
  1001.7500    218.8158     18.4594     24.8225     29.4450    113.5894
  1002.0000    219.1836     19.2420     23.0132     21.8656    134.7632
  1002.2500    219.2903     19.2245     22.1698     18.0501    134.5877
  1002.5000    219.0192     18.7369     21.5781     17.4218    124.5182
  1002.7500    218.9202     19.4526     21.4561     18.0588    122.1935
  1003.0000    218.6306     17.9762     22.0205     17.0922    122.7603
  1003.2500    218.1733     17.2958     22.4010     17.5924    102.6034
  1003.5000    217.5477     16.2756     21.9972     23.4908     93.5303
  1003.7500    217.1188     15.4868     21.8161     32.9338     99.8406
  1004.0000    216.8612     15.0183     20.4981     35.4388    105.7576
  1004.2500    216.6466     14.3301     19.3681     26.2232    108.8503
  1004.5000    216.6059     13.3386     17.6879     17.4439    116.8433
  1004.7500    216.6143     13.0898     16.3168     14.4597    114.1119
  1005.0000    216.7771     12.7846     15.0978     16.6143    135.4704
  1005.2500    217.0692     12.5474     14.1452     17.6763    120.8060
  1005.5000    217.2973     12.3781     13.3701     14.0868    134.8222
  1005.7500    217.5755     12.0863     12.6845     11.6019    154.6221
  1006.0000    217.9886     11.5309     12.0317     10.7896    167.9144
  1006.2500    218.3674     11.2290     11.7673     10.3822    189.6601
  1006.5000    218.7296     10.6933     11.1567     10.3182    161.4408
  1006.7500    218.7897     10.2815     10.8211     11.0684    143.4376
  1007.0000    218.9440      9.9935     10.3774     11.9762    160.0087
  1007.2500    218.7937      9.7394      9.9234     11.6961    169.6047
  1007.5000    218.3780      9.3024      9.5577     11.0683    169.2817
  1007.7500    217.7437      9.0232      9.2479     10.5442    164.9150
  1008.0000    217.2629      8.7277      8.9198      9.5054    172.7745
  1008.2500    216.5241      8.7849      8.7988      8.9123    187.2156
  1008.5000    216.1357      8.7611      8.6020      8.5576    184.0156
  1008.7500    215.6339      8.6890      8.5423      8.1750    169.3330
  1009.0000    214.9586      8.6882      8.4882      8.0001    181.1991
  1009.2500    214.1969      8.6750      8.5718      8.4480    197.0302
  1009.5000    213.8405      8.6890      8.7957      9.4370    170.1793
  1009.7500    213.7436      8.6724      9.0146     10.4261    168.8718
  1010.0000    214.1343      8.5575      9.1043     10.8986    167.1533
  1010.2500    214.2990      8.4784      9.1812     10.9720    156.3859
  1010.5000    214.2202      8.3384      9.1684     11.1815    169.2431
  1010.7500    214.4388      8.2507      9.0175     11.4558    147.7842
  1011.0000    214.3943      8.1172      8.8337     11.6738    160.3796
  1011.2500    214.2764      8.2079      8.6010     11.2103    164.3330
  1011.5000    214.1397      8.1215      8.3506     10.7992    157.0873
  1011.7500    214.0631      8.1134      8.1710      9.6952    145.7888
  1012.0000    214.0577      8.1609      7.8805      8.7584    177.2826
  1012.2500    213.8451      8.1812      7.6631      8.1884    186.3563
  1012.5000    213.5901      8.2915      7.6363      7.3085    187.6822
  1012.7500    213.4639      8.3459      7.6651      6.9962    191.8896
  1013.0000    213.5024      8.2897      7.8443      7.6619    168.8082
  1013.2500    213.6947      8.3425      7.9877      8.5653    150.6754
  1013.5000    213.8265      8.4004      8.2248      9.6858    173.3668
  1013.7500    213.8064      8.5368      8.4822      9.9859    184.6257
  1014.0000    213.9212      8.5820      8.5822     10.1156    163.1666
  1014.2500    213.9985      8.7830      8.8198      9.8490    163.5587
  1014.5000    213.6893      9.0664      9.0352      9.5680    167.5078
  1014.7500    213.2801      9.2059      9.5954      9.6628    165.4722
  1015.0000    212.7122      9.4970     10.1415     10.5131    162.4172
  1015.2500    212.0905      9.6896     10.7280     12.0282    132.2735
  1015.5000    211.8020      9.9207     11.4554     14.0935    132.5842
  1015.7500    211.6763      9.9155     12.1099     15.8484    140.4052
  1016.0000    211.7591      9.8338     12.4116     17.7584    130.5451
  1016.2500    211.9932      9.9527     12.4052     18.4516    123.1708
  1016.5000    212.3419      9.6866     11.9525     17.6008    137.8318
  1016.7500    212.7482      9.6242     11.3968     16.1923    126.0858
  1017.0000    212.7928      9.6108     10.6515     13.5145    156.9859
  1017.2500    212.6313      9.4337     10.0209     10.1842    163.2438
  1017.5000    212.4502      9.3645      9.4828      8.0770    173.2054
  1017.7500    212.2854      9.1037      9.2653      7.6048    195.7664
  1018.0000    212.1076      9.1324      8.9272      7.6713    184.9765
  1018.2500    211.7030      9.1546      8.7456      7.8678    181.1961
  1018.5000    211.1718      8.8654      8.7217      7.6811    189.3243
  1018.7500    210.6028      8.9733      8.6481      7.7156    174.3464
  1019.0000    210.0508      8.8831      8.6827      8.2958    183.3148
  1019.2500    209.4160      8.7842      8.7040      9.2458    184.6142
  1019.5000    208.5819      8.6609      8.7817      9.7851    168.1873
  1019.7500    207.9756      8.7675      8.8657      9.7641    183.4244
  1020.0000    207.9848      8.6854      9.0333      9.4552    167.7177
  1020.2500    208.2133      8.4725      9.2355      9.7215    168.6711
  1020.5000    208.2702      8.2332      9.5282     11.1602    151.7104
  1020.7500    208.1512      8.1195      9.5725     12.8587    143.1640
  1021.0000    208.0791      8.2304      9.5120     13.6840    143.7923
  1021.2500    208.1552      8.2471      9.2882     13.1806    137.7356
  1021.5000    207.8980      8.2233      9.0739     11.3973    134.3072
  1021.7500    207.3876      8.1511      8.7078      9.2030    146.1081
  1022.0000    206.7780      8.0732      8.2613      7.9808    192.6059
  1022.2500    206.0547      7.9789      8.1782      7.3641    183.7141
  1022.5000    205.6546      8.0534      7.9120      7.4163    176.8072
  1022.7500    205.0246      8.1080      7.7477      7.7665    185.6316
  1023.0000    204.2914      7.9420      7.6197      7.6858    180.3657
  1023.2500    203.5412      7.7649      7.6080      7.7501    183.0582
  1023.5000    203.2277      7.7494      7.4099      7.6237    174.2928
  1023.7500    203.2192      7.7206      7.3720      7.9118    187.4125
  1024.0000    203.1730      7.6014      7.3754      8.1453    192.5359
  1024.2500    203.1393      7.6239      7.4224      8.2436    183.2580
  1024.5000    203.3206      7.5789      7.4728      7.9821    170.8293
  1024.7500    203.5437      7.6607      7.4963      7.8462    155.3685
  1025.0000    203.8440      7.5720      7.6640      8.4906    186.1545
  1025.2500    204.0287      7.7729      7.9078      9.3113    167.4846
  1025.5000    204.1829      7.7808      8.0835      9.9092    171.4977
  1025.7500    204.5355      8.0119      8.4008     10.5227    170.7406
