~Version Information
VERS.                      2.0: CWLS Log ASCII Standard - VERSION 2.0
WRAP.                       NO: One line per depth step
~Well Information Block
STRT.FT                -8.5000: 
STOP.FT              1214.7500: 
STEP.FT                 0.2500: 
NULL.                -999.2500: 
COMP.          Pioneer Natural Resources: COMPANY
WELL.          Rock Island 44-24 Tr: WELL
FLD.           Purgatorie River: FIELD
LOC.           814' FSL & 761' FEL--: LOCATION
CNTY.               Las Animas: COUNTY
SRVC.          Patterson Wireline: SERVICE COMPANY
DATE.          Fri Apr 28 10:23:18 2006: LOG DATE
UWI.           05 071 08680 00: UNIQUE WELL ID
STAT.                       CO: STATE
~Curve Information Block
DEPT.FT            0 000 00 00: Depth
CCL.                          : Casing Collar Locator
TT3.usec                      : CBL 3' Travel Time
AMP3.mV                       : CBL 3' Amplitude
GR.GAPI                       : Gamma Ray
~Parameter Information Block
~A  Depth       CCL         TT3         AMP3         GR     
# ...
   460.5000      0.0000    716.4723      7.0318     57.5351
   460.7500      0.0000    719.8828      6.9187     57.2572
   461.0000      0.0000    721.2429      6.8138     56.5324
   461.2500      0.0000    721.3086      6.7207     56.3106
   461.5000      0.0000    721.9031      6.6414     57.8554
   461.7500      0.0000    725.1553      6.5729     61.9908
   462.0000      0.0000    731.3690      6.5070     68.3925
   462.2500      0.0000    737.6380      6.4324     75.3811
   462.5000      0.0000    739.9466      6.3408     80.7887
   462.7500      0.0000    736.9500      6.2307     83.3483
   463.0000      0.0000    730.4874      6.1052     83.2387
   463.2500      0.0000    722.2950      5.9684     81.5222
   463.5000      0.0000    711.4851      5.8345     79.5075
   463.7500      0.0000    695.5782      5.7436     78.4460
   464.0000      0.0000    674.6646      5.7461     79.0167
   464.2500      0.0000    655.6220      5.8403     80.8823
   464.5000      0.0000    650.1568      5.9441     83.0239
   464.7500      0.0000    664.7437      5.9663     84.5946
   465.0000      0.0000    693.4079      5.8975     85.4246
   465.2500      0.0000    723.5820      5.8004     85.8343
   465.5000      0.0000    746.5862      5.7315     86.0542
   465.7500      2.0000    759.0821      5.7057     85.9328
   466.0000      0.0000    758.5031      5.7224     85.1291
   466.2500      0.0000    742.7371      5.8001     83.2627
   466.5000      0.0000    714.1183      5.9791     79.9173
   466.7500      0.0000    681.5267      6.2804     75.1294
   467.0000      0.0000    657.5916      6.6538     70.1677
   467.2500      0.0000    651.6334      6.9872     67.3289
   467.5000      0.0000    663.1960      7.1965     68.3982
   467.7500      0.0000    683.1517      7.2882     73.1421
   468.0000      0.0000    701.7062      7.3210     79.2377
   468.2500      0.0000    714.0912      7.3345     83.6634
   468.5000      0.0000    719.7740      7.3348     84.5243
   468.7500      0.0000    719.6564      7.3210     82.1398
   469.0000      0.0000    715.2245      7.3000     78.7103
   469.2500      0.0000    708.7148      7.2813     76.7697
   469.5000      0.0000    702.5146      7.2685     77.4925
   469.7500      0.0000    698.0981      7.2607     80.3025
   470.0000      0.0000    695.6348      7.2570     84.0227
   470.2500      0.0000    694.4688      7.2581     87.9141
   470.5000      0.0000    693.8630      7.2632     91.3428
   470.7500      0.0000    693.3901      7.2673     93.2816
   471.0000      0.0000    692.9443      7.2639     92.9976
   471.2500      0.0000    692.5758      7.2491     90.9393
   471.5000      0.0000    692.3337      7.2249     88.2868
   471.7500      0.0000    692.2090      7.2007     85.7964
   472.0000      0.0000    692.1546      7.1893     83.6130
   472.2500      0.0000    692.1155      7.2006     82.0292
   472.5000      0.0000    692.0525      7.2356     81.8288
   472.7500      0.0000    691.9725      7.2848     83.4696
   473.0000      0.0000    691.9372      7.3331     85.9264
   473.2500      0.0000    692.0126      7.3687     86.8507
   473.5000      0.0000    692.1996      7.3882     84.4897
   473.7500      0.0000    692.4336      7.3935     79.4574
   474.0000      0.0000    692.6592      7.3861     74.2663
   474.2500      0.0000    692.8728      7.3696     71.1248
   474.5000      0.0000    693.1070      7.3540     70.4653
   474.7500      0.0000    693.4550      7.3524     71.4072
   475.0000      0.0000    694.1811      7.3697     72.9448
   475.2500      0.0000    695.6655      7.3940     74.4359
   475.5000      0.0000    697.9336      7.3977     75.5990
   475.7500      0.0000    700.1560      7.3557     76.7630
   476.0000      0.0000    700.9973      7.2676     78.9306
   476.2500      0.0000    699.8202      7.1630     82.7463
   476.5000      0.0000    697.3627      7.0810     87.3049
   476.7500      0.0000    694.9843      7.0396     90.6150
   477.0000      0.0000    693.4755      7.0281     91.4050
   477.2500      0.0000    692.7606      7.0261     90.1026
   477.5000      0.0000    692.4164      7.0262     88.1362
   477.7500      0.0000    692.1549      7.0354     86.7029
   478.0000      0.0000    691.9151      7.0608     86.0575
   478.2500      0.0000    691.7415      7.0992     85.5124
   478.5000      0.0000    691.6652      7.1382     84.2299
   478.7500      0.0000    691.6490      7.1650     82.2761
   479.0000      0.0000    691.6122      7.1723     80.7038
   479.2500      0.0000    691.4950      7.1601     80.5694
   479.5000      0.0000    691.2982      7.1335     82.1314
   479.7500      0.0000    691.0568      7.1003     84.7552
   480.0000      0.0000    690.7909      7.0677     87.1201
   480.2500      0.0000    690.5070      7.0422     87.6727
   480.5000      0.0000    690.2453      7.0303     85.5766
   480.7500      0.0000    690.1027      7.0364     81.6656
   481.0000      0.0000    690.1919      7.0600     78.2770
   481.2500      0.0000    690.5750      7.0929     77.7465
   481.5000      0.0000    691.2213      7.1228     80.8872
   481.7500      0.0000    692.0004      7.1416     86.6291
   482.0000      0.0000    692.7098      7.1521     92.7237
   482.2500      0.0000    693.1444      7.1661     96.8544
   482.5000      0.0000    693.1992      7.1957     97.6587
   482.7500      0.0000    692.9777      7.2437     95.4175
   483.0000      0.0000    692.8793      7.3011     92.1223
   483.2500      0.0000    693.6241      7.3510     90.4464
   483.5000      0.0000    696.0640      7.3773     91.8124
   483.7500      0.0000    700.5439      7.3722     95.2928
   484.0000      0.0000    706.0436      7.3395     98.7105
   484.2500      0.0000    710.1702      7.2907    100.6832
   484.5000      0.0000    710.7338      7.2383    101.1637
   484.7500      0.0000    707.6600      7.1910    100.4102
   485.0000      0.0000    703.1063      7.1531     98.3255
   485.2500      0.0000    699.7662      7.1253     95.0039
   485.5000      0.0000    699.3154      7.1052     91.3704
   485.7500      0.0000    701.9367      7.0886     88.7517
   486.0000      0.0000    706.3284      7.0741     87.7393
   486.2500      0.0000    710.1861      7.0655     87.6897
   486.5000      0.0000    711.6199      7.0699     87.4571
   486.7500      0.0000    710.4451      7.0925     86.3588
   487.0000      0.0000    707.7246      7.1331     84.3053
   487.2500      0.0000    704.3066      7.1850     81.6879
   487.5000      0.0000    700.4598      7.2376     79.7056
   487.7500      0.0000    696.5839      7.2814     80.1065
   488.0000      0.0000    693.3842      7.3124     83.6247
   488.2500      0.0000    691.2925      7.3317     88.8298
   488.5000      0.0000    690.1747      7.3405     92.9327
   488.7500      0.0000    689.6274      7.3376     93.6448
   489.0000      0.0000    689.3331      7.3251     90.4937
   489.2500      0.0000    689.1518      7.3120     85.0349
   489.5000      0.0000    689.0389      7.3115     79.7331
   489.7500      0.0000    688.9611      7.3325     76.0728
   490.0000      0.0000    688.8768      7.3724     73.7432
   490.2500      0.0000    688.7668      7.4181     71.7751
   490.5000      0.0000    688.6531      7.4546     69.9181
   490.7500      0.0000    688.5878      7.4740     68.5476
   491.0000      0.0000    688.6218      7.4777     67.7850
   491.2500      0.0000    688.7761      7.4714     67.1539
   491.5000      0.0000    689.0300      7.4585     65.8767
   491.7500      0.0000    689.3275      7.4393     63.4002
   492.0000      0.0000    689.5958      7.4161     59.9070
   492.2500      0.0000    689.7677      7.3959     56.4145
   492.5000      0.0000    689.8466      7.3855     54.1893
   492.7500      0.0000    690.0438      7.3842     53.8847
   493.0000      0.0000    690.9814      7.3815     55.1537
   493.2500      0.0000    693.7178      7.3646     57.0403
   493.5000      0.0000    699.2136      7.3287     58.7263
   493.7500      0.0000    707.2003      7.2811     59.9099
