~Version Information
VERS.                      2.0: CWLS Log ASCII Standard - VERSION 2.0
WRAP.                       NO: One line per depth step
~Well Information Block
STRT.FT               -14.7500: 
STOP.FT              1106.0000: 
STEP.FT                 0.2500: 
NULL.                -999.2500: 
COMP.          Pioneer Natural Resources: COMPANY
WELL.          Black Cat 13-32 Tr: WELL
FLD.           Purgatorie River: FIELD
LOC.           1679' FSL & 1150' FWL--: LOCATION
CNTY.               Las Animas: COUNTY
SRVC.          Patterson Wireline: SERVICE COMPANY
DATE.          Wed Mar 15 15:59:24 2006: LOG DATE
UWI.           05 071 08721 00: UNIQUE WELL ID
STAT.                       CO: STATE
~Curve Information Block
DEPT.FT            0 000 00 00: Depth
CCL.                          : Casing Collar Locator
TT3.usec                      : CBL 3' Travel Time
AMP3.mV                       : CBL 3' Amplitude
GR.GAPI                       : Gamma Ray
~Parameter Information Block
~A  Depth       CCL         TT3         AMP3         GR     
# ...
   923.2500      0.0000    437.3892      4.5575    128.9417
   923.5000      0.0000    432.9679      4.5819    131.6756
   923.7500      0.0000    426.6573      4.6273    130.7200
   924.0000      0.0000    418.4030      4.6964    126.2270
   924.2500      0.0000    409.2444      4.7819    119.7221
   924.5000      0.0000    400.9310      4.8613    112.7854
   924.7500      0.0000    394.8852      4.9096    106.3874
   925.0000      0.0000    391.6516      4.9166    101.0361
   925.2500      0.0000    391.2582      4.8930     96.8350
   925.5000      0.0000    393.8139      4.8599     93.5546
   925.7500      0.0000    399.5117      4.8336     91.3930
   926.0000      0.0000    407.9170      4.8190     91.5439
   926.2500      0.0000    417.3010      4.8132     95.3015
   926.5000      0.0000    425.0216      4.8140    102.6758
   926.7500      0.0000    429.0187      4.8241    112.3257
   927.0000      0.0000    429.3005      4.8468    122.5704
   927.2500      0.0000    428.1936      4.8792    132.1274
   927.5000      0.0000    429.0778      4.9112    140.0915
   927.7500      0.0000    434.3960      4.9319    145.6756
   928.0000      0.0000    444.3977      4.9372    148.2814
   928.2500      0.0000    457.7145      4.9308    147.9226
   928.5000      0.0000    473.6071      4.9211    145.4720
   928.7500      0.0000    493.8124      4.9140    142.3875
   929.0000      0.0000    521.3641      4.9069    140.2273
   929.2500      0.0000    556.5587      4.8869    140.2002
   929.5000      0.0000    594.4169      4.8349    142.5673
   929.7500      0.0000    627.4335      4.7343    146.2607
   930.0000      0.0000    651.1007      4.5818    149.4973
   930.2500      0.0000    666.2098      4.3955    151.0394
   930.5000      0.0000    676.3687      4.2132    150.6958
   930.7500      0.0000    684.5477      4.0743    148.6732
   931.0000      0.0000    691.8899      3.9996    144.8954
   931.2500      0.0000    698.4543      3.9862    139.1878
   931.5000      0.0000    704.1130      4.0192    131.8523
   931.7500      0.0000    708.7512      4.0817    123.8581
   932.0000      0.0000    712.1021      4.1558    116.6053
   932.2500      0.0000    713.7582      4.2187    111.4695
   932.5000      0.0000    713.4434      4.2466    109.1369
   932.7500      0.0000    711.3405      4.2271    109.2351
   933.0000      0.0000    708.3879      4.1697    110.8335
   933.2500      0.0000    706.0983      4.1029    113.3110
   933.5000      0.0000    705.4327      4.0575    116.6931
   933.7500      0.0000    705.5261      4.0487    121.3484
   934.0000      0.0000    703.8929      4.0725    127.2603
   934.2500      0.0000    698.4641      4.1150    133.2655
   934.5000      0.0000    689.8043      4.1610    137.4393
   934.7500      0.0000    681.4202      4.1960    139.0505
   935.0000      0.0000    677.3555      4.2063    139.8049
   935.2500      0.0000    678.7949      4.1843    142.1482
   935.5000      0.0000    683.1466      4.1307    146.4893
   935.7500      0.0000    686.7537      4.0546    150.9304
   936.0000      0.0000    688.0404      3.9759    153.2652
   936.2500      0.0000    687.8864      3.9245    152.3317
   936.5000      0.0000    688.0080      3.9246    148.1079
   936.7500      0.0000    689.7183      3.9723    141.5954
   937.0000      0.0000    693.5829      4.0356    134.4073
   937.2500      0.0000    699.2746      4.0815    127.9972
   937.5000      0.0000    705.5525      4.1035    123.3638
   937.7500      0.0000    710.7889      4.1193    121.1699
   938.0000      0.0000    713.7307      4.1477    121.5244
   938.2500      0.0000    713.8105      4.1890    123.7006
   938.5000      0.0000    711.0265      4.2295    126.3643
   938.7500      0.0000    705.9456      4.2657    127.9664
   939.0000      0.0000    699.6114      4.3164    127.1657
   939.2500      0.0000    692.6028      4.4041    123.7553
   939.5000      0.0000    683.3619      4.5240    119.4132
   939.7500      0.0000    667.4238      4.6431    116.8457
   940.0000      0.0000    639.3917      4.7324    117.6359
   940.2500      0.0000    597.3229      4.7937    120.8272
   940.5000      0.0000    545.8795      4.8515    123.6219
   940.7500      0.0000    494.5833      4.9247    123.7383
   941.0000      0.0000    452.6874      5.0105    121.3623
   941.2500      0.0000    425.5593      5.0886    118.8137
   941.5000      0.0000    414.4063      5.1343    118.3176
   941.7500      0.0000    417.5422      5.1314    120.1360
   942.0000      0.0000    432.2881      5.0794    122.6656
   942.2500      0.0000    457.1015      4.9940    124.1370
   942.5000      0.0000    491.2663      4.9012    124.1774
   942.7500      0.0000    530.2837      4.8296    123.8212
   943.0000      0.0000    561.8423      4.8049    124.3361
   943.2500      0.0000    570.3141      4.8423    126.4300
   943.5000      0.0000    548.6909      4.9353    130.4637
   943.7500      0.0000    506.1604      5.0503    136.7111
   944.0000      0.0000    462.7769      5.1407    144.7164
   944.2500      0.0000    436.7846      5.1740    152.4008
   944.5000      0.0000    436.2069      5.1466    156.5863
   944.7500      0.0000    457.9713      5.0735    155.2194
   945.0000      0.0000    490.1006      4.9673    149.1122
   945.2500      0.0000    515.8698      4.8277    141.1509
   945.5000      0.0000    522.4243      4.6450    133.8126
   945.7500      0.0000    509.5899      4.4152    127.6045
   946.0000      0.0000    488.8756      4.1614    121.7251
   946.2500      0.0000    471.9184      3.9432    115.8486
   946.5000      0.0000    460.6467      3.8317    110.7835
   946.7500      0.0000    449.0863      3.8599    107.2643
   947.0000      0.0000    432.7464      3.9976    104.7086
   947.2500      0.0000    413.9307      4.1756    101.7329
   947.5000      0.0000    398.3492      4.3320     97.6378
   947.7500      0.0000    389.5206      4.4377     93.1072
   948.0000      0.0000    387.9602      4.4947     89.8295
   948.2500      2.0000    394.6098      4.5219     89.6255
   948.5000      0.0000    413.1834      4.5465     93.4973
   948.7500      0.0000    447.4031      4.6009    101.0009
   949.0000      0.0000    494.0034      4.7040    110.2234
   949.2500      0.0000    538.6800      4.8280    118.4120
   949.5000      0.0000    562.5457      4.9027    123.2175
   949.7500      0.0000    555.8644      4.8829    124.1040
   950.0000      0.0000    525.3464      4.7999    122.8713
   950.2500      0.0000    487.4245      4.7250    122.5558
   950.5000      0.0000    455.6600      4.7004    125.3653
   950.7500      0.0000    434.7347      4.7205    131.2889
   951.0000      0.0000    423.0786      4.7570    138.4686
   951.2500      0.0000    417.6360      4.7801    144.7237
   951.5000      0.0000    416.2636      4.7643    148.7343
   951.7500      0.0000    418.0191      4.6964    150.1893
   952.0000      0.0000    422.4990      4.5869    149.3687
   952.2500      0.0000    428.7445      4.4713    146.6906
   952.5000      0.0000    434.5255      4.3944    142.6227
   952.7500      0.0000    437.1318      4.3859    138.0595
   953.0000      0.0000    435.2517      4.4454    134.3481
   953.2500      0.0000    430.0466      4.5458    132.2497
   953.5000      0.0000    424.2172      4.6501    131.1613
   953.7500      0.0000    420.3260      4.7280    130.1278
   954.0000      0.0000    420.2795      4.7636    129.4428
   954.2500      0.0000    426.2074      4.7566    130.4156
   954.5000      0.0000    440.4949      4.7183    133.6695
   954.7500      0.0000    462.8538      4.6643    138.5766
   955.0000      0.0000    486.7840      4.6096    144.3095
   955.2500      0.0000    501.7038      4.5688    150.2070
   955.5000      0.0000    501.6627      4.5571    155.0773
   955.7500      0.0000    490.7557      4.5825    157.7946
   956.0000      0.0000    477.4899      4.6375    159.1005
   956.2500      0.0000    465.3107      4.7016    161.0795
   956.5000      0.0000    451.3250      4.7526    163.7134
