~Version Information
VERS.                      2.0: CWLS Log ASCII Standard - VERSION 2.0
WRAP.                       NO: One line per depth step
~Well Information Block
STRT.FT               410.0000: 
STOP.FT              1252.0000: 
STEP.FT                 0.2500: 
NULL.                -999.2500: 
COMP.          Petrogulf Corporation: COMPANY
WELL.           Parsons 15-23R: WELL
FLD.           Purgatorie River: FIELD
LOC.           2244' FSL & 1932' FWL: LOCATION
PROV.                 Colorado: PROVINCE
CNTY.               Las Animas: COUNTRY
SRVC.                Patterson: SERVICE COMPANY
DATE.          Mon Sep 12 10:30:11 2005: LOG DATE
UWI.                          : UNIQUE WELL ID
~Curve Information Block
DEPT.FT            0 000 00 00: Depth
SP.mV                         : DIL Spontaneous Potential
RILD.Ohm-m                    : DIL Deep Resistivity
RILM.Ohm-m                    : DIL Medium Resistivity
RLL3.Ohm-m                    : DIL Shallow Resistivity
GR.GAPI                       : Gamma Ray
~Parameter Information Block
~A  Depth        SP         RILD        RILM        RLL3         GR     
# ...
   942.0000    222.5409     12.8297     13.2017     14.2891    149.4511
   942.2500    222.7242     12.7911     13.4183     13.1010    148.8653
   942.5000    222.6154     13.0676     13.5911     13.8341    148.3661
   942.7500    222.4920     13.1009     13.9695     15.6898    136.7739
   943.0000    222.3084     12.7637     13.8563     18.9817    137.0258
   943.2500    222.0858     12.4402     14.1885     20.7617    111.4214
   943.5000    221.6187     12.4111     13.8843     20.8324    134.6164
   943.7500    221.0077     12.4879     13.4771     20.7438    139.8720
   944.0000    220.6976     12.6901     12.9240     18.4828    149.2747
   944.2500    220.3352     12.8369     12.5579     14.6441    149.8846
   944.5000    219.7207     13.0143     12.6169     12.1873    155.3559
   944.7500    218.9997     13.4362     13.0559     12.4813    173.5609
   945.0000    218.0851     13.7981     13.5341     14.4930    163.7325
   945.2500    217.4447     13.7028     14.0181     15.9730    159.0665
   945.5000    216.8132     14.0424     14.1796     18.3687    132.2086
   945.7500    216.5131     14.1877     14.7405     21.0454    135.7352
   946.0000    215.9144     14.4144     15.4304     19.5273    132.0392
   946.2500    215.1648     13.9914     15.4854     17.0050    142.5218
   946.5000    214.3472     14.4823     15.9171     17.9301    144.9638
   946.7500    213.7268     14.4785     16.6236     22.2980    134.6187
   947.0000    212.9685     14.5529     17.6580     25.6209    125.8660
   947.2500    212.1428     14.7445     17.9260     28.1791    120.6156
   947.5000    211.5571     15.4912     18.0041     32.0151    107.5348
   947.7500    211.0680     15.5969     17.4855     31.8584    115.3550
   948.0000    210.7157     16.0819     17.2759     24.2577    130.5870
   948.2500    210.2122     16.5802     17.1179     17.2618    142.3744
   948.5000    209.5710     17.1588     17.0855     15.4465    164.7053
   948.7500    209.1304     17.5565     17.1097     17.1839    149.4135
   949.0000    208.5382     17.8272     17.8522     20.4207    107.8330
   949.2500    208.2628     17.8293     18.3086     23.6065    128.6412
   949.5000    208.1574     17.8983     18.8593     22.6292    129.8887
   949.7500    208.0952     18.0209     19.1015     18.9721    129.1528
   950.0000    208.0622     18.5803     20.3304     19.2482    116.1849
   950.2500    207.9376     18.5959     20.5706     26.3229    102.4477
   950.5000    207.5951     18.6619     21.6873     35.1616     90.5991
   950.7500    207.0554     18.1120     23.5286     41.0281     94.0704
   951.0000    206.7557     18.7469     23.4492     42.8311     94.1569
   951.2500    206.4929     19.9039     22.2130     40.9679     88.2273
   951.5000    206.1751     20.1330     21.6309     35.1310     95.4252
   951.7500    206.1503     20.9086     21.6228     23.2723    125.4951
   952.0000    206.0483     22.4081     21.9744     16.3609    130.6058
   952.2500    205.9577     22.7231     23.2005     18.9332    117.2390
   952.5000    205.6395     22.7690     24.8841     32.9416    110.6010
   952.7500    205.4969     24.2725     27.6416     47.9527    101.0297
   953.0000    205.3098     24.6022     30.5293     48.9806    102.1293
   953.2500    205.2238     24.1066     31.2656     46.9252     93.6149
   953.5000    205.3683     22.8421     31.5740     45.8761     69.5605
   953.7500    205.6937     22.0212     30.6579     44.1505     62.1778
   954.0000    205.8447     22.7657     28.6733     43.7215     88.0836
   954.2500    205.9055     22.4400     28.5822     45.6693     85.5548
   954.5000    206.1324     23.1393     28.2198     46.1701    107.2297
   954.7500    206.5169     22.4806     26.1479     39.5004    107.9017
   955.0000    206.8333     22.1911     24.1752     30.8740    115.9871
   955.2500    206.9527     22.3945     23.9729     22.9171    124.7991
   955.5000    207.3056     23.4574     22.6553     18.2923    135.9708
   955.7500    207.7419     23.7843     22.1087     17.4512    139.9948
   956.0000    207.9154     23.3016     23.2502     19.1122    128.8581
   956.2500    208.0662     22.6165     24.7415     23.8346    115.6170
   956.5000    208.3987     22.6924     24.1604     28.4598    106.2497
   956.7500    208.9150     21.3722     24.8564     28.2322    106.9792
   957.0000    209.3106     20.6742     25.6070     28.1423    106.2986
   957.2500    209.5531     19.1172     26.1987     36.5143    103.1146
   957.5000    209.6852     18.8194     26.7634     57.6827     97.8633
   957.7500    210.2068     17.6260     24.4179     79.9656     97.3322
   958.0000    210.7828     17.0003     22.6101     81.2832     93.5005
   958.2500    211.7295     17.6505     19.9749     57.1261    102.1887
   958.5000    212.4998     17.8379     18.0687     27.3837    127.3567
   958.7500    213.2785     17.7850     16.6396     16.3994    133.6932
   959.0000    214.0392     17.5343     15.8771     12.5630    145.5160
   959.2500    214.7507     16.8963     15.1106     11.3410    154.0293
   959.5000    215.2770     16.6393     15.6897     12.5450    142.6063
   959.7500    216.1451     16.7546     16.4648     16.9494    134.8517
   960.0000    216.8215     16.2268     17.1533     25.9185    125.3499
   960.2500    217.2211     16.0403     16.7919     30.3830    126.8978
   960.5000    217.4073     14.8502     16.7898     23.7020    138.7698
   960.7500    217.5146     14.8174     16.2127     18.0807    126.1914
   961.0000    217.4158     15.0210     15.8478     17.5241    125.6958
   961.2500    217.5672     15.4055     15.7814     18.7201    134.2223
   961.5000    217.5747     15.9260     16.6042     19.8791    127.0427
   961.7500    217.5877     16.0915     17.7003     25.4917    117.6004
   962.0000    217.3636     17.0661     17.3753     33.1719    117.5787
   962.2500    217.1111     17.5572     17.6696     25.7980    124.1183
   962.5000    217.0072     18.1408     18.9381     18.3561    157.3209
   962.7500    217.3733     18.7670     20.6759     21.6837    139.2777
   963.0000    217.7299     19.5170     21.8446     40.1851    111.4961
   963.2500    218.0873     19.8634     23.7021     70.2485    101.8205
   963.5000    218.5918     20.6423     24.7059     76.9141     92.2842
   963.7500    219.2534     20.5434     25.9624     49.6022     91.3949
   964.0000    219.8812     21.3530     26.6751     33.5722     89.4808
   964.2500    219.9871     21.0362     29.2069     40.9761     83.9817
   964.5000    220.1689     20.9526     29.4171     55.8683     89.4636
   964.7500    220.2752     21.0347     28.9469     43.9594    108.3688
   965.0000    220.4585     22.2681     28.6925     26.7173    103.6455
   965.2500    220.3398     22.8589     28.2626     21.9992    103.7360
   965.5000    219.8691     22.1264     29.9265     24.7876    113.8786
   965.7500    219.5312     21.8246     30.3457     33.4824    100.2938
   966.0000    219.2579     21.7565     30.3828     42.5268     96.1498
   966.2500    218.9955     20.8915     29.2587     45.3329     95.6550
   966.5000    218.8578     20.8756     27.7459     42.7790    106.6556
   966.7500    218.6450     20.3008     25.2218     34.7798     94.1203
   967.0000    218.6682     20.1685     24.6977     24.3305    110.1950
   967.2500    218.7123     19.9635     23.9349     19.0322    117.4103
   967.5000    218.9248     19.2477     23.9728     19.7415    119.2256
   967.7500    218.8716     19.3398     23.9379     24.7321    104.7997
   968.0000    218.9207     18.9547     24.8317     31.2663     88.4222
   968.2500    219.2429     18.2349     24.9665     32.8440    102.8588
   968.5000    219.5446     17.7006     23.8056     30.4796    108.3147
   968.7500    219.8439     17.0991     22.2659     27.0637    102.2462
   969.0000    220.1638     16.0217     20.9478     22.6473    117.4351
   969.2500    220.7289     15.3175     20.3333     21.5631    119.4896
   969.5000    221.2589     14.8750     18.8577     24.9770    109.4286
   969.7500    221.5219     14.3484     17.1197     24.0390    123.2844
