~Version Information
VERS.                      2.0: CWLS Log ASCII Standard - VERSION 2.0
WRAP.                       NO: One line per depth step
~Well Information Block
STRT.FT               440.0000: 
STOP.FT              1702.7000: 
STEP.FT                 0.1000: 
NULL.                -999.2500: 
COMP.          Pioneer Natural Resources: COMPANY
WELL.          Culver 14-12 Tr: WELL
FLD.           Purgatoire River: FIELD
LOC.           915' FSL & 1048' FWL--: LOCATION
STAT.                 Colorado: State
CNTY.               Las Animas: COUNTY
CTRY. USA : Country
SECT. 12 : Section
TOWN. 32S : Township
RANG. 66W : Range
SRVC.                Patterson: SERVICE COMPANY
DATE.          Wed Sep 28 10:00:59 2005: LOG DATE
API.           05 071 08520 00: UNIQUE WELL ID
~Curve Information Block
DEPT.FT            0 000 00 00: Depth
DCAL.in                       : CDL Caliper
RHOB.g/cc                     : CDL Bulk Density
RHOC.g/cc                     : CDL Density Correction
DPOR.pu                       : CDL Density Porosity
NPOR.pu                       : Neutron Porosity
GR.GAPI                       : Gamma Ray
~Parameter Information Block
~A  Depth       DCAL        RHOB        RHOC        DPOR        NPOR         GR     
# ...
  1505.6000      8.0284      2.5805      0.0897      4.2109     25.5481    142.5031
  1505.7000      8.0284      2.5422      0.0243      6.5330     25.9637    144.9067
  1505.8000      8.0259      2.5190     -0.0020      7.9372     26.0200    155.0798
  1505.9000      8.0259      2.5233      0.0454      7.6796     25.6677    160.5682
  1506.0000      8.0290      2.5307      0.0524      7.2312     25.2848    161.0673
  1506.1000      8.0290      2.5282      0.0171      7.3824     25.3145    159.1982
  1506.2000      8.0290      2.5238      0.0581      7.6476     25.7511    154.2583
  1506.3000      8.0292      2.5275      0.0303      7.4255     26.6251    148.7249
  1506.4000      8.0292      2.5463      0.0453      6.2869     27.5558    141.0142
  1506.5000      8.0264      2.5717      0.0901      4.7468     27.6239    131.8322
  1506.6000      8.0264      2.5866      0.0833      3.8423     27.0398    126.3864
  1506.7000      8.0264      2.5830      0.0965      4.0615     26.8266    122.2414
  1506.8000      8.0246      2.5553      0.0788      5.7380     27.2424    117.2865
  1506.9000      8.0246      2.5032      0.0594      8.8968     28.0434    117.0625
  1507.0000      8.0294      2.4362      0.0334     12.9566     28.9754    122.9847
  1507.1000      8.0294      2.3617      0.0213     17.4752     29.5849    130.2016
  1507.2000      8.0294      2.2752      0.0260     22.7131     29.7969    132.6544
  1507.3000      8.0549      2.1710     -0.0249     29.0284     30.0074    128.4443
  1507.4000      8.0549      2.0591     -0.0698     35.8115     30.3579    122.2907
  1507.5000      8.1092      1.9615     -0.1153     41.7275     30.8837    117.4498
  1507.6000      8.1092      1.8932     -0.1145     45.8660     31.4612    113.8630
  1507.7000      8.1092      1.8638     -0.1525     47.6491     31.7765    111.7792
  1507.8000      8.2016      1.8892     -0.1120     46.1119     31.9251    110.9726
  1507.9000      8.2016      1.9754      0.0013     40.8837     31.5429    113.5266
  1508.0000      8.3740      2.1027      0.1866     33.1704     30.2072    120.3164
  1508.1000      8.3740      2.2410      0.3154     24.7863     28.6586    126.8877
  1508.2000      8.3740      2.3690      0.3954     17.0308     27.4761    129.3437
  1508.3000      8.5552      2.4769      0.3670     10.4917     26.5502    127.3327
  1508.4000      8.5552      2.5567      0.3446      5.6543     25.6858    124.6313
  1508.5000      8.4981      2.5930      0.3005      3.4552     24.7412    126.0649
  1508.6000      8.4981      2.5863      0.1374      3.8598     24.0417    130.8075
  1508.7000      8.4981      2.5732      0.0412      4.6549     23.8865    134.6261
  1508.8000      8.2092      2.5846      0.0791      3.9648     24.3891    134.5367
  1508.9000      8.2092      2.6056      0.0974      2.6915     25.4537    130.6868
  1509.0000      8.0126      2.6068      0.0786      2.6170     26.0906    128.0177
  1509.1000      8.0126      2.5875      0.0540      3.7882     25.6272    130.8044
  1509.2000      8.0126      2.5733     -0.0073      4.6506     25.0898    135.2773
  1509.3000      7.9652      2.5783      0.0791      4.3484     25.2826    139.5892
  1509.4000      7.9652      2.5840      0.0772      3.9989     25.5850    145.6790
  1509.5000      7.9597      2.5780      0.0128      4.3632     25.6427    150.2162
  1509.6000      7.9597      2.5704      0.0647      4.8263     25.7571    151.6945
  1509.7000      7.9597      2.5659      0.0392      5.0978     25.8516    153.0197
  1509.8000      7.9607      2.5662      0.0358      5.0759     25.4764    154.8492
  1509.9000      7.9607      2.5735      0.0290      4.6369     24.7465    157.4317
  1510.0000      7.9630      2.5847      0.0641      3.9587     24.4278    158.1333
  1510.1000      7.9630      2.6022      0.0669      2.8948     24.6919    152.5486
  1510.2000      7.9630      2.6237      0.1111      1.5943     24.8057    143.5499
  1510.3000      7.9613      2.6307      0.0814      1.1670     24.2300    135.5412
  1510.4000      7.9613      2.6193      0.0359      1.8594     23.2889    130.3906
  1510.5000      7.9535      2.6029      0.0772      2.8564     22.6907    131.1405
  1510.6000      7.9535      2.5920      0.0477      3.5159     22.7096    136.7541
  1510.7000      7.9535      2.5986      0.0155      3.1151     22.9776    140.9052
  1510.8000      7.9438      2.6263      0.0629      1.4381     23.1142    135.8477
  1510.9000      7.9438      2.6605      0.0566     -0.6387     22.9406    123.2846
  1511.0000      7.9377      2.6853      0.0802     -2.1409     22.5093    116.3824
  1511.1000      7.9377      2.6990      0.0495     -2.9669     22.0776    117.6877
  1511.2000      7.9377      2.7127      0.0801     -3.7987     21.7428    120.6906
  1511.3000      7.9359      2.7356      0.0711     -5.1888     21.6023    121.1572
  1511.4000      7.9359      2.7604      0.1301     -6.6906     21.8848    115.9778
  1511.5000      7.9372      2.7699      0.1086     -7.2648     22.2868    109.1097
  1511.6000      7.9372      2.7656      0.0539     -7.0085     22.2620    107.7168
  1511.7000      7.9372      2.7593      0.0280     -6.6262     22.1235    108.4158
  1511.8000      7.9401      2.7455      0.0538     -5.7904     22.3482    106.1940
  1511.9000      7.9401      2.7142      0.0153     -3.8931     22.5560    105.1186
  1512.0000      7.9460      2.6723     -0.0641     -1.3533     22.2542    106.0892
  1512.1000      7.9460      2.6325     -0.0508      1.0605     21.5969    102.8823
  1512.2000      7.9460      2.6005     -0.0371      3.0029     21.1364     95.3731
  1512.3000      7.9563      2.5746      0.0335      4.5712     21.2704     91.6596
  1512.4000      7.9563      2.5501     -0.0058      6.0551     21.6343     93.3144
  1512.5000      7.9638      2.5384     -0.0097      6.7627     21.7956     93.6739
  1512.6000      7.9638      2.5539      0.0177      5.8256     21.8297     92.4250
  1512.7000      7.9638      2.5876      0.0554      3.7848     21.9347     95.5209
  1512.8000      7.9666      2.6198      0.0474      1.8314     22.3187    102.4956
  1512.9000      7.9666      2.6407      0.0357      0.5644     22.8809    106.8774
  1513.0000      7.9676      2.6491      0.0565      0.0570     23.3236    103.6775
  1513.1000      7.9676      2.6475      0.0617      0.1505     23.5433     97.4059
  1513.2000      7.9676      2.6421      0.0696      0.4809     23.7037     96.3536
  1513.3000      7.9682      2.6338      0.0896      0.9842     23.9595     97.7314
  1513.4000      7.9682      2.6226      0.0547      1.6593     24.1710     96.8574
  1513.5000      7.9689      2.6198      0.0304      1.8317     24.4355     98.0824
  1513.6000      7.9689      2.6311      0.0575      1.1471     24.9423    105.3661
  1513.7000      7.9689      2.6386      0.0791      0.6931     25.5286    117.0192
  1513.8000      7.9742      2.6204      0.0435      1.7920     25.8586    130.3477
  1513.9000      7.9742      2.5882     -0.0087      3.7447     25.9274    141.7697
  1514.0000      7.9904      2.5745      0.0258      4.5776     26.1924    146.9427
  1514.1000      7.9904      2.5868      0.0582      3.8305     26.7770    144.9167
  1514.2000      7.9904      2.6031      0.0936      2.8441     27.1503    140.6877
  1514.3000      8.0090      2.6024      0.0783      2.8830     26.9312    140.5000
  1514.4000      8.0090      2.5891      0.0516      3.6915     26.4533    146.5364
  1514.5000      8.0185      2.5813      0.0285      4.1655     26.2967    152.2420
  1514.6000      8.0185      2.5845      0.0447      3.9704     26.5666    147.7159
  1514.7000      8.0185      2.5883      0.0626      3.7421     26.9165    136.5707
  1514.8000      8.0210      2.5849      0.0548      3.9432     27.3455    130.2858
  1514.9000      8.0210      2.5838     -0.0036      4.0119     27.8775    128.9910
  1515.0000      8.0209      2.5916      0.0555      3.5401     27.8538    126.4777
  1515.1000      8.0209      2.5891      0.0654      3.6916     27.2188    122.1929
