~Version Information
VERS.                      2.0: CWLS Log ASCII Standard - VERSION 2.0
WRAP.                       NO: One line per depth step
~Well Information Block
STRT.FT               315.0000: 
STOP.FT              1292.5000: 
STEP.FT                 0.1000: 
NULL.                -999.2500: 
COMP.          Pioneer Natural Resources: COMPANY
WELL.          Hot Tomatoes 22-20: WELL
FLD.           Purgatoire River: FIELD
LOC.           2120' FNL & 2585' FWL: LOCATION
CNTY.               Las Animas: COUNTY
SRVC.                Patterson: SERVICE COMPANY
DATE.          Mon Feb 27 07:06:41 2006: LOG DATE
UWI.           05 071 08701 00: UNIQUE WELL ID
STAT.                 Colorado: STATE
~Curve Information Block
DEPT.FT            0 000 00 00: Depth
DCAL.in                       : CDL Caliper
RHOB.g/cc                     : CDL Bulk Density
RHOC.g/cc                     : CDL Density Correction
DPOR.pu                       : CDL Density Porosity
GR.GAPI                       : Gamma Ray
NPOR.pu                       : Neutron Porosity
~Parameter Information Block
~A  Depth       DCAL        RHOB        RHOC        DPOR         GR         NPOR    
# ...
  1207.8000      7.8839      2.4288      0.0312     13.4089     81.8697     25.1479
  1207.9000      7.8839      2.4224      0.0184     13.7960     85.5499     25.4103
  1208.0000      7.8891      2.4240      0.0722     13.6979     89.7062     25.3339
  1208.1000      7.8891      2.4277      0.0148     13.4741     91.0735     25.1711
  1208.2000      7.8891      2.4341      0.0463     13.0828     90.5400     24.7619
  1208.3000      7.8854      2.4370      0.0622     12.9101     91.3453     24.2318
  1208.4000      7.8854      2.4253      0.0334     13.6187     92.1090     23.8226
  1208.5000      7.8816      2.4032      0.0436     14.9569     89.2673     23.3376
  1208.6000      7.8816      2.3816      0.0065     16.2667     85.5611     22.6595
  1208.7000      7.8816      2.3704     -0.0039     16.9461     84.5989     21.7710
  1208.8000      7.8730      2.3748      0.0313     16.6816     86.2834     20.9223
  1208.9000      7.8730      2.3851      0.0678     16.0521     89.0886     20.7496
  1209.0000      7.8604      2.3870      0.0706     15.9402     88.3087     21.3683
  1209.1000      7.8604      2.3796      0.0142     16.3904     83.1016     21.7623
  1209.2000      7.8604      2.3723      0.0449     16.8282     80.8293     21.5037
  1209.3000      7.8572      2.3753     -0.0201     16.6507     85.0962     21.9220
  1209.4000      7.8572      2.3905      0.0753     15.7273     91.5096     23.4917
  1209.5000      7.8582      2.4037      0.0657     14.9248     92.7699     24.8061
  1209.6000      7.8582      2.4071      0.0451     14.7190     86.7926     25.1926
  1209.7000      7.8582      2.4122      0.0466     14.4133     79.7042     25.1988
  1209.8000      7.8583      2.4242      0.1014     13.6835     75.9136     25.1521
  1209.9000      7.8583      2.4313      0.0879     13.2562     76.0108     24.6855
  1210.0000      7.8654      2.4248      0.0377     13.6456     79.3424     23.5798
  1210.1000      7.8654      2.4065      0.0353     14.7587     83.1659     22.6757
  1210.2000      7.8654      2.3817      0.0589     16.2628     83.7898     22.9623
  1210.3000      7.8733      2.3627      0.0213     17.4120     78.8953     24.3563
  1210.4000      7.8733      2.3604      0.0562     17.5511     71.5721     25.8123
  1210.5000      7.8666      2.3719     -0.0094     16.8524     67.4138     26.1464
  1210.6000      7.8666      2.3880      0.0823     15.8761     66.4984     25.3624
  1210.7000      7.8666      2.3954      0.0902     15.4289     65.8907     24.6442
  1210.8000      7.8635      2.3862      0.0636     15.9905     64.6914     24.3150
  1210.9000      7.8635      2.3676      0.0451     17.1177     63.8303     23.6673
  1211.0000      7.8571      2.3543      0.0369     17.9215     63.7534     22.6539
  1211.1000      7.8571      2.3532      0.0350     17.9896     63.3460     21.9062
  1211.2000      7.8571      2.3607      0.0323     17.5352     61.6277     21.5518
  1211.3000      7.8495      2.3701      0.0462     16.9662     61.2207     21.4658
  1211.4000      7.8495      2.3801      0.0345     16.3590     65.6508     21.7429
  1211.5000      7.8714      2.3956      0.0248     15.4179     72.7573     22.5275
  1211.6000      7.8714      2.4083      0.0715     14.6512     77.4530     23.7578
  1211.7000      7.8714      2.4049      0.0679     14.8570     77.0620     24.9027
  1211.8000      7.8584      2.3922      0.0635     15.6267     72.2797     25.8352
  1211.9000      7.8584      2.3853      0.0675     16.0428     67.4269     26.7634
  1212.0000      7.8660      2.3908      0.0328     15.7067     65.8874     27.4320
  1212.1000      7.8660      2.4078      0.0902     14.6779     66.8961     27.2032
  1212.2000      7.8660      2.4220      0.1298     13.8211     68.2734     26.3935
  1212.3000      7.8507      2.4140      0.1055     14.3052     69.3419     25.9812
  1212.4000      7.8507      2.3915      0.0733     15.6677     70.5120     26.1669
  1212.5000      7.8536      2.3795      0.0500     16.3912     72.1940     26.1241
  1212.6000      7.8536      2.3821      0.1038     16.2353     74.1652     25.1947
  1212.7000      7.8536      2.3906      0.0567     15.7217     76.0584     23.9044
  1212.8000      7.8544      2.4048      0.0694     14.8636     77.8355     22.9083
  1212.9000      7.8544      2.4208      0.1012     13.8885     79.6555     22.0955
  1213.0000      7.8518      2.4301      0.0886     13.3279     80.5223     21.2483
  1213.1000      7.8518      2.4287      0.0582     13.4117     77.9815     20.5106
  1213.2000      7.8518      2.4169      0.0858     14.1277     73.3610     19.9750
  1213.3000      7.8527      2.4037      0.0362     14.9272     68.2889     19.5602
  1213.4000      7.8527      2.4013      0.0577     15.0723     62.1091     19.5157
  1213.5000      7.8557      2.4044      0.0556     14.8879     57.3994     20.0638
  1213.6000      7.8557      2.4072      0.0497     14.7148     56.6052     20.7400
  1213.7000      7.8557      2.4170      0.0338     14.1223     59.4109     21.4969
  1213.8000      7.8593      2.4302      0.0776     13.3223     64.1250     22.7371
  1213.9000      7.8593      2.4388      0.0520     12.7978     69.1855     24.0447
  1214.0000      7.8558      2.4478      0.0758     12.2529     75.9100     24.4430
  1214.1000      7.8558      2.4521      0.0929     11.9958     84.6287     23.9153
  1214.2000      7.8558      2.4456      0.0755     12.3882     91.9028     23.4513
  1214.3000      7.8517      2.4486      0.0140     12.2058     92.1223     23.5006
  1214.4000      7.8517      2.4736      0.1126     10.6908     86.5048     23.5838
  1214.5000      7.8350      2.4995      0.1100      9.1202     80.2150     23.1055
  1214.6000      7.8350      2.5069      0.1279      8.6708     74.4805     22.4535
  1214.7000      7.8350      2.5010      0.0761      9.0305     74.1785     22.7110
  1214.8000      7.8271      2.4974      0.0936      9.2469     79.7013     23.5936
  1214.9000      7.8271      2.4985      0.1012      9.1823     82.5153     24.0602
  1215.0000      7.8275      2.4969      0.0862      9.2766     81.0850     23.9087
  1215.1000      7.8275      2.4938      0.0315      9.4680     81.7031     22.8729
  1215.2000      7.8275      2.4931      0.0799      9.5107     84.1192     21.3321
  1215.3000      7.8121      2.5001      0.0510      9.0846     84.1508     20.2314
  1215.4000      7.8121      2.5228      0.0799      7.7113     82.3263     19.6495
  1215.5000      7.8042      2.5521      0.0924      5.9304     80.5657     19.4418
  1215.6000      7.8042      2.5692      0.0928      4.8944     81.2602     19.4562
  1215.7000      7.8042      2.5668      0.1057      5.0426     85.1109     19.5965
  1215.8000      7.7997      2.5579      0.0568      5.5801     90.3695     20.1536
  1215.9000      7.7997      2.5630      0.0331      5.2748     96.0948     20.4819
  1216.0000      7.8277      2.5740      0.0694      4.6079     99.5423     19.6495
  1216.1000      7.8277      2.5641      0.0117      5.2033     96.1547     18.5637
  1216.2000      7.8277      2.5373      0.0102      6.8282     88.7175     18.2632
  1216.3000      7.8507      2.5283     -0.0426      7.3756     83.7889     18.4757
  1216.4000      7.8507      2.5438      0.0528      6.4381     82.8868     18.5105
  1216.5000      7.9199      2.5456      0.0498      6.3277     83.5027     18.0411
  1216.6000      7.9199      2.5180     -0.0343      8.0011     82.4223     17.7316
  1216.7000      7.9199      2.4846      0.0033     10.0250     79.4285     18.2039
  1216.8000      7.9178      2.4607      0.0158     11.4736     79.3778     18.7140
  1216.9000      7.9178      2.4506     -0.0406     12.0831     83.2443     18.5651
  1217.0000      7.8743      2.4526     -0.0214     11.9616     84.2022     18.2416
  1217.1000      7.8743      2.4461      0.0261     12.3549     80.0913     18.5095
  1217.2000      7.8743      2.4175      0.0112     14.0887     76.0091     19.6131
  1217.3000      7.8624      2.3818     -0.0064     16.2554     76.0243     21.4450
