~Version Information
VERS.                      2.0: CWLS Log ASCII Standard - VERSION 2.0
WRAP.                       NO: One line per depth step
~Well Information Block
STRT.FT               -16.2500: 
STOP.FT               938.7500: 
STEP.FT                 0.2500: 
NULL.                -999.2500: 
COMP.          XTO Energy Inc.: COMPANY
WELL.          Golden Eagle 20-04: WELL
FLD.           Purgatrorie River: FIELD
LOC.           702' FNL & 487' FWL--: LOCATION
STAT.                       CO: PROVINCE
CNTY.               Las Animas: COUNTY
CTRY. USA : Country
SECT. 20 : Section 
TOWN. 33S : Township
RANG. 67W : Range
SRVC.          Patterson Wireline: SERVICE COMPANY
DATE.          Mon Dec 05 10:32:54 2005: LOG DATE
API.           05 071 08599 00: UNIQUE WELL ID
~Curve Information Block
DEPT.FT            0 000 00 00: Depth
CCL.                          : Casing Collar Locator
TT3.usec                      : CBL 3' Travel Time
AMP3.mV                       : CBL 3' Amplitude
GR.GAPI                       : Gamma Ray
~Parameter Information Block
~A  Depth       CCL         TT3         AMP3         GR     
   -16.2500   -999.2500   -999.2500   -999.2500     63.3848
   -16.0000   -999.2500   -999.2500   -999.2500     68.7315
   -15.7500   -999.2500   -999.2500   -999.2500     70.6080
   -15.5000   -999.2500   -999.2500   -999.2500     68.7090
   -15.2500   -999.2500   -999.2500   -999.2500     65.2522
   -15.0000   -999.2500   -999.2500   -999.2500     62.7528
   -14.7500   -999.2500   -999.2500   -999.2500     62.2657
   -14.5000   -999.2500   -999.2500   -999.2500     63.3597
   -14.2500   -999.2500   -999.2500   -999.2500     64.8050
   -14.0000   -999.2500   -999.2500   -999.2500     65.2504
   -13.7500   -999.2500   -999.2500   -999.2500     64.1907
   -13.5000   -999.2500   -999.2500   -999.2500     62.6037
   -13.2500   -999.2500   -999.2500   -999.2500     62.0784
   -13.0000   -999.2500   -999.2500   -999.2500     63.1616
   -12.7500   -999.2500   -999.2500   -999.2500     64.9460
   -12.5000   -999.2500   -999.2500   -999.2500     66.1765
   -12.2500   -999.2500   -999.2500   -999.2500     66.2474
   -12.0000   -999.2500   -999.2500   -999.2500     65.2729
   -11.7500   -999.2500   -999.2500   -999.2500     63.8155
   -11.5000   -999.2500   -999.2500   -999.2500     62.5570
   -11.2500   -999.2500    894.0000      1.9910     61.7079
   -11.0000   -999.2500    894.0000      1.9847     60.7103
   -10.7500   -999.2500    894.0000      1.9853     58.8817
   -10.5000   -999.2500    894.0000      1.9958     56.4017
   -10.2500   -999.2500    894.0000      2.0117     54.3397
   -10.0000   -999.2500    894.0000      2.0252     53.5120
    -9.7500   -999.2500    894.0000      2.0307     53.5435
    -9.5000   -999.2500    894.0000      2.0275     53.3766
    -9.2500   -999.2500    894.0000      2.0183     52.4205
    -9.0000   -999.2500    894.0000      2.0061     50.7400
    -8.7500   -999.2500    894.0000      1.9938     48.4419
    -8.5000   -999.2500    894.0000      1.9835     45.5658
    -8.2500   -999.2500    894.0000      1.9760     42.5151
    -8.0000   -999.2500    894.0000      1.9708     40.0128
    -7.7500   -999.2500    894.0000      1.9671     38.4821
    -7.5000   -999.2500    893.9952      1.9649     37.8506
    -7.2500   -999.2500    893.9685      1.9643     38.0451
    -7.0000   -999.2500    893.8400      1.9645     39.2272
    -6.7500   -999.2500    893.3613      1.9636     41.2630
    -6.5000   -999.2500    892.0056      1.9604     43.2957
    -6.2500   -999.2500    889.0745      1.9560     44.2489
    -6.0000   -999.2500    884.1667      1.9607     43.7759
    -5.7500      0.0000    877.4343      2.0062     42.5756
    -5.5000      2.0000    868.4470      2.2024     41.7947
    -5.2500      0.0000    853.9723      2.8687     42.1300
    -5.0000      0.0000    826.9410      4.7178     43.4443
    -4.7500      0.0000    778.5248      8.8455     45.1678
    -4.5000      0.0000    703.4117     16.1272     46.9546
    -4.2500      0.0000    606.3550     26.1633     48.8515
    -4.0000      0.0000    504.3513     36.9045     50.8909
    -3.7500      0.0000    418.9904     45.7962     52.7137
    -3.5000      0.0000    363.6499     51.4109     53.8292
    -3.2500      0.0000    337.6193     53.8903     54.3243
    -3.0000      0.0000    331.0249     54.1999     55.0257
    -2.7500      2.0000    333.0160     53.3833     56.6373
    -2.5000      0.0000    336.2828     52.2751     58.8731
    -2.2500     -2.0000    337.6842     51.3750     60.8496
    -2.0000      0.0000    337.2033     50.6973     62.2747
    -1.7500      0.0000    336.4045     49.6892     63.8770
    -1.5000      0.0000    336.9229     47.4290     66.5369
    -1.2500      0.0000    339.5361     43.2098     70.2122
    -1.0000      0.0000    343.9584     37.2248     74.0102
    -0.7500     -2.0000    349.4419     30.6726     77.2810
    -0.5000      2.0000    356.0146     24.9786     80.0836
    -0.2500      0.0000    365.6874     20.8481     82.1906
     0.0000      0.0000    382.0054     18.0957     82.2762
     0.2500      2.0000    433.7916     14.8290     73.0100
     0.5000      0.0000    452.8019     13.9778     66.8676
     0.7500      0.0000    455.3571     13.8178     63.6435
     1.0000      0.0000    444.6336     14.5269     64.7816
     1.2500      0.0000    431.0746     16.2915     69.1821
     1.5000      2.0000    420.4552     19.3911     74.0422
     1.7500      0.0000    409.5071     24.0211     77.1081
     2.0000      0.0000    393.1946     29.9639     78.3514
     2.2500      0.0000    372.0814     36.6650     79.3522
     2.5000      0.0000    351.1882     43.6234     81.3613
     2.7500      0.0000    334.7326     50.4258     84.2095
     3.0000      0.0000    323.8627     56.4113     86.6514
     3.2500      0.0000    317.8122     60.6232     87.3643
     3.5000      0.0000    315.5802     62.1594     85.9683
     3.7500     -2.0000    316.6234     60.5224     83.4378
     4.0000      0.0000    320.5223     55.9120     81.3485
     4.2500      0.0000    326.1065     49.6493     80.5594
     4.5000      0.0000    331.0502     44.2330     80.8394
     4.7500      0.0000    332.8491     42.2102     82.0109
     5.0000      0.0000    330.5178     44.3624     85.0493
     5.2500      0.0000    325.3127     49.0880     91.2205
     5.5000      0.0000    319.6852     53.9415     99.9965
     5.7500      0.0000    315.5188     57.6975    108.6514
     6.0000      0.0000    313.2437     60.6589    114.4800
     6.2500      2.0000    312.2575     63.3642    116.9927
     6.5000      0.0000    311.8273     65.7192    117.5271
     6.7500      0.0000    311.5700     67.3509    117.2142
     7.0000      0.0000    311.3937     68.1882    115.9950
     7.2500      0.0000    311.2902     68.4883    113.4639
     7.5000      0.0000    311.2400     68.5358    110.0379
     7.7500      0.0000    311.2052     68.4691    106.9367
     8.0000      0.0000    311.1427     68.3018    105.2037
     8.2500      0.0000    311.0182     68.0019    105.1315
     8.5000      0.0000    310.8243     67.5222    106.5590
     8.7500      0.0000    310.5934     66.8478    109.2892
     9.0000      0.0000    310.3994     66.1088    112.8903
     9.2500      0.0000    310.3334     65.6095    116.2782
     9.5000      0.0000    310.4507     65.6443    117.9989
     9.7500      0.0000    310.7296     66.2529    117.2437
    10.0000      0.0000    311.0755     67.1700    114.5474
    10.2500      0.0000    311.3725     68.0295    111.2859
    10.5000      0.0000    311.5455     68.6308    108.5509
    10.7500      0.0000    311.5931     69.0315    106.7293
    11.0000      0.0000    311.5711     69.4261    105.8802
    11.2500      0.0000    311.5409     69.9640    105.8956
    11.5000      0.0000    311.5249     70.6408    106.3500
    11.7500      2.0000    311.4995     71.2934    106.7353
    12.0000      0.0000    311.4270     71.6901    106.8947
    12.2500      0.0000    311.2942     71.6760    106.9588
    12.5000      0.0000    311.1184     71.2614    106.8732
    12.7500      2.0000    310.9212     70.5561    106.2306
    13.0000      0.0000    310.7029     69.6185    104.7173
    13.2500      0.0000    310.4558     68.4262    102.7038
    13.5000      0.0000    310.2067     67.0294    101.1747
    13.7500      0.0000    310.0333     65.6528    100.8587
    14.0000      0.0000    310.0187     64.5485    101.5004
    14.2500      0.0000    310.1724     63.7746    102.0785
    14.5000      0.0000    310.3944     63.1946    101.5932
    14.7500      0.0000    310.5308     62.6621     99.5274
    15.0000      0.0000    310.4839     62.1369     95.9430
    15.2500      0.0000    310.2716     61.6602     91.8412
    15.5000      0.0000    309.9826     61.2887     89.4879
    15.7500      0.0000    309.6962     61.0564     91.5236
    16.0000      0.0000    309.4569     60.9605     99.1291
    16.2500      0.0000    309.2921     60.9650    111.3780
    16.5000      0.0000    309.2154     61.0118    126.4780
    16.7500      0.0000    309.2118     61.0371    142.9956
    17.0000      0.0000    309.2422     60.9990    159.7048
