~Version Information
VERS.                      2.0: CWLS Log ASCII Standard - VERSION 2.0
WRAP.                       NO: One line per depth step
~Well Information Block
STRT.FT                -6.2500: 
STOP.FT              2245.0000: 
STEP.FT                 0.0500: 
NULL.                -999.2500: 
COMP.          Pioneer Natural Resources: COMPANY
WELL.          Roadster 41-33 Kv: WELL
FLD.           Purgatoire River: FIELD
LOC.           903' FNL & 248' FEL--: LOCATION
PROV.                 Colorado: PROVINCE
CNTY.               Las Animas: COUNTRY
SRVC.                Patterson: SERVICE COMPANY
DATE.          Tue Jan 17 11:20:00 2006: LOG DATE
UWI.           05 071 08615 00: UNIQUE WELL ID
~Curve Information Block
DEPT.FT            0 000 00 00: Depth
CCL.                          : Casing Collar Locator
TT3.usec                      : CBL 3' Travel Time
AMP3.mV                       : CBL 3' Amplitude
GR.GAPI                       : Gamma Ray
~Parameter Information Block
~A  Depth       CCL         TT3         AMP3         GR     
# ...
  2084.1500      0.0000    701.8678      5.4281     57.8315
  2084.2000      0.0000    701.8678      5.4281     57.8315
  2084.2500      0.0000    701.9021      5.3805     63.0179
  2084.3000      0.0000    701.9021      5.3805     63.0179
  2084.3500      0.0000    701.9021      5.3805     63.0179
  2084.4000      0.0000    701.9021      5.3805     63.0179
  2084.4500      0.0000    701.9021      5.3805     63.0179
  2084.5000      0.0000    702.3967      5.3620     67.3696
  2084.5500      0.0000    702.3967      5.3620     67.3696
  2084.6000      0.0000    702.3967      5.3620     67.3696
  2084.6500      0.0000    702.3967      5.3620     67.3696
  2084.7000      0.0000    702.3967      5.3620     67.3696
  2084.7500      0.0000    704.2458      5.4204     70.6227
  2084.8000      0.0000    704.2458      5.4204     70.6227
  2084.8500      0.0000    704.2458      5.4204     70.6227
  2084.9000      0.0000    704.2458      5.4204     70.6227
  2084.9500      0.0000    704.2458      5.4204     70.6227
  2085.0000      0.0000    708.9285      5.6029     72.7354
  2085.0500      0.0000    708.9285      5.6029     72.7354
  2085.1000      0.0000    708.9285      5.6029     72.7354
  2085.1500      0.0000    708.9285      5.6029     72.7354
  2085.2000      0.0000    708.9285      5.6029     72.7354
  2085.2500      0.0000    717.9443      5.9403     73.3688
  2085.3000      0.0000    717.9443      5.9403     73.3688
  2085.3500      0.0000    717.9443      5.9403     73.3688
  2085.4000      0.0000    717.9443      5.9403     73.3688
  2085.4500      0.0000    717.9443      5.9403     73.3688
  2085.5000      0.0000    731.6936      6.4311     72.0619
  2085.5500      0.0000    731.6936      6.4311     72.0619
  2085.6000      0.0000    731.6936      6.4311     72.0619
  2085.6500      0.0000    731.6936      6.4311     72.0619
  2085.7000      0.0000    731.6936      6.4311     72.0619
  2085.7500      0.0000    749.0405      7.0311     68.8011
  2085.8000      0.0000    749.0405      7.0311     68.8011
  2085.8500      0.0000    749.0405      7.0311     68.8011
  2085.9000      0.0000    749.0405      7.0311     68.8011
  2085.9500      0.0000    749.0405      7.0311     68.8011
  2086.0000      0.0000    768.1385      7.6661     64.3122
  2086.0500      0.0000    768.1385      7.6661     64.3122
  2086.1000      0.0000    768.1385      7.6661     64.3122
  2086.1500      0.0000    768.1385      7.6661     64.3122
  2086.2000      0.0000    768.1385      7.6661     64.3122
  2086.2500      0.0000    787.1261      8.2614     59.8579
  2086.3000      0.0000    787.1261      8.2614     59.8579
  2086.3500      0.0000    787.1261      8.2614     59.8579
  2086.4000      0.0000    787.1261      8.2614     59.8579
  2086.4500      0.0000    787.1261      8.2614     59.8579
  2086.5000      0.0000    803.7473      8.7589     56.7966
  2086.5500      0.0000    803.7473      8.7589     56.7966
  2086.6000      0.0000    803.7473      8.7589     56.7966
  2086.6500      0.0000    803.7473      8.7589     56.7966
  2086.7000      0.0000    803.7473      8.7589     56.7966
  2086.7500      0.0000    815.4688      9.1192     56.0961
  2086.8000      0.0000    815.4688      9.1192     56.0961
  2086.8500      0.0000    815.4688      9.1192     56.0961
  2086.9000      0.0000    815.4688      9.1192     56.0961
  2086.9500      0.0000    815.4688      9.1192     56.0961
  2087.0000      0.0000    820.7229      9.3286     57.8563
  2087.0500      0.0000    820.7229      9.3286     57.8563
  2087.1000      0.0000    820.7229      9.3286     57.8563
  2087.1500      0.0000    820.7229      9.3286     57.8563
  2087.2000      0.0000    820.7229      9.3286     57.8563
  2087.2500      0.0000    819.2134      9.4077     61.0940
  2087.3000      0.0000    819.2134      9.4077     61.0940
  2087.3500      0.0000    819.2134      9.4077     61.0940
  2087.4000      0.0000    819.2134      9.4077     61.0940
  2087.4500      0.0000    819.2134      9.4077     61.0940
  2087.5000      0.0000    811.0129      9.3975     64.2740
  2087.5500      0.0000    811.0129      9.3975     64.2740
  2087.6000      0.0000    811.0129      9.3975     64.2740
  2087.6500      0.0000    811.0129      9.3975     64.2740
  2087.7000      0.0000    811.0129      9.3975     64.2740
  2087.7500      0.0000    796.8943      9.3296     66.3858
  2087.8000      0.0000    796.8943      9.3296     66.3858
  2087.8500      0.0000    796.8943      9.3296     66.3858
  2087.9000      0.0000    796.8943      9.3296     66.3858
  2087.9500      0.0000    796.8943      9.3296     66.3858
  2088.0000      0.0000    779.7180      9.2086     67.7239
  2088.0500      0.0000    779.7180      9.2086     67.7239
  2088.1000      0.0000    779.7180      9.2086     67.7239
  2088.1500      0.0000    779.7180      9.2086     67.7239
  2088.2000      0.0000    779.7180      9.2086     67.7239
  2088.2500      0.0000    763.8653      9.0198     69.8358
  2088.3000      0.0000    763.8653      9.0198     69.8358
  2088.3500      0.0000    763.8653      9.0198     69.8358
  2088.4000      0.0000    763.8653      9.0198     69.8358
  2088.4500      0.0000    763.8653      9.0198     69.8358
  2088.5000      0.0000    752.5388      8.7465     74.5542
  2088.5500      0.0000    752.5388      8.7465     74.5542
  2088.6000      0.0000    752.5388      8.7465     74.5542
  2088.6500      0.0000    752.5388      8.7465     74.5542
  2088.7000      0.0000    752.5388      8.7465     74.5542
  2088.7500      0.0000    746.1210      8.3822     82.4906
  2088.8000      0.0000    746.1210      8.3822     82.4906
  2088.8500      0.0000    746.1210      8.3822     82.4906
  2088.9000      0.0000    746.1210      8.3822     82.4906
  2088.9500      0.0000    746.1210      8.3822     82.4906
  2089.0000      0.0000    743.0829      7.9411     92.0463
  2089.0500      0.0000    743.0829      7.9411     92.0463
  2089.1000      0.0000    743.0829      7.9411     92.0463
  2089.1500      0.0000    743.0829      7.9411     92.0463
  2089.2000      0.0000    743.0829      7.9411     92.0463
  2089.2500      0.0000    741.7389      7.4663    100.0166
  2089.3000      0.0000    741.7389      7.4663    100.0166
  2089.3500      0.0000    741.7389      7.4663    100.0166
  2089.4000      0.0000    741.7389      7.4663    100.0166
  2089.4500      0.0000    741.7389      7.4663    100.0166
  2089.5000      0.0000    741.0679      7.0255    103.5182
  2089.5500      0.0000    741.0679      7.0255    103.5182
  2089.6000      0.0000    741.0679      7.0255    103.5182
  2089.6500      0.0000    741.0679      7.0255    103.5182
  2089.7000      0.0000    741.0679      7.0255    103.5182
  2089.7500      0.0000    740.5338      6.6911    101.6538
  2089.8000      0.0000    740.5338      6.6911    101.6538
  2089.8500      0.0000    740.5338      6.6911    101.6538
  2089.9000      0.0000    740.5338      6.6911    101.6538
  2089.9500      0.0000    740.5338      6.6911    101.6538
  2090.0000      0.0000    739.6291      6.5152     95.7581
  2090.0500      0.0000    739.6291      6.5152     95.7581
  2090.1000      0.0000    739.6291      6.5152     95.7581
  2090.1500      0.0000    739.6291      6.5152     95.7581
  2090.2000      0.0000    739.6291      6.5152     95.7581
  2090.2500      0.0000    737.6890      6.5107     88.4578
  2090.3000      0.0000    737.6890      6.5107     88.4578
  2090.3500      0.0000    737.6890      6.5107     88.4578
  2090.4000      0.0000    737.6890      6.5107     88.4578
  2090.4500      0.0000    737.6890      6.5107     88.4578
  2090.5000      0.0000    734.1956      6.6421     82.3654
  2090.5500      0.0000    734.1956      6.6421     82.3654
  2090.6000      0.0000    734.1956      6.6421     82.3654
  2090.6500      0.0000    734.1956      6.6421     82.3654
  2090.7000      0.0000    734.1956      6.6421     82.3654
  2090.7500      0.0000    729.3875      6.8314     78.8445
  2090.8000      0.0000    729.3875      6.8314     78.8445
