~Version Information
VERS.                      2.0: CWLS Log ASCII Standard - VERSION 2.0
WRAP.                       NO: One line per depth step
~Well Information Block
STRT.FT                -8.2500: 
STOP.FT               686.7500: 
STEP.FT                 0.2500: 
NULL.                -999.2500: 
COMP.          Pioneer Natural Resources: COMPANY
WELL.           Quintessa 23-7: WELL
FLD.           Purgatorie River: FIELD
LOC.           1964' FSL & 2589' FWL--: LOCATION
PROV.                       CO: PROVINCE
CNTY.               Las Animas: COUNTRY
SRVC.          Patterson Wireline: SERVICE COMPANY
DATE.          Wed Nov 23 10:31:07 2005: LOG DATE
UWI.           05 071 08558 00: UNIQUE WELL ID
~Curve Information Block
DEPT.FT            0 000 00 00: Depth
CCL.                          : Casing Collar Locator
TT3.usec                      : CBL 3' Travel Time
AMP3.mV                       : CBL 3' Amplitude
GR.GAPI                       : Gamma Ray
~Parameter Information Block
~A  Depth       CCL         TT3         AMP3         GR     
# ...
   259.7500      0.0000    558.0751     19.7285     72.4603
   260.0000      0.0000    580.2227     19.7885     75.2564
   260.2500      0.0000    633.0831     19.8268     77.2412
   260.5000      0.0000    683.6955     19.8712     78.4416
   260.7500      0.0000    701.8944     19.9464     79.2308
   261.0000      0.0000    675.3398     20.0571     79.9126
   261.2500      0.0000    614.1375     20.1808     80.4567
   261.5000      0.0000    545.9681     20.2798     80.7738
   261.7500      0.0000    500.7256     20.3242     81.1447
   262.0000      0.0000    491.6611     20.3064     82.0695
   262.2500      0.0000    510.4295     20.2317     83.7256
   262.5000      0.0000    541.1335     20.1015     86.0461
   262.7500      0.0000    576.2954     19.9191     89.4004
   263.0000      0.0000    617.6630     19.7134     94.5906
   263.2500      0.0000    665.5029     19.5387    101.6759
   263.5000      0.0000    712.2773     19.4354    109.0789
   263.7500      0.0000    747.9244     19.3961    114.4912
   264.0000      0.0000    768.0936     19.3861    116.7827
   264.2500      0.0000    774.5471     19.3881    116.6128
   264.5000      0.0000    768.5602     19.4133    115.0736
   264.7500      0.0000    746.5775     19.4753    112.2734
   265.0000      0.0000    704.6436     19.5637    107.5728
   265.2500      0.0000    648.0176     19.6446    100.7134
   265.5000      0.0000    593.6216     19.6812     92.1480
   265.7500      0.0000    558.4802     19.6597     82.5538
   266.0000      0.0000    545.3982     19.5983     72.8297
   266.2500      0.0000    544.1040     19.5243     64.5896
   266.5000      0.0000    546.6857     19.4446     59.8485
   266.7500      0.0000    557.6630     19.3434     59.8153
   267.0000      0.0000    586.5531     19.2089     64.3319
   267.2500      0.0000    633.2308     19.0524     72.6054
   267.5000      0.0000    684.9988     18.8990     83.9443
   267.7500      0.0000    727.8626     18.7620     97.4969
   268.0000      0.0000    756.5906     18.6314    111.7800
   268.2500      0.0000    773.7655     18.4916    124.9400
   268.5000      0.0000    783.6935     18.3502    135.3664
   268.7500      0.0000    789.2198     18.2435    142.1496
   269.0000      0.0000    792.0049     18.2101    145.4280
   269.2500      0.0000    793.1779     18.2580    146.4994
   269.5000      0.0000    793.4760     18.3583    147.3043
   269.7500      0.0000    793.1696     18.4690    149.3592
   270.0000      0.0000    792.0313     18.5655    152.6822
   270.2500      0.0000    789.4378     18.6481    155.4874
   270.5000      0.0000    784.7592     18.7231    155.4384
   270.7500      0.0000    778.0643     18.7817    151.8491
   271.0000      0.0000    770.5168     18.8074    146.4359
   271.2500      0.0000    763.8164     18.8062    141.5104
   271.5000      0.0000    759.0928     18.8148    137.8951
   271.7500      0.0000    756.3828     18.8595    135.0201
   272.0000      0.0000    755.0446     18.9085    132.4088
   272.2500      0.0000    754.4165     18.8854    130.2509
   272.5000      0.0000    754.1008     18.7365    128.7877
   272.7500      0.0000    753.9059     18.4688    127.9365
   273.0000      0.0000    753.7325     18.1262    127.7508
   273.2500      0.0000    753.5317     17.7493    128.9223
   273.5000      0.0000    753.2989     17.3702    132.4298
   273.7500      0.0000    753.0694     17.0286    138.4256
   274.0000      0.0000    752.9327     16.7773    145.4975
   274.2500      0.0000    753.1024     16.6673    151.2521
   274.5000      0.0000    754.0079     16.7177    153.7186
   274.7500      0.0000    756.2702     16.8877    152.2377
   275.0000      0.0000    760.2927     17.0880    147.4067
   275.2500      0.0000    765.5890     17.2405    140.6575
   275.5000      0.0000    770.6458     17.3303    133.6625
   275.7500      0.0000    773.8875     17.3917    127.5307
   276.0000      0.0000    774.8436     17.4545    122.4743
   276.2500      0.0000    774.1494     17.5108    118.3801
   276.5000      0.0000    772.6317     17.5237    115.5775
   276.7500      0.0000    770.7854     17.4594    114.8397
   277.0000      0.0000    768.8743     17.3244    116.7605
   277.2500      0.0000    766.9225     17.1825    121.2807
   277.5000      0.0000    764.6442     17.1213    127.6953
   277.7500      0.0000    761.9169     17.1859    134.8658
   278.0000      0.0000    759.3579     17.3478    141.4554
   278.2500      0.0000    757.9635     17.5414    146.4043
   278.5000      0.0000    757.7401     17.7193    149.5562
   278.7500      0.0000    756.5094     17.8688    151.5054
   279.0000      0.0000    749.9362     17.9953    152.5141
   279.2500      0.0000    733.5062     18.1106    152.1131
   279.5000      0.0000    706.0331     18.2331    150.0564
   279.7500      0.0000    671.2078     18.3853    146.9202
   280.0000      0.0000    633.1487     18.5920    143.2809
   280.2500      0.0000    589.9037     18.8777    138.9430
   280.5000      0.0000    535.8552     19.2476    133.3901
   280.7500      0.0000    472.6597     19.6574    126.4083
   281.0000      0.0000    412.9097     20.0197    118.0896
   281.2500      0.0000    369.9500     20.2597    108.9270
   281.5000      0.0000    347.2420     20.3603    100.2949
   281.7500      0.0000    338.7769     20.3540     94.3702
   282.0000      0.0000    336.3510     20.2862     93.1236
   282.2500      0.0000    335.2430     20.1913     97.2836
   282.5000      0.0000    335.5702     20.0852    106.0312
   282.7500      0.0000    340.9898     19.9734    117.3880
   283.0000      0.0000    355.6884     19.8679    129.0787
   283.2500      0.0000    379.9666     19.7909    139.4078
   283.5000      0.0000    407.7705     19.7374    147.2432
   283.7500      0.0000    432.7559     19.6051    151.2401
   284.0000      0.0000    460.9777     19.1780    149.9153
   284.2500      0.0000    513.2937     18.2695    143.2034
   284.5000      0.0000    606.4803     16.9658    133.5509
   284.7500      0.0000    730.2757     15.6913    124.7142
   285.0000      0.0000    848.5676     14.9272    119.2497
   285.2500      0.0000    926.4490     14.8355    117.1158
   285.5000      0.0000    954.8171     15.1920    116.6050
   285.7500      0.0000    949.7009     15.6603    116.4954
   286.0000      0.0000    933.4309     16.0774    117.0177
   286.2500      2.0000    917.5001     16.5192    118.7701
   286.5000      0.0000    896.4120     17.1966    121.4542
   286.7500      0.0000    854.9434     18.2761    124.1673
   287.0000      0.0000    787.5351     19.6831    126.4457
   287.2500      0.0000    712.4191     21.0342    128.5344
   287.5000      0.0000    658.0219     21.8611    130.9925
   287.7500      0.0000    632.8327     21.9703    134.3220
   288.0000      0.0000    618.3265     21.5505    138.4611
   288.2500      0.0000    594.8798     20.9463    142.3412
   288.5000      0.0000    565.6465     20.4021    144.3382
   288.7500      0.0000    550.5676     20.0009    143.3669
   289.0000      0.0000    564.0513     19.7326    139.4544
   289.2500      0.0000    602.7094     19.5633    133.4276
   289.5000      0.0000    648.1497     19.4648    126.4136
   289.7500      0.0000    676.4666     19.4257    119.8376
   290.0000      0.0000    671.3459     19.4462    115.7409
   290.2500      0.0000    636.2352     19.5175    116.4440
   290.5000      0.0000    594.3686     19.6070    123.1149
   290.7500      0.0000    572.8364     19.6725    134.3142
   291.0000      0.0000    584.5776     19.6935    146.0906
   291.2500      0.0000    624.1815     19.6782    153.9244
   291.5000      0.0000    676.0486     19.6408    155.3582
   291.7500      0.0000    723.9680     19.5888    151.4581
   292.0000      0.0000    757.6192     19.5343    145.9743
   292.2500      0.0000    775.2998     19.5040    142.8581
   292.5000      0.0000    781.9187     19.5258    143.9154
   292.7500      0.0000    783.9631     19.6052    148.0372
   293.0000      0.0000    785.5234     19.7186    152.4038
