~Version Information
VERS.                      2.0: CWLS Log ASCII Standard - VERSION 2.0
WRAP.                       NO: One line per depth step
~Well Information Block
STRT.FT               845.0000: 
STOP.FT              2102.0000: 
STEP.FT                 0.1000: 
NULL.                -999.2500: 
COMP.          Petrogulf Corporation: COMPANY
WELL.               YWAM 7-32R: WELL
FLD.           Purgatorie River: FIELD
LOC.           2355' FNL & 2376' FEL: LOCATION
PROV.                 Colorado: PROVINCE
CNTY.               Las Animas: COUNTRY
SRVC.                Patterson: SERVICE COMPANY
DATE.          Fri Sep 30 11:07:31 2005: LOG DATE
UWI.                          : UNIQUE WELL ID
~Curve Information Block
DEPT.FT            0 000 00 00: Depth
DCAL.in                       : CDL Caliper
RHOB.g/cc                     : CDL Bulk Density
RHOC.g/cc                     : CDL Density Correction
DPOR.pu                       : CDL Density Porosity
GR.GAPI                       : Gamma Ray
NPOR.pu                       : Neutron Porosity
~Parameter Information Block
~A  Depth       DCAL        RHOB        RHOC        DPOR         GR         NPOR    
# ...
  1997.0000      7.7393      2.5492      0.0282      6.1083    107.6913     19.7954
  1997.1000      7.7393      2.5495     -0.0024      6.0898    111.9906     20.7979
  1997.2000      7.7393      2.5464      0.0212      6.2763    114.1961     21.7734
  1997.3000      7.7582      2.5317      0.0335      7.1672    116.7067     22.2673
  1997.4000      7.7582      2.5132     -0.0144      8.2922    119.2118     22.4585
  1997.5000      7.8524      2.5125      0.0211      8.3358    120.6329     22.6801
  1997.6000      7.8524      2.5281      0.0246      7.3853    122.9282     23.0094
  1997.7000      7.8524      2.5444      0.0538      6.3996    126.6622     23.3532
  1997.8000      7.8945      2.5547      0.0277      5.7740    127.9186     23.7116
  1997.9000      7.8945      2.5593      0.0693      5.4946    126.1577     23.9627
  1998.0000      7.8691      2.5623      0.0347      5.3176    125.6080     23.8220
  1998.1000      7.8691      2.5769      0.0180      4.4317    126.8051     23.4797
  1998.2000      7.8691      2.6027      0.0755      2.8666    126.2253     23.2926
  1998.3000      7.8651      2.6204      0.0717      1.7922    122.9015     23.1394
  1998.4000      7.8651      2.6273      0.0602      1.3749    118.9350     22.8282
  1998.5000      7.8527      2.6338      0.0876      0.9840    115.9581     22.3892
  1998.6000      7.8527      2.6379      0.0959      0.7354    113.1825     21.9548
  1998.7000      7.8527      2.6352      0.0185      0.8990    112.0896     21.7820
  1998.8000      7.8943      2.6273      0.0746      1.3780    114.8487     21.9336
  1998.9000      7.8943      2.6143      0.0382      2.1654    118.4800     22.0944
  1999.0000      7.9086      2.5981      0.0267      3.1436    120.4204     22.0868
  1999.1000      7.9086      2.5817      0.0337      4.1378    120.4639     22.0257
  1999.2000      7.9086      2.5649      0.0015      5.1574    118.0907     22.0458
  1999.3000      7.8792      2.5514     -0.0030      5.9764    115.0485     22.3901
  1999.4000      7.8792      2.5475      0.0193      6.2110    114.6344     23.1315
  1999.5000      7.8966      2.5540     -0.0070      5.8201    118.5939     23.8806
  1999.6000      7.8966      2.5651      0.0083      5.1425    125.2236     24.2470
  1999.7000      7.8966      2.5688      0.0453      4.9231    130.5567     24.1965
  1999.8000      7.8875      2.5588      0.0163      5.5265    132.6056     24.0024
  1999.9000      7.8875      2.5476     -0.0079      6.2057    133.1076     24.1175
  2000.0000      7.8921      2.5471     -0.0088      6.2341    136.3388     24.6548
  2000.1000      7.8921      2.5520      0.0455      5.9393    141.7953     25.2181
  2000.2000      7.8921      2.5494      0.0472      6.0992    142.6689     25.5162
  2000.3000      7.8942      2.5362     -0.0031      6.8983    138.9258     25.5554
  2000.4000      7.8942      2.5192      0.0109      7.9250    137.4653     25.4475
  2000.5000      7.9132      2.5053      0.0066      8.7688    138.1911     25.3725
  2000.6000      7.9132      2.4991     -0.0070      9.1450    134.7822     25.4015
  2000.7000      7.9132      2.5012     -0.0100      9.0173    128.4000     25.4374
  2000.8000      7.9194      2.5084      0.0205      8.5790    126.2262     25.2269
  2000.9000      7.9194      2.5182      0.0290      7.9881    129.5992     24.7018
  2001.0000      7.9070      2.5320      0.0224      7.1544    133.7142     24.2163
  2001.1000      7.9070      2.5571      0.0055      5.6306    134.0198     24.0380
  2001.2000      7.9070      2.5935      0.0847      3.4218    129.0755     23.8790
  2001.3000      7.8902      2.6278      0.0711      1.3438    122.3441     23.4015
  2001.4000      7.8902      2.6516      0.1016     -0.0941    118.7258     22.9703
  2001.5000      7.8484      2.6623      0.1092     -0.7479    117.8147     23.0402
  2001.6000      7.8484      2.6561      0.1141     -0.3718    116.3999     23.3159
  2001.7000      7.8484      2.6354      0.0860      0.8822    114.2740     23.2540
  2001.8000      7.8613      2.6128      0.0571      2.2560    112.1145     22.8582
  2001.9000      7.8613      2.5950      0.0619      3.3322    109.8249     22.5263
  2002.0000      7.8379      2.5756      0.0543      4.5092    108.4281     22.2606
  2002.1000      7.8379      2.5531      0.0227      5.8741    109.1036     21.6646
  2002.2000      7.8379      2.5389     -0.0127      6.7321    111.7813     20.9308
  2002.3000      7.8324      2.5367      0.0330      6.8685    114.8714     20.6832
  2002.4000      7.8324      2.5375      0.0138      6.8193    117.8636     21.0490
  2002.5000      7.8245      2.5385     -0.0101      6.7582    121.7640     21.5825
  2002.6000      7.8245      2.5436      0.0034      6.4512    125.5510     21.9650
  2002.7000      7.8245      2.5484      0.0221      6.1579    127.9478     22.2702
  2002.8000      7.8764      2.5430      0.0530      6.4834    131.4450     22.6120
  2002.9000      7.8764      2.5338     -0.0012      7.0420    137.3403     23.1121
  2003.0000      7.9186      2.5399     -0.0168      6.6715    141.2018     23.6146
  2003.1000      7.9186      2.5565      0.0587      5.6666    138.5686     23.8752
  2003.2000      7.9186      2.5610      0.0291      5.3947    131.2533     23.9484
  2003.3000      7.9120      2.5563     -0.0074      5.6801    126.4124     23.9888
  2003.4000      7.9120      2.5606     -0.0123      5.4170    127.9529     24.1190
  2003.5000      7.9048      2.5740      0.0101      4.6050    132.9271     24.1724
  2003.6000      7.9048      2.5846      0.0154      3.9649    136.7842     24.0432
  2003.7000      7.9048      2.5874      0.0412      3.7939    137.3053     23.9109
  2003.8000      7.9173      2.5854      0.0159      3.9128    135.8409     23.8523
  2003.9000      7.9173      2.5803      0.0221      4.2221    134.9330     23.9022
  2004.0000      7.9024      2.5658      0.0473      5.1056    134.4025     24.1760
  2004.1000      7.9024      2.5426     -0.0070      6.5106    135.2179     24.4207
  2004.2000      7.9024      2.5285     -0.0067      7.3607    137.1553     24.3618
  2004.3000      7.8996      2.5345     -0.0140      7.0029    137.6850     24.2913
  2004.4000      7.8996      2.5549      0.0284      5.7648    136.7307     24.5194
  2004.5000      7.8896      2.5807      0.0189      4.2015    134.9837     24.8149
  2004.6000      7.8896      2.6043      0.0640      2.7725    133.7744     24.7681
  2004.7000      7.8896      2.6173      0.0478      1.9803    134.6133     24.5564
  2004.8000      7.9107      2.6168      0.0459      2.0142    137.6016     24.7152
  2004.9000      7.9107      2.6065      0.0396      2.6382    139.9837     25.0570
  2005.0000      7.9172      2.5919      0.0510      3.5223    139.7527     25.0253
  2005.1000      7.9172      2.5765      0.0256      4.4546    137.7950     24.6624
  2005.2000      7.9172      2.5619      0.0064      5.3383    134.5761     24.3243
  2005.3000      7.9156      2.5503      0.0143      6.0416    129.8844     24.1243
  2005.4000      7.9156      2.5455      0.0194      6.3341    125.2009     23.9941
  2005.5000      7.8545      2.5498      0.0089      6.0703    124.1092     23.8757
  2005.6000      7.8545      2.5609      0.0788      5.4018    127.8827     23.9571
  2005.7000      7.8545      2.5705      0.0637      4.8206    133.2188     24.2861
  2005.8000      7.8610      2.5711      0.0511      4.7791    135.5499     24.4915
  2005.9000      7.8610      2.5619      0.0425      5.3393    133.6921     24.4872
  2006.0000      7.8961      2.5478      0.0418      6.1925    129.7542     24.5702
  2006.1000      7.8961      2.5360     -0.0122      6.9106    126.4016     24.5457
  2006.2000      7.8961      2.5289      0.0122      7.3423    126.3615     24.1410
  2006.3000      7.9047      2.5217      0.0144      7.7775    129.8457     23.8257
  2006.4000      7.9047      2.5196     -0.0024      7.9028    131.6348     24.1817
  2006.5000      7.9008      2.5354      0.0075      6.9481    129.0996     24.9352
