~Version Information
VERS.                      2.0: CWLS Log ASCII Standard - VERSION 2.0
WRAP.                       NO: One line per depth step
~Well Information Block
STRT.FT               529.2000: 
STOP.FT              1325.2000: 
STEP.FT                 0.1000: 
NULL.                -999.2500: 
COMP.          Pioneer Natural Resources: COMPANY
WELL.            Erin 21-15 Tr: WELL
FLD.           Purgatoire River: FIELD
LOC.           1217' FNL & 2284' FWL--: LOCATION
CNTY.               Las Animas: COUNTY
SRVC.                Patterson: SERVICE COMPANY
DATE.          Mon Mar 06 14:26:48 2006: LOG DATE
UWI.           05 071 08712 00: UNIQUE WELL ID
STAT.                 Colorado: STATE
~Curve Information Block
DEPT.FT            0 000 00 00: Depth
DCAL.in                       : CDL Caliper
RHOB.g/cc                     : CDL Bulk Density
RHOC.g/cc                     : CDL Density Correction
DPOR.pu                       : CDL Density Porosity
GR.GAPI                       : Gamma Ray
~Parameter Information Block
~A  Depth       DCAL        RHOB        RHOC        DPOR         GR     
# ...
   988.4000      7.9475      2.5209      0.0144      7.8228     59.4099
   988.5000      7.9525      2.5172      0.0205      8.0465     62.8797
   988.6000      7.9525      2.5191      0.0446      7.9308     66.9056
   988.7000      7.9525      2.5293      0.0418      7.3168     70.7010
   988.8000      7.9603      2.5464      0.0695      6.2769     73.2449
   988.9000      7.9603      2.5501      0.0861      6.0558     73.4026
   989.0000      7.9690      2.5354      0.0527      6.9461     71.7972
   989.1000      7.9690      2.5222      0.0548      7.7479     72.6710
   989.2000      7.9690      2.5214      0.0483      7.7967     75.8466
   989.3000      7.9734      2.5273      0.0515      7.4341     75.9759
   989.4000      7.9734      2.5332      0.0508      7.0767     71.8739
   989.5000      7.9727      2.5415      0.0509      6.5755     66.7110
   989.6000      7.9727      2.5488      0.1035      6.1308     63.0696
   989.7000      7.9727      2.5398      0.0699      6.6772     60.8033
   989.8000      7.9693      2.5089      0.0681      8.5510     57.7925
   989.9000      7.9693      2.4670      0.0174     11.0929     53.5615
   990.0000      7.9682      2.4291      0.0349     13.3861     51.8520
   990.1000      7.9682      2.4042     -0.0010     14.8971     55.0477
   990.2000      7.9682      2.3957      0.0161     15.4140     60.3118
   990.3000      7.9691      2.4070     -0.0258     14.7277     64.1131
   990.4000      7.9691      2.4349      0.0273     13.0350     65.5898
   990.5000      7.9663      2.4666      0.0179     11.1156     66.2367
   990.6000      7.9663      2.4972      0.1002      9.2608     66.3088
   990.7000      7.9663      2.5243      0.0962      7.6152     65.6183
   990.8000      7.9599      2.5421      0.1141      6.5411     64.4224
   990.9000      7.9599      2.5501      0.1245      6.0567     65.0935
   991.0000      7.9540      2.5545      0.0842      5.7871     68.2629
   991.1000      7.9540      2.5556      0.0848      5.7199     68.1393
   991.2000      7.9540      2.5480      0.0667      6.1847     61.9348
   991.3000      7.9539      2.5388      0.0733      6.7407     56.0429
   991.4000      7.9539      2.5408      0.0624      6.6202     56.1046
   991.5000      7.9590      2.5507      0.0769      6.0195     60.1426
   991.6000      7.9590      2.5567      0.0168      5.6534     64.5138
   991.7000      7.9590      2.5543      0.0364      5.8005     69.1383
   991.8000      7.9639      2.5433      0.0280      6.4679     73.7020
   991.9000      7.9639      2.5294      0.0425      7.3062     75.7054
   992.0000      7.9660      2.5208      0.0316      7.8320     77.0513
   992.1000      7.9660      2.5210      0.0265      7.8166     80.5647
   992.2000      7.9660      2.5270      0.0290      7.4566     82.0952
   992.3000      7.9657      2.5340      0.0260      7.0298     77.9851
   992.4000      7.9657      2.5469      0.0691      6.2465     73.2820
   992.5000      7.9612      2.5605      0.1196      5.4219     72.7587
   992.6000      7.9612      2.5506      0.1076      6.0261     73.5887
   992.7000      7.9612      2.5036      0.0812      8.8750     72.5857
   992.8000      7.9519      2.4408      0.0213     12.6782     70.1682
   992.9000      7.9519      2.4017     -0.0039     15.0490     68.2466
   993.0000      7.9458      2.4062     -0.0047     14.7740     67.3754
   993.1000      7.9458      2.4414      0.0374     12.6416     66.8023
   993.2000      7.9458      2.4822      0.0253     10.1674     67.7176
   993.3000      7.9438      2.5215      0.0489      7.7866     72.1310
   993.4000      7.9438      2.5586      0.1212      5.5414     77.5866
   993.5000      7.9428      2.5837      0.1509      4.0159     78.4025
   993.6000      7.9428      2.6055      0.0871      2.6996     78.1585
   993.7000      7.9428      2.6458      0.1171      0.2524     83.2536
   993.8000      7.9435      2.6890      0.2000     -2.3622     89.0611
   993.9000      7.9435      2.6951      0.1551     -2.7323     90.4511
   994.0000      7.9444      2.6610      0.0810     -0.6665     90.4488
   994.1000      7.9444      2.6225      0.0339      1.6641     92.5460
   994.2000      7.9444      2.6081      0.0497      2.5392     94.6308
   994.3000      7.9461      2.6126      0.0494      2.2684     93.4844
   994.4000      7.9461      2.6199      0.0384      1.8254     90.6854
   994.5000      7.9476      2.6265      0.0350      1.4224     89.0719
   994.6000      7.9476      2.6336      0.0433      0.9952     88.2149
   994.7000      7.9476      2.6464     -0.0023      0.2158     86.7574
   994.8000      7.9486      2.6702      0.0448     -1.2215     86.9210
   994.9000      7.9486      2.6926      0.0648     -2.5819     86.6467
   995.0000      7.9488      2.7034      0.0368     -3.2366     82.9317
   995.1000      7.9488      2.7067      0.0683     -3.4365     80.1133
   995.2000      7.9488      2.7039      0.0548     -3.2697     84.3460
   995.3000      7.9484      2.6898      0.0583     -2.4101     94.1485
   995.4000      7.9484      2.6648      0.0506     -0.8959     97.7557
   995.5000      7.9476      2.6395      0.0325      0.6394     89.0029
   995.6000      7.9476      2.6209      0.0520      1.7648     79.7494
   995.7000      7.9476      2.6070      0.0155      2.6042     80.9672
   995.8000      7.9471      2.5947      0.0539      3.3496     86.0063
   995.9000      7.9471      2.5785      0.0235      4.3331     86.2067
   996.0000      7.9462      2.5561      0.0061      5.6889     83.5084
   996.1000      7.9462      2.5410     -0.0151      6.6052     80.5580
   996.2000      7.9462      2.5530      0.0104      5.8799     76.2648
   996.3000      7.9443      2.5907      0.0493      3.5921     71.3847
   996.4000      7.9443      2.6257      0.1004      1.4738     68.7736
   996.5000      7.9435      2.6284      0.1072      1.3121     68.1427
   996.6000      7.9435      2.6032      0.0391      2.8355     66.8132
   996.7000      7.9435      2.5821      0.0204      4.1162     63.7738
   996.8000      7.9441      2.5803      0.0574      4.2217     61.7520
   996.9000      7.9441      2.5836      0.0772      4.0223     65.1552
   997.0000      7.9442      2.5822      0.0229      4.1115     70.0884
   997.1000      7.9442      2.5791      0.0731      4.2988     68.5065
   997.2000      7.9442      2.5712      0.0425      4.7763     63.4036
   997.3000      7.9458      2.5623      0.0147      5.3136     63.2471
   997.4000      7.9458      2.5601      0.0682      5.4509     67.2984
   997.5000      7.9499      2.5638      0.0653      5.2231     68.6343
   997.6000      7.9499      2.5774      0.0582      4.4020     65.8981
   997.7000      7.9499      2.5983      0.0668      3.1335     63.1674
   997.8000      7.9515      2.6056      0.1176      2.6918     63.6795
   997.9000      7.9515      2.5919      0.0670      3.5238     66.7809
   998.0000      7.9508      2.5800      0.0427      4.2405     68.8421
   998.1000      7.9508      2.5820      0.0687      4.1220     68.2595
   998.2000      7.9508      2.5828      0.0873      4.0743     67.6368
   998.3000      7.9513      2.5745      0.0513      4.5756     69.3962
   998.4000      7.9513      2.5700      0.0421      4.8510     71.0513
   998.5000      7.9531      2.5725      0.1023      4.6972     69.4517
   998.6000      7.9531      2.5686      0.0540      4.9314     67.3518
   998.7000      7.9531      2.5555      0.0398      5.7269     67.2674
   998.8000      7.9560      2.5407      0.0523      6.6232     66.4909
   998.9000      7.9560      2.5367      0.0230      6.8694     63.8728
   999.0000      7.9570      2.5510      0.0822      5.9978     63.0339
   999.1000      7.9570      2.5691      0.0749      4.9040     65.8848
   999.2000      7.9570      2.5737      0.0701      4.6220     69.0341
   999.3000      7.9511      2.5620      0.0700      5.3343     68.4738
   999.4000      7.9511      2.5452      0.0093      6.3528     65.3337
   999.5000      7.9444      2.5457      0.0005      6.3190     64.0657
