~Version Information
VERS.                      2.0: CWLS Log ASCII Standard - VERSION 2.0
WRAP.                       NO: One line per depth step
~Well Information Block
STRT.FT               245.0000: 
STOP.FT              1217.7000: 
STEP.FT                 0.1000: 
NULL.                -999.2500: 
COMP.          Pioneer Natural Resources: COMPANY
WELL.          Lucky Lady 42-29: WELL
FLD.           Purgatoire River: FIELD
LOC.           2482' FNL & 662' FEL--: LOCATION
CNTY.               Las Animas: COUNTY
SRVC.                Patterson: SERVICE COMPANY
DATE.          Thu Mar 09 18:39:54 2006: LOG DATE
UWI.           05 071 08659 00: UNIQUE WELL ID
STAT.                 Colorado: STATE
~Curve Information Block
DEPT.FT            0 000 00 00: Depth
DCAL.in                       : CDL Caliper
RHOB.g/cc                     : CDL Bulk Density
RHOC.g/cc                     : CDL Density Correction
DPOR.pu                       : CDL Density Porosity
NPOR.pu                       : Neutron Porosity
GR.GAPI                       : Gamma Ray
~Parameter Information Block
~A  Depth       DCAL        RHOB        RHOC        DPOR        NPOR         GR     
# ...
   369.8000      7.9475      2.7006      0.0821     -3.0638     25.3390     89.8204
   369.9000      7.9475      2.6772      0.0394     -1.6494     25.9149     91.4969
   370.0000      7.9455      2.6459     -0.0816      0.2511     26.3331     94.2906
   370.1000      7.9455      2.6311      0.0114      1.1453     26.8097     93.7081
   370.2000      7.9455      2.6253     -0.0472      1.4957     27.2995     89.1172
   370.3000      7.9443      2.6222     -0.0568      1.6860     27.3604     85.0629
   370.4000      7.9443      2.6256     -0.0438      1.4785     27.0086     84.7193
   370.5000      7.9442      2.6287      0.0005      1.2883     26.6127     86.0231
   370.6000      7.9442      2.6216      0.0245      1.7232     26.4233     88.2459
   370.7000      7.9442      2.6065     -0.0136      2.6340     26.3281     93.2508
   370.8000      7.9457      2.5995     -0.0350      3.0634     26.0383     99.9263
   370.9000      7.9457      2.6031      0.0599      2.8413     25.3585    104.6743
   371.0000      7.9510      2.6014      0.0011      2.9459     24.3336    104.6040
   371.1000      7.9510      2.5906      0.0231      3.5994     23.5318    100.7722
   371.2000      7.9510      2.5787      0.0169      4.3238     23.4214     98.0926
   371.3000      7.9533      2.5705      0.0089      4.8208     23.6919     98.3437
   371.4000      7.9533      2.5633      0.0021      5.2569     23.7527     99.6682
   371.5000      7.9460      2.5566      0.0052      5.6592     23.4106    100.4056
   371.6000      7.9460      2.5581      0.0228      5.5684     22.9011     99.0475
   371.7000      7.9460      2.5663     -0.0059      5.0757     22.4860     94.4019
   371.8000      7.9367      2.5683      0.0481      4.9534     22.2938     88.6981
   371.9000      7.9367      2.5579      0.0298      5.5794     22.3989     87.2118
   372.0000      7.9340      2.5408      0.0297      6.6195     22.7141     91.5585
   372.1000      7.9340      2.5217      0.0221      7.7785     22.8139     95.0960
   372.2000      7.9340      2.5075     -0.0003      8.6376     22.6148     95.1526
   372.3000      7.9355      2.5080      0.0034      8.6048     22.5328     96.8876
   372.4000      7.9355      2.5237      0.0114      7.6554     22.6262    100.0450
   372.5000      7.9365      2.5446      0.0326      6.3854     22.6929     99.7267
   372.6000      7.9365      2.5584      0.0462      5.5535     22.6995     96.9192
   372.7000      7.9365      2.5550      0.0605      5.7548     22.6080     96.4750
   372.8000      7.9323      2.5395      0.0391      6.6983     22.4585    100.1034
   372.9000      7.9323      2.5326      0.0268      7.1165     22.4911    104.9187
   373.0000      7.9220      2.5468      0.0658      6.2526     22.6123    105.0832
   373.1000      7.9220      2.5766      0.0686      4.4457     22.5621    101.4212
   373.2000      7.9220      2.6088      0.0759      2.4995     22.5945    101.6331
   373.3000      7.9198      2.6211      0.0952      1.7492     22.7233    105.2237
   373.4000      7.9198      2.6005      0.0668      3.0029     22.6327    104.6918
   373.5000      7.9314      2.5674     -0.0142      5.0066     22.5081    101.8564
   373.6000      7.9314      2.5571     -0.0141      5.6324     22.5004    101.9717
   373.7000      7.9314      2.5765      0.0396      4.4557     22.4040    105.0946
   373.8000      7.9421      2.6116      0.0536      2.3292     22.4170    111.3205
   373.9000      7.9421      2.6515      0.0757     -0.0902     22.8177    113.8581
   374.0000      7.9409      2.6738      0.1077     -1.4397     23.2191    105.3925
   374.1000      7.9409      2.6564      0.0808     -0.3858     23.5209     94.8087
   374.2000      7.9409      2.6151      0.0116      2.1133     23.9340     91.5669
   374.3000      7.9365      2.5823      0.0098      4.1023     24.2253     91.6501
   374.4000      7.9365      2.5668      0.0223      5.0419     24.3868     90.8042
   374.5000      7.9345      2.5633      0.0208      5.2565     24.5580     89.6489
   374.6000      7.9345      2.5708      0.0021      4.7988     24.6176     89.4330
   374.7000      7.9345      2.5827      0.0360      4.0773     24.6302     90.7555
   374.8000      7.9325      2.5822      0.0437      4.1107     24.7006     92.3837
   374.9000      7.9325      2.5628      0.0341      5.2874     24.7469     94.2259
   375.0000      7.9296      2.5386      0.0343      6.7506     24.6127     97.7830
   375.1000      7.9296      2.5275     -0.0285      7.4213     24.2000    102.3710
   375.2000      7.9296      2.5281      0.0441      7.3877     23.6870    108.7896
   375.3000      7.9299      2.5286      0.0328      7.3606     23.2567    118.2586
   375.4000      7.9299      2.5310      0.0619      7.2108     22.8478    126.5408
   375.5000      7.9395      2.5398      0.0433      6.6787     22.4311    131.6351
   375.6000      7.9395      2.5422      0.1206      6.5325     21.9939    133.1871
   375.7000      7.9395      2.5231      0.0715      7.6885     21.4496    130.4571
   375.8000      7.9547      2.4948      0.0060      9.4038     20.9172    124.4370
   375.9000      7.9547      2.4803      0.0079     10.2831     20.5852    116.5867
   376.0000      7.9655      2.4827      0.0162     10.1402     20.4355    112.7099
   376.1000      7.9655      2.4950      0.0152      9.3944     20.4152    117.3900
   376.2000      7.9655      2.5157      0.0389      8.1417     20.4828    123.9696
   376.3000      7.9736      2.5399      0.0594      6.6739     20.6403    123.0013
   376.4000      7.9736      2.5574      0.0416      5.6145     21.0602    116.0058
   376.5000      7.9797      2.5682      0.0475      4.9566     21.6903    110.7169
   376.6000      7.9797      2.5862      0.0355      3.8681     22.1409    110.5147
   376.7000      7.9797      2.6116      0.0912      2.3279     22.4964    112.7790
   376.8000      7.9804      2.6206      0.0928      1.7845     23.2703    112.8171
   376.9000      7.9804      2.6015      0.1143      2.9383     24.3727    110.5052
   377.0000      7.9695      2.5726      0.0900      4.6890     25.4627    108.5835
   377.1000      7.9695      2.5538      0.0905      5.8283     26.5473    107.9433
   377.2000      7.9695      2.5523      0.0152      5.9231     27.2967    110.4126
   377.3000      7.9507      2.5675      0.0625      5.0000     27.2762    114.9835
   377.4000      7.9507      2.5750      0.1269      4.5428     26.7256    118.1322
   377.5000      7.9400      2.5390      0.0861      6.7248     26.1765    120.4130
   377.6000      7.9400      2.4555      0.0408     11.7876     25.7372    124.8209
   377.7000      7.9400      2.3555      0.0112     17.8484     25.2782    131.9526
   377.8000      7.9416      2.2771     -0.0100     22.6006     24.6483    139.8466
   377.9000      7.9416      2.2380     -0.0393     24.9678     23.6602    145.3274
   378.0000      7.9578      2.2269     -0.0093     25.6420     22.4656    148.1955
   378.1000      7.9578      2.2276     -0.0348     25.5976     21.4692    149.9875
   378.2000      7.9578      2.2346      0.0250     25.1767     20.5958    149.2674
   378.3000      7.9883      2.2377      0.0633     24.9886     19.5304    144.9157
   378.4000      7.9883      2.2331      0.0743     25.2686     18.4653    142.1399
   378.5000      8.0131      2.2371      0.0754     25.0218     17.7678    144.6868
   378.6000      8.0131      2.2657      0.0868     23.2908     17.4083    147.7416
   378.7000      8.0131      2.3110      0.1443     20.5436     17.3829    149.8838
   378.8000      8.0143      2.3502      0.1245     18.1714     17.6517    154.9783
   378.9000      8.0143      2.3719      0.0809     16.8524     17.8436    159.6119
   379.0000      7.9991      2.3806      0.1082     16.3273     17.9236    159.2003
   379.1000      7.9991      2.3797      0.0821     16.3794     18.2707    155.1733
   379.2000      7.9991      2.3732      0.0745     16.7782     18.9191    150.3475
   379.3000      7.9831      2.3720      0.0775     16.8474     19.5757    147.2806
