~Version Information
VERS.                      2.0: CWLS Log ASCII Standard - VERSION 2.0
WRAP.                       NO: One line per depth step
~Well Information Block
STRT.FT               260.0000: 
STOP.FT              1230.0000: 
STEP.FT                 0.2500: 
NULL.                -999.2500: 
COMP.          Pioneer Natural Resources: COMPANY
WELL.             Mahalo 12-20: WELL
FLD.           Purgatoire River: FIELD
LOC.           1689' FNL & 479' FWL: LOCATION
CNTY.               Las Animas: COUNTY
SRVC.                Patterson: SERVICE COMPANY
DATE.          Thu Feb 23 20:25:01 2006: LOG DATE
UWI.           05 071 08700 00: UNIQUE WELL ID
STAT.                 Colorado: STATE
~Curve Information Block
DEPT.FT            0 000 00 00: Depth
SN.Ohm-m                      : IEL Short Normal
SP.mV                         : IEL Spontaneous Potential
DIR.Ohm-m                     : IEL Induction Resistivity
GR.GAPI                       : Gamma Ray
~Parameter Information Block
~A  Depth        SN          SP         DIR          GR     
# ...
  1198.0000     16.4600     65.9576     18.0384     89.3191
  1198.2500     16.4625     65.9848     17.7901     83.4718
  1198.5000     16.5314     66.0330     17.5595     76.1242
  1198.7500     16.6801     66.0720     17.3228     72.5991
  1199.0000     16.7796     66.0877     17.0400     69.2703
  1199.2500     16.7171     66.0830     16.6870     68.3455
  1199.5000     16.5114     66.0728     16.2745     69.4284
  1199.7500     16.2201     66.0761     15.8390     72.2174
  1200.0000     15.8385     66.1095     15.4185     79.7726
  1200.2500     15.3458     66.1792     15.0341     86.8056
  1200.5000     14.7991     66.2773     14.6862     99.2955
  1200.7500     14.3268     66.3846     14.3646    107.9919
  1201.0000     13.9880     66.4773     14.0582    119.6607
  1201.2500     13.6753     66.5354     13.7601    125.4321
  1201.5000     13.2696     66.5482     13.4667    129.8269
  1201.7500     12.8349     66.5192     13.1757    129.7792
  1202.0000     12.5285     66.4667     12.8894    126.1793
  1202.2500     12.4059     66.4176     12.6192    122.5137
  1202.5000     12.4259     66.3957     12.3886    117.4679
  1202.7500     12.5461     66.4091     12.2281    115.8748
  1203.0000     12.7062     66.4486     12.1673    118.2259
  1203.2500     12.8530     66.4983     12.2271    123.4288
  1203.5000     13.0247     66.5495     12.4170    135.8037
  1203.7500     13.2535     66.6034     12.7348    145.8505
  1204.0000     13.4927     66.6617     13.1661    160.9371
  1204.2500     13.7421     66.7180     13.6834    169.3564
  1204.5000     14.0651     66.7576     14.2475    176.8101
  1204.7500     14.4863     66.7666     14.8153    177.0408
  1205.0000     14.9807     66.7386     15.3531    169.3682
  1205.2500     15.5154     66.6757     15.8475    159.6096
  1205.5000     16.0896     66.5873     16.3062    141.2982
  1205.7500     16.7225     66.4881     16.7505    128.9422
  1206.0000     17.3892     66.3954     17.2054    112.7669
  1206.2500     18.0313     66.3245     17.6928    103.9764
  1206.5000     18.5815     66.2836     18.2262     94.0281
  1206.7500     18.9840     66.2702     18.8031     90.1818
  1207.0000     19.2807     66.2709     19.3975     90.0154
  1207.2500     19.5719     66.2685     19.9587     93.6784
  1207.5000     19.8345     66.2507     20.4192    102.5505
  1207.7500     19.9428     66.2148     20.7127    108.4397
  1208.0000     19.8647     66.1656     20.7901    113.5460
  1208.2500     19.6806     66.1132     20.6303    113.5392
  1208.5000     19.4302     66.0714     20.2431    109.9681
  1208.7500     19.1044     66.0563     19.6701    107.2770
  1209.0000     18.7356     66.0816     18.9812    105.4049
  1209.2500     18.3607     66.1533     18.2607    105.6439
  1209.5000     17.9643     66.2653     17.5862    106.3310
  1209.7500     17.5076     66.3987     17.0066    105.4538
  1210.0000     16.9720     66.5261     16.5335     99.1920
  1210.2500     16.3654     66.6206     16.1487     90.1411
  1210.5000     15.7420     66.6674     15.8236     68.7713
  1210.7500     15.2122     66.6717     15.5400     51.4193
  1211.0000     14.8242     66.6586     15.2982     27.1503
  1211.2500     14.4974     66.6623     15.1086     15.2457
  1211.5000     14.1785     66.7096     14.9780      5.0098
  1211.7500     13.9575     66.8051     14.9033      2.0055
  1212.0000     13.9909     66.9258     14.8766      0.3868
  1212.2500     14.3397     67.0298     14.8951      0.1060
  1212.5000     14.8694     67.0761     14.9654      0.0096
  1212.7500     15.3642     67.0469     15.0991      0.0000
  1213.0000     15.7217     66.9554     15.3013   -999.2500
  1213.2500     15.9737     66.8299     15.5581   -999.2500
  1213.5000     16.2026     66.6915     15.8311   -999.2500
  1213.7500     16.4822     66.5438     16.0681   -999.2500
  1214.0000     16.8409     66.3792     16.2310   -999.2500
  1214.2500     17.2494     66.1897     16.3247   -999.2500
  1214.5000     17.6324     65.9756     16.4002   -999.2500
  1214.7500     17.9081     65.7487     16.5232   -999.2500
  1215.0000     18.0569     65.5306     16.7336   -999.2500
  1215.2500     18.1287     65.3451     17.0227   -999.2500
  1215.5000     18.1667     65.2078     17.3407   -999.2500
  1215.7500     18.1839     65.1184     17.6265   -999.2500
  1216.0000     18.2127     65.0628     17.8383   -999.2500
  1216.2500     18.2752     65.0251     17.9670   -999.2500
  1216.5000     18.3068     64.9941     18.0270   -999.2500
  1216.7500     18.2561     64.9600     18.0410   -999.2500
  1217.0000     18.2002     64.9112     17.9236   -999.2500
  1217.2500     18.2029     64.8418     17.9180   -999.2500
  1217.5000     18.1979     64.7591     17.9399   -999.2500
  1217.7500     18.1163     64.6822     18.0058   -999.2500
  1218.0000     17.9895     64.6320     18.1091   -999.2500
  1218.2500     17.8753     64.6223     18.2119   -999.2500
  1218.5000     17.7890     64.6564     18.2520   -999.2500
  1218.7500     17.7279     64.7273     18.1687   -999.2500
  1219.0000     17.6659     64.8193     17.9381   -999.2500
  1219.2500     17.5492     64.9141     17.6000   -999.2500
  1219.5000     17.3625     64.9981     17.2676   -999.2500
  1219.7500     17.1544     65.0649     17.1227   -999.2500
  1220.0000     16.9677     65.1119     17.4106   -999.2500
  1220.2500     16.7552     65.1384     18.4561   -999.2500
  1220.5000     16.4145     65.1457     20.8965   -999.2500
  1220.7500     15.9375     65.1404     25.1832   -999.2500
  1221.0000     15.4525     65.1339     32.6642   -999.2500
  1221.2500     15.0697     65.1396     45.1296   -999.2500
  1221.5000     14.7299     65.1668     64.3540   -999.2500
  1221.7500     14.2869     65.2155     89.6003   -999.2500
  1222.0000     13.7458     65.2747    114.6586   -999.2500
  1222.2500     13.2534     65.3273    131.6947   -999.2500
  1222.5000     12.8879     65.3555    139.4535   -999.2500
  1222.7500     12.6834     65.3458    142.2644   -999.2500
  1223.0000     12.7413     65.2913    144.5169   -999.2500
  1223.2500     13.1165     65.1924    148.9821   -999.2500
  1223.5000     13.6873     65.0564   3694.2129   -999.2500
  1223.7500     14.2304     64.8960 100000.0000   -999.2500
  1224.0000     14.6207     64.7290 100000.0000   -999.2500
  1224.2500     14.9518     64.5751 100000.0000   -999.2500
  1224.5000     15.4441     64.4491 100000.0000   -999.2500
  1224.7500     16.2294     64.3502 100000.0000   -999.2500
  1225.0000     17.2102     64.2531 100000.0000   -999.2500
  1225.2500     18.1594     64.0611 100000.0000   -999.2500
  1225.5000     18.9208     63.4689 100000.0000   -999.2500
  1225.7500     19.4251     61.7310 100000.0000   -999.2500
  1226.0000     19.6281     57.5928 100000.0000   -999.2500
  1226.2500     19.4895     49.8555 100000.0000   -999.2500
  1226.5000     18.7346     38.5740 100000.0000   -999.2500
  1226.7500     16.5775     25.7657 100000.0000   -999.2500
  1227.0000     12.4138     14.4449 100000.0000   -999.2500
  1227.2500      7.2043      6.6551 100000.0000   -999.2500
  1227.5000      3.0254      2.4819 100000.0000   -999.2500
  1227.7500      0.8782      0.7410 100000.0000   -999.2500
  1228.0000      0.1712      0.1755 100000.0000   -999.2500
  1228.2500      0.0219      0.0325 100000.0000   -999.2500
  1228.5000      0.0018      0.0043 100000.0000   -999.2500
  1228.7500   -999.2500   -999.2500 100000.0000   -999.2500
  1229.0000   -999.2500   -999.2500 100000.0000   -999.2500
  1229.2500   -999.2500   -999.2500 100000.0000   -999.2500
  1229.5000   -999.2500   -999.2500 100000.0000   -999.2500
  1229.7500   -999.2500   -999.2500 100000.0000   -999.2500
  1230.0000   -999.2500   -999.2500 100000.0000   -999.2500
