~Version Information
VERS.                      2.0: CWLS Log ASCII Standard - VERSION 2.0
WRAP.                       NO: One line per depth step
~Well Information Block
STRT.FT               460.0000: 
STOP.FT              2811.5000: 
STEP.FT                 0.1000: 
NULL.                -999.2500: 
COMP.          Pioneer Natural Resources: COMPANY
WELL.           Dolzanie 34-12: WELL
FLD.           Purgatoire River: FIELD
LOC.           1001' FSL & 1750' FEL--: LOCATION
PROV.                 Colorado: PROVINCE
CNTY.               Las Animas: COUNTRY
SRVC.                Patterson: SERVICE COMPANY
DATE.          Wed Jul 20 07:56:24 2005: LOG DATE
UWI.           05 071 08439 00: UNIQUE WELL ID
~Curve Information Block
DEPT.FT            0 000 00 00: Depth
DCAL.in                       : CDL Caliper
DPOR.pu                       : CDL Density Porosity
NPOR.pu                       : Neutron Porosity
RHOB.g/cc                     : CDL Bulk Density
RHOC.g/cc                     : CDL Density Correction
GR.GAPI                       : Gamma Ray
~Parameter Information Block
~A  Depth       DCAL        DPOR        NPOR        RHOB        RHOC         GR     
# ...
  1237.6000      7.8740      1.3560     30.5224      2.6276      0.0787    128.9482
  1237.7000      7.8740      1.0010     30.9146      2.6335      0.0536    129.8387
  1237.8000      7.8688      1.1349     31.4741      2.6313      0.0566    129.8398
  1237.9000      7.8688      1.2440     31.6693      2.6295      0.0589    129.5439
  1238.0000      7.8691      1.0626     31.2670      2.6325      0.0650    129.6600
  1238.1000      7.8691      0.8069     30.2854      2.6367      0.0503    129.9372
  1238.2000      7.8691      0.7537     29.1054      2.6376      0.0922    127.9781
  1238.3000      7.8733      1.0688     28.3806      2.6324      0.0655    123.9933
  1238.4000      7.8733      1.7105     28.1838      2.6218      0.0546    122.2966
  1238.5000      7.8783      2.5181     27.9267      2.6085      0.0746    123.1856
  1238.6000      7.8783      3.1370     27.5270      2.5982      0.0550    124.3983
  1238.7000      7.8783      3.2181     27.2052      2.5969      0.0417    125.8952
  1238.8000      7.8742      2.7740     26.6875      2.6042      0.0223    124.5242
  1238.9000      7.8742      2.3966     25.9449      2.6105      0.0633    118.3308
  1239.0000      7.8593      2.9151     25.3480      2.6019      0.0338    112.5106
  1239.1000      7.8593      3.9814     24.9584      2.5843      0.0226    111.3328
  1239.2000      7.8593      4.2958     24.4494      2.5791      0.0366    112.0174
  1239.3000      7.8436      3.3597     23.6043      2.5946      0.0539    111.0805
  1239.4000      7.8436      1.6432     22.7025      2.6229      0.0529    109.8684
  1239.5000      7.8358     -0.1591     22.3033      2.6526      0.1000    108.4117
  1239.6000      7.8358     -1.0702     22.5787      2.6677      0.1250    103.6037
  1239.7000      7.8358     -0.6771     23.1577      2.6612      0.0904     95.9189
  1239.8000      7.8387      0.4292     23.8685      2.6429      0.0958     88.2105
  1239.9000      7.8387      1.4583     24.8995      2.6259      0.0419     81.6414
  1240.0000      7.8483      1.3740     26.1300      2.6273      0.0140     77.9159
  1240.1000      7.8483      0.0292     27.1233      2.6495      0.0826     77.0166
  1240.2000      7.8483     -1.0745     27.6114      2.6677      0.0621     77.5589
  1240.3000      7.8559     -0.8984     27.7993      2.6648      0.0355     78.0584
  1240.4000      7.8559     -0.1499     28.1531      2.6525      0.0005     75.3100
  1240.5000      7.8584     -0.1716     28.4820      2.6528      0.0252     72.1377
  1240.6000      7.8584     -1.6352     28.1448      2.6770      0.0204     74.7043
  1240.7000      7.8584     -3.7492     27.1246      2.7119      0.0785     80.1609
  1240.8000      7.8590     -4.8139     25.9255      2.7294      0.0631     81.4768
  1240.9000      7.8590     -4.1931     25.1635      2.7192      0.0539     77.9656
  1241.0000      7.8613     -2.7120     25.2254      2.6947      0.0352     74.6378
  1241.1000      7.8613     -1.6566     25.8205      2.6773      0.0412     73.4796
  1241.2000      7.8613     -1.3582     26.2594      2.6724      0.0648     70.5644
  1241.3000      7.8641     -0.9473     26.2419      2.6656      0.0274     66.0464
  1241.4000      7.8641     -0.0520     26.0687      2.6509      0.0118     67.0510
  1241.5000      7.8658      1.1246     26.0735      2.6314      0.0127     73.2818
  1241.6000      7.8658      2.3885     25.9359      2.6106      0.0085     77.2621
  1241.7000      7.8658      3.2913     25.3494      2.5957      0.0222     76.0302
  1241.8000      7.8652      3.6228     24.5207      2.5902     -0.0023     73.0517
  1241.9000      7.8652      3.6942     23.7508      2.5890     -0.0122     72.6601
  1242.0000      7.8634      3.9678     23.2399      2.5845      0.0130     74.8305
  1242.1000      7.8634      4.6068     22.8957      2.5740      0.0157     77.6766
  1242.2000      7.8634      4.8250     22.4788      2.5704      0.0097     80.0982
  1242.3000      7.8625      3.7079     21.9361      2.5888     -0.0281     82.8582
  1242.4000      7.8625      1.6986     21.6366      2.6220      0.0344     86.6749
  1242.5000      7.8628      0.1981     21.8228      2.6467      0.0525     89.4726
  1242.6000      7.8628     -0.1751     22.0661      2.6529      0.0876     90.7800
  1242.7000      7.8628      0.1720     21.9433      2.6472      0.0787     90.3483
  1242.8000      7.8619      0.5510     21.5343      2.6409      0.0675     85.7427
  1242.9000      7.8619      0.3217     21.2452      2.6447      0.0498     78.1226
  1243.0000      7.8628     -0.7599     21.3082      2.6625      0.0383     73.6303
  1243.1000      7.8628     -2.3738     21.5533      2.6892      0.0846     75.2205
  1243.2000      7.8628     -3.5300     21.8682      2.7082      0.1331     78.3108
  1243.3000      7.8711     -3.2108     22.2287      2.7030      0.1233     77.8022
  1243.4000      7.8711     -2.1635     22.6717      2.6857      0.0136     73.8635
  1243.5000      7.8824     -2.3049     23.2113      2.6880      0.0527     69.6161
  1243.6000      7.8824     -3.6449     23.6167      2.7101      0.0545     67.1230
  1243.7000      7.8824     -4.2370     23.7105      2.7199      0.0770     66.4530
  1243.8000      7.8877     -2.9330     23.7996      2.6984      0.0318     65.8187
  1243.9000      7.8877     -0.2945     24.1940      2.6549      0.0273     64.5154
  1244.0000      7.8876      2.4437     24.6774      2.6097     -0.0610     64.5136
  1244.1000      7.8876      4.0238     24.8076      2.5836     -0.0426     66.4876
  1244.2000      7.8876      4.6817     24.4967      2.5728      0.0310     67.6058
  1244.3000      7.8880      5.6298     24.0578      2.5571      0.0265     65.2209
  1244.4000      7.8880      6.4078     23.5588      2.5443     -0.0094     60.5161
  1244.5000      7.8901      5.6568     22.7474      2.5567      0.0249     58.2536
  1244.6000      7.8901      3.5366     21.8588      2.5916      0.0284     60.2208
  1244.7000      7.8901      1.7961     21.1583      2.6204      0.0818     63.3099
  1244.8000      7.8944      1.5819     20.3721      2.6239      0.0497     65.9233
  1244.9000      7.8944      2.2427     19.5647      2.6130      0.0523     66.7310
  1245.0000      7.8985      2.9581     19.2649      2.6012      0.0396     65.8135
  1245.1000      7.8985      3.7853     19.4987      2.5875      0.0609     67.4881
  1245.2000      7.8985      4.9938     19.9185      2.5676      0.0286     71.8196
  1245.3000      7.8997      6.0624     20.2873      2.5500      0.0244     75.2018
  1245.4000      7.8997      5.9532     20.3505      2.5518      0.0302     77.1647
  1245.5000      7.9005      4.7201     20.2055      2.5721      0.0778     77.6789
  1245.6000      7.9005      3.6475     20.1143      2.5898      0.0687     76.5471
  1245.7000      7.9005      3.3114     20.0527      2.5954      0.0675     75.1455
  1245.8000      7.9023      2.8913     20.0273      2.6023      0.0277     73.8871
  1245.9000      7.9023      1.7013     20.2233      2.6219      0.0647     71.2046
  1246.0000      7.9040      0.4634     20.5556      2.6424      0.0889     68.5498
  1246.1000      7.9040      0.3477     20.8349      2.6443      0.0641     67.8409
  1246.2000      7.9040      1.8460     21.0549      2.6195      0.0811     68.4366
  1246.3000      7.9047      4.5484     20.9958      2.5750      0.0272     71.2032
  1246.4000      7.9047      6.7500     20.5899      2.5386     -0.0111     74.7766
  1246.5000      7.9046      6.3769     20.6317      2.5448     -0.0271     75.1634
  1246.6000      7.9046      3.4969     21.4455      2.5923      0.0457     73.4383
  1246.7000      7.9046      0.5591     22.3019      2.6408      0.0927     72.7996
  1246.8000      7.9051     -0.7008     22.7169      2.6616      0.0700     73.0614
  1246.9000      7.9051     -0.4698     22.8357      2.6578      0.0735     71.4402
  1247.0000      7.9060      0.2659     23.0853      2.6456      0.0569     68.9381
  1247.1000      7.9060      0.3657     23.7470      2.6440      0.0374     70.2959
