~Version Information
VERS.                      2.0: CWLS Log ASCII Standard - VERSION 2.0
WRAP.                       NO: One line per depth step
~Well Information Block
STRT.FT                 0.0000: 
STOP.FT              1201.0000: 
STEP.FT                 0.2500: 
NULL.                -999.2500: 
COMP.          Pioneer Natural Resources: COMPANY
WELL.             Margaux 11-1: WELL
FLD.           Purgatoire River: FIELD
LOC.           1154' FNL & 472' FWL --------: LOCATION
PROV.                 Colorado: PROVINCE
CNTY.               Las Animas: COUNTRY
SRVC.                         : SERVICE COMPANY
DATE.          Thu Jan 05 11:16:55 2006: LOG DATE
UWI.                          : UNIQUE WELL ID
~Curve Information Block
DEPT.FT            0 000 00 00: Depth
CCL.                          : Casing Collar Locator
TT3.usec                      : CBL 3' Travel Time
AMP3.mV                       : CBL 3' Amplitude
AMP5.mV                       : CBL 5' Amplitude
GR.GAPI                       : Gamma Ray
~Parameter Information Block
~A  Depth       CCL         TT3         AMP3        AMP5         GR     
     0.0000   -999.2500    963.0000      0.6451      1.1164     72.7307
     0.2500   -999.2500    963.0000      0.7129      1.1428     67.7016
     0.5000   -999.2500    963.0000      0.7479      1.2203     59.7630
     0.7500   -999.2500    963.0000      0.6937      1.4957     43.5001
     1.0000   -999.2500    963.0000      0.6223      1.6393     37.9889
     1.2500   -999.2500    963.0000      0.5456      1.7067     33.7871
     1.5000   -999.2500    963.0000      0.4790      1.6574     30.4706
     1.7500   -999.2500    963.0000      0.4314      1.5049     28.5652
     2.0000      0.0000    963.0000      0.4086      1.3089     28.6051
     2.2500      0.0000    963.0000      0.4142      1.1457     30.0472
     2.5000      0.0000    963.0000      0.4468      1.0719     31.6982
     2.7500      0.0000    963.0000      0.4970      1.1039     33.1249
     3.0000      0.0000    963.0000      0.5474      1.2247     35.1232
     3.2500      0.0000    963.0000      0.5785      1.3963     38.6716
     3.5000      0.0000    963.0000      0.5787      1.5709     43.8407
     3.7500      0.0000    962.9530      0.5575      1.7115     49.9070
     4.0000      0.0000    962.6467      0.5562      1.8100     56.1335
     4.2500      0.0000    961.0909      0.7069      1.8902     62.1434
     4.5000      0.0000    954.9377      1.3956      2.0033     67.7547
     4.7500      0.0000    935.9847      3.5272      2.2878     72.6950
     5.0000      0.0000    890.5197      8.5887      3.1513     76.4222
     5.2500      0.0000    805.5817     17.9608      5.5477     78.2348
     5.5000      0.0000    682.0005     31.5156     11.0195     77.7620
     5.7500      0.0000    541.9684     46.8338     20.9571     75.4312
     6.0000      0.0000    418.3934     60.3876     35.1508     72.4268
     6.2500      0.0000    333.4627     69.8373     51.0195     70.0972
     6.5000      0.0000    288.0038     75.1248     64.8656     69.2253
     6.7500      0.0000    269.0599     77.6252     74.2632     69.7598
     7.0000      0.0000    262.9245     78.7666     79.2043     71.1115
     7.2500      0.0000    261.3954     79.4028     81.2313     72.6227
     7.5000      0.0000    261.1177     79.8939     81.9615     73.9631
     7.7500      0.0000    261.0923     80.3474     82.3421     75.2792
     8.0000      0.0000    261.1030     80.7669     82.7008     76.7700
     8.2500      0.0000    261.1070     81.1226     83.0643     78.0728
     8.5000      0.0000    261.1107     81.3888     83.3930     78.4223
     8.7500      0.0000    261.1170     81.5754     83.6679     77.5559
     9.0000      0.0000    261.1237     81.7358     83.8933     76.0915
     9.2500      0.0000    261.1282     81.9374     84.0921     74.7711
     9.5000      0.0000    261.1306     82.2126     84.2914     73.6882
     9.7500      0.0000    261.1320     82.5335     84.5005     72.5872
    10.0000      0.0000    261.1333     82.8338     84.7052     71.6259
    10.2500      0.0000    261.1347     83.0572     84.8905     71.3356
    10.5000      0.0000    261.1374     83.1938     85.0617     71.8610
    10.7500      0.0000    261.1425     83.2843     85.2425     72.7155
    11.0000      0.0000    261.1498     83.3907     85.4546     73.3870
    11.2500      0.0000    261.1572     83.5500     85.6971     73.8755
    11.5000      0.0000    261.1616     83.7483     85.9420     74.6007
    11.7500      0.0000    261.1617     83.9419     86.1468     76.1598
    12.0000      0.0000    261.1591     84.0972     86.2408     79.1525
    12.2500      0.0000    261.1563     84.2052     86.0554     83.6869
    12.5000      0.0000    261.1541     84.2707     85.2242     88.8783
    12.7500      0.0000    261.1516     84.2932     83.1972     93.2842
    13.0000      0.0000    261.1495     84.2263     79.4894     95.9535
    13.2500      0.0000    261.1549     83.8991     74.0580     96.7688
    13.5000      0.0000    261.1916     82.9535     67.4891     96.0498
    13.7500      0.0000    261.3195     80.9090     60.8159     94.3523
    14.0000      0.0000    261.6458     77.3635     55.1106     92.5467
    14.2500      0.0000    262.2877     72.1783     51.0678     91.5685
    14.5000      0.0000    263.2757     65.5672     48.7752     91.8368
    14.7500      0.0000    264.4771     58.1756     47.8218     92.9748
    15.0000      0.0000    265.6393     51.0666     47.6433     94.2196
    15.2500      0.0000    266.5379     45.3516     47.8003     95.0973
    15.5000      0.0000    267.0927     41.6174     48.0549     95.6755
    15.7500      0.0000    267.3599     39.7127     48.3325     96.3975
    16.0000      2.0000    267.4441     39.0667     48.6700     97.8224
    16.2500      0.0000    267.4201     39.1570     49.1722    100.2286
    16.5000      0.0000    267.2988     39.7676     49.9373    103.1934
    16.7500      0.0000    267.0211     41.0371     50.9590    105.7449
    17.0000      0.0000    266.4773     43.4242     52.0734    107.0500
    17.2500      0.0000    265.5760     47.5645     53.0488    106.7049
    17.5000      0.0000    264.3534     53.8631     53.8034    104.5168
    17.7500      0.0000    263.0237     61.9139     54.6113    100.6651
    18.0000      0.0000    261.8772     70.3241     56.1189     96.2890
    18.2500      0.0000    261.0969     77.3861     59.0576     93.2691
    18.5000      0.0000    260.6777     82.0984     63.7405     92.7849
    18.7500      0.0000    260.4995     84.5714     69.6925     94.2361
    19.0000      0.0000    260.4391     85.5868     75.7801     96.0213
    19.2500      0.0000    260.4219     85.9262     80.8249     97.1678
    19.5000      0.0000    260.4166     86.0429     84.2226     97.8651
    19.7500      0.0000    260.4135     86.1070     86.0868     98.7181
    20.0000      0.0000    260.4105     86.1609     86.9173    100.0366
    20.2500      0.0000    260.4060     86.2193     87.2005    101.8395
    20.5000      0.0000    260.3981     86.2934     87.2505    104.0053
    20.7500      0.0000    260.3865     86.3842     87.2490    106.0350
    21.0000      0.0000    260.3737     86.4751     87.2951    106.9737
    21.2500      0.0000    260.3631     86.5409     87.4058    106.1571
    21.5000      0.0000    260.3542     86.5660     87.5291    104.0922
    21.7500      0.0000    260.3436     86.5579     87.6052    102.1264
    22.0000      0.0000    260.3292     86.5388     87.6263    101.1728
    22.2500      0.0000    260.3135     86.5285     87.6358    101.1016
    22.5000      0.0000    260.3008     86.5330     87.6723    101.3160
    22.7500      0.0000    260.2935     86.5489     87.7230    101.4300
    23.0000      0.0000    260.2908     86.5725     87.7386    101.2838
    23.2500      0.0000    260.2899     86.6069     87.6915    100.7942
    23.5000      0.0000    260.2870     86.6583     87.6140    100.1670
    23.7500      0.0000    260.2806     86.7244     87.5712     99.8571
    24.0000      0.0000    260.2729     86.7857     87.5953     99.9786
    24.2500      0.0000    260.2677     86.8171     87.6496    100.0204
    24.5000      0.0000    260.2669     86.8163     87.6677     99.2932
    24.7500      0.0000    260.2686     86.8137     87.6257     97.3610
    25.0000      0.0000    260.2683     86.8461     87.5649     93.9992
    25.2500      0.0000    260.2621     86.9184     87.5438     89.1797
    25.5000      0.0000    260.2483     86.9990     87.5773     83.4214
    25.7500      0.0000    260.2284     87.0514     87.6260     77.9845
    26.0000      0.0000    260.2063     87.0644     87.6384     74.4385
    26.2500      0.0000    260.1876     87.0556     87.6000     73.6741
    26.5000      0.0000    260.1779     87.0499     87.5466     75.1044
    26.7500      0.0000    260.1813     87.0571     87.5332     76.9100
    27.0000      0.0000    260.1967     87.0693     87.5853     77.2690
    27.2500      0.0000    260.2183     87.0767     87.6796     75.4112
    27.5000      0.0000    260.2372     87.0823     87.7665     71.7349
    27.7500      0.0000    260.2471     87.0997     87.8135     67.3775
