~Version Information
VERS.                      2.0: CWLS Log ASCII Standard - VERSION 2.0
WRAP.                       NO: One line per depth step
~Well Information Block
STRT.FT               230.0000: 
STOP.FT              1028.0000: 
STEP.FT                 0.2500: 
NULL.                -999.2500: 
COMP.          Pioneer Natural Resources: COMPANY
WELL.              Gough 14-29: WELL
FLD.           Purgatoire River: FIELD
LOC.           1199' FSL & 676' FWL: LOCATION
PROV.                 Colorado: PROVINCE
CNTY.               Las Animas: COUNTRY
SRVC.                Patterson: SERVICE COMPANY
DATE.          Thu Dec 22 16:27:18 2005: LOG DATE
UWI.           05 071 08612 00: UNIQUE WELL ID
~Curve Information Block
DEPT.FT            0 000 00 00: Depth
SN.Ohm-m                      : IEL Short Normal
SP.mV                         : IEL Spontaneous Potential
DIR.Ohm-m                     : IEL Induction Resistivity
GR.GAPI                       : Gamma Ray
~Parameter Information Block
SNDERRM.mmho-m         10.0000: Medium Sonde Error Correction
~A  Depth        SN          SP         DIR          GR     
# ...
  1000.5000     24.4252     45.7569     22.4881    113.4352
  1000.7500     24.4728     45.6216     22.3848    110.0296
  1001.0000     24.4219     45.4674     22.2197    103.3826
  1001.2500     24.1712     45.2795     22.0350     99.6049
  1001.5000     23.8104     45.0501     21.8878     97.6151
  1001.7500     23.4885     44.7853     21.8267     99.2054
  1002.0000     23.2657     44.5054     21.8766    104.2888
  1002.2500     23.1266     44.2354     22.0374    107.7281
  1002.5000     23.0369     43.9926     22.2895    110.7381
  1002.7500     22.9743     43.7823     22.5975    111.1206
  1003.0000     22.9045     43.6023     22.9076    110.3633
  1003.2500     22.8102     43.4477     23.1495    109.6710
  1003.5000     22.7866     43.3063     23.2551    108.6414
  1003.7500     22.9547     43.1545     23.1922    107.6946
  1004.0000     23.3325     42.9676     22.9876    105.4731
  1004.2500     23.8365     42.7373     22.7130    103.4997
  1004.5000     24.2949     42.4772     22.4411    100.2797
  1004.7500     24.5648     42.2150     22.2099     98.4052
  1005.0000     24.6891     41.9799     22.0179     96.9188
  1005.2500     24.8212     41.7922     21.8448     97.1985
  1005.5000     24.9919     41.6598     21.6751     99.5394
  1005.7500     25.0308     41.5785     21.5064    102.1334
  1006.0000     24.7297     41.5316     21.3402    107.1887
  1006.2500     24.0903     41.4900     21.1683    111.0680
  1006.5000     23.3517     41.4167     20.9662    116.7146
  1006.7500     22.6976     41.2798     20.7051    119.6850
  1007.0000     22.1428     41.0677     20.3741    122.1969
  1007.2500     21.7223     40.7916     19.9962    122.4100
  1007.5000     21.4809     40.4742     19.6185    120.2020
  1007.7500     21.3055     40.1346     19.2843    116.5961
  1008.0000     21.0054     39.7803     19.0088    106.5435
  1008.2500     20.5643     39.4102     18.7766     95.6624
  1008.5000     20.1717     39.0214     18.5588     72.5679
  1008.7500     20.0014     38.6141     18.3347     54.4023
  1009.0000     20.0632     38.1925     18.1056     28.9973
  1009.2500     20.2171     37.7655     17.8930     16.4124
  1009.5000     20.2921     37.3460     17.7257      5.4594
  1009.7500     20.2944     36.9463     17.6261      2.2027
  1010.0000     20.4030     36.5707     17.6021      0.4294
  1010.2500     20.6712     36.2132     17.6469      0.1190
  1010.5000     20.9660     35.8619     17.7426      0.0112
  1010.7500     21.1821     35.5105     17.8638      0.0000
  1011.0000     21.2453     35.1646     17.9797   -999.2500
  1011.2500     21.0588     34.8413     18.0600   -999.2500
  1011.5000     20.6653     34.5583     18.0827   -999.2500
  1011.7500     20.2704     34.3219     18.0417   -999.2500
  1012.0000     20.0412     34.1213     17.9445   -999.2500
  1012.2500     20.0400     33.9346     17.8046   -999.2500
  1012.5000     20.2613     33.7404     17.6341   -999.2500
  1012.7500     20.6190     33.5264     17.4419   -999.2500
  1013.0000     20.9568     33.2923     17.2362   -999.2500
  1013.2500     21.1508     33.0497     17.0271   -999.2500
  1013.5000     21.1918     32.8179     16.8277   -999.2500
  1013.7500     21.1475     32.6157     16.6546   -999.2500
  1014.0000     21.0911     32.4535     16.5261   -999.2500
  1014.2500     21.0195     32.3264     16.4591   -999.2500
  1014.5000     20.8707     32.2160     16.4630   -999.2500
  1014.7500     20.6722     32.0975     16.5396   -999.2500
  1015.0000     20.5521     31.9482     16.6692   -999.2500
  1015.2500     20.5783     31.7539     16.8806   -999.2500
  1015.5000     20.6817     31.5116     17.1505   -999.2500
  1015.7500     20.7553     31.2294     17.4648   -999.2500
  1016.0000     20.7757     30.9216     17.7964   -999.2500
  1016.2500     20.8149     30.6044     18.1057   -999.2500
  1016.5000     20.9601     30.2951     18.3490   -999.2500
  1016.7500     21.1965     30.0148     18.4960   -999.2500
  1017.0000     21.3993     29.7843     18.5502   -999.2500
  1017.2500     21.4688     29.6124     18.5622   -999.2500
  1017.5000     21.3972     29.4889     18.6364   -999.2500
  1017.7500     21.2678     29.3860     18.9436   -999.2500
  1018.0000     21.2208     29.2661     19.7490   -999.2500
  1018.2500     21.3166     29.0909     21.4662   -999.2500
  1018.5000     21.5035     28.8271     24.8144   -999.2500
  1018.7500     21.6789     28.4519     30.9256   -999.2500
  1019.0000     21.6670     27.9581     42.1427   -999.2500
  1019.2500     21.2783     27.3570     63.1181   -999.2500
  1019.5000     20.4842     26.6766    103.1381   -999.2500
  1019.7500     19.5086     25.9540    178.3909   -999.2500
  1020.0000     18.7011     25.2235    305.1451   -999.2500
  1020.2500     18.2853     24.5047    468.0476   -999.2500
  1020.5000     18.2366     23.8006    609.1260   -999.2500
  1020.7500     18.3715     23.1076    705.6217   -999.2500
  1021.0000     18.5449     22.4280    802.4207   -999.2500
  1021.2500     18.7479     21.7778    984.3204   -999.2500
  1021.5000     18.9781     21.1879 100000.0000   -999.2500
  1021.7500     19.0651     20.7013 100000.0000   -999.2500
  1022.0000     18.8071     20.3648 100000.0000   -999.2500
  1022.2500     18.2595     20.2141 100000.0000   -999.2500
  1022.5000     17.6689     20.2608 100000.0000   -999.2500
  1022.7500     17.1859     20.4911 100000.0000   -999.2500
  1023.0000     16.8342     20.8761 100000.0000   -999.2500
  1023.2500     16.6191     21.3647 100000.0000   -999.2500
  1023.5000     16.5683     21.8240 100000.0000   -999.2500
  1023.7500     16.7242     21.9255 100000.0000   -999.2500
  1024.0000     17.0399     21.0962 100000.0000   -999.2500
  1024.2500     17.2699     18.7506 100000.0000   -999.2500
  1024.5000     16.8811     14.8116 100000.0000   -999.2500
  1024.7500     15.0530     10.0465 100000.0000   -999.2500
  1025.0000     11.3136      5.6946 100000.0000   -999.2500
  1025.2500      6.5934      2.6441 100000.0000   -999.2500
  1025.5000      2.7834      0.9915 100000.0000   -999.2500
  1025.7500      0.8121      0.2972 100000.0000   -999.2500
  1026.0000      0.1590      0.0706 100000.0000   -999.2500
  1026.2500      0.0204      0.0131 100000.0000   -999.2500
  1026.5000      0.0016      0.0018 100000.0000   -999.2500
  1026.7500   -999.2500   -999.2500 100000.0000   -999.2500
  1027.0000   -999.2500   -999.2500 100000.0000   -999.2500
  1027.2500   -999.2500   -999.2500 100000.0000   -999.2500
  1027.5000   -999.2500   -999.2500 100000.0000   -999.2500
  1027.7500   -999.2500   -999.2500 100000.0000   -999.2500
  1028.0000   -999.2500   -999.2500 100000.0000   -999.2500
