~Version Information
VERS.                      2.0: CWLS Log ASCII Standard - VERSION 2.0
WRAP.                       NO: One line per depth step
~Well Information Block
STRT.FT               -14.7500: 
STOP.FT              1106.0000: 
STEP.FT                 0.2500: 
NULL.                -999.2500: 
COMP.          Pioneer Natural Resources: COMPANY
WELL.          Black Cat 13-32 Tr: WELL
FLD.           Purgatorie River: FIELD
LOC.           1679' FSL & 1150' FWL--: LOCATION
CNTY.               Las Animas: COUNTY
SRVC.          Patterson Wireline: SERVICE COMPANY
DATE.          Wed Mar 15 15:59:24 2006: LOG DATE
UWI.           05 071 08721 00: UNIQUE WELL ID
STAT.                       CO: STATE
~Curve Information Block
DEPT.FT            0 000 00 00: Depth
CCL.                          : Casing Collar Locator
TT3.usec                      : CBL 3' Travel Time
AMP3.mV                       : CBL 3' Amplitude
GR.GAPI                       : Gamma Ray
~Parameter Information Block
~A  Depth       CCL         TT3         AMP3         GR     
   -14.7500   -999.2500   -999.2500   -999.2500     90.0712
   -14.5000   -999.2500   -999.2500   -999.2500     93.0816
   -14.2500   -999.2500   -999.2500   -999.2500     97.7810
   -14.0000   -999.2500   -999.2500   -999.2500    104.3224
   -13.7500   -999.2500   -999.2500   -999.2500    111.3855
   -13.5000   -999.2500   -999.2500   -999.2500    116.0529
   -13.2500   -999.2500   -999.2500   -999.2500    115.9571
   -13.0000   -999.2500   -999.2500   -999.2500    111.7215
   -12.7500   -999.2500   -999.2500   -999.2500    106.7418
   -12.5000   -999.2500   -999.2500   -999.2500    104.1188
   -12.2500   -999.2500   -999.2500   -999.2500    104.0573
   -12.0000   -999.2500   -999.2500   -999.2500    104.4535
   -11.7500   -999.2500   -999.2500   -999.2500    103.4918
   -11.5000   -999.2500   -999.2500   -999.2500    101.0756
   -11.2500   -999.2500   -999.2500   -999.2500     98.1779
   -11.0000   -999.2500   -999.2500   -999.2500     95.8199
   -10.7500   -999.2500   -999.2500   -999.2500     94.6221
   -10.5000   -999.2500   -999.2500   -999.2500     94.3663
   -10.2500   -999.2500   -999.2500   -999.2500     93.8923
   -10.0000   -999.2500   -999.2500   -999.2500     92.2285
    -9.7500   -999.2500   1167.0000      1.0460     89.9164
    -9.5000   -999.2500   1167.0000      1.0489     88.5932
    -9.2500   -999.2500   1167.0000      1.0538     89.2620
    -9.0000   -999.2500   1167.0000      1.0592     91.5224
    -8.7500   -999.2500   1167.0000      1.0638     94.3921
    -8.5000   -999.2500   1167.0000      1.0666     97.2005
    -8.2500   -999.2500   1167.0000      1.0655     99.5525
    -8.0000   -999.2500   1167.0000      1.0586    100.9036
    -7.7500   -999.2500   1167.0000      1.0479    100.5435
    -7.5000   -999.2500   1167.0000      1.0389     98.1205
    -7.2500   -999.2500   1167.0000      1.0367     94.3324
    -7.0000   -999.2500   1167.0000      1.0416     91.0589
    -6.7500   -999.2500   1167.0000      1.0493     90.2700
    -6.5000   -999.2500   1167.0000      1.0543     92.4023
    -6.2500   -999.2500   1167.0000      1.0530     96.0473
    -6.0000   -999.2500   1167.0000      1.0462     99.3009
    -5.7500   -999.2500   1167.0000      1.0391    100.8153
    -5.5000   -999.2500   1167.0000      1.0382     99.5634
    -5.2500   -999.2500   1167.0000      1.0461     94.8573
    -5.0000   -999.2500   1167.0000      1.0587     87.4855
    -4.7500   -999.2500   1167.0000      1.0682     80.1941
    -4.5000   -999.2500   1167.0000      1.0693     76.1243
    -4.2500      0.0000   1167.0000      1.0631     76.4455
    -4.0000      0.0000   1167.0000      1.0554     79.5867
    -3.7500      0.0000   1167.0000      1.0518     82.8972
    -3.5000      0.0000   1167.0000      1.0548     85.0288
    -3.2500      0.0000   1167.0000      1.0626     86.6226
    -3.0000      0.0000   1167.0000      1.0711     89.0826
    -2.7500      0.0000   1167.0000      1.0764     93.1916
    -2.5000      0.0000   1167.0000      1.0775     98.7740
    -2.2500      0.0000   1167.0000      1.0753    104.9151
    -2.0000      0.0000   1167.0000      1.0712    110.1991
    -1.7500      0.0000   1167.0000      1.0662    113.2756
    -1.5000      0.0000   1167.0000      1.0619    113.7272
    -1.2500      0.0000   1167.0000      1.0604    112.1281
    -1.0000      0.0000   1167.0000      1.0629    108.9845
    -0.7500      0.0000   1167.0000      1.0683    104.0746
    -0.5000      0.0000   1167.0000      1.0731     97.0451
    -0.2500      2.0000   1167.0000      1.0738     87.9881
     0.0000     -2.0000   1167.0000      1.0676     77.2512
     0.2500      2.0000   1167.0000      1.0548     65.4440
     0.5000     -2.0000   1167.0000      1.0227     44.6644
     0.7500      2.0000   1167.0000      1.0133     39.1384
     1.0000      0.0000   1167.0000      1.0132     37.4915
     1.2500      0.0000   1167.0000      1.0226     38.8328
     1.5000      0.0000   1167.0000      1.0376     42.0528
     1.7500      0.0000   1167.0000      1.0527     46.3112
     2.0000      0.0000   1167.0000      1.0622     51.2338
     2.2500      0.0000   1167.0000      1.0628     56.9328
     2.5000      0.0000   1167.0000      1.0556     63.5124
     2.7500      0.0000   1167.0000      1.0459     70.3618
     3.0000      0.0000   1167.0000      1.0410     76.1631
     3.2500      0.0000   1167.0000      1.0468     79.7209
     3.5000      0.0000   1167.0000      1.0638     80.7463
     3.7500      0.0000   1167.0000      1.0855     79.9259
     4.0000      0.0000   1167.0000      1.1025     78.4616
     4.2500      0.0000   1167.0000      1.1083     77.5047
     4.5000      0.0000   1167.0000      1.1033     77.6056
     4.7500      0.0000   1166.9791      1.0929     78.3946
     5.0000      0.0000   1166.8325      1.0842     79.0021
     5.2500      0.0000   1166.0435      1.0880     78.9554
     5.5000      0.0000   1162.7709      1.1330     78.4610
     5.7500      0.0000   1152.0049      1.3434     77.6975
     6.0000      0.0000   1123.7357      2.1320     76.2485
     6.2500      0.0000   1064.0410      4.4965     73.5813
     6.5000      0.0000    961.8821     10.0839     69.8056
     6.7500      0.0000    819.2808     20.4205     65.6403
     7.0000      0.0000    656.3690     35.3432     61.9005
     7.2500      2.0000    504.1539     52.1300     59.2491
     7.5000      0.0000    388.3687     66.8330     58.1827
     7.7500      0.0000    317.1696     76.8551     58.8871
     8.0000      0.0000    282.0503     82.1625     61.0890
     8.2500      0.0000    268.2527     84.3229     64.2134
     8.5000      0.0000    263.9576     84.9541     67.7545
     8.7500      0.0000    262.8995     85.0188     71.4713
     9.0000      0.0000    262.6948     84.9323     75.1981
     9.2500      0.0000    262.6666     84.8548     78.5392
     9.5000      0.0000    262.6750     84.8456     80.9407
     9.7500      0.0000    262.6884     84.9019     82.1750
    10.0000      0.0000    262.7014     84.9724     82.6028
    10.2500      0.0000    262.7083     85.0007     82.9061
    10.5000      0.0000    262.7064     84.9637     83.7446
    10.7500      0.0000    262.6980     84.8858     85.5609
    11.0000      0.0000    262.6881     84.8212     88.2805
    11.2500      0.0000    262.6815     84.8143     91.1082
    11.5000      0.0000    262.6790     84.8571     92.9402
    11.7500      0.0000    262.6772     84.8541     93.2118
    12.0000      0.0000    262.6751     84.5811     92.3271
    12.2500      0.0000    262.6917     83.6345     91.1421
    12.5000      0.0000    262.8089     81.4431     89.9775
    12.7500      0.0000    263.2852     77.4350     88.4343
    13.0000      0.0000    264.7275     71.3121     86.4946
    13.2500      0.0000    268.1765     63.2274     85.4122
    13.5000      0.0000    274.8456     53.7888     86.8511
    13.7500      0.0000    285.6846     43.9839     91.2068
    14.0000      0.0000    301.6711     34.9672     97.1554
    14.2500      0.0000    324.9239     27.5628    102.7293
    14.5000      0.0000    358.1955     21.8282    106.4840
    14.7500      0.0000    400.8656     17.2543    107.8130
    15.0000      0.0000    444.9555     13.4033    106.8294
    15.2500      0.0000    477.3793     10.1961    104.2989
    15.5000      0.0000    488.7067      7.6812    101.3766
    15.7500      2.0000    481.3859      5.7981     99.0763
    16.0000      0.0000    470.1211      4.4079     97.9500
    16.2500      0.0000    472.5972      3.4052     98.0893
    16.5000      0.0000    496.8602      2.7403     99.0709
    16.7500      0.0000    536.3196      2.3895     99.9187
    17.0000      0.0000    576.4646      2.3280     99.6341
    17.2500      0.0000    604.7601      2.4982     98.0601
    17.5000      0.0000    614.7575      2.7919     96.1702
    17.7500      0.0000    606.8673      3.0746     95.5210
    18.0000      0.0000    589.3689      3.2451     97.3024
    18.2500      0.0000    575.1718      3.2745    101.4044
    18.5000      0.0000    573.2601      3.1961    106.1485
