~Version Information
VERS.                      2.0: CWLS Log ASCII Standard - VERSION 2.0
WRAP.                       NO: One line per depth step
~Well Information Block
STRT.FT                -7.7500: 
STOP.FT              2248.5000: 
STEP.FT                 0.2500: 
NULL.                -999.2500: 
COMP.          Pioneer Natural Resources: COMPANY
WELL.          Interceptor 43-13 Tr: WELL
FLD.           Purgatoire River: FIELD
LOC.           2006' FSL & 438' FEL--: LOCATION
PROV.                       CO: PROVINCE
CNTY.               Las Animas: COUNTRY
SRVC.          Patterson Wireline: SERVICE COMPANY
DATE.          Thu Nov 17 10:14:59 2005: LOG DATE
UWI.           05 071 08549 00: UNIQUE WELL ID
~Curve Information Block
DEPT.FT            0 000 00 00: Depth
CCL.                          : Casing Collar Locator
TT3.usec                      : CBL 3' Travel Time
AMP3.mV                       : CBL 3' Amplitude
GR.GAPI                       : Gamma Ray
~Parameter Information Block
~A  Depth       CCL         TT3         AMP3         GR     
# ...
  1600.2500      0.0000    679.6268      5.6363    160.7930
  1600.5000      0.0000    669.4872      5.5691    150.0450
  1600.7500      0.0000    666.6635      5.5416    135.4030
  1601.0000      0.0000    668.6245      5.5357    120.2933
  1601.2500      0.0000    672.3799      5.5305    107.1233
  1601.5000      0.0000    676.5146      5.5298     96.8614
  1601.7500      0.0000    680.9603      5.5671     89.2161
  1602.0000      0.0000    685.8227      5.6666     83.6687
  1602.2500      0.0000    691.2418      5.7953     80.4029
  1602.5000      0.0000    697.7419      5.8661     80.1659
  1602.7500      0.0000    705.3369      5.8021     83.3302
  1603.0000      0.0000    712.0682      5.6022     89.1801
  1603.2500      0.0000    714.6418      5.3454     96.0648
  1603.5000      0.0000    711.4673      5.1281    102.2784
  1603.7500      0.0000    704.4911      4.9971    106.9525
  1604.0000      0.0000    697.3782      4.9417    110.3201
  1604.2500      0.0000    692.4998      4.9358    113.1207
  1604.5000      0.0000    690.0825      4.9667    115.5602
  1604.7500      0.0000    689.4454      5.0239    116.8869
  1605.0000      0.0000    690.4229      5.0801    116.1474
  1605.2500      0.0000    694.1370      5.0990    113.2789
  1605.5000      0.0000    702.9963      5.0626    109.2756
  1605.7500      0.0000    719.3073      4.9929    105.3895
  1606.0000      0.0000    742.4231      4.9438    102.3266
  1606.2500      0.0000    766.8574      4.9634    100.1241
  1606.5000      0.0000    784.5133      5.0574     98.7552
  1606.7500      0.0000    790.2859      5.1924     98.7891
  1607.0000      0.0000    785.6331      5.3308    101.1427
  1607.2500      0.0000    776.5494      5.4549    105.9107
  1607.5000      0.0000    768.6480      5.5581    111.7529
  1607.7500      0.0000    764.4756      5.6250    116.7700
  1608.0000      0.0000    764.3086      5.6294    119.8327
  1608.2500      0.0000    767.7251      5.5518    121.0584
  1608.5000      0.0000    774.0895      5.3970    121.3626
  1608.7500      0.0000    782.3256      5.1928    121.6993
  1609.0000      0.0000    790.5264      4.9724    122.5468
  1609.2500      0.0000    795.8004      4.7597    124.0155
  1609.5000      0.0000    794.8466      4.5618    126.1806
  1609.7500      0.0000    785.2532      4.3741    128.9247
  1610.0000      0.0000    767.1446      4.1977    131.5722
  1610.2500      0.0000    744.1751      4.0494    133.2923
  1610.5000      0.0000    722.4032      3.9459    134.1126
  1610.7500      0.0000    707.1320      3.8798    135.2574
  1611.0000      0.0000    700.2576      3.8231    138.0594
  1611.2500      0.0000    700.1622      3.7557    142.3871
  1611.5000      0.0000    703.4078      3.6827    146.4729
  1611.7500      0.0000    706.0977      3.6241    148.4684
  1612.0000      0.0000    704.0314      3.5950    147.8743
  1612.2500      0.0000    693.5158      3.5998    145.5826
  1612.5000      0.0000    674.8290      3.6398    143.0581
  1612.7500      0.0000    655.3260      3.7213    141.4021
  1613.0000      0.0000    646.0966      3.8537    140.6669
  1613.2500      0.0000    653.7209      4.0377    139.8844
  1613.5000      0.0000    676.6017      4.2551    137.6540
  1613.7500      0.0000    708.6605      4.4730    132.8295
  1614.0000      0.0000    742.6838      4.6556    125.3181
  1614.2500      0.0000    769.7528      4.7801    116.6430
  1614.5000      0.0000    780.6303      4.8447    109.3448
  1614.7500      0.0000    771.7401      4.8651    105.4229
  1615.0000      0.0000    748.9855      4.8619    105.2238
  1615.2500      0.0000    723.6491      4.8515    107.7030
  1615.5000      0.0000    704.4551      4.8477    111.7177
  1615.7500      0.0000    693.5955      4.8625    117.0007
  1616.0000      0.0000    688.5812      4.8993    123.4663
  1616.2500      0.0000    685.9910      4.9465    129.6622
  1616.5000      0.0000    683.7673      4.9801    132.8818
  1616.7500      0.0000    681.7191      4.9745    131.4124
  1617.0000      0.0000    680.7820      4.9169    126.1595
  1617.2500      0.0000    681.8557      4.8179    119.7676
  1617.5000      0.0000    685.4193      4.7093    114.6992
  1617.7500      0.0000    692.6017      4.6321    112.3187
  1618.0000      0.0000    706.1165      4.6202    112.8724
  1618.2500      0.0000    728.9878      4.6924    115.4285
  1618.5000      0.0000    761.6757      4.8526    118.0119
  1618.7500      0.0000    800.8386      5.0914    118.7639
  1619.0000      0.0000    840.9565      5.3803    117.4842
  1619.2500      0.0000    876.1886      5.6675    115.5898
  1619.5000      0.0000    901.0153      5.8933    114.1345
  1619.7500      0.0000    911.5708      6.0228    112.3622
  1620.0000      0.0000    907.8765      6.0604    108.8668
  1620.2500      0.0000    894.1854      6.0306    103.8207
  1620.5000      0.0000    876.3139      5.9518     99.2017
  1620.7500      0.0000    857.8299      5.8326     96.8463
  1621.0000      0.0000    837.9163      5.6805     96.9039
  1621.2500      0.0000    813.1887      5.5064     98.1614
  1621.5000      0.0000    782.5714      5.3237     99.1759
  1621.7500      0.0000    750.3765      5.1480     98.8878
  1622.0000      0.0000    723.7321      4.9936     96.7078
  1622.2500      0.0000    707.0312      4.8664     92.6094
  1622.5000      0.0000    699.2280      4.7611     87.2878
  1622.7500      0.0000    695.9936      4.6654     81.9778
  1623.0000      0.0000    693.6352      4.5675     77.7561
  1623.2500      0.0000    691.0179      4.4623     74.8325
  1623.5000      0.0000    688.7312      4.3530     72.5929
  1623.7500      0.0000    687.4260      4.2488     70.4553
  1624.0000      0.0000    687.1088      4.1584     68.6068
  1624.2500      0.0000    687.3894      4.0817     67.7483
  1624.5000      0.0000    687.8664      4.0070     68.2946
  1624.7500      0.0000    688.2697      3.9237     70.0077
  1625.0000      0.0000    688.4792      3.8389     72.1878
  1625.2500      0.0000    688.5176      3.7813     73.8676
  1625.5000      0.0000    688.4928      3.7841     73.9353
  1625.7500      0.0000    688.5119      3.8622     71.4279
  1626.0000      0.0000    688.6201      4.0026     66.0440
  1626.2500      0.0000    688.8007      4.1731     58.8533
  1626.5000      0.0000    688.9995      4.3321     52.5146
  1626.7500      0.0000    689.1316      4.4246     49.8508
  1627.0000      0.0000    689.0689      4.3735     51.5835
  1627.2500      0.0000    688.6750      4.1028     55.9496
  1627.5000      0.0000    687.9758      3.6033     60.6936
  1627.7500      0.0000    687.6069      2.9813     64.7026
  1628.0000      0.0000    689.4378      2.4173     67.6461
  1628.2500      0.0000    696.8611      2.0555     69.2083
  1628.5000      0.0000    713.8538      1.9268     69.4800
  1628.7500      0.0000    742.1266      1.9650     69.6887
  1629.0000      0.0000    777.7777      2.0779     71.8728
  1629.2500      0.0000    811.5365      2.1987     77.5046
  1629.5000      0.0000    834.9968      2.2894     86.1796
  1629.7500      0.0000    847.4554      2.3248     95.3950
  1630.0000      0.0000    854.6362      2.2968    101.7457
  1630.2500      0.0000    860.1994      2.2432    103.0964
  1630.5000      0.0000    861.2509      2.2575    100.4015
  1630.7500      0.0000    853.3576      2.4380     97.3038
  1631.0000      0.0000    836.7517      2.8077     97.0700
  1631.2500      0.0000    815.1970      3.2923     99.7373
  1631.5000      0.0000    791.3780      3.7861    102.6277
  1631.7500      0.0000    766.6132      4.2345    103.1856
  1632.0000      0.0000    743.7098      4.6502    100.6606
  1632.2500      0.0000    726.9715      5.0647     95.8983
  1632.5000      0.0000    719.0563      5.4815     90.7127
  1632.7500      0.0000    719.5670      5.8764     87.2196
  1633.0000      0.0000    727.1589      6.2223     86.7065
  1633.2500      0.0000    741.0630      6.4904     88.8440
  1633.5000      0.0000    759.2278      6.6195     92.1574
