~Version Information
VERS.                      2.0: CWLS Log ASCII Standard - VERSION 2.0
WRAP.                       NO: One line per depth step
~Well Information Block
STRT.FT               845.0000: 
STOP.FT              2103.2000: 
STEP.FT                 0.1000: 
NULL.                -999.2500: 
COMP.          Petrogulf Corporation: COMPANY
WELL.               YWAM 7-32R: WELL
FLD.           Purgatorie River: FIELD
LOC.           2355' FNL & 2376' FEL: LOCATION
PROV.                 Colorado: PROVINCE
CNTY.               Las Animas: COUNTRY
SRVC.                Patterson: SERVICE COMPANY
DATE.          Thu Sep 29 23:12:08 2005: LOG DATE
UWI.                          : UNIQUE WELL ID
~Curve Information Block
DEPT.FT            0 000 00 00: Depth
SP.mV                         : DIL Spontaneous Potential
RILD.Ohm-m                    : DIL Deep Resistivity
RILM.Ohm-m                    : DIL Medium Resistivity
RLL3.Ohm-m                    : DIL Shallow Resistivity
GR.GAPI                       : Gamma Ray
~Parameter Information Block
~A  Depth        SP         RILD        RILM        RLL3         GR     
# ...
  2009.8000    205.6474     13.5435     14.9460     19.9579     72.7372
  2009.9000    205.6474     13.5435     14.9460     19.9579     71.3353
  2010.0000    205.1458     13.8248     15.2558     20.0163     70.4342
  2010.1000    205.1458     13.8248     15.2558     20.0163     70.0653
  2010.2000    205.1458     13.8248     15.2558     20.0163     70.2250
  2010.3000    204.6696     14.1000     15.4986     19.8194     70.8716
  2010.4000    204.6696     14.1000     15.4986     19.8194     71.9340
  2010.5000    204.2287     14.3792     15.6851     19.3793     73.3207
  2010.6000    204.2287     14.3792     15.6851     19.3793     74.9312
  2010.7000    204.2287     14.3792     15.6851     19.3793     76.6787
  2010.8000    203.8282     14.6712     15.8344     18.7161     78.4890
  2010.9000    203.8282     14.6712     15.8344     18.7161     80.3136
  2011.0000    203.4636     14.9810     15.9704     17.9229     82.1290
  2011.1000    203.4636     14.9810     15.9704     17.9229     83.9248
  2011.2000    203.4636     14.9810     15.9704     17.9229     85.7000
  2011.3000    203.1196     15.3076     16.1192     17.1395     87.4496
  2011.4000    203.1196     15.3076     16.1192     17.1395     89.1538
  2011.5000    202.7766     15.6426     16.3050     16.4867     90.7752
  2011.6000    202.7766     15.6426     16.3050     16.4867     92.2615
  2011.7000    202.7766     15.6426     16.3050     16.4867     93.5485
  2011.8000    202.4221     15.9708     16.5474     16.0708     94.5727
  2011.9000    202.4221     15.9708     16.5474     16.0708     95.2841
  2012.0000    202.0645     16.2727     16.8582     16.0542     95.6577
  2012.1000    202.0645     16.2727     16.8582     16.0542     95.6952
  2012.2000    202.0645     16.2727     16.8582     16.0542     95.4285
  2012.3000    201.7431     16.5296     17.2384     16.6751     94.9132
  2012.4000    201.7431     16.5296     17.2384     16.6751     94.2126
  2012.5000    201.5250     16.7294     17.6761     18.1418     93.3877
  2012.6000    201.5250     16.7294     17.6761     18.1418     92.4793
  2012.7000    201.5250     16.7294     17.6761     18.1418     91.5078
  2012.8000    201.4840     16.8714     18.1456     20.4425     90.4662
  2012.9000    201.4840     16.8714     18.1456     20.4425     89.3303
  2013.0000    201.6708     16.9656     18.6084     23.2147     88.0664
  2013.1000    201.6708     16.9656     18.6084     23.2147     86.6521
  2013.2000    201.6708     16.9656     18.6084     23.2147     85.0817
  2013.3000    202.0960     17.0305     19.0191     25.8240     83.3787
  2013.4000    202.0960     17.0305     19.0191     25.8240     81.5948
  2013.5000    202.7348     17.0880     19.3335     27.6475     79.8057
  2013.6000    202.7348     17.0880     19.3335     27.6475     78.1027
  2013.7000    202.7348     17.0880     19.3335     27.6475     76.5756
  2013.8000    203.5433     17.1580     19.5191     28.3656     75.3039
  2013.9000    203.5433     17.1580     19.5191     28.3656     74.3444
  2014.0000    204.4697     17.2530     19.5632     28.0517     73.7254
  2014.1000    204.4697     17.2530     19.5632     28.0517     73.4462
  2014.2000    204.4697     17.2530     19.5632     28.0517     73.4796
  2014.3000    205.4629     17.3738     19.4748     27.0450     73.7798
  2014.4000    205.4629     17.3738     19.4748     27.0450     74.2933
  2014.5000    206.4803     17.5091     19.2804     25.7412     74.9670
  2014.6000    206.4803     17.5091     19.2804     25.7412     75.7586
  2014.7000    206.4803     17.5091     19.2804     25.7412     76.6397
  2014.8000    207.4952     17.6395     19.0159     24.4195     77.5977
  2014.9000    207.4952     17.6395     19.0159     24.4195     78.6367
  2015.0000    208.4947     17.7456     18.7178     23.1630     79.7640
  2015.1000    208.4947     17.7456     18.7178     23.1630     80.9892
  2015.2000    208.4947     17.7456     18.7178     23.1630     82.3183
  2015.3000    209.4704     17.8149     18.4178     21.9035     83.7442
  2015.4000    209.4704     17.8149     18.4178     21.9035     85.2482
  2015.5000    210.4083     17.8461     18.1396     20.5703     86.8008
  2015.6000    210.4083     17.8461     18.1396     20.5703     88.3617
  2015.7000    210.4083     17.8461     18.1396     20.5703     89.8854
  2015.8000    211.2821     17.8467     17.8994     19.2277     91.3263
  2015.9000    211.2821     17.8467     17.8994     19.2277     92.6433
  2016.0000    212.0529     17.8269     17.7071     18.0815     93.8005
  2016.1000    212.0529     17.8269     17.7071     18.0815     94.7745
  2016.2000    212.0529     17.8269     17.7071     18.0815     95.5559
  2016.3000    212.6804     17.7956     17.5685     17.3613     96.1514
  2016.4000    212.6804     17.7956     17.5685     17.3613     96.5873
  2016.5000    213.1397     17.7611     17.4881     17.1893     96.9066
  2016.6000    213.1397     17.7611     17.4881     17.1893     97.1631
  2016.7000    213.1397     17.7611     17.4881     17.1893     97.4166
  2016.8000    213.4328     17.7349     17.4707     17.5238     97.7193
  2016.9000    213.4328     17.7349     17.4707     17.5238     98.1099
  2017.0000    213.5864     17.7343     17.5231     18.1842     98.6042
  2017.1000    213.5864     17.7343     17.5231     18.1842     99.1920
  2017.2000    213.5864     17.7343     17.5231     18.1842     99.8346
  2017.3000    213.6378     17.7805     17.6543     18.9468    100.4721
  2017.4000    213.6378     17.7805     17.6543     18.9468    101.0350
  2017.5000    213.6195     17.8943     17.8753     19.6891    101.4536
  2017.6000    213.6195     17.8943     17.8753     19.6891    101.6705
  2017.7000    213.6195     17.8943     17.8753     19.6891    101.6459
  2017.8000    213.5548     18.0911     18.1969     20.4901    101.3693
  2017.9000    213.5548     18.0911     18.1969     20.4901    100.8528
  2018.0000    213.4606     18.3776     18.6282     21.5851    100.1299
  2018.1000    213.4606     18.3776     18.6282     21.5851     99.2462
  2018.2000    213.4606     18.3776     18.6282     21.5851     98.2488
  2018.3000    213.3519     18.7525     19.1745     23.1845     97.1808
  2018.4000    213.3519     18.7525     19.1745     23.1845     96.0752
  2018.5000    213.2413     19.2086     19.8353     25.2845     94.9509
  2018.6000    213.2413     19.2086     19.8353     25.2845     93.8224
  2018.7000    213.2413     19.2086     19.8353     25.2845     92.6985
  2018.8000    213.1360     19.7372     20.6032     27.6157     91.5908
  2018.9000    213.1360     19.7372     20.6032     27.6157     90.5159
  2019.0000    213.0372     20.3308     21.4634     29.7815     89.4915
  2019.1000    213.0372     20.3308     21.4634     29.7815     88.5414
  2019.2000    213.0372     20.3308     21.4634     29.7815     87.6762
  2019.3000    212.9426     20.9841     22.3936     31.4916     86.8938
  2019.4000    212.9426     20.9841     22.3936     31.4916     86.1726
  2019.5000    212.8480     21.6927     23.3654     32.7094     85.4737
  2019.6000    212.8480     21.6927     23.3654     32.7094     84.7450
  2019.7000    212.8480     21.6927     23.3654     32.7094     83.9363
  2019.8000    212.7451     22.4511     24.3462     33.6361     83.0091
  2019.9000    212.7451     22.4511     24.3462     33.6361     81.9512
  2020.0000    212.6206     23.2498     25.3024     34.6151     80.7807
  2020.1000    212.6206     23.2498     25.3024     34.6151     79.5520
  2020.2000    212.6206     23.2498     25.3024     34.6151     78.3380
  2020.3000    212.4579     24.0711     26.2041     36.0163     77.2242
  2020.4000    212.4579     24.0711     26.2041     36.0163     76.2889
  2020.5000    212.2398     24.8869     27.0303     38.0350     75.5840
  2020.6000    212.2398     24.8869     27.0303     38.0350     75.1289
  2020.7000    212.2398     24.8869     27.0303     38.0350     74.9043
  2020.8000    211.9526     25.6620     27.7731     40.4487     74.8565
  2020.9000    211.9526     25.6620     27.7731     40.4487     74.9094
