~Version Information
 VERS.                                  2.0 : CWLS LAS VERSION
 WRAP.                                   NO : WRAPING MODE
 SWARE .                 MController 2.5.0N : SOFTWARE VERSION
~Well Information
 WELL.                      Beinville 31-28 : WELL
 COMP.       Pioneer Natural Resources, USA : COMPANY
 FLD.                       Purgatory River : FIELD
 LOC.                 NW/NE Sec28 T33S R65W : LOCATION
 DATE.                              1/16/05 : DATE(S) LOGGED
 SRVC.      Blanco Geological Services, LLC : SERVICE COMPANY
 STAT.                             Colorado : STATE
 CNTY.                           Las Animas : COUNTY
 CTRY.                                  USA : COUNTRY
 API.                       05-071-08666-00 : API NUMBER
 STRT.FT                             185.00 : START DEPTH
 STOP.FT                             900.00 : STOP DEPTH
 STEP.FT                               1.00 : DEPTH INCREMENT
 NULL.                                -9999 : NULL VALUE
~Curve information
 DEPTH.FT                                   :
 ROP.MIN/FT                                 :
 GAS.UNITS                                  :
~ASCII Log data
# ...
       385.0         0.18         31.9 
       386.0         1.73        227.6 
       387.0         0.23        306.8 
       388.0         0.17        307.4 
       389.0         0.22        258.6 
       390.0         0.20        177.5 
       391.0         0.17        161.4 
       392.0         0.20        124.8 
       393.0         0.17         95.4 
       394.0         0.17         90.0 
       395.0         0.20         72.3 
       396.0         0.20         70.1 
       397.0         0.20         65.8 
       398.0         0.17         64.2 
       399.0         0.17         63.0 
       400.0         0.20         61.6 
       401.0         0.17         61.5 
       402.0         0.20         60.6 
       403.0         0.17         60.0 
       404.0         0.20         60.9 
       405.0         0.17         60.7 
       406.0         0.17         60.4 
       407.0         0.22         60.5 
       408.0         0.20         59.1 
       409.0         0.17         59.2 
       410.0         0.20         58.8 
       411.0         0.20         59.0 
       412.0         0.20         58.7 
       413.0         0.20         56.9 
       414.0         0.20         56.3 
       415.0         0.13         54.3 
       416.0         1.47         96.1 
       417.0         0.35        209.1 
       418.0         0.23        229.3 
       419.0         0.20        208.3 
       420.0         0.27        159.5 
       421.0         0.23        124.5 
       422.0         0.20         94.2 
       423.0         0.23         74.3 
       424.0         0.27         61.5 
       425.0         0.23         56.4 
       426.0         0.13         53.2 
       427.0         0.10         53.0 
       428.0         0.17         50.9 
       429.0         0.17         50.5 
       430.0         0.13         49.8 
       431.0         0.13         48.9 
       432.0         0.10         49.4 
       433.0         0.10         49.3 
       434.0         0.20         49.4 
       435.0         0.22         52.0 
       436.0         0.27         54.6 
       437.0         0.20         68.6 
       438.0         0.13         72.4 
       439.0         0.13         78.0 
       440.0         0.17         83.3 
       441.0         0.13         84.9 
       442.0         0.17         86.4 
       443.0         0.17         85.5 
       444.0         0.13         84.4 
       445.0         0.17         84.2 
       446.0         1.23        136.7 
       447.0         0.33        234.4 
       448.0         0.35        366.3 
       449.0         0.40        363.1 
       450.0         0.13        218.9 
       451.0         0.17        200.0 
       452.0         0.13        146.5 
       453.0         0.17        141.0 
       454.0         0.13        108.2 
       455.0         0.20         93.4 
       456.0         0.33         91.8 
       457.0         0.17         77.1 
       458.0         0.27         72.7 
       459.0         0.20         72.0 
       460.0         0.23         71.1 
       461.0         0.27         70.1 
       462.0         0.35         70.3 
       463.0         0.40         69.5 
       464.0         0.30         69.0 
       465.0         0.23         68.5 
       466.0         0.17         67.8 
       467.0         0.13         67.9 
       468.0         0.17         67.8 
       469.0         0.13         67.4 
       470.0         0.17         68.0 
       471.0         0.17         68.1 
       472.0         0.17         68.4 
       473.0         0.13         67.9 
       474.0         0.13         67.2 
       475.0         0.13         67.2 
       476.0         1.68        137.4 
       477.0         0.37        314.6 
       478.0         0.20        382.1 
       479.0         0.10        340.7 
       480.0         0.10        314.2 
       481.0         0.10        260.6 
       482.0         0.17        216.7 
       483.0         0.20        207.1 
       484.0         0.17        150.7 
       485.0         0.23        112.6 
       486.0         0.17         94.6 
       487.0         0.27         89.0 
       488.0         0.23         82.0 
       489.0         0.22         80.2 
       490.0         0.17         80.0 
       491.0         0.17         79.1 
       492.0         0.17         79.6 
       493.0         0.13         79.5 
       494.0         0.13         79.5 
       495.0         0.13         78.9 
       496.0         0.17         79.0 
       497.0         0.13         79.7 
       498.0         0.17         79.5 
       499.0         0.10         80.4 
       500.0         0.10         80.4 
       501.0         0.13         80.1 
       502.0         0.17         80.3 
       503.0         0.17         82.6 
       504.0         0.23         90.1 
       505.0         0.13         96.5 
       506.0         1.32        198.5 
       507.0         0.13        245.0 
       508.0         0.07        245.0 
       509.0         0.10        251.2 
       510.0         0.30        450.5 
       511.0         0.20       1008.2 
       512.0         0.17        945.1 
       513.0         0.10        747.7 
       514.0         0.13        671.7 
       515.0         0.13        587.1 
       516.0         0.10        568.0 
       517.0         0.10        470.8 
       518.0         0.13        442.8 
       519.0         0.10        431.4 
       520.0         0.13        400.0 
       521.0         0.10        400.0 
       522.0         0.10        127.3 
       523.0         0.13        137.0 
       524.0         0.10        131.7 
       525.0         0.13        123.3 
       526.0         0.17        118.0 
       527.0         0.17        117.1 
       528.0         0.22        113.5 
       529.0         0.20        110.0 
       530.0         0.20        109.4 
       531.0         0.17        108.5 
       532.0         0.17        108.4 
       533.0         0.13        107.1 
       534.0         0.13        105.8 
       535.0         0.20        105.5 
       536.0         2.18        195.1 
       537.0         0.43        342.1 
       538.0         0.33        929.2 
       539.0         0.27        810.4 
       540.0         0.20        647.7 
       541.0         0.23        495.1 
       542.0         0.27        405.0 
       543.0         0.23        125.5 
       544.0         0.20        135.3 
       545.0         0.20        122.9 
       546.0         0.23        112.7 
       547.0         0.23        107.1 
       548.0         0.23        104.0 
       549.0         0.25        102.1 
       550.0         0.23        100.7 
       551.0         0.23         99.8 
       552.0         0.27         99.7 
       553.0         0.27         99.5 
       554.0         0.23         99.2 
       555.0         0.23         98.5 
       556.0         0.27         98.8 
       557.0         0.30         98.9 
       558.0         0.23         99.2 
       559.0         0.33         98.7 
       560.0         0.23         98.5 
       561.0         0.23         98.4 
       562.0         0.17         98.5 
       563.0         0.22         97.5 
       564.0         0.17         97.6 
       565.0         0.23         96.6 
       566.0         1.93        422.1 
       567.0         0.27        885.2 
       568.0         0.23        724.6 
       569.0         0.27        637.8 
       570.0         0.15        513.9 
       571.0         0.17        414.8 
       572.0         0.20        403.1 
       573.0         0.17        125.0 
       574.0         0.20        133.6 
       575.0         0.20        115.2 
       576.0         0.17        111.6 
       577.0         0.20        108.1 
       578.0         0.20        101.4 
       579.0         0.20        100.2 
       580.0         0.33         97.8 
       581.0         0.30         96.1 
       582.0         0.30         95.4 
       583.0         0.27         95.4 
       584.0         0.23         95.2 
