~Version Information
VERS.                      2.0: CWLS Log ASCII Standard - VERSION 2.0
WRAP.                       NO: One line per depth step
~Well Information Block
STRT.FT               240.0000: 
STOP.FT              1456.0000: 
STEP.FT                 0.1000: 
NULL.                -999.2500: 
COMP.          Pioneer Natural Resources: COMPANY
WELL.              Darren 11-7: WELL
FLD.           Purgatoire River: FIELD
LOC.           230' FNL & 596' FWL: LOCATION
CNTY.               Las Animas: COUNTY
SRVC.                Patterson: SERVICE COMPANY
DATE.          Mon Mar 20 07:16:06 2006: LOG DATE
UWI.           05 071 08720 00: UNIQUE WELL ID
STAT.                 Colorado: STATE
~Curve Information Block
DEPT.FT            0 000 00 00: Depth
DCAL.in                       : CDL Caliper
RHOB.g/cc                     : CDL Bulk Density
RHOC.g/cc                     : CDL Density Correction
DPOR.pu                       : CDL Density Porosity
GR.GAPI                       : Gamma Ray
NPOR.pu                       : Neutron Porosity
~Parameter Information Block
~A  Depth       DCAL        RHOB        RHOC        DPOR         GR         NPOR    
# ...
  1363.2000      7.8185      2.5912      0.0553      3.5626     70.8156     17.6937
  1363.3000      7.8196      2.5723     -0.0092      4.7109     70.7950     17.2967
  1363.4000      7.8196      2.5501      0.0457      6.0554     71.5719     17.3158
  1363.5000      7.8299      2.5261     -0.0058      7.5089     71.4301     17.7282
  1363.6000      7.8299      2.5094     -0.0106      8.5230     70.7565     18.1889
  1363.7000      7.8299      2.5030      0.0256      8.9076     70.5332     18.2375
  1363.8000      7.8201      2.5038     -0.0150      8.8584     68.6415     17.9114
  1363.9000      7.8201      2.5043      0.0203      8.8302     63.5632     17.9325
  1364.0000      7.8394      2.4938      0.0287      9.4643     57.8479     18.6080
  1364.1000      7.8394      2.4852     -0.0227      9.9893     52.6698     19.1547
  1364.2000      7.8394      2.5025      0.0116      8.9365     48.4057     18.7123
  1364.3000      7.8336      2.5446      0.0385      6.3899     50.1646     17.5215
  1364.4000      7.8336      2.5910      0.1032      3.5760     58.6759     16.4057
  1364.5000      7.8504      2.6197      0.1619      1.8342     65.7872     16.1198
  1364.6000      7.8504      2.6210      0.1100      1.7550     66.8241     16.8962
  1364.7000      7.8504      2.6019      0.1140      2.9152     65.9134     17.7470
  1364.8000      7.7797      2.5787      0.0191      4.3220     67.3791     17.9666
  1364.9000      7.7797      2.5617      0.0904      5.3520     68.4953     18.2033
  1365.0000      7.8066      2.5447      0.0376      6.3827     66.2133     18.3906
  1365.1000      7.8066      2.5344     -0.0143      7.0040     65.2351     17.8934
  1365.2000      7.8066      2.5480      0.0101      6.1834     67.5529     17.1837
  1365.3000      7.8363      2.5766      0.1034      4.4492     68.2254     16.7695
  1365.4000      7.8363      2.5966      0.0565      3.2345     65.5671     16.3211
  1365.5000      7.8355      2.5958      0.0987      3.2820     64.1294     15.8165
  1365.6000      7.8355      2.5795      0.0662      4.2716     69.0176     15.6230
  1365.7000      7.8355      2.5710      0.0165      4.7873     78.2134     15.6377
  1365.8000      7.8321      2.5841      0.0647      3.9956     81.5651     15.7250
  1365.9000      7.8321      2.5972      0.0742      3.2009     75.8544     16.1527
  1366.0000      7.8254      2.5908      0.0376      3.5905     69.8238     16.7979
  1366.1000      7.8254      2.5711      0.0618      4.7818     69.2721     16.6598
  1366.2000      7.8254      2.5526      0.0448      5.9033     72.3972     15.9370
  1366.3000      7.8371      2.5486      0.0290      6.1484     74.5082     15.6711
  1366.4000      7.8371      2.5566      0.0430      5.6610     72.2617     15.6868
  1366.5000      7.8292      2.5590      0.0136      5.5156     67.9397     15.7991
  1366.6000      7.8292      2.5502      0.0071      6.0508     66.7968     15.8374
  1366.7000      7.8292      2.5422      0.0124      6.5345     69.5191     15.5183
  1366.8000      7.8279      2.5418      0.0286      6.5598     70.9677     15.4189
  1366.9000      7.8279      2.5446      0.0396      6.3864     67.9026     15.8849
  1367.0000      7.8320      2.5488      0.0556      6.1324     63.8556     16.1928
  1367.1000      7.8320      2.5512      0.0874      5.9898     62.3259     16.1451
  1367.2000      7.8320      2.5477      0.0602      6.1971     63.8542     16.3699
  1367.3000      7.8367      2.5377      0.0844      6.8063     68.1788     16.9023
  1367.4000      7.8367      2.5171      0.0158      8.0567     73.7246     17.2105
  1367.5000      7.8367      2.4897      0.0264      9.7134     76.4424     16.9462
  1367.6000      7.8367      2.4718     -0.0103     10.8024     75.2214     16.3641
  1367.7000      7.8367      2.4760      0.0179     10.5430     75.2829     16.1211
  1367.8000      7.8408      2.4972      0.0651      9.2634     77.3347     16.3378
  1367.9000      7.8408      2.5196      0.0379      7.9033     76.7522     16.4027
  1368.0000      7.8342      2.5370      0.0505      6.8481     74.4349     15.9191
  1368.1000      7.8342      2.5582      0.0692      5.5656     73.6754     15.4972
  1368.2000      7.8342      2.5883      0.1405      3.7396     72.8542     15.6916
  1368.3000      7.8388      2.6097      0.1479      2.4435     70.6814     16.2047
  1368.4000      7.8388      2.6105      0.1023      2.3943     69.3620     16.7729
  1368.5000      7.8373      2.6009      0.0903      2.9782     70.3735     17.5536
  1368.6000      7.8373      2.5901      0.1199      3.6323     74.6779     18.5036
  1368.7000      7.8373      2.5799      0.1077      4.2481     79.9561     19.3918
  1368.8000      7.7797      2.5693      0.1110      4.8904     81.4367     20.2990
  1368.9000      7.7797      2.5557      0.0892      5.7172     80.1774     21.0644
  1369.0000      7.8013      2.5435      0.0315      6.4543     81.4328     21.0406
  1369.1000      7.8013      2.5388      0.0220      6.7368     86.0973     20.2968
  1369.2000      7.8013      2.5403      0.0341      6.6477     88.1343     19.3975
  1369.3000      7.8310      2.5525      0.0427      5.9107     83.2338     18.8467
  1369.4000      7.8310      2.5819      0.0716      4.1259     77.3408     18.7395
  1369.5000      7.8448      2.6107      0.1209      2.3845     76.3925     18.7331
  1369.6000      7.8448      2.6132      0.1095      2.2293     75.9766     18.8259
  1369.7000      7.8448      2.5933      0.0514      3.4368     73.2553     19.3794
  1369.8000      7.8483      2.5656      0.0580      5.1152     72.9157     20.0758
  1369.9000      7.8483      2.5371      0.0456      6.8454     73.9311     20.2849
  1370.0000      7.8453      2.5213      0.0252      7.8027     72.1751     19.9303
  1370.1000      7.8453      2.5250      0.0300      7.5750     71.1649     19.2138
  1370.2000      7.8453      2.5400      0.0659      6.6691     72.5032     18.5528
  1370.3000      7.8299      2.5637      0.0114      5.2316     71.7568     18.1129
  1370.4000      7.8299      2.5933      0.0969      3.4390     71.1971     17.7720
  1370.5000      7.8443      2.6184      0.0654      1.9158     76.5702     17.3878
  1370.6000      7.8443      2.6249      0.1369      1.5211     84.1616     17.0819
  1370.7000      7.8443      2.5968      0.0930      3.2265     86.4980     16.9798
  1370.8000      7.8394      2.5570     -0.0108      5.6340     85.6960     16.8491
  1370.9000      7.8394      2.5452      0.0393      6.3541     84.3812     16.6467
  1371.0000      7.8345      2.5516      0.0258      5.9664     81.3443     16.4940
  1371.1000      7.8345      2.5486      0.0451      6.1474     79.1539     16.1565
  1371.2000      7.8345      2.5343      0.0155      7.0123     79.9739     15.4161
  1371.3000      7.8393      2.5170      0.0019      8.0583     81.4295     14.4896
  1371.4000      7.8393      2.4984     -0.0015      9.1891     80.1209     13.9804
  1371.5000      7.8340      2.4811     -0.0102     10.2376     78.0802     14.2841
  1371.6000      7.8340      2.4756     -0.0145     10.5696     78.5705     14.9176
  1371.7000      7.8340      2.4829      0.0201     10.1264     78.3585     15.0665
  1371.8000      7.8310      2.4903      0.0301      9.6805     74.7827     14.6438
  1371.9000      7.8310      2.4940      0.0359      9.4551     72.3138     14.4174
  1372.0000      7.8335      2.4974      0.0638      9.2515     74.5982     14.8097
  1372.1000      7.8335      2.4979      0.0278      9.2182     76.5171     15.4177
  1372.2000      7.8335      2.4985      0.0339      9.1813     74.3369     15.5916
  1372.3000      7.8298      2.5079      0.0651      8.6100     71.1361     15.6792
  1372.4000      7.8298      2.5226      0.0777      7.7185     68.9209     16.2790
  1372.5000      7.8377      2.5250      0.0993      7.5758     68.2680     16.8612
  1372.6000      7.8377      2.5097      0.0025      8.5012     68.2554     17.0900
  1372.7000      7.8377      2.4905      0.0178      9.6691     66.7789     17.1278
