~Version Information
VERS.                      2.0: CWLS Log ASCII Standard - VERSION 2.0
WRAP.                       NO: One line per depth step
~Well Information Block
STRT.FT               330.0000: 
STOP.FT              1876.2000: 
STEP.FT                 0.1000: 
NULL.                -999.2500: 
COMP.          Pioneer Natural Resources: COMPANY
WELL.          Cooper 11-13 Tr: WELL
FLD.           Purgatoire River: FIELD
LOC.           476' FNL & 738' FWL: LOCATION
STAT.                 Colorado: State
CNTY.               Las Animas: COUNTY
CTRY. USA : Country
SECT. 13 : Section
TOWN. 32S : Township
RANG. 67W : Range 
SRVC.                Patterson: SERVICE COMPANY
DATE.          Mon Sep 26 10:28:17 2005: LOG DATE
API.           05 071 08525 00: UNIQUE WELL ID
~Curve Information Block
DEPT.FT            0 000 00 00: Depth
DCAL.in                       : CDL Caliper
RHOB.g/cc                     : CDL Bulk Density
RHOC.g/cc                     : CDL Density Correction
DPOR.pu                       : CDL Density Porosity
NPOR.pu                       : Neutron Porosity
GR.GAPI                       : Gamma Ray
~Parameter Information Block
~A  Depth       DCAL        RHOB        RHOC        DPOR        NPOR         GR     
# ...
  1539.6000      7.8870      2.6586      0.0903     -0.5196     27.7070    118.9858
  1539.7000      7.8870      2.6403      0.0921      0.5874     27.7974    118.9250
  1539.8000      7.8814      2.6171      0.0697      1.9923     28.1608    120.5169
  1539.9000      7.8814      2.6018      0.0415      2.9186     28.6328    119.5549
  1540.0000      7.8721      2.5969      0.0555      3.2196     29.2319    117.8038
  1540.1000      7.8721      2.5851      0.0699      3.9319     29.4599    117.2613
  1540.2000      7.8721      2.5598      0.0563      5.4643     28.9456    117.5466
  1540.3000      7.8682      2.5376      0.0393      6.8131     28.3295    121.1190
  1540.4000      7.8682      2.5301      0.0328      7.2681     28.5131    126.5740
  1540.5000      7.8689      2.5264      0.0651      7.4918     29.4108    126.6698
  1540.6000      7.8689      2.5150      0.0369      8.1793     29.8898    118.2386
  1540.7000      7.8689      2.5050      0.0263      8.7898     29.3155    109.7483
  1540.8000      7.8625      2.5044      0.0472      8.8269     28.2937    110.1229
  1540.9000      7.8625      2.5090      0.0154      8.5429     27.9852    115.0393
  1541.0000      7.8526      2.5168      0.0582      8.0730     28.6383    118.1828
  1541.1000      7.8526      2.5258      0.0548      7.5244     29.3239    119.9398
  1541.2000      7.8526      2.5270      0.0898      7.4522     29.2694    120.4935
  1541.3000      7.8446      2.5172      0.0559      8.0494     28.7014    120.0573
  1541.4000      7.8446      2.5108      0.0520      8.4363     28.2992    121.2096
  1541.5000      7.8399      2.5160      0.0444      8.1218     28.3988    125.7440
  1541.6000      7.8399      2.5216      0.0623      7.7827     28.6611    129.4370
  1541.7000      7.8399      2.5139      0.0561      8.2466     28.7186    130.4017
  1541.8000      7.8441      2.4856      0.0700      9.9646     28.6190    130.8634
  1541.9000      7.8441      2.4380      0.0263     12.8481     28.3781    130.1301
  1542.0000      7.8585      2.3869      0.0011     15.9441     27.9400    126.3575
  1542.1000      7.8585      2.3491     -0.0207     18.2378     27.4040    120.1943
  1542.2000      7.8585      2.3323     -0.0498     19.2566     26.8998    113.1073
  1542.3000      7.8698      2.3408     -0.0125     18.7424     26.3674    105.3854
  1542.4000      7.8698      2.3744      0.0031     16.7040     25.7635     97.5733
  1542.5000      7.8730      2.4215      0.0487     13.8490     25.0326     89.0201
  1542.6000      7.8730      2.4693      0.0727     10.9543     24.0708     78.7703
  1542.7000      7.8730      2.5237      0.1014      7.6555     23.2967     69.6543
  1542.8000      7.8680      2.5936      0.1526      3.4204     23.0871     63.7735
  1542.9000      7.8680      2.6616      0.2230     -0.7051     22.8115     60.2857
  1543.0000      7.8527      2.7049      0.1595     -3.3259     21.7872     57.0565
  1543.1000      7.8527      2.7208      0.1668     -4.2905     20.4926     53.2187
  1543.2000      7.8527      2.7153      0.1200     -3.9564     19.7108     52.3717
  1543.3000      7.8376      2.7000      0.0800     -3.0285     19.4081     56.8168
  1543.4000      7.8376      2.6921      0.0472     -2.5490     19.0214     62.3832
  1543.5000      7.8336      2.6993      0.0424     -2.9865     18.5230     63.3290
  1543.6000      7.8336      2.7181      0.0561     -4.1285     18.4601     59.6752
  1543.7000      7.8336      2.7414      0.0686     -5.5380     18.8301     55.2424
  1543.8000      7.8384      2.7597      0.0914     -6.6462     19.0474     52.3720
  1543.9000      7.8384      2.7697      0.0744     -7.2549     18.7348     51.2029
  1544.0000      7.8470      2.7839      0.0592     -8.1143     18.0653     51.2551
  1544.1000      7.8470      2.8129      0.0532     -9.8742     17.4620     52.5881
  1544.2000      7.8470      2.8437      0.0900    -11.7381     17.0990     53.8648
  1544.3000      7.8563      2.8563      0.0542    -12.5052     17.0309     52.8381
  1544.4000      7.8563      2.8575      0.0616    -12.5774     17.2349     49.7454
  1544.5000      7.8611      2.8628      0.0698    -12.8973     17.6986     47.3552
  1544.6000      7.8611      2.8665      0.0757    -13.1222     18.2582     47.5549
  1544.7000      7.8611      2.8546      0.0608    -12.3986     18.5962     49.2491
  1544.8000      7.8604      2.8235      0.0626    -10.5136     18.9024     51.4640
  1544.9000      7.8604      2.7766      0.0259     -7.6748     19.6357     53.4567
  1545.0000      7.8613      2.7226     -0.0274     -4.3984     20.8069     53.9922
  1545.1000      7.8613      2.6795     -0.0289     -1.7891     21.9543     53.3454
  1545.2000      7.8613      2.6643     -0.0597     -0.8689     22.8345     50.5474
  1545.3000      7.8658      2.6756     -0.0271     -1.5485     23.8077     44.7205
  1545.4000      7.8658      2.6928     -0.0041     -2.5965     24.9183     39.5796
  1545.5000      7.8796      2.6969     -0.0066     -2.8421     25.6370     38.6686
  1545.6000      7.8796      2.6808      0.0216     -1.8692     25.9337     41.3961
  1545.7000      7.8796      2.6443      0.0642      0.3427     26.0787     45.4314
  1545.8000      7.9222      2.5956      0.0143      3.2956     26.3537     47.3663
  1545.9000      7.9222      2.5464      0.0259      6.2761     27.2686     45.4294
  1546.0000      8.0137      2.5022      0.0470      8.9546     28.4542     41.5379
  1546.1000      8.0137      2.4600      0.1141     11.5163     28.8768     38.3197
  1546.2000      8.0137      2.4202      0.0590     13.9300     28.5560     37.5850
  1546.3000      8.1472      2.4084      0.0310     14.6431     27.9510     39.7626
  1546.4000      8.1472      2.4518      0.0776     12.0120     27.2061     42.9292
  1546.5000      8.2754      2.5465      0.1428      6.2699     26.5527     44.3565
  1546.6000      8.2754      2.6652      0.2701     -0.9213     26.2421     43.2737
  1546.7000      8.2754      2.7727      0.3357     -7.4387     26.0050     41.0493
  1546.8000      8.3665      2.8444      0.3573    -11.7815     25.4901     39.4132
  1546.9000      8.3665      2.8755      0.3843    -13.6667     24.7420     39.5540
  1547.0000      8.4071      2.8847      0.3121    -14.2239     23.8448     41.2310
  1547.1000      8.4071      2.8959      0.2876    -14.9009     22.9607     42.6247
  1547.2000      8.4071      2.9002      0.2975    -15.1635     22.2023     42.8059
  1547.3000      8.3334      2.8824      0.1273    -14.0826     21.5436     43.4795
  1547.4000      8.3334      2.8585      0.0584    -12.6362     20.9836     45.1303
  1547.5000      8.1296      2.8371      0.0667    -11.3420     20.6454     46.2271
  1547.6000      8.1296      2.8056      0.0506     -9.4325     20.5920     48.0135
  1547.7000      8.1296      2.7668     -0.0355     -7.0799     20.7020     51.2417
  1547.8000      7.9560      2.7387     -0.0119     -5.3758     21.0354     54.3264
  1547.9000      7.9560      2.7226      0.0177     -4.3970     21.8833     56.3246
  1548.0000      7.8847      2.7019     -0.0017     -3.1474     22.9580     57.9516
  1548.1000      7.8847      2.6637      0.0201     -0.8279     23.6665     59.4665
  1548.2000      7.8847      2.6096     -0.0226      2.4495     23.9868     59.7710
  1548.3000      7.8578      2.5526     -0.0208      5.9016     24.4593     58.0079
  1548.4000      7.8578      2.4976     -0.0393      9.2389     25.4159     56.2338
  1548.5000      7.8453      2.4438     -0.0405     12.4953     26.6606     57.1807
  1548.6000      7.8453      2.3984     -0.0828     15.2468     28.0577     60.7749
  1548.7000      7.8453      2.3652     -0.0658     17.2629     29.3117     65.3479
  1548.8000      7.8524      2.3425     -0.0664     18.6350     29.8393     72.2072
  1548.9000      7.8524      2.3380     -0.0507     18.9102     29.7810     84.2098
  1549.0000      7.8682      2.3543      0.0238     17.9206     29.7695     95.3058
  1549.1000      7.8682      2.3792      0.0449     16.4117     29.7873     96.9431
