~Version Information
VERS.                      2.0: CWLS Log ASCII Standard - VERSION 2.0
WRAP.                       NO: One line per depth step
~Well Information Block
STRT.FT                10.0000: 
STOP.FT              1044.5000: 
STEP.FT                 0.1000: 
NULL.                -999.2500: 
COMP.          Pioneer Natural Resources: COMPANY
WELL.          Stags Leap 13-30: WELL
FLD.           Purgatorie River: FIELD
LOC.           1813' FSL & 117' FWL: LOCATION
PROV.                 Colorado: PROVINCE
CNTY.               Las Animas: COUNTRY
SRVC.                Patterson: SERVICE COMPANY
DATE.          Fri Dec 09 09:46:17 2005: LOG DATE
UWI.                          : UNIQUE WELL ID
~Curve Information Block
DEPT.FT            0 000 00 00: Depth
DCAL.in                       : CDL Caliper
RHOB.g/cc                     : CDL Bulk Density
RHOC.g/cc                     : CDL Density Correction
DPOR.pu                       : CDL Density Porosity
GR.GAPI                       : Gamma Ray
NPOR.pu                       : Neutron Porosity
~Parameter Information Block
~A  Depth       DCAL        RHOB        RHOC        DPOR         GR         NPOR    
# ...
   691.6000      8.2578      2.3649      0.0123     17.2792    147.7341     24.3525
   691.7000      8.2578      2.3500      0.0021     18.1834    152.0914     24.6871
   691.8000      8.2055      2.3430      0.0167     18.6080    158.4904     25.1906
   691.9000      8.2055      2.3338      0.0448     19.1618    162.8577     25.5863
   692.0000      8.1477      2.3210      0.0139     19.9418    162.3920     25.7174
   692.1000      8.1477      2.3241      0.0034     19.7509    158.9198     25.5336
   692.2000      8.1477      2.3555      0.0804     17.8514    156.7598     25.0956
   692.3000      8.1295      2.4004      0.1028     15.1266    157.0602     24.7035
   692.4000      8.1295      2.4458      0.1740     12.3785    156.4077     24.5414
   692.5000      8.1449      2.4913      0.1783      9.6202    152.8499     24.3976
   692.6000      8.1449      2.5364      0.2630      6.8820    148.3691     24.1013
   692.7000      8.1449      2.5734      0.2633      4.6406    145.0017     23.7618
   692.8000      8.0815      2.6012      0.2548      2.9553    143.0078     23.5882
   692.9000      8.0815      2.6223      0.3080      1.6809    139.9998     23.5336
   693.0000      8.0817      2.6239      0.2704      1.5841    134.4770     23.4398
   693.1000      8.0817      2.5950      0.2035      3.3314    130.9789     23.4243
   693.2000      8.0817      2.5544      0.0744      5.7943    133.5877     23.7041
   693.3000      8.1020      2.5350      0.0894      6.9717    137.3384     24.2910
   693.4000      8.1020      2.5406      0.1118      6.6311    136.5021     24.8321
   693.5000      8.0226      2.5533      0.0617      5.8623    130.9495     24.8950
   693.6000      8.0226      2.5589      0.0551      5.5234    124.0084     24.6911
   693.7000      8.0226      2.5481      0.0235      6.1779    120.9336     24.8330
   693.8000      7.9927      2.5286     -0.0062      7.3553    121.3085     25.1649
   693.9000      7.9927      2.5190      0.0036      7.9414    121.5057     25.0273
   694.0000      7.9874      2.5217      0.0453      7.7759    123.2281     24.4152
   694.1000      7.9874      2.5259      0.0480      7.5239    126.6064     23.8950
   694.2000      7.9874      2.5293      0.0654      7.3168    126.3654     23.8278
   694.3000      7.9846      2.5361      0.0763      6.9044    121.9567     24.0850
   694.4000      7.9846      2.5456      0.0843      6.3293    118.4095     24.2279
   694.5000      7.9673      2.5615      0.0354      5.3638    117.8849     24.0071
   694.6000      7.9673      2.5895      0.0546      3.6683    118.6650     23.5916
   694.7000      7.9673      2.6184      0.1359      1.9158    118.9128     23.1176
   694.8000      7.9012      2.6370      0.1094      0.7882    117.5567     22.5958
   694.9000      7.9012      2.6480      0.1323      0.1208    114.3939     22.1740
   695.0000      7.9089      2.6515      0.1475     -0.0908    110.6953     22.0047
   695.1000      7.9089      2.6496      0.0806      0.0242    109.0181     22.0152
   695.2000      7.9089      2.6463      0.0859      0.2262    109.8683     21.8019
   695.3000      7.8967      2.6298      0.0982      1.2233    112.3389     21.1800
   695.4000      7.8967      2.5941      0.0323      3.3879    116.4122     20.6285
   695.5000      7.9569      2.5556      0.0288      5.7228    119.7018     20.3926
   695.6000      7.9569      2.5350     -0.0264      6.9687    120.1089     20.3683
   695.7000      7.9569      2.5419      0.0121      6.5489    119.2976     20.6793
   695.8000      8.0068      2.5687      0.0274      4.9292    118.1276     21.1468
   695.9000      8.0068      2.5972      0.0807      3.2000    116.8111     21.1236
   696.0000      7.9925      2.6114      0.0482      2.3413    116.4419     20.6181
   696.1000      7.9925      2.6066      0.0698      2.6317    115.3465     20.3697
   696.2000      7.9925      2.5863      0.0424      3.8576    111.9289     20.5131
   696.3000      7.9978      2.5574      0.0316      5.6114    109.8460     20.6032
   696.4000      7.9978      2.5290      0.0265      7.3309    110.7647     20.4978
   696.5000      8.0202      2.5167     -0.0447      8.0791    111.7527     20.4051
   696.6000      8.0202      2.5287     -0.0122      7.3518    110.4639     20.6176
   696.7000      8.0202      2.5501      0.0313      6.0543    107.2987     21.1331
   696.8000      8.0171      2.5633      0.0104      5.2530    106.0863     21.5834
   696.9000      8.0171      2.5605      0.0349      5.4225    106.8246     21.6731
   697.0000      7.9474      2.5382     -0.0013      6.7745    104.1136     21.4512
   697.1000      7.9474      2.5046      0.0094      8.8147     98.1513     21.1670
   697.2000      7.9474      2.4774     -0.0498     10.4598     94.3300     21.1270
   697.3000      7.9625      2.4675      0.0130     11.0583     94.0653     21.3296
   697.4000      7.9625      2.4714      0.0331     10.8228     94.8961     21.4245
   697.5000      7.9343      2.4868     -0.0031      9.8928     95.9500     21.2559
   697.6000      7.9343      2.5069      0.0314      8.6740     97.2416     20.9048
   697.7000      7.9343      2.5142      0.0622      8.2310     97.4074     20.5111
   697.8000      7.9841      2.5048      0.0200      8.7990     96.0934     20.1901
   697.9000      7.9841      2.4960      0.0291      9.3338     95.5670     20.0280
   698.0000      7.9751      2.5076      0.0253      8.6305     97.1990     20.1925
   698.1000      7.9751      2.5435      0.0987      6.4554     99.6039     20.5112
   698.2000      7.9751      2.5849      0.1261      3.9441    101.5725     20.5079
   698.3000      7.8836      2.6066      0.1721      2.6299    102.6336     20.1276
   698.4000      7.8836      2.5987      0.1603      3.1115    101.1220     19.6610
   698.5000      7.8875      2.5732      0.1052      4.6546     97.3726     19.4008
   698.6000      7.8875      2.5492      0.0729      6.1106     97.5266     19.4084
   698.7000      7.8875      2.5393      0.0483      6.7065    104.5916     19.3358
   698.8000      7.9182      2.5448      0.0837      6.3741    110.8372     18.8415
   698.9000      7.9182      2.5517      0.0776      5.9568    110.0932     18.1177
   699.0000      8.0372      2.5442      0.1099      6.4102    106.2277     17.5125
   699.1000      8.0372      2.5236      0.0682      7.6623    103.7968     17.0888
   699.2000      8.0372      2.5073      0.0607      8.6470    102.3527     16.8029
   699.3000      8.0749      2.5044      0.0879      8.8263    100.8254     16.7353
   699.4000      8.0749      2.5065      0.0932      8.6968    101.5402     16.9525
   699.5000      8.0782      2.5080      0.0751      8.6067    106.0091     17.3341
   699.6000      8.0782      2.5070      0.0658      8.6656    110.5685     17.5710
   699.7000      8.0782      2.5026      0.0505      8.9324    111.7603     17.5980
   699.8000      8.0974      2.5021      0.0670      8.9609    109.9202     17.6581
   699.9000      8.0974      2.5117      0.0510      8.3832    106.7065     17.7694
   700.0000      8.0858      2.5265      0.0842      7.4834    103.4990     17.7607
   700.1000      8.0858      2.5368      0.0886      6.8631    100.9310     17.6718
   700.2000      8.0858      2.5417      0.0430      6.5631     99.5770     17.6906
   700.3000      8.0665      2.5485      0.0829      6.1530     98.9819     17.8761
   700.4000      8.0665      2.5560      0.0923      5.6983     98.3650     17.9204
   700.5000      8.0691      2.5583      0.0841      5.5599     98.7355     17.4900
   700.6000      8.0691      2.5529      0.0601      5.8838    100.7625     16.7115
   700.7000      8.0691      2.5410      0.0649      6.6032    102.7119     16.0355
   700.8000      8.0596      2.5274      0.0784      7.4281    104.8227     15.6950
   700.9000      8.0596      2.5220      0.0191      7.7602    108.0718     15.4816
   701.0000      8.0755      2.5280      0.0623      7.3951    110.0598     15.4919
   701.1000      8.0755      2.5316      0.0722      7.1772    108.8887     15.8730
