~Version Information
VERS.                      2.0: CWLS Log ASCII Standard - VERSION 2.0
WRAP.                       NO: One line per depth step
~Well Information Block
STRT.FT               970.0000: 
STOP.FT              1882.0000: 
STEP.FT                 0.2500: 
NULL.                -999.2500: 
COMP.          Petrogulf Corporation: COMPANY
WELL.             Norton 9-14R: WELL
FLD.           Purgatorie River: FIELD
LOC.           725' FSL & 1103' FWL: LOCATION
PROV.                 Colorado: PROVINCE
CNTY.               Las Animas: COUNTRY
SRVC.                Patterson: SERVICE COMPANY
DATE.          Thu Oct 06 16:10:47 2005: LOG DATE
UWI.                          : UNIQUE WELL ID
~Curve Information Block
DEPT.FT            0 000 00 00: Depth
SP.mV                         : DIL Spontaneous Potential
RILD.Ohm-m                    : DIL Deep Resistivity
RILM.Ohm-m                    : DIL Medium Resistivity
RLL3.Ohm-m                    : DIL Shallow Resistivity
GR.GAPI                       : Gamma Ray
~Parameter Information Block
~A  Depth        SP         RILD        RILM        RLL3         GR     
# ...
  1334.0000    171.9525     25.4328     29.2508     47.4830     52.4101
  1334.2500    171.5001     26.8120     31.2312     49.7189     49.5190
  1334.5000    171.0156     28.2028     33.2244     52.1175     48.2480
  1334.7500    170.5056     29.5402     35.1800     54.1286     48.8827
  1335.0000    169.9948     30.7538     37.0443     55.4619     50.7496
  1335.2500    169.5009     31.7776     38.7615     56.2970     51.8214
  1335.5000    169.0276     32.5623     40.2758     57.0306     51.9634
  1335.7500    168.5766     33.0856     41.5323     57.8915     50.7246
  1336.0000    168.1625     33.3534     42.4788     58.8223     47.5125
  1336.2500    167.8146     33.3857     43.0676     59.6345     45.4715
  1336.5000    167.5657     33.1965     43.2588     60.1644     44.1627
  1336.7500    167.4444     32.7861     43.0232     60.3161     44.8198
  1337.0000    167.4739     32.1548     42.3465     60.0763     47.7810
  1337.2500    167.6685     31.3251     41.2360     59.4865     50.5404
  1337.5000    168.0269     30.3497     39.7282     58.4751     54.6661
  1337.7500    168.5317     29.2985     37.8936     56.6892     56.9201
  1338.0000    169.1520     28.2364     35.8332     53.6352     59.6510
  1338.2500    169.8438     27.2112     33.6652     49.1537     61.3295
  1338.5000    170.5497     26.2540     31.5067     43.7648     63.6382
  1338.7500    171.2094     25.3836     29.4580     38.4274     64.9804
  1339.0000    171.7839     24.6083     27.5936     33.8849     67.7071
  1339.2500    172.2750     23.9240     25.9609     30.2453     71.0407
  1339.5000    172.7167     23.3139     24.5837     27.1667     78.7596
  1339.7500    173.1427     22.7558     23.4668     24.3831     84.6593
  1340.0000    173.5584     22.2316     22.6009     22.0520     92.3111
  1340.2500    173.9446     21.7368     21.9658     20.6495     96.2104
  1340.5000    174.2824     21.2804     21.5340     20.5327    101.2103
  1340.7500    174.5732     20.8804     21.2744     21.5437    104.4270
  1341.0000    174.8419     20.5561     21.1561     23.0050    108.2228
  1341.2500    175.1244     20.3232     21.1535     24.1290    108.8563
  1341.5000    175.4510     20.1922     21.2496     24.4984    105.4779
  1341.7500    175.8335     20.1688     21.4379     24.2381    100.7465
  1342.0000    176.2641     20.2546     21.7200     23.8294     92.9101
  1342.2500    176.7243     20.4449     22.1009     23.8131     89.2039
  1342.5000    177.1943     20.7259     22.5832     24.5831     87.2615
  1342.7500    177.6547     21.0742     23.1617     26.2661     87.4132
  1343.0000    178.0815     21.4637     23.8205     28.6495     86.6845
  1343.2500    178.4408     21.8744     24.5335     31.2326     84.3057
  1343.5000    178.6934     22.2981     25.2689     33.4647     78.2088
  1343.7500    178.8066     22.7346     25.9954     35.0213     73.7219
  1344.0000    178.7646     23.1843     26.6887     35.8735     68.5293
  1344.2500    178.5696     23.6444     27.3357     36.1152     66.6861
  1344.5000    178.2360     24.1121     27.9346     35.8067     66.2687
  1344.7500    177.7835     24.5886     28.4918     35.0496     67.1687
  1345.0000    177.2369     25.0783     29.0172     34.1586     69.2367
  1345.2500    176.6261     25.5839     29.5209     33.6079     70.3422
  1345.5000    175.9876     26.1014     30.0122     33.6906     70.5329
  1345.7500    175.3662     26.6184     30.5015     34.2329     69.4684
  1346.0000    174.8186     27.1161     31.0009     34.7097     66.6139
  1346.2500    174.4112     27.5713     31.5229     34.6991     64.6098
  1346.5000    174.2028     27.9595     32.0754     34.2647     62.7262
  1346.7500    174.2211     28.2578     32.6544     33.9451     62.4514
  1347.0000    174.4514     28.4486     33.2359     34.3833     62.8889
  1347.2500    174.8491     28.5200     33.7724     35.8872     63.2503
  1347.5000    175.3652     28.4632     34.1958     38.2148     63.5658
  1347.7500    175.9622     28.2698     34.4287     40.6889     63.6495
  1348.0000    176.6158     27.9332     34.4018     42.5347     63.5759
  1348.2500    177.3083     27.4575     34.0712     43.2103     63.2727
  1348.5000    178.0255     26.8608     33.4287     42.5739     62.2511
  1348.7500    178.7564     26.1705     32.5005     40.8650     61.3895
  1349.0000    179.4937     25.4107     31.3366     38.5110     61.0854
  1349.2500    180.2331     24.5923     29.9970     35.8275     62.4444
  1349.5000    180.9679     23.7111     28.5397     32.8603     67.4003
  1349.7500    181.6813     22.7523     27.0148     29.5766     72.2672
  1350.0000    182.3419     21.7006     25.4617     26.1863     80.9166
  1350.2500    182.9111     20.5520     23.9093     23.1531     87.1579
  1350.5000    183.3632     19.3215     22.3763     20.8573     96.5079
  1350.7500    183.7025     18.0419     20.8720     19.3419    102.0630
  1351.0000    183.9652     16.7552     19.3997     18.4108    107.9588
  1351.2500    184.2000     15.5036     17.9606     17.8694    109.7687
  1351.5000    184.4446     14.3232     16.5597     17.6065    109.8467
  1351.7500    184.7135     13.2423     15.2088     17.5086    109.2268
  1352.0000    185.0021     12.2799     13.9272     17.3680    109.4140
  1352.2500    185.2965     11.4447     12.7382     16.8985    111.0299
  1352.5000    185.5806     10.7346     11.6631     15.8772    115.4933
  1352.7500    185.8380     10.1397     10.7170     14.3256    119.0393
  1353.0000    186.0529      9.6461      9.9065     12.5559    124.0594
  1353.2500    186.2117      9.2409      9.2304     10.9885    127.3283
  1353.5000    186.3069      8.9133      8.6814      9.8874    133.3740
  1353.7500    186.3416      8.6551      8.2496      9.2535    138.6158
  1354.0000    186.3325      8.4597      7.9240      8.9338    147.4735
  1354.2500    186.3064      8.3215      7.6946      8.7859    152.9769
  1354.5000    186.2921      8.2369      7.5532      8.7496    159.2419
  1354.7500    186.3164      8.2052      7.4938      8.8228    161.8878
  1355.0000    186.4067      8.2281      7.5127      9.0251    163.7105
  1355.2500    186.5960      8.3089      7.6083      9.3848    163.4797
  1355.5000    186.9230      8.4501      7.7805      9.9362    160.7844
  1355.7500    187.4304      8.6515      8.0304     10.7207    157.5399
  1356.0000    188.1597      8.9108      8.3592     11.8477    151.5940
  1356.2500    189.1434      9.2244      8.7675     13.6275    147.8662
  1356.5000    190.3948      9.5904      9.2539     16.5970    143.5724
  1356.7500    191.8986     10.0096      9.8145     21.1280    141.1520
  1357.0000    193.5992     10.4861     10.4427     26.6594    136.0127
  1357.2500    195.3893     11.0248     11.1310     31.3645    130.3049
  1357.5000    197.1125     11.6289     11.8727     33.1103    118.0221
  1357.7500    198.5957     12.2973     12.6659     31.1731    108.6687
  1358.0000    199.7044     13.0204     13.5149     26.9336     96.4529
  1358.2500    200.3847     13.7766     14.4289     22.7766     91.2282
  1358.5000    200.6665     14.5291     15.4170     20.4887     88.8284
  1358.7500    200.6326     15.2262     16.4789     20.6660     90.2904
  1359.0000    200.3850     15.8074     17.5934     23.0821     94.4914
  1359.2500    200.0291     16.2157     18.7071     27.1134     96.7081
  1359.5000    199.6681     16.4130     19.7281     31.8779     96.7752
  1359.7500    199.3921     16.3923     20.5329     36.3351     94.5471
  1360.0000    199.2614     16.1787     20.9915     39.5042     89.7930
  1360.2500    199.2957     15.8191     21.0076     40.7051     87.3646
  1360.5000    199.4768     15.3648     20.5556     39.7370     87.0517
  1360.7500    199.7615     14.8582     19.6928     36.9171     89.4758
  1361.0000    200.0917     14.3272     18.5387     32.8910     96.0866
  1361.2500    200.4001     13.7871     17.2339     28.3182    101.3253
  1361.5000    200.6180     13.2457     15.9044     23.7072    108.8889
  1361.7500    200.6887     12.7075     14.6412     19.4609    113.6284
