~Version Information
VERS.                      2.0: CWLS Log ASCII Standard - VERSION 2.0
WRAP.                       NO: One line per depth step
~Well Information Block
STRT.FT               -10.2500: 
STOP.FT              2437.2500: 
STEP.FT                 0.2500: 
NULL.                -999.2500: 
COMP.          Pioneer Natural Resources: COMPANY
WELL.          Hellzonfire 32-31: WELL
FLD.           Purgatorie River: FIELD
LOC.           1993' FNL & 2265' FEL------: LOCATION
STAT.                       CO: State
CNTY.               Las Animas: COUNTY
CTRY. USA : Country
SECT. 31 : Section
TOWN. 32S : Township
RANG. 66W : Range
SRVC.          Patterson Wireline: SERVICE COMPANY
DATE.          Thu Sep 08 11:10:17 2005: LOG DATE
API.           05 071 08483 00: UNIQUE WELL ID
~Curve Information Block
DEPT.FT            0 000 00 00: Depth
CCL.                          : Casing Collar Locator
TT3.usec                      : CBL 3' Travel Time
AMP3.mV                       : CBL 3' Amplitude
GR.GAPI                       : Gamma Ray
~Parameter Information Block
~A  Depth       CCL         TT3         AMP3         GR     
# ...
   793.7500      0.0000    939.9492     12.1980    116.6538
   794.0000      0.0000    921.9973     11.9992    121.0659
   794.2500      0.0000    898.0586     11.8014    125.0560
   794.5000      0.0000    874.6798     11.6277    129.5675
   794.7500      0.0000    857.6720     11.4907    134.3570
   795.0000      0.0000    848.2771     11.3849    138.2913
   795.2500      0.0000    844.3123     11.2962    140.1455
   795.5000      0.0000    843.2126     11.2134    139.1801
   795.7500      0.0000    843.7690     11.1347    135.4487
   796.0000      0.0000    846.2948     11.0661    129.9179
   796.2500      0.0000    851.7042     11.0129    124.1338
   796.5000      0.0000    859.6561     10.9697    119.3981
   796.7500      0.0000    866.9114     10.9194    115.8833
   797.0000      0.0000    868.5921     10.8481    112.5592
   797.2500      0.0000    862.5059     10.7597    108.5645
   797.5000      0.0000    851.9912     10.6740    104.9189
   797.7500      0.0000    843.6664     10.6121    104.2216
   798.0000      0.0000    843.1015     10.5832    108.1502
   798.2500      0.0000    853.2842     10.5805    115.5814
   798.5000      0.0000    875.3488     10.5855    123.5071
   798.7500      0.0000    907.9542     10.5821    129.4091
   799.0000      0.0000    945.7759     10.5720    132.3495
   799.2500      0.0000    981.1132     10.5745    132.1970
   799.5000      0.0000   1008.9026     10.6072    128.9183
   799.7500      0.0000   1029.9847     10.6707    123.1442
   800.0000      0.0000   1048.8220     10.7532    116.7212
   800.2500      0.0000   1067.7479     10.8428    111.7689
   800.5000      0.0000   1083.4485     10.9315    109.0142
   800.7500      0.0000   1089.1493     11.0099    107.1755
   801.0000      0.0000   1080.9911     11.0686    104.0469
   801.2500      0.0000   1063.5011     11.1050     98.5435
   801.5000      0.0000   1049.1604     11.1248     92.0146
   801.7500      0.0000   1050.4408     11.1353     87.3982
   802.0000      0.0000   1069.8488     11.1403     86.8057
   802.2500      0.0000   1098.1438     11.1415     89.9506
   802.5000      0.0000   1123.0438     11.1412     94.7750
   802.7500      0.0000   1138.2968     11.1438     99.1164
   803.0000      0.0000   1144.4655     11.1522    101.7540
   803.2500      0.0000   1144.0343     11.1606    102.5992
   803.5000      0.0000   1137.6676     11.1500    102.4496
   803.7500      0.0000   1124.1932     11.0963    102.3442
   804.0000      0.0000   1102.6877     10.9888    102.7805
   804.2500      0.0000   1074.4698     10.8434    103.6921
   804.5000      0.0000   1043.8215     10.6963    105.3489
   804.7500      0.0000   1016.6416     10.5808    108.5244
   805.0000      0.0000    996.4094     10.5111    112.9706
   805.2500      0.0000    979.9866     10.4870    116.4939
   805.5000      0.0000    959.2581     10.5058    116.8206
   805.7500      0.0000    929.1795     10.5610    113.9783
   806.0000      0.0000    893.6506     10.6308    109.8805
   806.2500      0.0000    862.4261     10.6805    106.1962
   806.5000      0.0000    842.9287     10.6829    103.5017
   806.7500      0.0000    835.5359     10.6332    101.8226
   807.0000      0.0000    835.5173     10.5478    101.1146
   807.2500      0.0000    837.7698     10.4554    101.3796
   807.5000      0.0000    839.5828     10.3862    102.4257
   807.7500      0.0000    840.3962     10.3578    103.4490
   808.0000      0.0000    840.3534     10.3663    103.4957
   808.2500      0.0000    839.3159     10.3928    102.8430
   808.5000      0.0000    836.6337     10.4193    103.3178
   808.7500      0.0000    831.5883     10.4369    106.7667
   809.0000      0.0000    824.2319     10.4435    113.3955
   809.2500      0.0000    815.8885     10.4379    121.5077
   809.5000      0.0000    808.5536     10.4181    128.5436
   809.7500      0.0000    803.6309     10.3816    132.6136
   810.0000      0.0000    801.3125     10.3280    133.5268
   810.2500      0.0000    801.0826     10.2624    132.4429
   810.5000      0.0000    802.3517     10.1987    130.4955
   810.7500      0.0000    804.3022     10.1515    127.9446
   811.0000      0.0000    805.3334     10.1234    124.7194
   811.2500      0.0000    803.4729     10.1028    121.2229
   811.5000      0.0000    798.1707     10.0776    118.0725
   811.7500      0.0000    791.6486     10.0466    115.4255
   812.0000      0.0000    787.5919     10.0166    113.1645
   812.2500      0.0000    787.9915      9.9890    111.4684
   812.5000      0.0000    791.6363      9.9562    110.5607
   812.7500      0.0000    795.7828      9.9103    110.0463
   813.0000      0.0000    798.6265      9.8556    109.0147
   813.2500      0.0000    799.9216      9.8113    106.9101
   813.5000      0.0000    800.0214      9.8051    104.3128
   813.7500      0.0000    798.9858      9.8598    102.9420
   814.0000      0.0000    796.6703      9.9770    104.6646
   814.2500      0.0000    793.5825     10.1302    110.0522
   814.5000      0.0000    791.2881     10.2765    117.6539
   814.7500      0.0000    791.1520     10.3785    124.6447
   815.0000      0.0000    792.1930     10.4208    128.4134
   815.2500      0.0000    790.9296     10.4090    128.1254
   815.5000      0.0000    784.2785     10.3638    125.3602
   815.7500      0.0000    772.9258     10.3196    123.1879
   816.0000      0.0000    761.8973     10.3229    123.9180
   816.2500      0.0000    757.4936     10.4213    127.2912
   816.5000      0.0000    762.8828     10.6414    131.0239
   816.7500      0.0000    776.1113     10.9695    133.2479
   817.0000      0.0000    792.1813     11.3488    134.1527
   817.2500      0.0000    806.7479     11.6953    135.0676
   817.5000      0.0000    818.0036     11.9248    136.2706
   817.7500      0.0000    826.0047     11.9849    136.3266
   818.0000      0.0000    831.2185     11.8861    133.8978
   818.2500      0.0000    833.9634     11.7117    129.8513
   818.5000      0.0000    834.8692     11.5793    127.0149
   818.7500      0.0000    835.0151     11.5709    127.4088
   819.0000      0.0000    835.0285     11.6857    129.6780
   819.2500      0.0000    834.4217     11.8546    129.7752
   819.5000      0.0000    832.2992     11.9928    124.7181
   819.7500      0.0000    828.4774     12.0432    115.5808
   820.0000      0.0000    823.7178     11.9917    106.5684
   820.2500      0.0000    819.3311     11.8646    101.5907
   820.5000      0.0000    816.6318     11.7241    102.0660
   820.7500      0.0000    815.6611     11.6587    107.1654
   821.0000      0.0000    813.3271     11.7632    114.8272
   821.2500      0.0000    802.9053     12.1005    122.3350
   821.5000      0.0000    777.6597     12.6527    126.8602
   821.7500      0.0000    738.8978     13.2863    126.4980
   822.0000      0.0000    702.7105     13.7547    121.1701
   822.2500      0.0000    695.6003     13.7623    112.5405
   822.5000      0.0000    737.0410     13.1140    103.1023
   822.7500      0.0000    823.0283     11.8938     95.1661
   823.0000      0.0000    927.5226     10.4835     89.9939
   823.2500      0.0000   1020.5380      9.3268     87.1576
   823.5000      0.0000   1085.3053      8.6407     84.7119
   823.7500     -2.0000   1121.6476      8.3550     80.5982
   824.0000      2.0000   1138.1620      8.2709     74.5403
   824.2500      0.0000   1143.1868      8.2315     68.5962
   824.5000      0.0000   1140.4423      8.1917     65.3806
   824.7500      0.0000   1129.4288      8.2121     65.5561
   825.0000      0.0000   1108.8082      8.3942     67.3315
   825.2500      0.0000   1080.2352      8.7770     68.3942
   825.5000      0.0000   1048.6719      9.2859     67.8756
   825.7500      0.0000   1017.8506      9.7954     66.4295
   826.0000      0.0000    986.6004     10.2231     65.1973
   826.2500      0.0000    952.0588     10.5568     65.1400
   826.5000      0.0000    915.9080     10.8228     66.7708
   826.7500      0.0000    885.0637     11.0559     69.8199
   827.0000      0.0000    866.0930     11.2871     73.2944
