~Version Information
VERS.                      2.0: CWLS Log ASCII Standard - VERSION 2.0
WRAP.                       NO: One line per depth step
~Well Information Block
STRT.FT               240.0000: 
STOP.FT              1338.7000: 
STEP.FT                 0.1000: 
NULL.                -999.2500: 
COMP.          Pioneer Natural Resources: COMPANY
WELL.            Hamburg 43-35: WELL
FLD.           Purgatoire River: FIELD
LOC.           2444' FSL & 950' FEL--: LOCATION
PROV.                 Colorado: PROVINCE
CNTY.               Las Animas: COUNTRY
SRVC.                Patterson: SERVICE COMPANY
DATE.          Sun Dec 04 11:50:58 2005: LOG DATE
UWI.           05 071 08607 00: UNIQUE WELL ID
~Curve Information Block
DEPT.FT            0 000 00 00: Depth
DCAL.in                       : CDL Caliper
RHOB.g/cc                     : CDL Bulk Density
RHOC.g/cc                     : CDL Density Correction
DPOR.pu                       : CDL Density Porosity
NPOR.pu                       : Neutron Porosity
GR.GAPI                       : Gamma Ray
~Parameter Information Block
~A  Depth       DCAL        RHOB        RHOC        DPOR        NPOR         GR     
# ...
  1017.6000      7.9477      2.5755      0.0534      4.5173     17.1236     65.5707
  1017.7000      7.9477      2.5604      0.0817      5.4284     17.7259     67.8884
  1017.8000      7.9583      2.5595      0.0005      5.4840     18.2230     70.8290
  1017.9000      7.9583      2.5762      0.0376      4.4750     18.6442     72.5211
  1018.0000      7.9619      2.5893      0.0749      3.6808     18.8679     72.4639
  1018.1000      7.9619      2.5750      0.0541      4.5432     18.6853     72.5181
  1018.2000      7.9619      2.5436      0.0349      6.4499     18.5016     73.0975
  1018.3000      7.9586      2.5218     -0.0099      7.7708     18.5480     75.2080
  1018.4000      7.9586      2.5168      0.0094      8.0704     18.4051     79.5933
  1018.5000      7.9568      2.5083      0.0416      8.5889     18.0111     81.7492
  1018.6000      7.9568      2.4837      0.0017     10.0807     17.7096     77.7647
  1018.7000      7.9568      2.4600      0.0104     11.5122     17.6772     71.4923
  1018.8000      7.9556      2.4541      0.0030     11.8707     17.6858     67.8909
  1018.9000      7.9556      2.4665      0.0399     11.1205     17.4722     65.8022
  1019.0000      7.9514      2.4874      0.0435      9.8554     17.1851     64.1813
  1019.1000      7.9514      2.5040      0.0573      8.8456     17.0556     66.8073
  1019.2000      7.9514      2.5121      0.0605      8.3583     17.0481     75.6297
  1019.3000      7.9497      2.5152      0.0628      8.1686     16.9941     85.3591
  1019.4000      7.9497      2.5151      0.0342      8.1741     16.8235     88.2133
  1019.5000      7.9516      2.5176      0.0162      8.0237     16.7784     84.6947
  1019.6000      7.9516      2.5274      0.0459      7.4276     17.1243     81.6273
  1019.7000      7.9516      2.5346      0.0779      6.9943     17.5347     79.6785
  1019.8000      7.9530      2.5293      0.0633      7.3169     17.4983     77.1447
  1019.9000      7.9530      2.5177      0.0287      8.0201     17.0754     74.2239
  1020.0000      7.9543      2.5157      0.0003      8.1411     16.6070     72.9788
  1020.1000      7.9543      2.5322      0.0255      7.1404     16.2686     75.6255
  1020.2000      7.9543      2.5555      0.0673      5.7254     16.1967     79.7878
  1020.3000      7.9563      2.5651      0.0850      5.1463     16.2189     83.6352
  1020.4000      7.9563      2.5618      0.0048      5.3481     15.9681     89.0659
  1020.5000      7.9523      2.5579      0.0822      5.5803     15.5141     94.2933
  1020.6000      7.9523      2.5503      0.0526      6.0453     15.3660     96.0523
  1020.7000      7.9523      2.5394      0.0652      6.7001     15.7359     96.0748
  1020.8000      7.9420      2.5374      0.0430      6.8216     16.2685     95.3989
  1020.9000      7.9420      2.5491      0.0583      6.1129     16.5420     93.6656
  1021.0000      7.9348      2.5595      0.0748      5.4878     16.5218     92.4008
  1021.1000      7.9348      2.5520      0.0665      5.9404     16.6100     91.0888
  1021.2000      7.9348      2.5368      0.0314      6.8576     17.0640     88.0237
  1021.3000      7.9342      2.5257      0.0700      7.5363     17.5969     85.5274
  1021.4000      7.9342      2.5107      0.0362      8.4408     17.8077     85.9183
  1021.5000      7.9367      2.4955     -0.0092      9.3661     17.5784     87.2426
  1021.6000      7.9367      2.4915      0.0152      9.6061     17.0829     86.6095
  1021.7000      7.9367      2.4925      0.0689      9.5442     16.5547     83.1719
  1021.8000      7.9434      2.4910      0.0274      9.6363     16.2357     75.2196
  1021.9000      7.9434      2.4900      0.0295      9.6989     16.1940     64.5068
  1022.0000      7.9534      2.4836      0.0410     10.0858     16.3515     56.8629
  1022.1000      7.9534      2.4691     -0.0097     10.9623     16.5237     53.8005
  1022.2000      7.9534      2.4630      0.0102     11.3359     16.5019     55.9052
  1022.3000      7.9594      2.4705      0.0258     10.8798     16.4476     63.5376
  1022.4000      7.9594      2.4783      0.0289     10.4033     16.6525     69.7373
  1022.5000      7.9585      2.4776      0.0560     10.4469     16.9307     68.5478
  1022.6000      7.9585      2.4718      0.0166     10.7999     17.0451     63.8556
  1022.7000      7.9585      2.4703      0.0248     10.8886     17.2531     61.4901
  1022.8000      7.9497      2.4773      0.0255     10.4654     17.7054     63.4897
  1022.9000      7.9497      2.4921      0.0123      9.5716     17.9677     69.2933
  1023.0000      7.9402      2.5114      0.0442      8.4025     17.7194     77.6216
  1023.1000      7.9402      2.5225      0.0707      7.7280     17.2213     85.4338
  1023.2000      7.9402      2.5126      0.0955      8.3282     16.7726     87.3689
  1023.3000      7.9361      2.4900      0.0148      9.6939     16.5185     81.9879
  1023.4000      7.9361      2.4830     -0.0115     10.1224     16.4636     74.9760
  1023.5000      7.9337      2.5029      0.0361      8.9146     16.3917     71.2190
  1023.6000      7.9337      2.5336      0.0597      7.0526     16.2586     69.3393
  1023.7000      7.9337      2.5564      0.1345      5.6749     16.2822     67.5577
  1023.8000      7.9312      2.5569      0.1072      5.6438     16.5124     68.2158
  1023.9000      7.9312      2.5364      0.0746      6.8819     16.8734     71.0117
  1024.0000      7.9308      2.5168      0.0455      8.0698     17.2255     71.1751
  1024.1000      7.9308      2.5183      0.0212      7.9795     17.4379     69.3335
  1024.2000      7.9308      2.5402      0.0523      6.6573     17.6151     70.2595
  1024.3000      7.9324      2.5597      0.0795      5.4755     17.8319     73.5914
  1024.4000      7.9324      2.5621      0.0509      5.3276     17.8280     77.4067
  1024.5000      7.9380      2.5579      0.0482      5.5833     17.6108     83.0827
  1024.6000      7.9380      2.5541      0.0628      5.8120     17.5463     88.9622
  1024.7000      7.9380      2.5440      0.0526      6.4227     17.7081     91.5982
  1024.8000      7.9492      2.5291      0.0365      7.3267     17.9117     91.7670
  1024.9000      7.9492      2.5212      0.0174      7.8066     17.9314     91.8260
  1025.0000      7.9574      2.5295      0.0187      7.3026     17.5821     92.5621
  1025.1000      7.9574      2.5506      0.0261      6.0267     17.0118     94.6872
  1025.2000      7.9574      2.5656      0.0633      5.1178     16.5757     98.3271
  1025.3000      7.9590      2.5633      0.0431      5.2546     16.4770     98.7461
  1025.4000      7.9590      2.5598      0.0246      5.4694     16.6941     92.2690
  1025.5000      7.9595      2.5717      0.0496      4.7474     17.0285     86.4693
  1025.6000      7.9595      2.5880      0.1001      3.7592     17.3306     88.8613
  1025.7000      7.9595      2.5904      0.0853      3.6139     17.5350     94.0886
  1025.8000      7.9576      2.5809      0.0662      4.1900     17.5482     94.6267
  1025.9000      7.9576      2.5688      0.0565      4.9203     17.3644     93.1859
  1026.0000      7.9535      2.5561      0.0583      5.6905     17.1196     91.1142
  1026.1000      7.9535      2.5442      0.0309      6.4120     16.9699     86.9556
  1026.2000      7.9535      2.5378      0.0841      6.8027     17.0130     85.4585
  1026.3000      7.9529      2.5366      0.0656      6.8742     17.1369     88.3016
  1026.4000      7.9529      2.5336      0.0616      7.0572     17.1202     88.2013
  1026.5000      7.9604      2.5229      0.0626      7.7033     17.0513     83.3926
  1026.6000      7.9604      2.5133      0.0119      8.2841     17.0089     80.5189
  1026.7000      7.9604      2.5135      0.0316      8.2733     16.8421     79.0619
  1026.8000      7.9759      2.5154      0.0071      8.1587     16.4644     75.8164
  1026.9000      7.9759      2.5109      0.0214      8.4330     15.9249     73.7303
  1027.0000      7.9847      2.5002      0.0284      9.0802     15.4355     74.3428
  1027.1000      7.9847      2.4846      0.0557     10.0254     15.0899     73.6347
