~Version Information
VERS.                      2.0: CWLS Log ASCII Standard - VERSION 2.0
WRAP.                       NO: One line per depth step
~Well Information Block
STRT.FT               240.0000: 
STOP.FT               940.5000: 
STEP.FT                 0.1000: 
NULL.                -999.2500: 
COMP.          Pioneer Natural Resources: COMPANY
WELL.               Ernie 31-6: WELL
FLD.           Purgatoire River: FIELD
LOC.           681' FNL & 2138' FEL: LOCATION
CNTY.               Las Animas: COUNTY
SRVC.                Patterson: SERVICE COMPANY
DATE.          Tue May 30 07:05:10 2006: LOG DATE
UWI.           05 071 08716 00: UNIQUE WELL ID
STAT.                 Colorado: STATE
~Curve Information Block
DEPT.FT            0 000 00 00: Depth
DCAL.in                       : CDL Caliper
RHOB.g/cc                     : CDL Bulk Density
RHOC.g/cc                     : CDL Density Correction
DPOR.pu                       : CDL Density Porosity
GR.GAPI                       : Gamma Ray
NPOR.pu                       : Neutron Porosity
~Parameter Information Block
~A  Depth       DCAL        RHOB        RHOC        DPOR         GR         NPOR    
# ...
   288.0000      8.0556      2.4400      0.0309     12.7277     70.5981     16.5121
   288.1000      8.0556      2.4472      0.0619     12.2897     66.8488     16.9357
   288.2000      8.0556      2.4260      0.0375     13.5768     64.8387     17.4837
   288.3000      8.0549      2.3893     -0.0170     15.7995     65.5712     17.8221
   288.4000      8.0549      2.3622     -0.0127     17.4417     67.7966     17.9495
   288.5000      8.0552      2.3519      0.0417     18.0683     70.7529     17.9184
   288.6000      8.0552      2.3522      0.0082     18.0490     74.0531     17.6281
   288.7000      8.0552      2.3598      0.0479     17.5851     76.5917     17.1502
   288.8000      8.0532      2.3686      0.0407     17.0540     77.7403     17.2234
   288.9000      8.0532      2.3741      0.0396     16.7231     77.9590     18.2187
   289.0000      8.0587      2.3814      0.0276     16.2797     79.4502     19.3984
   289.1000      8.0587      2.4011      0.0313     15.0855     83.2077     19.8739
   289.2000      8.0587      2.4374      0.0472     12.8878     85.4927     19.6894
   289.3000      8.0572      2.4735      0.1342     10.6940     83.6115     19.3810
   289.4000      8.0572      2.4849      0.1639     10.0086     81.1879     19.1251
   289.5000      8.0558      2.4760      0.1151     10.5477     81.3654     19.0016
   289.6000      8.0558      2.4704      0.1344     10.8841     83.9379     19.2861
   289.7000      8.0558      2.4679      0.1346     11.0343     87.3410     19.8820
   289.8000      8.0563      2.4595      0.1126     11.5449     88.3182     20.2291
   289.9000      8.0563      2.4552      0.0945     11.8047     87.1325     20.1049
   290.0000      8.0578      2.4675      0.0769     11.0621     88.0564     19.5768
   290.1000      8.0578      2.4904      0.1303      9.6720     89.8955     18.9541
   290.2000      8.0578      2.5128      0.1053      8.3159     90.0183     18.5222
   290.3000      8.0578      2.5314      0.1448      7.1874     91.8661     18.2542
   290.4000      8.0578      2.5398      0.1727      6.6792     96.3736     18.1803
   290.5000      8.0567      2.5355      0.1475      6.9405     97.5162     18.3002
   290.6000      8.0567      2.5289      0.1415      7.3379     93.4930     18.4611
   290.7000      8.0567      2.5296      0.1064      7.2996     88.6923     18.7951
   290.8000      8.0560      2.5340      0.1493      7.0302     85.9328     19.3174
   290.9000      8.0560      2.5327      0.1112      7.1080     85.6368     19.6563
   291.0000      8.0525      2.5236      0.1247      7.6620     86.7911     19.7229
   291.1000      8.0525      2.5091      0.1007      8.5365     86.2841     19.9061
   291.2000      8.0525      2.4965      0.1026      9.3011     82.0954     20.5823
   291.3000      8.0579      2.4940      0.0799      9.4537     76.8271     21.3925
   291.4000      8.0579      2.5008      0.0850      9.0436     75.2064     21.7317
   291.5000      8.0551      2.5051      0.0907      8.7826     78.6541     21.6078
   291.6000      8.0551      2.4985      0.0613      9.1827     84.9934     21.4359
   291.7000      8.0551      2.4833      0.0453     10.1050     89.4976     21.0348
   291.8000      8.0567      2.4589      0.0464     11.5793     88.8627     20.0129
   291.9000      8.0567      2.4256      0.0247     13.5973     85.2530     19.0725
   292.0000      8.0565      2.4022     -0.0063     15.0157     81.9641     18.9196
   292.1000      8.0565      2.4104      0.0002     14.5202     79.3322     19.2313
   292.2000      8.0565      2.4414      0.0472     12.6446     76.3027     19.4603
   292.3000      8.0577      2.4644      0.0535     11.2455     72.8771     19.3505
   292.4000      8.0577      2.4669      0.0423     11.0964     72.0704     19.0154
   292.5000      8.0557      2.4621      0.0145     11.3883     77.5021     18.7396
   292.6000      8.0557      2.4611      0.0471     11.4460     88.8885     18.7917
   292.7000      8.0557      2.4615      0.0303     11.4262     98.1318     19.1605
   292.8000      8.0668      2.4664      0.0495     11.1295     97.9227     19.5193
   292.9000      8.0668      2.4761      0.0883     10.5382     93.8337     19.8650
   293.0000      8.0577      2.4819      0.0796     10.1873     94.5241     20.3728
   293.1000      8.0577      2.4871      0.0500      9.8729     99.9691     21.1356
   293.2000      8.0577      2.4954      0.0789      9.3719    105.5152     22.0366
   293.3000      8.0567      2.4966      0.0872      9.2963    111.2071     22.6859
   293.4000      8.0567      2.4899      0.0466      9.7038    118.9511     22.9245
   293.5000      8.0550      2.4805      0.0690     10.2733    125.4585     22.9282
   293.6000      8.0550      2.4671      0.0239     11.0824    127.2627     22.9004
   293.7000      8.0550      2.4576      0.0439     11.6588    126.3774     22.8318
   293.8000      8.0553      2.4610      0.0624     11.4562    127.1802     22.9904
   293.9000      8.0553      2.4709      0.0469     10.8548    131.0713     23.4755
   294.0000      8.0564      2.4806      0.0368     10.2693    135.0608     23.8696
   294.1000      8.0564      2.4932      0.0555      9.5018    134.2953     24.1622
   294.2000      8.0564      2.5094      0.0926      8.5237    127.2842     24.5366
   294.3000      8.0561      2.5198      0.0724      7.8882    119.6599     24.7331
   294.4000      8.0561      2.5208      0.0501      7.8312    117.7014     24.5123
   294.5000      8.0552      2.5113      0.0702      8.4030    118.6388     24.4108
   294.6000      8.0552      2.4924      0.0410      9.5533    115.4765     24.5162
   294.7000      8.0552      2.4845      0.0195     10.0308    109.4737     24.0349
   294.8000      8.0545      2.5055      0.0695      8.7547    106.3864     23.1198
   294.9000      8.0545      2.5392      0.1026      6.7124    107.6535     22.3887
   295.0000      8.0522      2.5567      0.1033      5.6573    108.1853     21.6219
   295.1000      8.0522      2.5468      0.1271      6.2557    102.3577     20.5146
   295.2000      8.0522      2.5210      0.0405      7.8158     92.0626     19.4333
   295.3000      8.0523      2.5061      0.0314      8.7221     83.7564     18.8179
   295.4000      8.0523      2.5110      0.0770      8.4244     80.4781     18.7479
   295.5000      8.0547      2.5178      0.0669      8.0139     80.1569     19.0824
   295.6000      8.0547      2.5137      0.0938      8.2583     80.5953     19.5982
   295.7000      8.0547      2.5028      0.0510      8.9240     81.6570     20.0535
   295.8000      8.0545      2.4946      0.0305      9.4165     82.3294     20.4430
   295.9000      8.0545      2.4877      0.0668      9.8352     82.5920     20.5226
   296.0000      8.0553      2.4738      0.0622     10.6785     84.9421     20.1519
   296.1000      8.0553      2.4556      0.0535     11.7816     88.9907     19.8334
   296.2000      8.0553      2.4408      0.0095     12.6817     88.7410     19.8736
   296.3000      8.0541      2.4334      0.0109     13.1291     83.8042     20.0542
   296.4000      8.0541      2.4312      0.0460     13.2600     78.7855     20.2387
   296.5000      8.0576      2.4283      0.0321     13.4350     75.9812     20.6049
   296.6000      8.0576      2.4214     -0.0042     13.8547     78.1874     20.9955
   296.7000      8.0576      2.4071      0.0046     14.7199     83.2712     20.8226
   296.8000      8.0556      2.3877     -0.0083     15.8976     86.4530     20.3344
   296.9000      8.0556      2.3732     -0.0083     16.7781     88.0690     20.3120
   297.0000      8.0556      2.3660     -0.0131     17.2140     90.2450     20.7538
   297.1000      8.0556      2.3632     -0.0020     17.3824     93.1007     21.0621
   297.2000      8.0556      2.3663      0.0088     17.1917     94.1824     21.0661
   297.3000      8.0558      2.3791      0.0137     16.4179     92.2432     21.0077
   297.4000      8.0558      2.3987      0.0536     15.2309     88.5757     20.8797
   297.5000      8.0567      2.4205      0.0438     13.9109     86.4539     20.7674
