~Version Information
 VERS.                                  2.0 : CWLS LAS VERSION
 WRAP.                                   NO : WRAPING MODE
 SWARE .                  MController 2.5.1 : SOFTWARE VERSION
~Well Information
 WELL.                           Erin 21-15 : WELL
 COMP.  Pioneer Natural Resources USA, Inc. : COMPANY
 FLD.                      Purgatoire River : FIELD
 LOC.             NE/NW Sec. 15, T33S, R67W : LOCATION
 DATE.                03/01/2006-03/02/2006 : DATE(S) LOGGED
 SRVC.                  Entrada GeoSciences : SERVICE COMPANY
 STAT.                             Colorado : STATE
 CNTY.                           Las Animas : COUNTY
 CTRY.                        United States : COUNTRY
 API.                          05-071-08713 : API NUMBER
 STRT.FT                             553.00 : START DEPTH
 STOP.FT                            2200.00 : STOP DEPTH
 STEP.FT                               1.00 : DEPTH INCREMENT
 NULL.                                -9999 : NULL VALUE
~Curve information
 DEPTH.FT                                   :
 ROP.MIN/FT                                 :
 GAS.UNITS                                  :
~ASCII Log data
# ...
     1353.00         0.20         32.6 
     1354.00         0.13         34.5 
     1355.00         0.17         36.2 
     1356.00         0.20         39.9 
     1357.00         0.30         43.7 
     1358.00         0.30         46.5 
     1359.00         0.23         46.9 
     1360.00         0.27         46.6 
     1361.00         0.17         45.4 
     1362.00         0.15         47.0 
     1363.00         0.17         48.1 
     1364.00         0.23         50.9 
     1365.00         0.27         52.2 
     1366.00         0.37         53.7 
     1367.00         0.20         54.3 
     1368.00         0.37         17.3 
     1369.00         0.17         18.2 
     1370.00         0.23         17.5 
     1371.00         0.17         18.5 
     1372.00         0.23         38.0 
     1373.00         0.20         72.6 
     1374.00         0.20        103.2 
     1375.00         0.27        110.9 
     1376.00         0.27         92.9 
     1377.00         0.20         78.8 
     1378.00         0.17         69.9 
     1379.00         0.23         64.5 
     1380.00         0.20         59.3 
     1381.00         0.17         49.8 
     1382.00         0.27         30.3 
     1383.00         0.68         19.0 
     1384.00         0.47         22.6 
     1385.00         0.23         25.4 
     1386.00         0.27         29.4 
     1387.00         0.37         35.5 
     1388.00         0.37         40.6 
     1389.00         0.23         41.4 
     1390.00         0.23         40.3 
     1391.00         0.40         41.8 
     1392.00         0.38         44.8 
     1393.00         0.20         45.5 
     1394.00         0.20         46.4 
     1395.00         0.20         48.5 
     1396.00         0.20         49.8 
     1397.00         0.23         49.4 
     1398.00         0.30         17.6 
     1399.00         0.30         17.0 
     1400.00         0.27         41.1 
     1401.00         0.23        102.2 
     1402.00         0.23        136.0 
     1403.00         0.30        126.4 
     1404.00         0.30        114.2 
     1405.00         0.23        101.3 
     1406.00         0.20         89.3 
     1407.00         0.10         75.5 
     1408.00         0.20         48.2 
     1409.00         0.32         31.3 
     1410.00         0.13         29.4 
     1411.00         0.27         28.0 
     1412.00         0.23         26.9 
     1413.00         0.17         25.8 
     1414.00         0.33         28.7 
     1415.00         0.27         30.7 
     1416.00         0.27         32.5 
     1417.00         0.27         34.0 
     1418.00         0.27         36.7 
     1419.00         0.40         44.7 
     1420.00         0.47         46.5 
     1421.00         0.52         42.4 
     1422.00         0.37         41.5 
     1423.00         0.27         43.1 
     1424.00         0.23         42.2 
     1425.00         0.20         42.6 
     1426.00         0.33         43.8 
     1427.00         0.27         41.4 
     1428.00         0.27         30.5 
     1429.00         0.23         29.9 
     1430.00         0.43         35.9 
     1431.00         0.47        118.7 
     1432.00         0.53        116.2 
     1433.00         0.47         85.2 
     1434.00         0.38         53.1 
     1435.00         0.33         33.2 
     1436.00         0.23         30.7 
     1437.00         0.33         27.7 
     1438.00         0.53         30.9 
     1439.00         0.17         32.5 
     1440.00         0.17         31.4 
     1441.00         0.23         33.4 
     1442.00         0.30         38.0 
     1443.00         0.20         42.4 
     1444.00         0.20         44.7 
     1445.00         0.17         48.1 
     1446.00         0.17         53.0 
     1447.00         0.17         54.9 
     1448.00         0.22         52.7 
     1449.00         0.13         50.8 
     1450.00         0.17         48.9 
     1451.00         0.23         47.7 
     1452.00         0.33         46.8 
     1453.00         0.30         46.7 
     1454.00         0.33         48.6 
     1455.00         0.43         45.2 
     1456.00         0.30         43.6 
     1457.00         0.33         42.7 
     1458.00         0.27         18.3 
     1459.00         0.33         18.6 
     1460.00         0.20         19.5 
     1461.00         0.23         19.6 
     1462.00         0.30         49.1 
     1463.00         0.33         86.2 
     1464.00         0.38         80.7 
     1465.00         0.37         67.4 
     1466.00         0.23         58.1 
     1467.00         0.17         51.6 
     1468.00         0.23         46.1 
     1469.00         0.20         43.0 
     1470.00         0.20         38.2 
     1471.00         0.13         33.4 
     1472.00         0.17         26.9 
     1473.00         0.17         21.8 
     1474.00         0.17         19.9 
     1475.00         0.20         17.6 
     1476.00         0.20         16.4 
     1477.00         0.37         15.7 
     1478.00         0.27         18.9 
     1479.00         0.13         18.6 
     1480.00         0.22         21.1 
     1481.00         0.37         25.4 
     1482.00         0.17         27.4 
     1483.00         0.23         30.2 
     1484.00         0.23         33.7 
     1485.00         0.17         34.7 
     1486.00         0.17         37.8 
     1487.00         0.30         38.5 
     1488.00         0.30         41.2 
     1489.00         0.33         22.1 
     1490.00         0.30         36.1 
     1491.00         0.37         75.5 
     1492.00         0.43         92.1 
     1493.00         0.33         80.4 
     1494.00         0.52         54.9 
     1495.00         0.37         44.1 
     1496.00         0.20         38.6 
     1497.00         0.20         35.7 
     1498.00         0.23         26.0 
     1499.00         0.17         23.3 
     1500.00         0.13         21.3 
     1501.00         0.13         18.8 
     1502.00         0.23         16.4 
     1503.00         0.20         17.6 
     1504.00         0.20         19.4 
     1505.00         0.23         21.8 
     1506.00         0.23         23.6 
     1507.00         0.30         27.6 
     1508.00         0.15         29.7 
     1509.00         0.17         33.3 
     1510.00         0.20         36.9 
     1511.00         0.23         43.5 
     1512.00         0.20         46.7 
     1513.00         0.20         49.0 
     1514.00         0.20         47.4 
     1515.00         0.27         49.0 
     1516.00         0.23         51.9 
     1517.00         0.27         48.8 
     1518.00         0.27         17.9 
     1519.00         0.43         17.6 
     1520.00         0.53         37.7 
     1521.00         0.57         71.2 
     1522.00         0.57         60.8 
     1523.00         0.52         51.1 
     1524.00         0.33         40.9 
     1525.00         0.30         36.0 
     1526.00         0.30         33.6 
     1527.00         0.50         20.4 
     1528.00         0.17         17.7 
     1529.00         0.13         17.5 
     1530.00         0.13         18.2 
     1531.00         0.20         22.6 
     1532.00         0.20         28.5 
     1533.00         0.20         31.2 
     1534.00         0.17         33.2 
     1535.00         0.17         35.2 
     1536.00         0.23         37.7 
     1537.00         0.10         38.9 
     1538.00         0.18         42.4 
     1539.00         0.17         46.6 
     1540.00         0.13         49.3 
     1541.00         0.27         54.1 
     1542.00         0.17         54.0 
     1543.00         0.17         53.0 
     1544.00         0.23         51.6 
     1545.00         0.30         48.5 
     1546.00         0.30         43.8 
     1547.00         0.33         45.7 
     1548.00         0.27         33.9 
     1549.00         0.43         68.2 
     1550.00         0.47         67.7 
     1551.00         0.45         53.8 
     1552.00         0.37         35.2 
