~Version Information
VERS.                      2.0: CWLS Log ASCII Standard - VERSION 2.0
WRAP.                       NO: One line per depth step
~Well Information Block
STRT.FT                -4.2500: 
STOP.FT               745.0000: 
STEP.FT                 0.2500: 
NULL.                -999.2500: 
COMP.          Pioneer Natural Resources: COMPANY
WELL.                Zed 11-23: WELL
FLD.           Purgatoire River: FIELD
LOC.           641' FNL & 952' FWL: LOCATION
CNTY.               Las Animas: COUNTY
SRVC.                         : SERVICE COMPANY
DATE.          Fri Mar 03 16:43:06 2006: LOG DATE
UWI.           05 071 08702 00: UNIQUE WELL ID
STAT.                       CO: STATE
~Curve Information Block
DEPT.FT            0 000 00 00: Depth
GR.GAPI                       : Gamma Ray
CCL.                          : Casing Collar Locator
TT3.usec                      : CBL 3' Travel Time
AMP3.mV                       : CBL 3' Amplitude
~Parameter Information Block
~A  Depth        GR         CCL         TT3         AMP3    
# ...
   565.2500     92.6634      0.0000    461.8084     18.4954
   565.5000     91.3021      0.0000    505.8593     18.1074
   565.7500     89.5918      0.0000    553.2546     17.5495
   566.0000     88.7401      0.0000    594.8748     16.9463
   566.2500     89.1716      0.0000    623.6673     16.3877
   566.5000     90.4712      0.0000    639.0510     15.8993
   566.7500     92.0495      0.0000    645.2356     15.4620
   567.0000     93.4422      0.0000    646.9532     15.0541
   567.2500     94.1708      0.0000    647.1347     14.6918
   567.5000     93.9758      0.0000    647.0073     14.4240
   567.7500     93.2285      0.0000    646.9360     14.2842
   568.0000     92.6395      0.0000    646.9789     14.2652
   568.2500     92.5491      0.0000    647.1536     14.3299
   568.5000     92.8374      0.0000    647.5815     14.4158
   568.7500     93.4269      0.0000    648.5948     14.4459
   569.0000     94.4669      0.0000    650.6451     14.3726
   569.2500     95.9568      0.0000    653.7090     14.2145
   569.5000     97.4405      0.0000    656.1998     14.0402
   569.7500     98.4136      0.0000    654.1981     13.9083
   570.0000     98.9653      0.0000    642.2606     13.8066
   570.2500     99.4657      0.0000    616.2014     13.6513
   570.5000     99.4943      0.0000    576.4250     13.3618
   570.7500     97.7030      0.0000    529.0460     12.9471
   571.0000     93.2419      0.0000    483.0480     12.5072
   571.2500     87.0592      0.0000    445.4674     12.1513
   571.5000     81.3525      0.0000    418.7731     11.9241
   571.7500     77.7093      0.0000    401.8044     11.7986
   572.0000     75.9599      0.0000    391.9726     11.7120
   572.2500     74.7300      0.0000    386.6812     11.6118
   572.5000     72.8813      0.0000    383.8947     11.4925
   572.7500     70.5181      0.0000    382.3219     11.3973
   573.0000     68.9174      0.0000    381.3306     11.3804
   573.2500     69.4635      0.0000    380.6731     11.4651
   573.5000     72.2829      0.0000    380.2435     11.6264
   573.7500     75.7564      0.0000    379.9723     11.8019
   574.0000     77.5916      0.0000    379.8261     11.9183
   574.2500     76.5790      0.0000    379.7957     11.9255
   574.5000     73.3885      0.0000    379.8433     11.8150
   574.7500     69.8960      0.0000    379.9107     11.6199
   575.0000     67.9917      0.0000    380.0235     11.4023
   575.2500     68.7627      0.0000    380.3564     11.2305
   575.5000     72.1721      0.0000    381.1372     11.1463
   575.7500     77.1198      0.0000    382.5000     11.1471
   576.0000     81.9478      0.0000    384.5074     11.2005
   576.2500     85.2374      0.0000    387.4066     11.2651
   576.5000     86.3533      0.0000    391.8229     11.3075
   576.7500     85.3926      0.0000    398.3758     11.3210
   577.0000     82.9736      0.0000    406.6896     11.3269
   577.2500     80.2867      0.0000    414.7150     11.3426
   577.5000     78.8530      0.0000    419.4077     11.3635
   577.7500     79.3857      0.0000    418.5475     11.3855
   578.0000     80.7006      0.0000    412.2897     11.4174
   578.2500     80.3193      0.0000    403.2085     11.4579
   578.5000     76.6056      0.0000    395.0233     11.4857
   578.7500     70.2898      0.0000    391.5045     11.4909
   579.0000     63.8863      0.0000    396.9582     11.4995
   579.2500     59.8615      0.0000    417.1294     11.5468
   579.5000     59.2256      0.0000    456.8505     11.6313
   579.7500     61.1631      0.0000    513.4581     11.7067
   580.0000     63.6047      0.0000    571.9435     11.7282
   580.2500     64.5744      0.0000    609.6668     11.6930
   580.5000     63.4613      0.0000    609.6463     11.6292
   580.7500     61.0805      0.0000    571.9293     11.5580
   581.0000     58.6556      0.0000    513.5370     11.4839
   581.2500     56.9357      0.0000    456.9897     11.4109
   581.5000     56.0530      0.0000    416.9232     11.3519
   581.7500     55.7948      0.0000    395.2835     11.3220
   582.0000     55.9280      0.0000    386.2163     11.3254
   582.2500     56.4077      0.0000    383.1523     11.3487
   582.5000     57.3491      0.0000    382.1494     11.3641
   582.7500     58.8166      0.0000    381.6447     11.3457
   583.0000     60.6808      0.0000    381.2609     11.2878
   583.2500     62.6906      0.0000    381.0033     11.2038
   583.5000     64.5594      0.0000    380.9155     11.1135
   583.7500     65.8762      0.0000    380.9898     11.0342
   584.0000     66.0671      0.0000    381.1589     10.9837
   584.2500     64.6623      0.0000    381.3433     10.9845
   584.5000     61.7220      0.0000    381.5040     11.0583
   584.7500     57.9939      0.0000    381.6924     11.2097
   585.0000     54.6102      0.0000    382.3512     11.4055
   585.2500     52.5933      0.0000    385.1155     11.5767
   585.5000     52.4882      0.0000    394.0020     11.6566
   585.7500     54.1395      0.0000    415.5757     11.6242
   586.0000     56.6301      0.0000    455.7168     11.5047
   586.2500     58.6263      0.0000    513.3318     11.3289
   586.5000     59.2666      0.0000    577.2885     11.0999
   586.7500     58.9366      0.0000    632.3104     10.7925
   587.0000     58.7975      0.0000    668.9545     10.3729
   587.2500     59.2395      0.0000    686.2987      9.8258
   587.5000     59.1235      0.0000    686.1566      9.1807
   587.7500     56.9057      0.0000    668.7414      8.5241
   588.0000     52.3424      0.0000    634.6522      7.9932
   588.2500     46.8063      0.0000    587.3588      7.7359
   588.5000     42.0595      0.0000    532.2847      7.8234
   588.7500     38.9545      0.0000    476.4225      8.1708
   589.0000     37.2398      2.0000    429.5618      8.5722
   589.2500     36.2691      1.8564    402.6135      8.8493
   589.5000     35.6944      0.0000    402.4357      8.9712
   589.7500     35.5923      0.0000    427.1765      9.0639
   590.0000     36.2104      0.0000    465.3769      9.3344
   590.2500     37.7655      0.0000    501.6120      9.9340
   590.5000     40.3686      0.0000    527.0500     10.8101
   590.7500     43.8315      0.0000    543.5305     11.6995
   591.0000     47.4994      0.0000    554.1895     12.3418
   591.2500     50.5469      0.0000    553.5850     12.6898
   591.5000     52.5197      0.0000    533.6974     12.8757
   591.7500     53.4673      0.0000    498.6100     13.0305
   592.0000     53.6620      0.0000    467.0443     13.1921
   592.2500     53.3615      0.0000    458.6549     13.3370
   592.5000     52.7577      0.0000    479.4041     13.4274
   592.7500     51.9997      0.0000    518.6113     13.4355
   593.0000     51.2870      0.0000    556.6406     13.3637
   593.2500     50.8939      0.0000    575.6624     13.2531
   593.5000     51.0028      0.0000    567.1273     13.1564
   593.7500     51.5619      0.0000    534.1843     13.1020
   594.0000     52.5498      0.0000    489.4513     13.0866
   594.2500     54.3838      0.0000    448.1404     13.0984
   594.5000     57.6775      0.0000    419.4741     13.1403
   594.7500     62.3492      0.0000    403.4537     13.2213
   595.0000     67.3391      0.0000    395.8106     13.3278
   595.2500     71.4487      0.0000    395.5754     13.4157
   595.5000     74.0730      0.0000    408.0547     13.4415
   595.7500     74.9993      0.0000    440.7014     13.4000
   596.0000     74.1065      0.0000    494.8103     13.3282
   596.2500     71.7333      0.0000    560.7106     13.2703
   596.5000     69.0930      0.0000    622.4849     13.2333
   596.7500     67.7296      0.0000    667.8002     13.1742
   597.0000     68.3000      0.0000    692.3685     13.0399
   597.2500     70.1291      0.0000    696.3011     12.8301
   597.5000     72.2018      0.0000    679.4539     12.6153
   597.7500     74.3219      0.0000    642.7636     12.4849
   598.0000     77.0341      0.0000    594.5614     12.4765
   598.2500     80.5626      0.0000    552.9988     12.5435
   598.5000     84.0869      0.0000    537.3734     12.5726
