~Version Information
VERS.                      2.0: CWLS Log ASCII Standard - VERSION 2.0
WRAP.                       NO: One line per depth step
~Well Information Block
STRT.FT               694.2000: 
STOP.FT              1498.5000: 
STEP.FT                 0.1000: 
NULL.                -999.2500: 
COMP.          Pioneer Natural Resources: COMPANY
WELL.          Pallet Ranch 34-25 Tr: WELL
FLD.           Purgatoire River: FIELD
LOC.           465' FSL & 2138' FEL: LOCATION
PROV.                 Colorado: PROVINCE
CNTY.               Las Animas: COUNTRY
SRVC.                Patterson: SERVICE COMPANY
DATE.          Thu Jan 19 06:39:54 2006: LOG DATE
UWI.           05 071 08657 00: UNIQUE WELL ID
~Curve Information Block
DEPT.FT            0 000 00 00: Depth
DCAL.in                       : CDL Caliper
RHOB.g/cc                     : CDL Bulk Density
RHOC.g/cc                     : CDL Density Correction
DPOR.pu                       : CDL Density Porosity
GR.GAPI                       : Gamma Ray
~Parameter Information Block
~A  Depth       DCAL        RHOB        RHOC        DPOR         GR     
# ...
  1119.8000      7.8752      1.7944      0.0221     51.8517     56.2855
  1119.9000      7.8752      1.7728      0.0781     53.1651     50.5446
  1120.0000      7.9367      1.7554      0.0988     54.2173     46.4995
  1120.1000      7.9367      1.7416      0.0919     55.0533     46.2503
  1120.2000      7.9367      1.7361      0.0894     55.3900     48.7983
  1120.3000      7.9470      1.7375      0.1028     55.3024     51.1248
  1120.4000      7.9470      1.7377      0.0772     55.2909     49.7319
  1120.5000      7.9461      1.7319      0.0837     55.6416     43.9641
  1120.6000      7.9461      1.7275      0.0754     55.9119     36.2149
  1120.7000      7.9461      1.7414      0.0591     55.0647     30.9940
  1120.8000      7.9396      1.7874      0.0791     52.2758     30.9774
  1120.9000      7.9396      1.8616      0.0912     47.7821     31.9050
  1121.0000      7.9479      1.9408      0.1195     42.9799     28.9791
  1121.1000      7.9479      2.0050      0.0946     39.0922     25.7388
  1121.2000      7.9479      2.0580      0.1474     35.8771     25.9969
  1121.3000      7.9461      2.1111      0.1499     32.6624     27.0301
  1121.4000      7.9461      2.1609      0.1796     29.6411     26.0932
  1121.5000      7.9587      2.2079      0.1134     26.7950     24.8076
  1121.6000      7.9587      2.2689      0.0538     23.0982     25.0888
  1121.7000      7.9587      2.3425      0.1066     18.6342     26.6664
  1121.8000      7.9338      2.4107      0.1139     14.5037     27.5381
  1121.9000      7.9338      2.4792      0.1795     10.3508     27.2990
  1122.0000      7.8476      2.5553      0.2589      5.7416     30.2254
  1122.1000      7.8476      2.6127      0.2898      2.2577     37.4666
  1122.2000      7.8476      2.6293      0.2620      1.2563     42.2885
  1122.3000      7.8182      2.6212      0.1912      1.7480     41.3716
  1122.4000      7.8182      2.6051      0.1697      2.7220     40.0125
  1122.5000      7.8302      2.5623      0.1406      5.3152     42.8926
  1122.6000      7.8302      2.4840     -0.0009     10.0611     49.6244
  1122.7000      7.8302      2.4056     -0.0221     14.8092     59.2831
  1122.8000      7.8839      2.3503      0.0020     18.1652     70.4069
  1122.9000      7.8839      2.3007      0.0537     21.1697     79.4536
  1123.0000      7.9126      2.2519     -0.0157     24.1284     85.7549
  1123.1000      7.9126      2.2251      0.0061     25.7545     91.9128
  1123.2000      7.9126      2.2253      0.0694     25.7374    100.0645
  1123.3000      7.9129      2.2407      0.1101     24.8055    104.9939
  1123.4000      7.9129      2.2680      0.1286     23.1521    103.3856
  1123.5000      7.9305      2.3038      0.1986     20.9844    101.1229
  1123.6000      7.9305      2.3434      0.1155     18.5834    100.1536
  1123.7000      7.9305      2.3913      0.1128     15.6788    100.4224
  1123.8000      7.9720      2.4362      0.1771     12.9576    103.7291
  1123.9000      7.9720      2.4617      0.1077     11.4093    106.7992
  1124.0000      7.9296      2.4797      0.1141     10.3188    108.2493
  1124.1000      7.9296      2.4990      0.1490      9.1523    112.6435
  1124.2000      7.9296      2.5052      0.1541      8.7734    117.8702
  1124.3000      7.9221      2.4936      0.0911      9.4788    117.8149
  1124.4000      7.9221      2.4737      0.0680     10.6835    114.3131
  1124.5000      7.9140      2.4500      0.0734     12.1205    111.7168
  1124.6000      7.9140      2.4270      0.0143     13.5151    109.7947
  1124.7000      7.9140      2.4123      0.0529     14.4083    111.0249
  1124.8000      7.9071      2.4032      0.0597     14.9564    118.6496
  1124.9000      7.9071      2.3951      0.0615     15.4489    130.2788
  1125.0000      7.9281      2.3874      0.0453     15.9135    138.5892
  1125.1000      7.9281      2.3723      0.0732     16.8328    137.9599
  1125.2000      7.9281      2.3370      0.0404     18.9678    131.4151
  1125.3000      8.0059      2.2728      0.0221     22.8576    125.6757
  1125.4000      8.0059      2.1794      0.0269     28.5239    124.2071
  1125.5000      8.0289      2.0813     -0.0247     34.4684    123.1704
  1125.6000      8.0289      2.0165     -0.0166     38.3912    117.2159
  1125.7000      8.0289      2.0031     -0.0466     39.2089    110.7941
  1125.8000      8.0040      2.0319     -0.0315     37.4634    110.9737
  1125.9000      8.0040      2.0837     -0.0413     34.3185    115.2486
  1126.0000      8.0065      2.1534      0.0267     30.0983    116.7339
  1126.1000      8.0065      2.2398      0.1665     24.8584    115.4247
  1126.2000      8.0065      2.3295      0.2583     19.4265    110.9323
  1126.3000      7.9969      2.4196      0.2027     13.9660    104.6988
  1126.4000      7.9969      2.5169      0.1814      8.0663    105.1955
  1126.5000      8.0244      2.6007      0.2093      2.9865    111.3103
  1126.6000      8.0244      2.6430      0.1229      0.4269    113.4451
  1126.7000      8.0244      2.6490      0.0526      0.0631    112.1431
  1126.8000      7.9820      2.6392      0.0478      0.6549    112.0067
  1126.9000      7.9820      2.6315     -0.0390      1.1208    113.5730
  1127.0000      7.9453      2.6354      0.0273      0.8844    115.3537
  1127.1000      7.9453      2.6406      0.0771      0.5724    116.3119
  1127.2000      7.9453      2.6501     -0.0003     -0.0037    116.5034
  1127.3000      7.9426      2.6838      0.0842     -2.0490    114.6727
  1127.4000      7.9426      2.7355      0.0470     -5.1789    113.2057
  1127.5000      7.9456      2.7930      0.0740     -8.6690    115.3350
  1127.6000      7.9456      2.8532      0.1090    -12.3169    119.0723
  1127.7000      7.9456      2.9040      0.1448    -15.3965    119.9434
  1127.8000      7.9124      2.9349      0.1388    -17.2679    116.2721
  1127.9000      7.9124      2.9449      0.1055    -17.8737    110.2310
  1128.0000      7.9031      2.9425      0.0252    -17.7264    106.4184
  1128.1000      7.9031      2.9253      0.0909    -16.6851    107.6025
  1128.2000      7.9031      2.8827      0.0234    -14.1055    107.5906
  1128.3000      7.8961      2.8344     -0.0601    -11.1731    101.9715
  1128.4000      7.8961      2.8044     -0.0624     -9.3587     98.1720
  1128.5000      7.8927      2.7829     -0.0503     -8.0546    103.7430
  1128.6000      7.8927      2.7545     -0.0092     -6.3346    113.9009
  1128.7000      7.8927      2.7259      0.0613     -4.5978    118.2839
  1128.8000      7.9060      2.7030      0.1001     -3.2123    114.3443
  1128.9000      7.9060      2.6810      0.1749     -1.8807    107.6570
  1129.0000      7.8875      2.6614      0.1124     -0.6923    106.4782
  1129.1000      7.8875      2.6573      0.0692     -0.4408    110.5159
  1129.2000      7.8875      2.6722      0.0958     -1.3452    111.6967
  1129.3000      7.8650      2.6978      0.1103     -2.8941    108.5223
  1129.4000      7.8650      2.7203      0.1522     -4.2603    107.8267
  1129.5000      7.8821      2.7215      0.1167     -4.3352    113.7212
  1129.6000      7.8821      2.6967      0.1518     -2.8321    118.7826
  1129.7000      7.8821      2.6651      0.0423     -0.9170    116.5470
  1129.8000      7.8912      2.6539     -0.0028     -0.2352    113.3171
  1129.9000      7.8912      2.6587      0.0423     -0.5273    112.0449
  1130.0000      7.8619      2.6497      0.0671      0.0209    111.2787
  1130.1000      7.8619      2.6276      0.0439      1.3560    114.1316
  1130.2000      7.8619      2.6213      0.0743      1.7395    119.1491
  1130.3000      7.9019      2.6361      0.1193      0.8395    122.1537
  1130.4000      7.9019      2.6516      0.1859     -0.0956    124.1282
  1130.5000      7.9448      2.6525      0.1722     -0.1498    126.3815
  1130.6000      7.9448      2.6621      0.1005     -0.7358    126.0327
  1130.7000      7.9448      2.7146      0.0898     -3.9144    120.7786
  1130.8000      7.9357      2.7962      0.1425     -8.8609    113.3968
  1130.9000      7.9357      2.8664      0.1969    -13.1161    109.0316
