~Version Information
VERS.                      2.0: CWLS Log ASCII Standard - VERSION 2.0
WRAP.                       NO: One line per depth step
~Well Information Block
STRT.FT                 0.0000: 
STOP.FT              3428.7500: 
STEP.FT                 0.2500: 
NULL.                -999.2500: 
COMP.          Pioneer Natural Resources: COMPANY
WELL.          Cordillera 34-7: WELL
FLD.           Purgatorie River: FIELD
LOC.           598' FSL & 1770' FEL: LOCATION
PROV.                 Colorado: PROVINCE
CNTY.               Las Animas: COUNTRY
SRVC.                Patterson: SERVICE COMPANY
DATE.          Fri Nov 18 07:55:32 2005: LOG DATE
UWI.                          : UNIQUE WELL ID
~Curve Information Block
DEPT.FT            0 000 00 00: Depth
AMP3.mV                       : CBL 3' Amplitude
CCL.                          : Casing Collar Locator
GR.GAPI                       : Gamma Ray
TT3.usec                      : CBL 3' Travel Time
~Parameter Information Block
~A  Depth       AMP3        CCL          GR         TT3     
     0.0000     -0.1895   -999.2500     33.3260   1170.0000
     0.2500     -0.1906   -999.2500     35.7259   1170.0000
     0.5000     -0.1838   -999.2500     37.7663   1170.0000
     0.7500     -0.1803      0.0000     39.5317   1170.0000
     1.0000     -0.1828      0.0000     41.7696   1170.0000
     1.2500     -0.1885      0.0000     45.5054   1170.0000
     1.5000     -0.1920      0.0000     50.6792   1170.0000
     1.7500     -0.1902      0.0000     55.8705   1170.0000
     2.0000     -0.1845      0.0000     59.4106   1170.0000
     2.2500     -0.1784      0.0000     60.6115   1170.0000
     2.5000     -0.1731      0.0000     60.0894   1170.0000
     2.7500     -0.1674      0.0000     59.1494   1170.0000
     3.0000     -0.1595      0.0000     58.7948   1170.0000
     3.2500     -0.1482      0.0000     59.1966   1170.0000
     3.5000     -0.1350      0.0000     60.1049   1170.0000
     3.7500     -0.1236      0.0000     61.5283   1170.0000
     4.0000     -0.1191      0.0000     63.5929   1170.0000
     4.2500     -0.1246      0.0000     65.7154   1170.0000
     4.5000     -0.1393      0.0000     66.5297   1170.0000
     4.7500     -0.1580      0.0000     65.0478   1170.0000
     5.0000     -0.1738      0.0000     61.6924   1170.0000
     5.2500     -0.1817      0.0000     58.0282   1170.0000
     5.5000     -0.1805      0.0000     55.6210   1170.0000
     5.7500     -0.1718      0.0000     55.1099   1170.0000
     6.0000     -0.1591      0.0000     56.0792   1170.0000
     6.2500     -0.1470      0.0000     57.6862   1170.0000
     6.5000     -0.1397      0.0000     59.4122   1170.0000
     6.7500     -0.1392      0.0000     61.1597   1170.0000
     7.0000     -0.1441      0.0000     62.7608   1170.0000
     7.2500     -0.1505      0.0000     63.7615   1170.0000
     7.5000     -0.1543      0.0000     63.8081   1170.0000
     7.7500     -0.1527      0.0000     63.0445   1170.0000
     8.0000     -0.1459      0.0000     62.2587   1170.0000
     8.2500     -0.1371      0.0000     62.9377   1170.0000
     8.5000     -0.1297      0.0000     67.0107   1170.0000
     8.7500     -0.1254      0.0000     75.6789   1170.0000
     9.0000     -0.1251      0.0000     87.8745   1170.0000
     9.2500     -0.1293      0.0000    100.0590   1170.0000
     9.5000     -0.1369      0.0000    108.3189   1170.0000
     9.7500     -0.1450      0.0000    111.0031   1170.0000
    10.0000     -0.1501      0.0000    108.9400   1170.0000
    10.2500     -0.1511      0.0000    103.3910   1170.0000
    10.5000     -0.1487      0.0000     94.9302   1170.0000
    10.7500     -0.1437      0.0000     84.4305   1169.9835
    11.0000     -0.1298      0.0000     73.8576   1169.8328
    11.2500     -0.0787      0.0000     65.2623   1169.0057
    11.5000      0.1279      0.0000     59.4022   1165.4200
    11.7500      0.8634      0.0000     55.8765   1153.1315
    12.0000      2.9966      0.0000     54.1467   1119.8221
    12.2500      7.9180      0.0000     53.7947   1048.4043
    12.5000     16.8580      0.0000     54.2007    927.3302
    12.7500     29.5732      0.0000     54.6653    765.1714
    13.0000     43.6830      0.0000     54.8085    593.7882
    13.2500     55.8751      0.0000     54.4900    451.0522
    13.5000     64.0796      0.0000     53.5543    357.5148
    13.7500     68.3982      0.0000     52.0983    309.3572
    14.0000     70.1977      0.0000     50.9594    289.9099
    14.2500     70.7993      0.0000     51.4950    283.7658
    14.5000     70.9510      0.0000     54.4587    282.2610
    14.7500     70.9646      0.0000     59.0407    281.9911
    15.0000     70.9565      0.0000     63.2114    281.9745
    15.2500     70.9645      0.0000     65.1974    281.9970
    15.5000     70.9924      0.0000     64.7110    282.0128
    15.7500     71.0275      0.0000     62.8249    282.0219
    16.0000     71.0534      0.0000     60.8103    282.0256
    16.2500     71.0587      0.0000     59.1984    282.0244
    16.5000     71.0475      0.0000     57.7258    282.0182
    16.7500     71.0408      0.0000     55.7572    282.0077
    17.0000     71.0587      0.0000     52.7986    281.9962
    17.2500     71.1022      0.0000     49.2209    281.9878
    17.5000     71.1555      0.0000     46.7174    281.9865
    17.7500     71.1988      0.0000     47.3406    281.9955
    18.0000     71.2189      0.0000     51.3737    282.0142
    18.2500     71.2138      0.0000     56.4606    282.0379
    18.5000     71.1952      0.0000     59.5154    282.0597
    18.7500     71.1824      0.0000     59.4831    282.0752
    19.0000     71.1883      0.0000     57.7765    282.0844
    19.2500     71.2110      0.0000     56.1764    282.0887
    19.5000     71.2432      0.0000     54.9372    282.0880
    19.7500     71.2828      0.0000     53.0638    282.0815
    20.0000     71.3312      0.0000     49.9237    282.0713
    20.2500     71.3854      0.0000     46.1807    282.0625
    20.5000     71.4355      0.0000     43.2507    282.0604
    20.7500     71.4697      0.0000     42.1310    282.0679
    21.0000     71.4796      0.0000     42.8214    282.0842
    21.2500     71.4645      0.0000     44.5662    282.1051
    21.5000     71.4305      0.0000     46.3828    282.1253
    21.7500     71.3872      0.0000     47.5334    282.1421
    22.0000     71.3438      0.0000     48.0469    282.1562
    22.2500     71.3076      0.0000     48.9536    282.1698
    22.5000     71.2823      0.0000     51.4518    282.1835
    22.7500     71.2658      0.0000     55.3609    282.1958
    23.0000     71.2483      0.0000     58.7296    282.2051
    23.2500     71.2165      0.0000     59.5748    282.2119
    23.5000     71.1551      0.0000     57.8915    282.2209
    23.7500     71.0347      0.0000     55.5482    282.2400
    24.0000     70.7794      0.0000     54.3873    282.2809
    24.2500     70.2316      0.0000     54.8848    282.3686
    24.5000     69.1298      0.0000     56.4284    282.5905
    24.7500     67.1371      0.0000     58.1992    283.2090
    25.0000     63.9516      0.0000     59.5478    284.8710
    25.2500     59.4775      0.0000     60.0181    288.8510
    25.5000     53.9331      0.0000     59.6080    297.0650
    25.7500     47.7840      0.0000     59.0534    311.7640
    26.0000     41.5552      0.0000     59.4685    334.9241
    26.2500     35.6741      0.0000     61.4894    367.7098
    26.5000     30.4187      0.0000     64.8835    409.6446
    26.7500     25.9270      0.0000     68.9189    456.7911
    27.0000     22.2245      0.0000     72.8239    500.6784
    27.2500     19.2638      0.0000     75.9382    532.9449
    27.5000     16.9607      0.0000     77.7413    554.8583
    27.7500     15.2103      0.0000     78.0035    579.4978
    28.0000     13.8922      0.0000     76.9582    619.1538
    28.2500     12.8894      0.0000     75.2193    671.3312
    28.5000     12.1100      0.0000     73.4293    720.8373
    28.7500     11.4900      0.0000     71.9694    754.2393
    29.0000     10.9853      0.0000     70.8569    769.0849
    29.2500     10.5697      0.0000     69.7124    771.1227
    29.5000     10.2300      0.0000     67.8252    767.3627
    29.7500      9.9520      0.0000     64.5261    762.4374
    30.0000      9.7143      0.0000     59.6473    758.2804
    30.2500      9.5014      0.0000     53.7858    754.8709
    30.5000      9.3142      0.0000     48.3070    751.2610
    30.7500      9.1582      0.0000     44.9017    746.9981
    31.0000      9.0294      0.0000     44.5850    743.1348
    31.2500      8.9145      0.0000     46.9585    741.6653
    31.5000      8.8006      0.0000     50.6110    743.5883
    31.7500      8.6835      0.0000     54.1788    747.8535
    32.0000      8.5751      0.0000     56.8582    752.5546
    32.2500      8.5070      0.0000     58.2845    756.6752
    32.5000      8.5130      0.0000     58.3598    760.1052
    32.7500      8.5953      0.0000     57.1711    762.3558
    33.0000      8.7114      0.0000     55.1022    762.0684
    33.2500      8.8037      0.0000     53.2437    758.1687
