~Version Information
VERS.                      2.0: CWLS Log ASCII Standard - VERSION 2.0
WRAP.                       NO: One line per depth step
~Well Information Block
STRT.FT                 0.0000: 
STOP.FT              2792.7500: 
STEP.FT                 0.2500: 
NULL.                -999.2500: 
COMP.          Pioneer Natural Resources: COMPANY
WELL.          Black Cat 13-32: WELL
FLD.           Purgatorie River: FIELD
LOC.           1865' FSL & 1120' FWL: LOCATION
PROV.                 Colorado: PROVINCE
CNTY.               Las Animas: COUNTRY
SRVC.                Patterson: SERVICE COMPANY
DATE.          Fri Aug 19 09:19:21 2005: LOG DATE
UWI.                          : UNIQUE WELL ID
~Curve Information Block
DEPT.FT            0 000 00 00: Depth
CCL.                          : Casing Collar Locator
TT3.usec                      : CBL 3' Travel Time
AMP3.mV                       : CBL 3' Amplitude
GR.GAPI                       : Gamma Ray
~Parameter Information Block
~A  Depth       CCL         TT3         AMP3         GR     
# ...
  2010.0000      0.0000    473.2947      4.5778     80.6863
  2010.2500      0.0000    510.5994      4.5713     73.9613
  2010.5000      0.0000    551.0365      4.5487     67.8292
  2010.7500      0.0000    586.9012      4.4884     63.2603
  2011.0000      0.0000    602.6615      4.4073     61.7867
  2011.2500      0.0000    583.9261      4.3344     64.2951
  2011.5000      0.0000    546.5474      4.2636     70.0360
  2011.7500      0.0000    522.8139      4.1788     77.1983
  2012.0000      0.0000    528.0097      4.0995     84.4102
  2012.2500      0.0000    550.5104      4.0499     91.5575
  2012.5000      0.0000    561.8237      4.0206     99.1991
  2012.7500      0.0000    544.4837      3.9946    107.4018
  2013.0000      0.0000    517.4083      3.9854    115.3692
  2013.2500      0.0000    516.8451      4.0203    122.3367
  2013.5000      0.0000    549.7107      4.0892    128.5191
  2013.7500      0.0000    590.5382      4.1406    134.5399
  2014.0000      0.0000    616.1880      4.1559    139.8685
  2014.2500      0.0000    618.4644      4.1845    142.5546
  2014.5000      0.0000    603.4787      4.2679    140.8447
  2014.7500      0.0000    588.0917      4.3930    134.6536
  2015.0000     -2.0000    575.7883      4.5362    125.5695
  2015.2500      0.0000    555.3306      4.6759    116.0833
  2015.5000      2.0000    534.0726      4.7612    108.6925
  2015.7500      0.0000    532.1422      4.7086    104.9181
  2016.0000      0.0000    551.6078      4.4595    104.6705
  2016.2500      0.0000    581.0926      4.0666    106.5585
  2016.5000      0.0000    608.0419      3.7024    109.0403
  2016.7500      0.0000    620.1333      3.5407    111.4809
  2017.0000      0.0000    615.1089      3.6112    114.1074
  2017.2500      0.0000    605.7270      3.7856    117.0115
  2017.5000      0.0000    605.1853      3.9261    119.7158
  2017.7500      0.0000    613.3395      3.9861    122.0204
  2018.0000      0.0000    620.9258      3.9900    124.6659
  2018.2500      0.0000    621.0529      3.9968    128.3508
  2018.5000      0.0000    614.1351      4.0473    132.0981
  2018.7500      0.0000    605.7972      4.1149    133.2868
  2019.0000      0.0000    597.1681      4.1372    129.8448
  2019.2500      0.0000    576.0250      4.0856    122.4474
  2019.5000      0.0000    534.1528      3.9889    114.3299
  2019.7500      0.0000    495.9066      3.9126    108.8707
  2020.0000      0.0000    498.1295      3.9107    107.4777
  2020.2500      0.0000    538.0459      3.9900    109.6592
  2020.5000      0.0000    578.8071      4.1131    114.3966
  2020.7500      0.0000    600.0375      4.2283    120.8342
  2021.0000      0.0000    607.3402      4.3003    127.9897
  2021.2500      0.0000    609.6052      4.3184    134.6009
  2021.5000      0.0000    611.8987      4.2907    139.4147
  2021.7500      0.0000    617.3185      4.2387    141.4914
  2022.0000      0.0000    625.4391      4.1846    140.8018
  2022.2500      0.0000    632.4951      4.1369    138.9789
  2022.5000      0.0000    634.3734      4.0964    138.6882
  2022.7500      0.0000    630.3677      4.0727    141.2776
  2023.0000      0.0000    624.3915      4.0729    145.1186
  2023.2500      0.0000    620.7477      4.0715    146.6576
  2023.5000      0.0000    620.3245      4.0414    143.0486
  2023.7500      0.0000    621.3169      4.0035    134.1681
  2024.0000      0.0000    621.6651      3.9863    122.8035
  2024.2500      0.0000    621.4283      3.9797    112.7787
  2024.5000      0.0000    621.5091      3.9709    106.4490
  2024.7500      0.0000    621.2476      3.9640    104.1016
  2025.0000      0.0000    620.4763      3.9589    105.2746
  2025.2500      0.0000    621.1810      3.9596    109.4912
  2025.5000      0.0000    626.0626      3.9831    115.7630
  2025.7500      0.0000    636.0393      4.0310    122.6473
  2026.0000      0.0000    647.5017      4.0953    129.1365
  2026.2500      0.0000    655.2767      4.1807    134.7964
  2026.5000      0.0000    659.2167      4.2697    139.0554
  2026.7500      0.0000    660.5023      4.3129    141.1378
  2027.0000      0.0000    654.3403      4.2874    140.8011
  2027.2500      0.0000    638.4149      4.2318    138.5138
  2027.5000      0.0000    621.0452      4.2025    134.7960
  2027.7500      0.0000    610.5197      4.2163    130.0142
  2028.0000      0.0000    606.6541      4.2619    124.9654
  2028.2500      0.0000    606.4277      4.3272    121.0877
  2028.5000      0.0000    610.4497      4.4007    119.8809
  2028.7500      0.0000    623.4903      4.4745    122.2746
  2029.0000      0.0000    648.2424      4.5350    128.1318
  2029.2500      0.0000    676.5574      4.5556    135.9585
  2029.5000      0.0000    694.2839      4.5264    143.4815
  2029.7500      0.0000    698.7332      4.4750    149.0602
  2030.0000      0.0000    700.9308      4.4388    152.6807
  2030.2500      0.0000    708.5127      4.4317    155.7352
  2030.5000      0.0000    717.3633      4.4379    159.8968
  2030.7500      0.0000    720.0535      4.4234    165.7059
  2031.0000      0.0000    712.5371      4.3654    171.7263
  2031.2500      0.0000    696.1403      4.2757    175.2777
  2031.5000      0.0000    681.2948      4.1850    174.4366
  2031.7500      0.0000    681.3008      4.1109    169.5024
  2032.0000      0.0000    696.1402      4.0519    162.7647
  2032.2500      0.0000    712.7422      4.0047    157.0759
  2032.5000      0.0000    721.5495      3.9746    154.4578
  2032.7500      0.0000    721.8245      3.9685    155.4720
  2033.0000      0.0000    714.8397      3.9808    159.1800
  2033.2500      0.0000    702.7980      4.0022    163.4219
  2033.5000      0.0000    691.6730      4.0380    165.6683
  2033.7500      0.0000    685.1866      4.0979    164.4333
  2034.0000      0.0000    678.1083      4.1775    160.0313
  2034.2500      0.0000    662.7734      4.2624    153.6737
  2034.5000      0.0000    640.2899      4.3330    146.0224
  2034.7500      0.0000    621.0640      4.3753    137.2799
  2035.0000      0.0000    614.4318      4.4039    128.6909
  2035.2500      0.0000    623.5032      4.4552    123.0589
  2035.5000      0.0000    645.8303      4.5619    123.1570
  2035.7500      0.0000    670.7590      4.7412    129.5941
  2036.0000      0.0000    686.4407      4.9789    140.0839
  2036.2500      0.0000    694.4743      5.2128    150.6570
  2036.5000      0.0000    703.4796      5.3669    157.9293
  2036.7500      0.0000    712.6347      5.4210    160.8391
  2037.0000      0.0000    715.2759      5.4197    160.8236
  2037.2500      0.0000    709.9587      5.4112    160.6227
  2037.5000      0.0000    701.7918      5.4015    162.5232
  2037.7500      0.0000    698.0834      5.3604    167.0562
  2038.0000      0.0000    702.4778      5.2605    172.9380
  2038.2500      0.0000    711.8661      5.1033    178.0970
  2038.5000      0.0000    719.7871      4.9188    180.8393
  2038.7500      0.0000    721.7316      4.7496    180.6067
  2039.0000      0.0000    716.4116      4.6188    178.3006
  2039.2500      0.0000    706.9104      4.5236    175.8656
  2039.5000      0.0000    701.7557      4.4667    175.1605
  2039.7500      0.0000    706.4894      4.4621    176.9125
  2040.0000      0.0000    716.0362      4.5021    180.3936
  2040.2500      0.0000    722.8941      4.5451    183.7973
  2040.5000      0.0000    725.7090      4.5559    185.2866
  2040.7500      0.0000    726.5376      4.5367    184.1744
  2041.0000      0.0000    726.7862      4.5147    181.1373
  2041.2500      0.0000    726.8777      4.5033    177.4025
  2041.5000      0.0000    726.8882      4.4895    173.9550
  2041.7500      0.0000    726.8471      4.4636    171.3755
  2042.0000      0.0000    726.7442      4.4392    170.1345
  2042.2500      0.0000    726.3389      4.4300    170.7823
  2042.5000      0.0000    724.8884      4.4305    173.3679
  2042.7500      0.0000    721.0286      4.4237    176.5844
  2043.0000      0.0000    713.8374      4.3948    178.0770
  2043.2500      0.0000    704.7634      4.3401    175.9434
