~Version Information
VERS.                      2.0: CWLS Log ASCII Standard - VERSION 2.0
WRAP.                       NO: One line per depth step
~Well Information Block
STRT.FT                -4.0000: 
STOP.FT              1544.0000: 
STEP.FT                 0.2500: 
NULL.                -999.2500: 
COMP.          Pioneer Natural Resources: COMPANY
WELL.           Screamin 12-29: WELL
FLD.           Purgatoire River: FIELD
LOC.           2038' FNL & 612' FWL--: LOCATION
CNTY.               Las Animas: COUNTY
SRVC.                Patterson: SERVICE COMPANY
DATE.          Fri Apr 14 00:36:42 2006: LOG DATE
UWI.           05 071 08661 00: UNIQUE WELL ID
STAT.                 Colorado: STATE
~Curve Information Block
DEPT.FT            0 000 00 00: Depth
GR.GAPI                       : Gamma Ray
CCL.                          : Casing Collar Locator
TT3.usec                      : CBL 3' Travel Time
AMP3.mV                       : CBL 3' Amplitude
~Parameter Information Block
~A  Depth        GR         CCL         TT3         AMP3    
# ...
   800.0000    124.1755      0.0000    628.0245      7.3871
   800.2500    122.3371      0.0000    635.8291      7.3947
   800.5000    116.3837      0.0000    629.7518      7.3707
   800.7500    110.2857      0.0000    614.4531      7.3300
   801.0000     99.9870      0.0000    581.5341      7.2544
   801.2500     93.8164      0.0000    560.1361      7.2143
   801.5000     86.7219      0.0000    541.9405      7.1922
   801.7500     83.3065      0.0000    542.3295      7.2029
   802.0000     79.7533      0.0000    556.5809      7.2384
   802.2500     78.3640      0.0000    569.8783      7.2609
   802.5000     77.6352      0.0000    590.1712      7.2798
   802.7500     77.9107      0.0000    602.8398      7.2861
   803.0000     79.3211      0.0000    618.6457      7.2998
   803.2500     80.8522      0.0000    626.0177      7.3149
   803.5000     83.4855      0.0000    632.6147      7.3448
   803.7500     84.9673      0.0000    635.2131      7.3696
   804.0000     86.6327      0.0000    638.2413      7.4163
   804.2500     87.9579      0.0000    639.8680      7.4505
   804.5000     91.4030      0.0000    640.0819      7.4923
   804.7500     94.6861      0.0000    636.8551      7.5060
   805.0000     99.9574      0.0000    624.1095      7.5006
   805.2500    102.9580      0.0000    610.3166      7.4839
   805.5000    106.0909      0.0000    585.3603      7.4551
   805.7500    107.3372      0.0000    568.6483      7.4440
   806.0000    108.7160      0.0000    544.8854      7.4526
   806.2500    110.1249      0.0000    528.3901      7.4763
   806.5000    114.2585      0.0000    500.5485      7.5313
   806.7500    118.3698      0.0000    481.2669      7.5728
   807.0000    125.1647      0.0000    456.2068      7.6248
   807.2500    129.1418      0.0000    443.7363      7.6443
   807.5000    133.6613      0.0000    430.6123      7.6532
   807.7500    136.0579      0.0000    424.4901      7.6580
   808.0000    139.6007      0.0000    418.4161      7.6838
   808.2500    141.9445      0.0000    416.4738      7.7140
   808.5000    144.1327      0.0000    417.6199      7.7596
   808.7500    143.6932      0.0000    422.7631      7.7774
   809.0000    139.8809      0.0000    441.8930      7.7785
   809.2500    136.2709      0.0000    464.6006      7.7675
   809.5000    131.4088      0.0000    511.6671      7.7448
   809.7500    128.8477      0.0000    545.4788      7.7274
   810.0000    124.8951      0.0000    583.4249      7.6996
   810.2500    121.3669      0.0000    591.6809      7.6858
   810.5000    114.0759      0.0000    574.0847      7.6857
   810.7500    108.0794      0.0000    548.2579      7.7014
   811.0000     98.9032      0.0000    510.6202      7.7373
   811.2500     94.1303      0.0000    500.0494      7.7623
   811.5000     91.4373      0.0000    515.9752      7.8042
   811.7500     93.3371      0.0000    542.6477      7.8427
   812.0000    101.2363      0.0000    588.3967      7.9209
   812.2500    108.6762      0.0000    614.1702      7.9797
   812.5000    120.0966      0.0000    640.7621      8.0548
   812.7500    126.2632      0.0000    651.1458      8.0825
   813.0000    132.4094      0.0000    657.6860      8.0731
   813.2500    135.1668      0.0000    656.9324      8.0262
   813.5000    138.9921      0.0000    650.4677      7.8822
   813.7500    141.5398      0.0000    644.5102      7.7278
   814.0000    144.4296      0.0000    635.9599      7.4010
   814.2500    145.2668      0.0000    631.4769      7.1296
   814.5000    144.7497      0.0000    627.4002      6.6900
   814.7500    143.0810      0.0000    626.9008      6.4087
   815.0000    138.0178      0.0000    630.0704      6.0384
   815.2500    133.0409      0.0000    634.7021      5.8291
   815.5000    124.8810      0.0000    644.7291      5.5821
   815.7500    120.3695      0.0000    653.2262      5.4852
   816.0000    116.3732      0.0000    668.7797      5.4756
   816.2500    115.5349      0.0000    680.9853      5.5429
   816.5000    116.5466      2.0000    700.5983      5.6572
   816.7500    118.6108      0.0000    712.2034      5.6810
   817.0000    123.2989      0.0000    721.4334      5.5930
   817.2500    126.6885      0.0000    719.6998      5.4769
   817.5000    130.4545      0.0000    707.5891      5.3293
   817.7500    131.3386      0.0000    698.0831      5.3152
   818.0000    129.9430      0.0000    689.5452      5.4528
   818.2500    127.8495      0.0000    688.3667      5.6192
   818.5000    125.0114      0.0000    688.2883      5.9247
   818.7500    124.1349      0.0000    686.0983      6.1580
   819.0000    124.1479      0.0000    678.5706      6.5394
   819.2500    124.5606      0.0000    672.7002      6.7795
   819.5000    125.5997      0.0000    666.8804      7.0392
   819.7500    126.7181      0.0000    666.0444      7.1215
   820.0000    128.6497      0.0000    667.6785      7.1243
   820.2500    129.2490      0.0000    668.8978      7.0738
   820.5000    127.4941      0.0000    669.5970      6.9629
   820.7500    124.4271      0.0000    669.8788      6.8769
   821.0000    118.6870      0.0000    671.1841      6.7343
   821.2500    115.6548      0.0000    672.5685      6.6358
   821.5000    114.6101      0.0000    674.6648      6.5084
   821.7500    116.8398      0.0000    675.8727      6.4544
   822.0000    123.5897      0.0000    677.1974      6.4317
   822.2500    128.8194      0.0000    677.3762      6.4483
   822.5000    134.8999      0.0000    676.0071      6.4959
   822.7500    136.7623      0.0000    674.3943      6.5295
   823.0000    136.5538      0.0000    673.2927      6.5719
   823.2500    135.7766      0.0000    675.1761      6.5988
   823.5000    136.5417      0.0000    683.0344      6.6566
   823.7500    139.1371      0.0000    690.0433      6.7173
   824.0000    145.3253      0.0000    697.6663      6.8398
   824.2500    149.9427      0.0000    698.3271      6.9270
   824.5000    156.3164      0.0000    693.4163      7.0300
   824.7500    159.6634      0.0000    688.9858      7.0658
   825.0000    162.1447      0.0000    684.8980      7.0674
   825.2500    161.5284      0.0000    684.4230      7.0415
   825.5000    157.3873      0.0000    685.3407      6.9773
   825.7500    153.1893      0.0000    685.8593      6.9229
   826.0000    146.0989      0.0000    685.7800      6.8308
   826.2500    141.4892      0.0000    685.3557      6.7687
   826.5000    135.3599      0.0000    684.6420      6.6850
   826.7500    131.6210      0.0000    684.2328      6.6374
   827.0000    125.6891      0.0000    683.7519      6.5773
   827.2500    121.4964      0.0000    683.5337      6.5458
   827.5000    116.3553      0.0000    683.3911      6.5099
   827.7500    114.7931      0.0000    683.4019      6.4861
   828.0000    115.7790      0.0000    683.4429      6.4351
   828.2500    118.1751      0.0000    683.3730      6.3870
   828.5000    123.2873      0.0000    682.9828      6.2962
   828.7500    127.0601      0.0000    682.5323      6.2262
   829.0000    131.8327      0.0000    681.6141      6.1131
   829.2500    133.5663      0.0000    680.7192      6.0338
   829.5000    133.2405      0.0000    678.3742      5.9008
   829.7500    131.2613      0.0000    675.9103      5.7951
   830.0000    126.6919      0.0000    671.7139      5.6172
   830.2500    123.1147      0.0000    669.8148      5.5050
   830.5000    117.1283      0.0000    669.7867      5.3849
   830.7500    112.8165      0.0000    671.2286      5.3510
   831.0000    107.3078      0.0000    673.8864      5.3847
   831.2500    105.6872      0.0000    675.6588      5.4712
   831.5000    107.5848      0.0000    678.4418      5.6955
   831.7500    111.0522      0.0000    679.7158      5.8910
   832.0000    117.1114      0.0000    678.5427      6.2027
   832.2500    120.5935      0.0000    675.1221      6.3886
   832.5000    124.0870      0.0000    667.6077      6.5875
   832.7500    125.2310      0.0000    662.8516      6.6605
   833.0000    126.0567      0.0000    658.9772      6.7229
   833.2500    126.8965      0.0000    659.5773      6.7693
