~Version Information
VERS.                      2.0: CWLS Log ASCII Standard - VERSION 2.0
WRAP.                       NO: One line per depth step
~Well Information Block
STRT.FT               230.0000: 
STOP.FT               706.5000: 
STEP.FT                 0.1000: 
NULL.                -999.2500: 
COMP.          Pioneer Natural Resources: COMPANY
WELL.          Razor Clam 23-27: WELL
FLD.           Purgatoire River: FIELD
LOC.           2499' FSL & 2636' FWL: LOCATION
CNTY.               Las Animas: COUNTY
SRVC.                Patterson: SERVICE COMPANY
DATE.          Mon Feb 13 07:31:47 2006: LOG DATE
UWI.           05 071 08667 00: UNIQUE WELL ID
STAT.                 Colorado: STATE
~Curve Information Block
DEPT.FT            0 000 00 00: Depth
DCAL.in                       : CDL Caliper
RHOB.g/cc                     : CDL Bulk Density
RHOC.g/cc                     : CDL Density Correction
DPOR.pu                       : CDL Density Porosity
GR.GAPI                       : Gamma Ray
NPOR.pu                       : Neutron Porosity
~Parameter Information Block
~A  Depth       DCAL        RHOB        RHOC        DPOR         GR         NPOR    
# ...
   566.0000      7.9443      2.4757      0.0229     10.5640     91.8029     23.6775
   566.1000      7.9443      2.4744      0.0589     10.6423     92.7002     23.9202
   566.2000      7.9443      2.4610      0.0080     11.4543     88.2377     24.6540
   566.3000      7.9427      2.4621     -0.0088     11.3862     82.9912     24.7596
   566.4000      7.9427      2.4796      0.0656     10.3257     81.5657     24.5886
   566.5000      7.9443      2.4854      0.0468      9.9764     81.1718     24.5000
   566.6000      7.9443      2.4729      0.0458     10.7347     81.5118     24.2117
   566.7000      7.9443      2.4549      0.0371     11.8253     82.0278     23.8957
   566.8000      7.9441      2.4398      0.0015     12.7398     78.9879     23.7572
   566.9000      7.9441      2.4419      0.0051     12.6144     72.4735     23.4834
   567.0000      7.9430      2.4651      0.0413     11.2070     66.3735     23.0707
   567.1000      7.9430      2.4858      0.0825      9.9531     62.6252     22.9855
   567.2000      7.9430      2.4867      0.0323      9.8955     60.7291     23.4322
   567.3000      7.9445      2.4767      0.0673     10.5055     61.3687     23.9154
   567.4000      7.9445      2.4701      0.0454     10.9058     65.2645     23.9147
   567.5000      7.9453      2.4732      0.0559     10.7174     71.0107     23.7477
   567.6000      7.9453      2.4815      0.0548     10.2115     76.9904     23.8806
   567.7000      7.9453      2.4929      0.0230      9.5219     81.5385     24.0934
   567.8000      7.9456      2.5100      0.0444      8.4826     80.5846     24.3361
   567.9000      7.9456      2.5252      0.0394      7.5641     74.1952     24.6267
   568.0000      7.9450      2.5331      0.0392      7.0862     68.6946     23.8760
   568.1000      7.9450      2.5416      0.0473      6.5718     65.2301     21.6595
   568.2000      7.9450      2.5556      0.0569      5.7224     60.5762     19.4310
   568.3000      7.9456      2.5739      0.0338      4.6117     54.5362     18.5162
   568.4000      7.9456      2.5875      0.0684      3.7899     50.6702     18.9317
   568.5000      7.9512      2.5846      0.0574      3.9630     54.3532     19.6753
   568.6000      7.9512      2.5757      0.0032      4.5013     64.4974     19.7734
   568.7000      7.9512      2.5763      0.0204      4.4680     73.7053     19.0843
   568.8000      7.9450      2.5838      0.0214      4.0150     77.2933     18.2967
   568.9000      7.9450      2.5958      0.0184      3.2844     74.7975     17.9685
   569.0000      7.9434      2.6106      0.0413      2.3872     69.6533     18.2247
   569.1000      7.9434      2.6186      0.0544      1.9056     63.4138     18.9395
   569.2000      7.9434      2.6150      0.0254      2.1194     55.2013     19.4339
   569.3000      7.9449      2.6068      0.0235      2.6180     49.7999     19.1614
   569.4000      7.9449      2.6079     -0.0458      2.5521     50.8118     18.5884
   569.5000      7.9438      2.6218      0.0346      1.7087     55.5118     18.6065
   569.6000      7.9438      2.6267      0.0320      1.4144     61.3848     18.9601
   569.7000      7.9438      2.6155      0.0255      2.0905     67.5943     18.7892
   569.8000      7.9447      2.6114      0.0062      2.3402     72.6261     18.3003
   569.9000      7.9447      2.6221      0.0311      1.6934     74.3933     18.0235
   570.0000      7.9437      2.6286      0.0490      1.2963     73.1553     17.9155
   570.1000      7.9437      2.6191      0.0409      1.8706     71.0944     17.9155
   570.2000      7.9437      2.5992      0.0102      3.0784     67.6406     18.3681
   570.3000      7.9414      2.5797      0.0072      4.2619     63.6270     19.6573
   570.4000      7.9414      2.5695     -0.0063      4.8815     64.4603     21.0277
   570.5000      7.9412      2.5652      0.0159      5.1422     70.5830     21.5337
   570.6000      7.9412      2.5508      0.0329      6.0133     75.5875     21.7070
   570.7000      7.9412      2.5202      0.0088      7.8686     75.8209     21.8941
   570.8000      7.9420      2.4880     -0.0188      9.8152     74.8085     21.7401
   570.9000      7.9420      2.4715     -0.0076     10.8174     74.2245     21.3032
   571.0000      7.9425      2.4721     -0.0023     10.7798     71.6012     20.9682
   571.1000      7.9425      2.4813      0.0107     10.2223     68.0052     21.1246
   571.2000      7.9425      2.4848      0.0274     10.0113     66.2739     21.9502
   571.3000      7.9355      2.4718      0.0007     10.8018     65.0295     23.0763
   571.4000      7.9355      2.4536     -0.0071     11.9041     63.7964     23.7547
   571.5000      7.9412      2.4477      0.0224     12.2596     65.0717     23.5545
   571.6000      7.9412      2.4521      0.0329     11.9965     67.7014     22.9531
   571.7000      7.9412      2.4572     -0.0134     11.6826     68.2025     22.6761
   571.8000      7.9415      2.4594      0.0297     11.5517     66.5705     22.6338
   571.9000      7.9415      2.4536      0.0371     11.9034     65.6882     22.7564
   572.0000      7.9453      2.4448      0.0081     12.4379     67.5820     23.5696
   572.1000      7.9453      2.4460      0.0491     12.3640     70.9362     24.6922
   572.2000      7.9453      2.4528      0.0420     11.9520     71.6121     24.9553
   572.3000      7.9439      2.4483      0.0565     12.2249     68.6373     24.4561
   572.4000      7.9439      2.4311     -0.0118     13.2639     68.0104     24.1705
   572.5000      7.9444      2.4245     -0.0391     13.6679     71.8043     23.8741
   572.6000      7.9444      2.4399      0.0395     12.7322     75.6133     23.2646
   572.7000      7.9444      2.4596      0.0498     11.5413     76.1241     22.7166
   572.8000      7.9435      2.4658      0.0755     11.1664     73.9668     22.1368
   572.9000      7.9435      2.4545      0.0825     11.8479     74.0677     21.5179
   573.0000      7.9428      2.4407      0.0424     12.6869     77.8665     21.4656
   573.1000      7.9428      2.4446      0.0458     12.4465     79.4797     22.1005
   573.2000      7.9428      2.4612      0.0569     11.4411     76.4626     22.8893
   573.3000      7.9434      2.4703      0.0706     10.8882     72.9230     23.6298
   573.4000      7.9434      2.4638      0.0587     11.2878     71.6708     24.2148
   573.5000      7.9441      2.4513      0.0344     12.0428     72.8670     24.2008
   573.6000      7.9441      2.4473      0.0373     12.2860     74.2980     23.7294
   573.7000      7.9441      2.4475      0.0446     12.2733     72.7392     23.6372
   573.8000      7.9460      2.4399      0.0025     12.7345     68.5816     24.2007
   573.9000      7.9460      2.4316      0.0029     13.2340     65.9052     24.9041
   574.0000      7.9421      2.4380      0.0094     12.8461     67.8107     25.4288
   574.1000      7.9421      2.4571      0.0418     11.6923     71.6631     25.9155
   574.2000      7.9421      2.4739      0.0410     10.6719     72.9715     25.9487
   574.3000      7.9418      2.4758      0.0623     10.5586     71.1113     24.9948
   574.4000      7.9418      2.4632      0.0269     11.3212     69.4476     23.6840
   574.5000      7.9438      2.4552      0.0278     11.8058     74.7143     23.0575
   574.6000      7.9438      2.4621      0.0252     11.3873     85.5166     23.2451
   574.7000      7.9438      2.4708      0.0323     10.8578     91.4568     23.6158
   574.8000      7.9457      2.4630      0.0638     11.3325     88.7161     23.7691
   574.9000      7.9457      2.4403     -0.0106     12.7080     84.2329     23.7778
   575.0000      7.9445      2.4273     -0.0095     13.4956     81.5397     23.7702
   575.1000      7.9445      2.4353      0.0239     13.0140     76.7380     23.7237
   575.2000      7.9445      2.4469      0.0587     12.3121     70.3559     23.8259
   575.3000      7.9424      2.4445      0.0147     12.4527     67.0609     24.1741
   575.4000      7.9424      2.4356      0.0255     12.9932     66.0144     24.5287
   575.5000      7.9430      2.4358      0.0181     12.9791     63.8920     24.7488
