~Version Information
VERS.                      2.0: CWLS Log ASCII Standard - VERSION 2.0
WRAP.                       NO: One line per depth step
~Well Information Block
STRT.FT               240.0000: 
STOP.FT              1677.0000: 
STEP.FT                 0.1000: 
NULL.                -999.2500: 
COMP.          Pioneer Natural Resources: COMPANY
WELL.          Lorencito 8-1-34-67: WELL
FLD.           Purgatoire River: FIELD
LOC.           1567' FNL & 500' FEL: LOCATION
STAT.                 Colorado: State
CTRY. USA : Country 
CNTY.               Las Animas: COUNTY
SECT. 1 : Section 
TOWN. 34S : Township
RANG. 67W : Range
SRVC.                Patterson: SERVICE COMPANY
DATE.          Fri Aug 26 09:30:14 2005: LOG DATE
API.           05 071 08506 00: UNIQUE WELL ID
~Curve Information Block
DEPT.FT            0 000 00 00: Depth
DCAL.in                       : CDL Caliper
RHOB.g/cc                     : CDL Bulk Density
RHOC.g/cc                     : CDL Density Correction
DPOR.pu                       : CDL Density Porosity
GR.GAPI                       : Gamma Ray
NPOR.pu                       : Neutron Porosity
~Parameter Information Block
~A  Depth       DCAL        RHOB        RHOC        DPOR         GR         NPOR    
# ...
   432.0000      8.5769      2.5932      0.0272      3.4438    154.0459     25.6875
   432.1000      8.5769      2.6084      0.0779      2.5214    146.3830     26.3131
   432.2000      8.5769      2.5883      0.0052      3.7379    139.7941     26.9844
   432.3000      8.5534      2.5605     -0.0168      5.4252    132.3093     27.5233
   432.4000      8.5534      2.5529      0.0588      5.8828    127.3649     27.7605
   432.5000      8.5782      2.5479      0.0281      6.1850    129.3677     27.3625
   432.6000      8.5782      2.5230     -0.0090      7.6990    135.1292     26.5781
   432.7000      8.5782      2.4877     -0.0294      9.8378    139.5862     26.0685
   432.8000      8.5135      2.4662     -0.0550     11.1414    143.0728     25.8698
   432.9000      8.5135      2.4739      0.0165     10.6743    146.3958     25.6604
   433.0000      8.3602      2.5074      0.0097      8.6403    149.0827     25.2122
   433.1000      8.3602      2.5455      0.0534      6.3343    149.2553     24.5041
   433.2000      8.3602      2.5659      0.0960      5.0950    145.6307     23.9279
   433.3000      8.2222      2.5708      0.0749      4.7971    141.9985     23.9207
   433.4000      8.2222      2.5682      0.1467      4.9552    142.2988     24.3818
   433.5000      8.2160      2.5497      0.0736      6.0793    143.6131     24.7141
   433.6000      8.2160      2.5215      0.0173      7.7869    142.1431     24.6037
   433.7000      8.2160      2.5045      0.0727      8.8191    140.9528     24.4071
   433.8000      8.2991      2.4999      0.0809      9.0947    143.2016     24.5383
   433.9000      8.2991      2.5027     -0.0092      8.9292    145.0554     25.0130
   434.0000      8.2474      2.5142      0.0141      8.2309    141.8327     25.4689
   434.1000      8.2474      2.5217      0.0276      7.7743    139.2063     25.4724
   434.2000      8.2474      2.5100      0.0095      8.4870    141.7068     24.9848
   434.3000      8.2292      2.4858     -0.0000      9.9526    139.9373     24.5274
   434.4000      8.2292      2.4639      0.0266     11.2799    131.2548     24.5196
   434.5000      8.2246      2.4480     -0.0150     12.2397    127.3904     24.8539
   434.6000      8.2246      2.4367     -0.0069     12.9297    130.5955     25.1539
   434.7000      8.2246      2.4244      0.0093     13.6718    131.0625     25.0066
   434.8000      8.2142      2.4098     -0.0250     14.5586    127.9784     24.3421
   434.9000      8.2142      2.4001     -0.0068     15.1468    130.6209     23.6533
   435.0000      8.1871      2.3987      0.0283     15.2317    138.7294     23.3981
   435.1000      8.1871      2.4107      0.0133     14.5017    145.3430     23.6631
   435.2000      8.1871      2.4566      0.0236     11.7224    147.9829     24.2882
   435.3000      8.1839      2.5529      0.0647      5.8835    145.9566     25.1639
   435.4000      8.1839      2.6895      0.1460     -2.3929    140.2342     26.1665
   435.5000      8.1841      2.8448      0.1852    -11.8087    135.8526     27.0590
   435.6000      8.1841      3.0020      0.2789    -21.3316    135.1591     27.6845
   435.7000      8.1841      3.1428      0.3291    -29.8689    133.0075     28.0013
   435.8000      8.1887      3.2565      0.3669    -36.7586    124.8898     27.9880
   435.9000      8.1887      3.3366      0.3799    -41.6134    114.9941     27.6357
   436.0000      8.1609      3.3658      0.3695    -43.3791    109.4324     27.0106
   436.1000      8.1609      3.3208      0.2966    -40.6558    109.8064     26.3657
   436.2000      8.1609      3.2032      0.1426    -33.5253    115.8579     25.8374
   436.3000      8.1494      3.0404     -0.0084    -23.6585    125.6340     25.4048
   436.4000      8.1494      2.8677     -0.2016    -13.1964    136.4609     25.1661
   436.5000      8.1673      2.7245     -0.2067     -4.5146    148.5716     25.2197
   436.6000      8.1673      2.6350     -0.2318      0.9103    158.2210     25.1962
   436.7000      8.1673      2.5915     -0.0817      3.5445    158.8779     24.8039
   436.8000      8.2081      2.5631      0.0307      5.2641    155.4485     24.4690
   436.9000      8.2081      2.5371      0.0369      6.8396    151.7117     24.5384
   437.0000      8.1362      2.5279      0.1009      7.4016    142.7076     24.7217
   437.1000      8.1362      2.5360      0.0454      6.9102    132.5847     24.7874
   437.2000      8.1362      2.5377      0.0866      6.8038    128.3484     24.8456
   437.3000      8.1930      2.5161      0.0135      8.1134    125.3544     24.7715
   437.4000      8.1930      2.4777      0.0242     10.4397    119.5846     24.5564
   437.5000      8.2024      2.4359     -0.0061     12.9783    113.1395     24.5122
   437.6000      8.2024      2.4032     -0.0249     14.9580    107.5368     24.3767
   437.7000      8.2024      2.3919     -0.0413     15.6436    105.3944     23.7243
   437.8000      8.2085      2.3994      0.0110     15.1870    108.6081     22.9435
   437.9000      8.2085      2.4062      0.0153     14.7757    114.1871     22.5058
   438.0000      8.1761      2.3933     -0.0042     15.5604    120.4869     22.0746
   438.1000      8.1761      2.3595      0.0000     17.6080    128.7431     21.3282
   438.2000      8.1761      2.3304     -0.0395     19.3697    135.7573     20.7291
   438.3000      8.1627      2.3342      0.0395     19.1417    139.5160     20.5949
   438.4000      8.1627      2.3647      0.1306     17.2933    142.8216     20.7758
   438.5000      8.1250      2.3920      0.1792     15.6384    146.3033     21.1098
   438.6000      8.1250      2.3943      0.2321     15.4964    150.6411     21.3649
   438.7000      8.1250      2.3724      0.1959     16.8230    154.3491     21.2851
   438.8000      8.1424      2.3441      0.1862     18.5364    153.4359     20.8153
   438.9000      8.1424      2.3284      0.1536     19.4929    149.6098     20.4797
   439.0000      8.2472      2.3404      0.1245     18.7653    150.5081     20.7737
   439.1000      8.2472      2.3871      0.1604     15.9326    157.6563     21.4905
   439.2000      8.2472      2.4590      0.2164     11.5750    162.4158     22.3955
   439.3000      8.3139      2.5371      0.2675      6.8424    158.7930     23.4242
   439.4000      8.3139      2.6012      0.3131      2.9579    150.9554     24.4341
   439.5000      8.3933      2.6303      0.3480      1.1914    146.9173     25.4290
   439.6000      8.3933      2.6219      0.2753      1.7061    148.3085     26.4328
   439.7000      8.3933      2.6040      0.2151      2.7883    150.4787     27.2129
   439.8000      8.3893      2.5978      0.2341      3.1664    150.3642     27.7932
   439.9000      8.3893      2.5874      0.1986      3.7923    149.4802     28.3451
   440.0000      8.2655      2.5709      0.0967      4.7949    149.7017     28.6721
   440.1000      8.2655      2.5750      0.1086      4.5466    148.6106     28.6542
   440.2000      8.2655      2.6050      0.1022      2.7275    145.1205     28.6617
   440.3000      8.2134      2.6460      0.1440      0.2419    139.3997     28.9975
   440.4000      8.2134      2.6937      0.1100     -2.6465    132.5720     29.4306
   440.5000      8.1608      2.7532      0.0736     -6.2523    127.3694     29.6354
   440.6000      8.1608      2.8183      0.1254    -10.2023    121.2331     29.6578
   440.7000      8.1608      2.8593      0.1896    -12.6821    111.4019     29.7209
   440.8000      8.1362      2.8474      0.1647    -11.9653    102.0242     29.8648
   440.9000      8.1362      2.7950      0.1290     -8.7897     96.2997     30.0240
   441.0000      8.1134      2.7410      0.0791     -5.5152     92.5252     30.1039
   441.1000      8.1134      2.7129     -0.0302     -3.8109     91.3435     29.8716
   441.2000      8.1134      2.7002      0.0261     -3.0420     92.5225     29.3685
   441.3000      8.0854      2.6715     -0.1654     -1.3051     91.7402     29.0933
   441.4000      8.0854      2.6243     -0.1399      1.5602     88.7302     29.2024
   441.5000      8.0975      2.5814     -0.1449      4.1550     85.8067     29.2271
