~Version Information
VERS.                      2.0: CWLS Log ASCII Standard - VERSION 2.0
WRAP.                       NO: One line per depth step
~Well Information Block
STRT.FT               480.0000: 
STOP.FT              1946.0000: 
STEP.FT                 0.2500: 
NULL.                -999.2500: 
COMP.          XTO Energy Inc.: COMPANY
WELL.          Golden Eagle 19-15: WELL
FLD.           Purgatoire River: FIELD
LOC.           1121' FSL & 2332' FEL--: LOCATION
CNTY.               Las Animas: COUNTY
SRVC.                Patterson: SERVICE COMPANY
DATE.          Sun Mar 12 15:00:51 2006: LOG DATE
UWI.           05 071 08717 00: UNIQUE WELL ID
STAT.                 Colorado: STATE
~Curve Information Block
DEPT.FT            0 000 00 00: Depth
SP.mV                         : DIL Spontaneous Potential
RILD.Ohm-m                    : DIL Deep Resistivity
RILM.Ohm-m                    : DIL Medium Resistivity
RLL3.Ohm-m                    : DIL Shallow Resistivity
GR.GAPI                       : Gamma Ray
~Parameter Information Block
~A  Depth        SP         RILD        RILM        RLL3         GR     
   480.0000   2005.0000     13.1933 100000.0000   2000.0000     91.3018
   480.2500   2005.0000     13.0646 100000.0000   2000.0000     92.2653
   480.5000   2005.0000     12.8747 100000.0000   2000.0000     93.4640
   480.7500   2005.0000     12.6670 100000.0000   2000.0000     93.9400
   481.0000   2005.0000     12.4617 100000.0000   2000.0000     93.7958
   481.2500   2005.0000     12.2608 100000.0000   2000.0000     92.9688
   481.5000   2005.0000     12.0609 100000.0000   2000.0000     90.5652
   481.7500   2005.0000     11.8637 100000.0000   2000.0000     88.2602
   482.0000   2005.0000     11.6744 100000.0000   2000.0000     84.1677
   482.2500   2005.0000     11.4938 100000.0000   2000.0000     81.4902
   482.5000   2005.0000     11.3153 100000.0000   2000.0000     78.5373
   482.7500   2005.0000     11.1327 100000.0000   2000.0000     77.6651
   483.0000   2005.0000     10.9494 100000.0000   2000.0000     77.8985
   483.2500   2005.0000     10.7802 100000.0000   2000.0000     78.6069
   483.5000   2005.0000     10.6422 100000.0000   2000.0000     79.6647
   483.7500   2005.0000     10.5420 100000.0000   2000.0000     80.3045
   484.0000   2005.0000     10.4695 100000.0000   2000.0000     81.8018
   484.2500   2005.0000     10.3997 100000.0000   2000.0000     83.5153
   484.5000   2005.0000     10.3029 100000.0000   2000.0000     86.9430
   484.7500   2005.0000     10.1598 100000.0000   2000.0000     89.1518
   485.0000   2005.0000      9.9779 100000.0000   2000.0000     91.0220
   485.2500   2005.0000      9.8005 100000.0000   2000.0000     90.9558
   485.5000   2005.0000      9.7012 100000.0000   2000.0000     89.3371
   485.7500   2005.0000      9.7616 100000.0000   2000.0000     87.6180
   486.0000   2005.0000     10.0422 100000.0000   2000.0000     83.9907
   486.2500   2005.0000     10.5560 100000.0000   2000.0000     80.7207
   486.5000   2005.0000     11.2503 100000.0000   2000.0000     75.3281
   486.7500   2005.0000     12.0169 100000.0000   2000.0000     72.4162
   487.0000   2005.0000     12.7504 100000.0000   2000.0000     70.2284
   487.2500   2005.0000     13.4258 100000.0000   2000.0000     70.0452
   487.5000   2005.0000     14.1239 100000.0000   2000.0000     70.5880
   487.7500   2005.0000     14.9959 100000.0000   2000.0000     71.0747
   488.0000   2005.0000     16.2450 100000.0000   2000.0000     71.9621
   488.2500   2005.0000     18.1799 100000.0000   2000.0000     72.7192
   488.5000   2005.0000     21.3208 100000.0000   2000.0000     73.8954
   488.7500   2005.0000     26.4614 100000.0000   2000.0000     74.4759
   489.0000   2005.0000     34.2239 100000.0000   2000.0000     74.7894
   489.2500   2005.0000     42.6095 100000.0000   2000.0000     74.6932
   489.5000   2005.0000     44.2904 100000.0000   2000.0000     74.5994
   489.7500   2005.0000     36.6869 100000.0000   2000.0000     74.9166
   490.0000   2005.0000     27.4678 100000.0000   2000.0000     76.1456
   490.2500   2005.0000     21.0361 100000.0000   2000.0000     77.2754
   490.5000   2005.0000     17.3001 100000.0000   2000.0000     79.0409
   490.7500   2005.0000     15.4272 100000.0000   2000.0000     80.2699
   491.0000   2005.0000     14.9833 100000.0000   2000.0000     82.6190
   491.2500   2005.0000     16.1582 100000.0000   2000.0000     84.7619
   491.5000   2005.0000     20.3887 100000.0000   2000.0000     88.7041
   491.7500   2005.0000     34.4182 100000.0000   2000.0000     91.3492
   492.0000   2005.0000    150.4461 100000.0000   2000.0000     94.2520
   492.2500   2005.0000 100000.0000 100000.0000   2000.0000     94.8863
   492.5000   2005.0000 100000.0000 100000.0000   2000.0000     93.0216
   492.7500   2005.0000    383.2474 100000.0000   2000.0000     89.6283
   493.0000   2005.0000     28.4355 100000.0000   2000.0000     82.0111
   493.2500   2005.0000     13.1044 100000.0000   2000.0000     76.5772
   493.5000   2005.0000      8.7812 100000.0000   2000.0000     70.9150
   493.7500   2005.0000      7.2030 100000.0000   2000.0000     70.0961
   494.0000   2005.0000      6.7103 100000.0000   2000.0000     73.5414
   494.2500   2005.0000      6.7205 100000.0000   2000.0000     78.0366
   494.5000   2005.0000      6.8136 100000.0000   2000.0000     85.9088
   494.7500   2005.0000      6.4968 100000.0000   2000.0000     90.9003
   495.0000   2005.0000      5.5193 100000.0000   2000.0000     97.0543
   495.2500   2005.0000      4.2639 100000.0000   2000.0000    100.1600
   495.5000   2005.0000      3.2457 100000.0000   2000.0000    103.7946
   495.7500   2005.0000      2.6285   2675.9666   2000.0000    105.8954
   496.0000   2005.0000      2.3736     16.9112   2000.0000    108.6183
   496.2500   2005.0000      2.4448      8.2360   2000.0000    109.9139
   496.5000   2005.0000      2.8964      5.7484   2000.0000    110.9781
   496.7500   2005.0000      3.9626      4.9125   2000.0000    111.3263
   497.0000   2005.0000      6.3602      4.8594   2000.0000    111.6428
   497.2500   2005.0000     12.9621      5.3323   2000.0000    111.7863
   497.5000   2005.0000     57.8628      6.1919   2000.0000    112.1721
   497.7500   2005.0000 100000.0000      7.2443   2000.0000    112.7382
   498.0000   2005.0000 100000.0000      8.2773   2000.0000    113.7934
   498.2500   2005.0000 100000.0000      9.2718   2000.0000    114.1712
   498.5000   2005.0000 100000.0000     10.4786   2000.0000    113.8886
   498.7500   2005.0000 100000.0000     12.2733   2000.0000    113.3610
   499.0000   2005.0000 100000.0000     14.9601   2000.0000    112.2470
   499.2500   2005.0000     46.0447     18.3917   2000.0000    110.8695
   499.5000   2005.0000     22.2167     21.3846   2000.0000    106.9904
   499.7500   2005.0000     16.9875     22.3199   2000.0000    103.3203
   500.0000   2005.0000     15.6028     21.2366   2000.0000     97.6172
   500.2500   2005.0000     15.7238     19.5535   2000.0000     94.6152
   500.5000   2005.0000     16.6030     18.2196   2000.0000     91.9986
   500.7500   2005.0000     17.8933     17.4175   2000.0000     91.3047
   501.0000   2005.0000     19.3544     17.0017   2000.0000     91.1352
   501.2500   2005.0000     20.7239     16.7923   2000.0000     91.3671
   501.5000   2005.0000     21.7066     16.6939   2000.0000     92.1270
   501.7500   2005.0000     22.0964     16.7097   2000.0000     92.7790
   502.0000   2005.0000     21.9146     16.8926   2000.0000     93.6603
   502.2500   2005.0000     21.3671     17.2795   2000.0000     94.1925
   502.5000   2005.0000     20.6765     17.8422   2000.0000     95.2390
   502.7500   2005.0000     19.9679     18.4737   2000.0000     96.1450
   503.0000   2005.0000     19.2647     19.0193   2000.0000     97.3269
   503.2500   2005.0000     18.5360     19.3424   2000.0000     97.5602
   503.5000   2005.0000     17.7471     19.3780   2000.0000     96.5264
   503.7500   2005.0000     16.8906     19.1224   2000.0000     94.8416
   504.0000   2005.0000     15.9920     18.5865   2000.0000     91.2541
   504.2500   2005.0000     15.0948     17.7755   2000.0000     88.8385
   504.5000   2005.0000     14.2389     16.7170   2000.0000     87.0686
   504.7500   2005.0000     13.4463     15.4922   2000.0000     88.2403
   505.0000   2005.0000     12.7200     14.2241   2000.0000     94.0854
   505.2500   2005.0000     12.0528     13.0317   2000.0000     99.8709
   505.5000   2005.0000     11.4353     11.9932   2000.0000    108.8342
   505.7500   2005.0000     10.8613     11.1369   2000.0000    113.7301
   506.0000   2005.0000     10.3265     10.4534   2000.0000    118.5192
   506.2500   2005.0000      9.8276      9.9111   2000.0000    120.1339
   506.5000   2005.0000      9.3615      9.4698   2000.0000    121.0569
   506.7500   2005.0000      8.9282      9.0906   2000.0000    121.2349
   507.0000   2005.0000      8.5322      8.7435   2000.0000    121.3604
   507.2500   2005.0000      8.1805      8.4128   2000.0000    121.3215
   507.5000   2005.0000      7.8786      8.0968   2000.0000    120.8335
   507.7500   2005.0000      7.6264      7.8036   2000.0000    120.1479
