~Version Information
VERS.                      2.0: CWLS Log ASCII Standard - VERSION 2.0
WRAP.                       NO: One line per depth step
~Well Information Block
STRT.FT               620.0000: 
STOP.FT              3067.2500: 
STEP.FT                 0.2500: 
NULL.                -999.2500: 
COMP.          Pioneer Natural Resources: COMPANY
WELL.          Interceptor 43-13 Kv: WELL
FLD.           Purgatoire River: FIELD
LOC.           2073' FSL & 519' FEL--: LOCATION
PROV.                 Colorado: PROVINCE
CNTY.               Las Animas: COUNTRY
SRVC.                Patterson: SERVICE COMPANY
DATE.          Sat Jan 14 19:35:17 2006: LOG DATE
UWI.           05 071 08655 00: UNIQUE WELL ID
~Curve Information Block
DEPT.FT            0 000 00 00: Depth
SN.Ohm-m                      : IEL Short Normal
SP.mV                         : IEL Spontaneous Potential
DIR.Ohm-m                     : IEL Induction Resistivity
GR.GAPI                       : Gamma Ray
~Parameter Information Block
~A  Depth        SN          SP         DIR          GR     
# ...
  1424.0000     46.0796   -167.4661     37.2613     79.2099
  1424.2500     43.5897   -167.0929     35.0956     82.1327
  1424.5000     40.3831   -166.5377     32.7144     84.6164
  1424.7500     36.8162   -165.8054     30.2699     85.8959
  1425.0000     33.2813   -164.9133     27.8902     89.8738
  1425.2500     30.1085   -163.8904     25.6711     95.0848
  1425.5000     27.5187   -162.7746     23.6740    107.0572
  1425.7500     25.5495   -161.6080     21.9259    116.9058
  1426.0000     24.0317   -160.4326     20.4216    131.6379
  1426.2500     22.7121   -159.2861     19.1317    139.6723
  1426.5000     21.4109   -158.1995     18.0145    147.1194
  1426.7500     20.0769   -157.1952     17.0305    148.8090
  1427.0000     18.7576   -156.2862     16.1535    147.3935
  1427.2500     17.5581   -155.4772     15.3742    144.8829
  1427.5000     16.5972   -154.7654     14.6993    140.8825
  1427.7500     15.9566   -154.1423     14.1443    139.0500
  1428.0000     15.6537   -153.5953     13.7249    138.2785
  1428.2500     15.6437   -153.1095     13.4477    138.9411
  1428.5000     15.8330   -152.6685     13.3046    140.8624
  1428.7500     16.1002   -152.2561     13.2738    142.1242
  1429.0000     16.3291   -151.8584     13.3249    143.0280
  1429.2500     16.4411   -151.4654     13.4270    142.6688
  1429.5000     16.4030   -151.0728     13.5543    140.6865
  1429.7500     16.2077   -150.6827     13.6894    138.5914
  1430.0000     15.8577   -150.3020     13.8231    134.8386
  1430.2500     15.3893   -149.9400     13.9521    132.4694
  1430.5000     14.9225   -149.6050     14.0764    130.3538
  1430.7500     14.6709   -149.3015     14.1964    130.4279
  1431.0000     14.8598   -149.0290     14.3124    132.6353
  1431.2500     15.5809   -148.7822     14.4247    134.9743
  1431.5000     16.6871   -148.5535     14.5319    138.9290
  1431.7500     17.8343   -148.3352     14.6285    141.5661
  1432.0000     18.6818   -148.1216     14.7067    144.9212
  1432.2500     19.0971   -147.9097     14.7612    146.2959
  1432.5000     19.1797   -147.6997     14.7945    146.7165
  1432.7500     19.1129   -147.4932     14.8170    146.2644
  1433.0000     19.0239   -147.2919     14.8419    145.6324
  1433.2500     18.9654   -147.0955     14.8806    145.6412
  1433.5000     18.9539   -146.9005     14.9421    146.0132
  1433.7500     18.9845   -146.6994     15.0341    145.9895
  1434.0000     19.0316   -146.4812     15.1631    144.8752
  1434.2500     19.0690   -146.2334     15.3325    143.3854
  1434.5000     19.1005   -145.9444     15.5402    140.4899
  1434.7500     19.1640   -145.6066     15.7799    138.4656
  1435.0000     19.3025   -145.2186     16.0462    135.6991
  1435.2500     19.5306   -144.7874     16.3388    134.0749
  1435.5000     19.8272   -144.3289     16.6621    131.8350
  1435.7500     20.1570   -143.8670     17.0191    130.4516
  1436.0000     20.5006   -143.4317     17.4093    128.7040
  1436.2500     20.8691   -143.0563     17.8329    127.8545
  1436.5000     21.2991   -142.7735     18.2996    127.2159
  1436.7500     21.8316   -142.6114     18.8307    127.3185
  1437.0000     22.4788   -142.5907     19.4515    128.0280
  1437.2500     23.2044   -142.7214     20.1797    128.2250
  1437.5000     23.9491   -143.0025     21.0182    126.6364
  1437.7500     24.6929   -143.4212     21.9620    123.9653
  1438.0000     25.5078   -143.9545     23.0119    118.5321
  1438.2500     26.5515   -144.5712     24.1853    115.0973
  1438.5000     27.9840   -145.2347     25.5101    111.5073
  1438.7500     29.8604   -145.9068     27.0016    109.9148
  1439.0000     32.1012   -146.5511     28.6405    107.1069
  1439.2500     34.5646   -147.1371     30.3700    104.1871
  1439.5000     37.1163   -147.6422     32.1172     98.3631
  1439.7500     39.6234   -148.0527     33.8224     94.2342
  1440.0000     41.9169   -148.3629     35.4526     88.6917
  1440.2500     43.8047   -148.5732     36.9902     85.5330
  1440.5000     45.1503   -148.6876     38.4149     81.5045
  1440.7500     45.9658   -148.7124     39.6990     79.4544
  1441.0000     46.4264   -148.6561     40.8191     77.5089
  1441.2500     46.7737   -148.5299     41.7667     76.5935
  1441.5000     47.1947   -148.3498     42.5444     74.7639
  1441.7500     47.7745   -148.1374     43.1566     73.0474
  1442.0000     48.5024   -147.9197     43.6180     70.3406
  1442.2500     49.2996   -147.7269     43.9845     68.8536
  1442.5000     50.0811   -147.5893     44.3672     67.1637
  1442.7500     50.8351   -147.5337     44.8988     66.1799
  1443.0000     51.6508   -147.5803     45.6670     64.6295
  1443.2500     52.6590   -147.7411     46.6731     63.5591
  1443.5000     53.9345   -148.0186     47.8447     62.2033
  1443.7500     55.4671   -148.4054     49.0909     61.7209
  1444.0000     57.2109   -148.8839     50.3465     61.9129
  1444.2500     59.1150   -149.4275     51.5752     62.5360
  1444.5000     61.1299   -150.0028     52.7474     63.4641
  1444.7500     63.2450   -150.5729     53.8284     63.6101
  1445.0000     65.4737   -151.1025     54.7956     63.1035
  1445.2500     67.7211   -151.5630     55.6627     62.8328
  1445.5000     69.7232   -151.9360     56.4799     63.5120
  1445.7500     71.1936   -152.2149     57.2910     64.7091
  1446.0000     71.9899   -152.4040     58.0681     66.7346
  1446.2500     72.1041   -152.5152     58.6760     67.7197
  1446.5000     71.5788   -152.5638     58.9258     68.3568
  1446.7500     70.5009   -152.5641     58.6974     68.2799
  1447.0000     69.0293   -152.5262     58.0256     67.6437
  1447.2500     67.3616   -152.4552     57.0633     67.2059
  1447.5000     65.6472   -152.3513     55.9728     67.4865
  1447.7500     63.9328   -152.2118     54.8643     68.7274
  1448.0000     62.1991   -152.0348     53.8121     72.1614
  1448.2500     60.4558   -151.8210     52.8903     75.3765
  1448.5000     58.7823   -151.5754     52.1658     81.9829
  1448.7500     57.2705   -151.3062     51.6529     87.8336
  1449.0000     55.9626   -151.0224     51.2787     97.6990
  1449.2500     54.8629   -150.7303     50.8984    103.3990
  1449.5000     53.9744   -150.4310     50.3729    108.3301
  1449.7500     53.2805   -150.1195     49.6599    109.1949
  1450.0000     52.7102   -149.7863     48.8417    108.5776
  1450.2500     52.1860   -149.4209     48.0643    107.6608
  1450.5000     51.7274   -149.0162     47.4528    105.3387
  1450.7500     51.4650   -148.5716     47.0675    102.8416
  1451.0000     51.5107   -148.0942     46.9105     98.5750
  1451.2500     51.8157   -147.5978     46.9460     96.6637
  1451.5000     52.1784   -147.0995     47.1109     96.5643
  1451.7500     52.4074   -146.6167     47.3191     97.8305
  1452.0000     52.4681   -146.1639     47.4792     99.4447
  1452.2500     52.4741   -145.7511     47.5349     99.2929
  1452.5000     52.5739   -145.3836     47.5081     97.1283
  1452.7500     52.8813   -145.0625     47.5030     95.0958
  1453.0000     53.4685   -144.7862     47.6480     92.4128
  1453.2500     54.3388   -144.5515     48.0065     91.1376
  1453.5000     55.3890   -144.3535     48.5310     89.8181
  1453.7500     56.4309   -144.1854     49.1034     89.2345
  1454.0000     57.2712   -144.0375     49.6316     88.8173
  1454.2500     57.8134   -143.8968     50.1099     88.7297
  1454.5000     58.1278   -143.7473     50.5810     88.2101
  1454.7500     58.4034   -143.5710     51.0481     87.1678
  1455.0000     58.8014   -143.3514     51.4374     84.5201
  1455.2500     59.3499   -143.0757     51.6525     82.5363
  1455.5000     59.9655   -142.7375     51.6675     80.1510
  1455.7500     60.5525   -142.3381     51.5655     79.0198
  1456.0000     61.0921   -141.8860     51.4924     77.5499
  1456.2500     61.6438   -141.3947     51.5806     76.6424
  1456.5000     62.2555   -140.8803     51.9107     75.7410
  1456.7500     62.9041   -140.3590     52.5214     75.4427
  1457.0000     63.5532   -139.8450     53.4331     74.5542
  1457.2500     64.2212   -139.3496     54.6438     73.0165
