~Version Information
VERS.                      2.0: CWLS Log ASCII Standard - VERSION 2.0
WRAP.                       NO: One line per depth step
~Well Information Block
STRT.FT               595.0000: 
STOP.FT              1693.0000: 
STEP.FT                 0.1000: 
NULL.                -999.2500: 
COMP.          Pioneer Natural Resources: COMPANY
WELL.          Rollerball 34-30: WELL
FLD.           Purgatoire River: FIELD
LOC.           893' FSL & 2408' FEL: LOCATION
CNTY.               Las Animas: COUNTY
SRVC.                Patterson: SERVICE COMPANY
DATE.          Tue Feb 14 15:43:01 2006: LOG DATE
UWI.           05 071 08581 00: UNIQUE WELL ID
STAT.                 Colorado: STATE
~Curve Information Block
DEPT.FT            0 000 00 00: Depth
DCAL.in                       : CDL Caliper
RHOB.g/cc                     : CDL Bulk Density
RHOC.g/cc                     : CDL Density Correction
DPOR.pu                       : CDL Density Porosity
GR.GAPI                       : Gamma Ray
NPOR.pu                       : Neutron Porosity
~Parameter Information Block
~A  Depth       DCAL        RHOB        RHOC        DPOR         GR         NPOR    
# ...
   883.0000      8.0945      2.5106      0.0361      8.4496    121.2269     23.1060
   883.1000      8.0945      2.5197      0.0107      7.8975    113.5559     23.1214
   883.2000      8.0945      2.5204      0.0741      7.8515    106.2073     23.1737
   883.3000      8.0999      2.5115      0.0337      8.3921    104.2698     23.0765
   883.4000      8.0999      2.5023     -0.0182      8.9488    108.7411     23.0965
   883.5000      8.1075      2.5051     -0.0068      8.7832    116.0116     23.3694
   883.6000      8.1075      2.5154      0.0128      8.1600    120.2161     23.5180
   883.7000      8.1075      2.5260     -0.0201      7.5154    119.2329     23.6817
   883.8000      8.1076      2.5337      0.0026      7.0469    117.1121     24.1189
   883.9000      8.1076      2.5277      0.0169      7.4136    119.1032     24.4601
   884.0000      8.1033      2.5099     -0.0832      8.4895    127.4304     24.3681
   884.1000      8.1033      2.5069     -0.0187      8.6758    138.2812     24.2042
   884.2000      8.1033      2.5299     -0.0052      7.2783    140.3103     24.2622
   884.3000      8.1043      2.5623      0.0284      5.3162    130.6792     24.1474
   884.4000      8.1043      2.5845      0.0331      3.9699    124.1289     23.6806
   884.5000      8.1092      2.5929      0.0326      3.4594    125.2420     23.4437
   884.6000      8.1092      2.5962      0.0307      3.2585    123.7174     24.0003
   884.7000      8.1092      2.5995      0.0325      3.0613    119.1517     24.6176
   884.8000      8.1081      2.5967      0.0316      3.2326    115.6993     24.2032
   884.9000      8.1081      2.5841      0.0253      3.9931    112.3850     23.0717
   885.0000      8.1064      2.5749      0.0363      4.5487    111.3459     22.5367
   885.1000      8.1064      2.5731      0.0998      4.6613    114.0276     23.1158
   885.2000      8.1064      2.5637      0.0394      5.2313    115.8540     24.0616
   885.3000      8.1091      2.5495     -0.0123      6.0924    114.2776     24.8942
   885.4000      8.1091      2.5404      0.0469      6.6403    112.2939     25.5168
   885.5000      8.1061      2.5304      0.0136      7.2512    114.5268     25.3919
   885.6000      8.1061      2.5184      0.0119      7.9758    120.4713     24.6084
   885.7000      8.1061      2.5144     -0.0076      8.2178    124.8527     24.0156
   885.8000      8.1124      2.5225     -0.0156      7.7257    124.7611     23.8265
   885.9000      8.1124      2.5321      0.0086      7.1435    124.2772     23.6904
   886.0000      8.1303      2.5289     -0.0105      7.3408    126.7491     23.4471
   886.1000      8.1303      2.5181     -0.0486      7.9939    127.3325     23.3919
   886.2000      8.1303      2.5176     -0.0127      8.0252    123.5332     23.8247
   886.3000      8.1393      2.5293      0.0139      7.3180    118.9930     24.5200
   886.4000      8.1393      2.5402      0.0428      6.6546    117.3839     24.9588
   886.5000      8.1307      2.5466      0.0137      6.2638    118.4910     24.7154
   886.6000      8.1307      2.5524      0.0081      5.9126    119.6890     23.8246
   886.7000      8.1307      2.5449      0.0289      6.3694    118.9498     22.7172
   886.8000      8.1246      2.5208     -0.0348      7.8312    116.8872     22.0314
   886.9000      8.1246      2.5015     -0.0271      8.9987    114.4321     22.3618
   887.0000      8.1276      2.4926     -0.0159      9.5375    109.7877     23.2736
   887.1000      8.1276      2.4856     -0.0281      9.9612    104.7795     23.7060
   887.2000      8.1276      2.4833     -0.0410     10.1055    103.9630     23.7037
   887.3000      8.1396      2.4867     -0.0103      9.8964    107.8764     23.5904
   887.4000      8.1396      2.4878     -0.0087      9.8312    112.9682     23.2195
   887.5000      8.1551      2.4856      0.0084      9.9630    113.9599     23.0044
   887.6000      8.1551      2.4877     -0.0106      9.8364    110.4696     23.2919
   887.7000      8.1551      2.4964      0.0012      9.3111    110.0257     23.6370
   887.8000      8.1540      2.5098      0.0015      8.4998    117.0847     24.0078
   887.9000      8.1540      2.5308      0.0133      7.2224    125.9167     24.6474
   888.0000      8.1496      2.5581      0.0387      5.5705    129.1520     25.2048
   888.1000      8.1496      2.5824      0.0522      4.0943    126.0812     25.0481
   888.2000      8.1496      2.5969      0.0415      3.2210    120.1575     24.1502
   888.3000      8.1303      2.5948      0.0521      3.3455    116.2623     23.4606
   888.4000      8.1303      2.5731      0.0276      4.6634    119.2247     23.8768
   888.5000      8.1278      2.5458     -0.0365      6.3168    125.7958     24.7033
   888.6000      8.1278      2.5298      0.0094      7.2856    126.5611     24.7064
   888.7000      8.1278      2.5243     -0.0084      7.6152    120.6716     24.2440
   888.8000      8.1358      2.5229      0.0434      7.7014    117.2745     24.1101
   888.9000      8.1358      2.5171      0.0237      8.0539    120.7758     24.1269
   889.0000      8.1398      2.5016      0.0264      8.9965    124.0053     24.0036
   889.1000      8.1398      2.4835      0.0025     10.0932    120.8358     23.7578
   889.2000      8.1398      2.4748      0.0139     10.6201    116.0391     23.3224
   889.3000      8.1416      2.4812     -0.0352     10.2280    117.7387     22.7813
   889.4000      8.1416      2.4951      0.0518      9.3902    125.4385     22.4869
   889.5000      8.1454      2.4982      0.0216      9.2026    129.4702     22.5025
   889.6000      8.1454      2.4902      0.0131      9.6843    127.5309     22.4952
   889.7000      8.1454      2.4866     -0.0083      9.9027    128.8610     22.4191
   889.8000      8.1482      2.4907      0.0246      9.6556    137.1612     22.3530
   889.9000      8.1482      2.4949      0.0113      9.3998    142.9799     22.1864
   890.0000      8.1524      2.4876      0.0644      9.8431    139.9843     22.1305
   890.1000      8.1524      2.4583      0.0340     11.6205    133.8194     22.1811
   890.2000      8.1524      2.4213     -0.0440     13.8616    128.7218     22.1345
   890.3000      8.1582      2.4045     -0.0058     14.8813    125.3572     22.2826
   890.4000      8.1582      2.4143      0.0137     14.2848    127.8986     22.5883
   890.5000      8.1657      2.4368      0.0206     12.9233    132.5192     22.6855
   890.6000      8.1657      2.4508      0.0949     12.0753    131.7633     22.3190
   890.7000      8.1657      2.4416      0.0119     12.6273    128.8234     21.3417
   890.8000      8.1685      2.4159     -0.0112     14.1888    127.9532     20.5060
   890.9000      8.1685      2.3966     -0.0191     15.3596    129.2866     20.6886
   891.0000      8.1786      2.4033     -0.0019     14.9516    131.6527     21.4779
   891.1000      8.1786      2.4364      0.0240     12.9461    133.2218     21.7843
   891.2000      8.1786      2.4741      0.0877     10.6599    132.9177     21.1278
   891.3000      8.2045      2.4875      0.0578      9.8464    133.1096     20.0288
   891.4000      8.2045      2.4713      0.0073     10.8329    137.0354     19.5347
   891.5000      8.2174      2.4441      0.0146     12.4782    139.5529     20.0781
   891.6000      8.2174      2.4208      0.0345     13.8931    137.3285     20.7608
   891.7000      8.2174      2.4023     -0.0027     15.0119    134.2909     20.6032
   891.8000      8.2028      2.3868      0.0027     15.9502    130.1555     19.8927
   891.9000      8.2028      2.3757     -0.0258     16.6247    127.0162     19.6156
   892.0000      8.2448      2.3668      0.0189     17.1619    130.1205     20.2022
   892.1000      8.2448      2.3576     -0.0069     17.7196    134.7765     20.8466
   892.2000      8.2448      2.3525     -0.0099     18.0286    135.3194     21.0294
   892.3000      8.2521      2.3488      0.0311     18.2527    135.8509     21.3782
   892.4000      8.2521      2.3364      0.0205     19.0079    137.8393     22.1926
   892.5000      8.2481      2.3179     -0.0108     20.1243    136.0704     23.0495
