~Version Information
VERS.                      2.0: CWLS Log ASCII Standard - VERSION 2.0
WRAP.                       NO: One line per depth step
~Well Information Block
STRT.FT                -8.5000: 
STOP.FT              1214.7500: 
STEP.FT                 0.2500: 
NULL.                -999.2500: 
COMP.          Pioneer Natural Resources: COMPANY
WELL.          Rock Island 44-24 Tr: WELL
FLD.           Purgatorie River: FIELD
LOC.           814' FSL & 761' FEL--: LOCATION
CNTY.               Las Animas: COUNTY
SRVC.          Patterson Wireline: SERVICE COMPANY
DATE.          Fri Apr 28 10:23:18 2006: LOG DATE
UWI.           05 071 08680 00: UNIQUE WELL ID
STAT.                       CO: STATE
~Curve Information Block
DEPT.FT            0 000 00 00: Depth
CCL.                          : Casing Collar Locator
TT3.usec                      : CBL 3' Travel Time
AMP3.mV                       : CBL 3' Amplitude
GR.GAPI                       : Gamma Ray
~Parameter Information Block
~A  Depth       CCL         TT3         AMP3         GR     
# ...
   326.5000      0.0000    758.1946      7.0070     55.8963
   326.7500      0.0000    758.6538      7.1188     53.8034
   327.0000      0.0000    755.0971      7.2045     54.2480
   327.2500      0.0000    749.8787      7.2490     56.9254
   327.5000      0.0000    745.5211      7.2489     60.6547
   327.7500      0.0000    742.9736      7.2174     63.9225
   328.0000      0.0000    741.7174      7.1812     65.5562
   328.2500      0.0000    740.6793      7.1700     65.3557
   328.5000      0.0000    738.9769      7.2053     64.1893
   328.7500      0.0000    736.4678      7.2964     63.3521
   329.0000      0.0000    734.0643      7.4375     63.7642
   329.2500      0.0000    733.2211      7.6058     65.6580
   329.5000      0.0000    734.6302      7.7654     68.6254
   329.7500      0.0000    737.5035      7.8833     71.7092
   330.0000      0.0000    740.3960      7.9439     73.7938
   330.2500      0.0000    742.5574      7.9530     74.2809
   330.5000      0.0000    744.3837      7.9296     73.3631
   330.7500      0.0000    746.8907      7.8950     71.5847
   331.0000      0.0000    750.9161      7.8651     69.2712
   331.2500      0.0000    756.5378      7.8482     66.4739
   331.5000      0.0000    762.8964      7.8468     63.3860
   331.7500      0.0000    768.3526      7.8604     60.5709
   332.0000      0.0000    770.9373      7.8852     58.5929
   332.2500      0.0000    769.4338      7.9108     57.5016
   332.5000      0.0000    764.8941      7.9238     56.9146
   332.7500      0.0000    760.8816      7.9171     56.5514
   333.0000      0.0000    761.4585      7.8989     56.4020
   333.2500      0.0000    768.4214      7.8878     56.3520
   333.5000      0.0000    779.8804      7.8987     55.9976
   333.7500      0.0000    790.9512      7.9321     55.1435
   334.0000      0.0000    796.3607      7.9748     54.3207
   334.2500      0.0000    793.6835      8.0111     54.3422
   334.5000      0.0000    784.5911      8.0322     55.2965
   334.7500      0.0000    772.7172      8.0399     56.4117
   335.0000      0.0000    760.5242      8.0420     56.9874
   335.2500      0.0000    748.4761      8.0475     57.0204
   335.5000      0.0000    736.3984      8.0619     56.8201
   335.7500      0.0000    724.5798      8.0872     56.4590
   336.0000      0.0000    713.7153      8.1230     55.8653
   336.2500      0.0000    704.5691      8.1656     55.1948
   336.5000      0.0000    697.8017      8.2049     54.9032
   336.7500      0.0000    693.7629      8.2255     55.5189
   337.0000      0.0000    692.4755      8.2127     57.3720
   337.2500      0.0000    693.9454      8.1612     60.4003
   337.5000      0.0000    698.3152      8.0792     64.1319
   337.7500      0.0000    705.5074      7.9865     67.8106
   338.0000      0.0000    714.7205      7.9072     70.4886
   338.2500      0.0000    724.1802      7.8590     71.1112
   338.5000      0.0000    731.0104      7.8454     68.8794
   338.7500      0.0000    731.4193      7.8561     63.9147
   339.0000      0.0000    721.6857      7.8784     57.4748
   339.2500      0.0000    699.5400      7.9070     51.1781
   339.5000      0.0000    665.3683      7.9404     46.0919
   339.7500      0.0000    623.6972      7.9713     42.7472
   340.0000      0.0000    584.2784      7.9850     41.5174
   340.2500      0.0000    559.6902      7.9680     42.3519
   340.5000      0.0000    558.6248      7.9189     44.3260
   340.7500      0.0000    579.5143      7.8504     46.0192
   341.0000      0.0000    610.2589      7.7847     46.4582
   341.2500      0.0000    635.4159      7.7434     45.6002
   341.5000      0.0000    646.4484      7.7407     44.0538
   341.7500      0.0000    647.4253      7.7803     42.5507
   342.0000      0.0000    651.1827      7.8394     41.6239
   342.2500      0.0000    668.5272      7.8513     41.4658
   342.5000      0.0000    699.8395      7.7394     41.8856
   342.7500      0.0000    736.1667      7.4974     42.5063
   343.0000      0.0000    767.2792      7.2118     43.0370
   343.2500      0.0000    788.2190      6.9849     43.2756
   343.5000      0.0000    799.0449      6.8552     43.0548
   343.7500     -2.0000    799.9528      6.8073     42.5023
   344.0000      2.0000    788.6108      6.8276     42.2128
   344.2500      0.0000    762.9772      6.9410     42.7955
   344.5000      0.0000    726.0125      7.2035     44.2356
   344.7500      0.0000    687.5879      7.6443     45.8804
   345.0000      0.0000    661.4918      8.1844     46.9874
   345.2500      0.0000    657.6118      8.6345     47.2695
   345.5000      0.0000    674.4293      8.8350     47.1676
   345.7500      0.0000    699.8735      8.7936     47.5895
   346.0000      0.0000    720.4249      8.6549     49.0652
   346.2500      0.0000    729.2310      8.5523     51.1119
   346.5000      0.0000    727.4557      8.5210     52.6496
   346.7500      0.0000    720.8613      8.5242     52.9913
   347.0000      0.0000    715.2753      8.5147     52.1515
   347.2500      0.0000    713.1105      8.4684     50.3196
   347.5000      0.0000    712.8651      8.3869     47.5981
   347.7500      0.0000    711.8276      8.2903     44.4003
   348.0000      0.0000    709.3168      8.2052     41.5990
   348.2500      0.0000    707.2833      8.1540     39.9542
   348.5000      0.0000    708.1262      8.1472     39.5601
   348.7500      0.0000    712.2194      8.1820     40.0344
   349.0000      0.0000    717.4371      8.2441     41.0830
   349.2500      0.0000    720.8300      8.3124     42.6210
   349.5000      0.0000    720.7569      8.3664     44.4747
   349.7500      0.0000    717.6398      8.3928     46.4367
   350.0000      0.0000    713.2605      8.3871     48.7581
   350.2500      0.0000    709.8251      8.3511     52.0787
   350.5000      0.0000    709.1614      8.2878     56.4401
   350.7500      0.0000    711.5682      8.2004     60.6314
   351.0000      0.0000    715.0524      8.0967     62.9850
   351.2500      0.0000    716.4293      7.9930     62.9131
   351.5000      0.0000    713.8164      7.9081     61.5552
   351.7500      0.0000    708.1088      7.8527     60.9259
   352.0000      0.0000    702.0742      7.8226     62.5749
   352.2500      0.0000    698.3032      7.8044     66.9478
   352.5000      0.0000    697.9963      7.7872     73.3584
   352.7500      0.0000    700.8587      7.7680     80.0653
   353.0000      0.0000    705.2746      7.7510     84.9585
   353.2500      0.0000    708.7903      7.7434     86.9453
   353.5000      0.0000    709.5897      7.7521     86.5519
   353.7500      0.0000    707.9306      7.7787     84.9772
   354.0000      0.0000    705.4646      7.8140     83.0288
   354.2500      0.0000    702.5797      7.8409     81.2061
   354.5000      0.0000    696.8672      7.8453     80.2763
   354.7500      0.0000    685.0823      7.8286     81.1477
   355.0000      0.0000    667.3240      7.8075     84.0991
   355.2500      0.0000    649.2790      7.8006     88.3766
   355.5000      0.0000    639.2789      7.8124     92.7055
   355.7500      0.0000    641.9493      7.8303     96.0993
   356.0000      0.0000    654.5812      7.8362     98.1180
   356.2500      0.0000    669.8735      7.8204     98.6896
   356.5000      0.0000    681.7215      7.7857     98.1048
   356.7500      0.0000    688.3184      7.7418     97.0275
   357.0000      0.0000    691.1572      7.7008     96.0709
   357.2500      0.0000    692.6813      7.6730     95.3439
   357.5000      0.0000    694.8780      7.6617     94.7430
   357.7500      0.0000    698.6451      7.6576     94.6732
   358.0000      0.0000    703.2986      7.6447     96.1599
   358.2500      0.0000    706.7430      7.6150    100.0034
   358.5000      0.0000    707.0511      7.5775    105.6293
   358.7500      0.0000    704.3451      7.5517    110.7859
   359.0000      0.0000    700.9371      7.5529    112.9003
   359.2500      0.0000    699.5247      7.5821    111.2195
   359.5000      0.0000    701.2232      7.6294    107.4627
   359.7500      0.0000    704.8453      7.6907    103.9627
