~Version Information
VERS.                      2.0: CWLS Log ASCII Standard - VERSION 2.0
WRAP.                       NO: One line per depth step
~Well Information Block
STRT.FT               670.0000: 
STOP.FT              2110.0000: 
STEP.FT                 0.2500: 
NULL.                -999.2500: 
COMP.          Petrogulf Corporation: COMPANY
WELL.           Montoya 12-44R: WELL
FLD.           Purgatorie River: FIELD
LOC.           713' FSL & 798' FEL: LOCATION
PROV.                 Colorado: PROVINCE
CNTY.               Las Animas: COUNTRY
SRVC.                Patterson: SERVICE COMPANY
DATE.          Sun Oct 02 01:06:45 2005: LOG DATE
UWI.           05-071-08538               : UNIQUE WELL ID
~Curve Information Block
DEPT.FT            0 000 00 00: Depth
SP.mV                         : DIL Spontaneous Potential
RILD.Ohm-m                    : DIL Deep Resistivity
RILM.Ohm-m                    : DIL Medium Resistivity
RLL3.Ohm-m                    : DIL Shallow Resistivity
GR.GAPI                       : Gamma Ray
~Parameter Information Block
~A  Depth        SP         RILD        RILM        RLL3         GR     
# ...
   866.0000   2000.0000     47.7460     87.8507   2000.0000     26.9868
   866.2500   2000.0000     45.5728     81.7292   2000.0000     29.5130
   866.5000   2000.0000     43.1669     74.2508   2000.0000     33.5963
   866.7500   2000.0000     40.6635     66.4319   2000.0000     36.2389
   867.0000   2000.0000     38.1362     58.9346   2000.0000     40.3935
   867.2500   2000.0000     35.6389     52.0992   2000.0000     43.9083
   867.5000   2000.0000     33.2298     46.0496   2000.0000     51.2558
   867.7500   2000.0000     30.9692     40.7900   2000.0000     57.4909
   868.0000   2000.0000     28.9017     36.2710   2000.0000     67.5868
   868.2500   2000.0000     27.0421     32.4240   2000.0000     73.9512
   868.5000   2000.0000     25.3774     29.1760   2000.0000     82.5731
   868.7500   2000.0000     23.8818     26.4539   2000.0000     88.2847
   869.0000   2000.0000     22.5326     24.1856   2000.0000     98.0482
   869.2500   2000.0000     21.3180     22.3015   2000.0000    105.5522
   869.5000   2000.0000     20.2341     20.7367   2000.0000    117.6063
   869.7500   2000.0000     19.2785     19.4334   2000.0000    125.4779
   870.0000   2000.0000     18.4456     18.3436   2000.0000    135.7418
   870.2500   2000.0000     17.7275     17.4299   2000.0000    140.8819
   870.5000   2000.0000     17.1159     16.6653   2000.0000    145.6122
   870.7500   2000.0000     16.6030     16.0314   2000.0000    147.2784
   871.0000   2000.0000     16.1816     15.5152   2000.0000    149.4073
   871.2500   2000.0000     15.8431     15.1061   2000.0000    151.4632
   871.5000   2000.0000     15.5781     14.7940   2000.0000    155.2510
   871.7500   2000.0000     15.3764     14.5677   2000.0000    157.3732
   872.0000   2000.0000     15.2292     14.4149   2000.0000    159.2259
   872.2500   2000.0000     15.1301     14.3238   2000.0000    160.0164
   872.5000   2000.0000     15.0772     14.2839   2000.0000    161.2560
   872.7500   2000.0000     15.0709     14.2876   2000.0000    161.6428
   873.0000   2000.0000     15.1109     14.3308   2000.0000    159.8012
   873.2500   2000.0000     15.1918     14.4119   2000.0000    156.5425
   873.5000   2000.0000     15.3043     14.5311   2000.0000    150.0726
   873.7500   2000.0000     15.4394     14.6881   2000.0000    146.3345
   874.0000   2000.0000     15.5935     14.8816   2000.0000    143.7886
   874.2500   2000.0000     15.7682     15.1081   2000.0000    144.3059
   874.5000   2000.0000     15.9660     15.3623   2000.0000    146.7203
   874.7500   2000.0000     16.1857     15.6375   2000.0000    148.0253
   875.0000   2000.0000     16.4235     15.9274   2000.0000    148.0459
   875.2500   2000.0000     16.6772     16.2268   2000.0000    146.6388
   875.5000   2000.0000     16.9492     16.5332   2000.0000    142.8499
   875.7500   2000.0000     17.2445     16.8474   2000.0000    139.7262
   876.0000   2000.0000     17.5677     17.1748   2000.0000    135.5663
   876.2500   2000.0000     17.9233     17.5249   2000.0000    134.0137
   876.5000   2000.0000     18.3192     17.9117   2000.0000    134.3230
   876.7500   2000.0000     18.7695     18.3527   2000.0000    136.3354
   877.0000   2000.0000     19.2909     18.8673   2000.0000    141.8536
   877.2500   2000.0000     19.8938     19.4754   2000.0000    146.9080
   877.5000   2000.0000     20.5717     20.1955   2000.0000    155.2254
   877.7500   2000.0000     21.2980     21.0423   2000.0000    159.8042
   878.0000   2000.0000     22.0352     22.0243   2000.0000    162.2195
   878.2500   2000.0000     22.7545     23.1408   2000.0000    159.7524
   878.5000   2000.0000     23.4532     24.3796   2000.0000    150.6025
   878.7500   2000.0000     24.1567     25.7159   2000.0000    142.5224
   879.0000   2000.0000     24.9027     27.1141   2000.0000    130.4787
   879.2500   2000.0000     25.7190     28.5329   2000.0000    123.6187
   879.5000   2000.0000     26.6101     29.9328   2000.0000    115.9873
   879.7500   2000.0000     27.5601     31.2842   2000.0000    113.0165
   880.0000   2000.0000     28.5461     32.5711   2000.0000    111.9717
   880.2500   2000.0000     29.5480     33.7914   2000.0000    113.0557
   880.5000   2000.0000     30.5487     34.9512   2000.0000    115.3071
   880.7500   2000.0000     31.5284     36.0587   2000.0000    116.0483
   881.0000   2000.0000     32.4660     37.1195   2000.0000    115.5205
   881.2500   2000.0000     33.3474     38.1356   2000.0000    114.6868
   881.5000   2000.0000     34.1713     39.1075   2000.0000    113.8895
   881.7500   2000.0000     34.9440     40.0387   2000.0000    113.7295
   882.0000   2000.0000     35.6690     40.9394   2000.0000    113.2693
   882.2500   2000.0000     36.3435     41.8287   2000.0000    112.3872
   882.5000   2000.0000     36.9650     42.7334   2000.0000    109.9902
   882.7500   2000.0000     37.5462     43.6847   2000.0000    107.7467
   883.0000   2000.0000     38.1228     44.7128   2000.0000    103.6163
   883.2500   2000.0000     38.7471     45.8423   2000.0000    100.4573
   883.5000   2000.0000     39.4652     47.0878   2000.0000     95.2670
   883.7500   2000.0000     40.2933     48.4516   2000.0000     91.6844
   884.0000   2000.0000     41.2084     49.9217   2000.0000     86.6267
   884.2500   2000.0000     42.1608     51.4727   2000.0000     83.7387
   884.5000   2000.0000     43.0989     53.0677   2000.0000     80.4205
   884.7500   2000.0000     43.9898     54.6624   2000.0000     78.9060
   885.0000   2000.0000     44.8206     56.2118   2000.0000     77.2341
   885.2500   2000.0000     45.5847     57.6795   2000.0000     76.0181
   885.5000   2000.0000     46.2712     59.0452   2000.0000     73.4311
   885.7500   2000.0000     46.8714     60.3122   2000.0000     71.2207
   886.0000   2000.0000     47.3989     61.5073   2000.0000     67.4764
   886.2500   2000.0000     47.8965     62.6756   2000.0000     64.7751
   886.5000   2000.0000     48.4184     63.8676   2000.0000     60.5776
   886.7500   2000.0000     48.9995     65.1258   2000.0000     57.9745
   887.0000   2000.0000     49.6359     66.4725   2000.0000     55.0171
   887.2500   2000.0000     50.2907     67.9028   2000.0000     53.9080
   887.5000   2000.0000     50.9199     69.3823   2000.0000     53.5324
   887.7500   2000.0000     51.5014     70.8490   2000.0000     53.9711
   888.0000   2000.0000     52.0425     72.2169   2000.0000     55.3057
   888.2500   2000.0000     52.5568     73.3829   2000.0000     56.5225
   888.5000   2000.0000     53.0285     74.2391   2000.0000     58.6839
   888.7500   2000.0000     53.3975     74.6898   2000.0000     60.0580
   889.0000   2000.0000     53.5828     74.6704   2000.0000     61.0859
   889.2500   2000.0000     53.5233     74.1602   2000.0000     60.6705
   889.5000   2000.0000     53.2092     73.1856   2000.0000     58.7065
   889.7500   2000.0000     52.6852     71.8132   2000.0000     57.2595
   890.0000   2000.0000     52.0305     70.1394   2000.0000     56.4435
   890.2500   2000.0000     51.3281     68.2798   2000.0000     57.4825
   890.5000   2000.0000     50.6344     66.3590   2000.0000     61.6992
   890.7500   2000.0000     49.9636     64.5007   2000.0000     65.8420
   891.0000   2000.0000     49.2954     62.8148   2000.0000     72.7830
   891.2500   2000.0000     48.6011     61.3854   2000.0000     77.3936
   891.5000   2000.0000     47.8726     60.2609   2000.0000     84.0947
   891.7500   2000.0000     47.1352     59.4510   2000.0000     88.1364
   892.0000   2000.0000     46.4401     58.9270   2000.0000     91.9956
   892.2500   2000.0000     45.8377     58.6281   2000.0000     92.1119
   892.5000   2000.0000     45.3468     58.4684   2000.0000     88.6420
   892.7500   2000.0000     44.9301     58.3449   2000.0000     85.1118
   893.0000   2000.0000     44.4886     58.1401   2000.0000     80.4772
   893.2500   2000.0000     43.8803     57.7226   2000.0000     78.6301
   893.5000   2000.0000     42.9635     56.9462   2000.0000     77.6007
   893.7500   2000.0000     41.6521     55.6586   2000.0000     77.3520
