~Version Information
VERS.                      2.0: CWLS Log ASCII Standard - VERSION 2.0
WRAP.                       NO: One line per depth step
~Well Information Block
STRT.FT                 0.0000: 
STOP.FT              3428.7500: 
STEP.FT                 0.2500: 
NULL.                -999.2500: 
COMP.          Pioneer Natural Resources: COMPANY
WELL.          Cordillera 34-7: WELL
FLD.           Purgatorie River: FIELD
LOC.           598' FSL & 1770' FEL: LOCATION
PROV.                 Colorado: PROVINCE
CNTY.               Las Animas: COUNTRY
SRVC.                Patterson: SERVICE COMPANY
DATE.          Fri Nov 18 07:55:32 2005: LOG DATE
UWI.                          : UNIQUE WELL ID
~Curve Information Block
DEPT.FT            0 000 00 00: Depth
AMP3.mV                       : CBL 3' Amplitude
CCL.                          : Casing Collar Locator
GR.GAPI                       : Gamma Ray
TT3.usec                      : CBL 3' Travel Time
~Parameter Information Block
~A  Depth       AMP3        CCL          GR         TT3     
# ...
  1139.0000      4.6794      0.0000     65.8832    718.3257
  1139.2500      4.7209      0.0000     67.7485    713.5848
  1139.5000      4.7696      0.0000     68.8688    705.1000
  1139.7500      4.7962      0.0000     68.6968    696.2047
  1140.0000      4.8115      0.0000     67.4095    691.0839
  1140.2500      4.8472      0.0000     65.8580    688.4619
  1140.5000      4.9038      0.0000     64.8148    684.7277
  1140.7500      4.9568      0.0000     64.4846    681.3956
  1141.0000      5.0023      0.0000     64.8541    683.5546
  1141.2500      5.0505      0.0000     65.8971    693.5775
  1141.5000      5.0842      0.0000     66.9964    707.9127
  1141.7500      5.0739      0.0000     66.8990    719.9669
  1142.0000      5.0213      0.0000     65.0063    726.8108
  1142.2500      4.9460      0.0000     62.2573    728.9871
  1142.5000      4.8528      0.0000     60.0849    726.3853
  1142.7500      4.7419      0.0000     58.9017    721.0540
  1143.0000      4.6288      0.0000     58.1737    717.1330
  1143.2500      4.5321      0.0000     57.6435    714.0878
  1143.5000      4.4398      0.0000     57.8981    708.7083
  1143.7500      4.3127      0.0000     59.5856    702.1570
  1144.0000      4.1424      0.0000     62.2270    697.7190
  1144.2500      3.9768      0.0000     64.0401    696.0649
  1144.5000      3.8687      0.0000     63.3040    696.3579
  1144.7500      3.8397      0.0000     60.0949    698.9131
  1145.0000      3.8923      0.0000     56.3945    705.7474
  1145.2500      4.0086      0.0000     54.3025    718.1166
  1145.5000      4.1423      0.0000     54.3881    732.2563
  1145.7500      4.2345      0.0000     55.8809    740.5151
  1146.0000      4.2416      0.0000     58.0559    740.4355
  1146.2500      4.1745      0.0000     60.9116    739.2606
  1146.5000      4.1045      0.0000     64.4649    745.1708
  1146.7500      4.1025      0.0000     68.0789    757.2535
  1147.0000      4.1758      0.0000     71.1556    766.8873
  1147.2500      4.2819      0.0000     74.2852    767.5494
  1147.5000      4.3919      0.0000     79.0258    761.5584
  1147.7500      4.4988      0.0000     86.3700    753.3301
  1148.0000      4.5876      0.0000     95.6247    740.5558
  1148.2500      4.6484      0.0000    104.7613    721.0563
  1148.5000      4.6913      0.0000    111.7384    701.8156
  1148.7500      4.7167      0.0000    115.5362    693.5602
  1149.0000      4.7109      0.0000    116.0719    700.5801
  1149.2500      4.6860      0.0000    113.3854    717.4315
  1149.5000      4.6824      0.0000    107.2452    733.4905
  1149.7500      4.7277      0.0000     97.6305    741.7289
  1150.0000      4.8135      0.0000     85.4930    742.6516
  1150.2500      4.9000      0.0000     72.9860    741.7410
  1150.5000      4.9432      0.0000     62.7999    745.2201
  1150.7500      4.9231      0.0000     57.0073    754.0806
  1151.0000      4.8437      0.0000     56.2872    763.0046
  1151.2500      4.7283      0.0000     59.8397    765.9063
  1151.5000      4.6301      0.0000     65.6803    759.5709
  1151.7500      4.6011      0.0000     71.3120    746.1452
  1152.0000      4.6418      0.0000     74.7108    732.8744
  1152.2500      4.7039      0.0000     75.0843    725.1440
  1152.5000      4.7333      0.0000     73.0219    723.0227
  1152.7500      4.7056      0.0000     69.9444    725.8309
  1153.0000      4.6366      0.0000     67.0095    735.9647
  1153.2500      4.5696      0.0000     64.4084    755.5040
  1153.5000      4.5431      0.0000     61.8770    777.8833
  1153.7500      4.5529      0.0000     59.5225    788.0687
  1154.0000      4.5623      0.0000     57.7166    777.7531
  1154.2500      4.5418      0.0000     56.6174    755.6576
  1154.5000      4.4916      0.0000     56.4257    736.7390
  1154.7500      4.4423      0.0000     57.7649    727.1405
  1155.0000      4.4253      0.0000     61.0701    723.9789
  1155.2500      4.4515      0.0000     65.5772    723.0609
  1155.5000      4.5347      0.0000     69.4014    722.5280
  1155.7500      4.7000      0.0000     70.9253    722.2321
  1156.0000      4.9355      0.0000     70.1273    722.3668
  1156.2500      5.1829      0.0000     68.6147    722.8619
  1156.5000      5.4290      0.0000     68.3570    723.5571
  1156.7500      5.7475      0.0000     70.2614    724.7009
  1157.0000      6.2093      0.0000     73.8854    728.0962
  1157.2500      6.8192      0.0000     78.4394    738.2107
  1157.5000      7.5783      0.0000     83.7885    759.2263
  1157.7500      8.5037      0.0000     90.1470    787.2980
  1158.0000      9.5021      0.0000     96.8920    808.7855
  1158.2500     10.3537      0.0000    102.3112    812.4725
  1158.5000     10.9402      0.0000    105.0555    803.0461
  1158.7500     11.3350      0.0000    105.7729    796.0444
  1159.0000     11.6126      0.0000    106.9789    798.0629
  1159.2500     11.7698      0.0000    110.9970    802.0168
  1159.5000     11.7816      0.0000    117.7502    802.0807
  1159.7500     11.5737      0.0000    124.5009    799.1789
  1160.0000     11.0644      0.0000    127.9078    794.4851
  1160.2500     10.2779      0.0000    126.5731    788.7108
  1160.5000      9.3216      0.0000    121.7357    784.9403
  1160.7500      8.3197      0.0000    115.7054    785.0457
  1161.0000      7.4263      0.0000    109.8391    786.6132
  1161.2500      6.7831      0.0000    104.0551    788.4005
  1161.5000      6.4105      0.0000     98.0924    791.3263
  1161.7500      6.2140      0.0000     92.8692    791.8743
  1162.0000      6.0907      0.0000     90.2641    784.7238
  1162.2500      5.9445      0.0000     91.5377    769.5339
  1162.5000      5.6465      0.0000     96.1256    747.7326
  1162.7500      5.1795      0.0000    101.9833    721.1469
  1163.0000      4.8376      0.0000    106.9646    698.9861
  1163.2500      4.9242      0.0000    109.7516    699.9650
  1163.5000      5.1831      0.0000    109.8014    740.2964
  1163.7500      5.1385      0.0000    107.1795    810.7006
  1164.0000      4.8563      0.0000    102.7980    873.8588
  1164.2500      4.6647      0.0000     98.3369    903.4399
  1164.5000      4.6044      0.0000     95.4135    906.4680
  1164.7500      4.5626      2.0000     94.7253    894.4272
  1165.0000      4.5079      0.0000     95.8273    869.5576
  1165.2500      4.4799      0.0000     97.5534    840.8303
  1165.5000      4.5677      0.0000     98.8492    818.2162
  1165.7500      4.9686      0.0000     99.4330    798.6599
  1166.0000      5.7757      0.0000     99.6523    773.0652
  1166.2500      6.5667      0.0000     99.9018    739.6087
  1166.5000      6.8161      0.0000    100.4228    708.6292
  1166.7500      6.6486      0.0000    101.4364    692.7589
  1167.0000      6.4796      0.0000    103.0747    693.7723
  1167.2500      6.4253      0.0000    105.2310    702.3292
  1167.5000      6.4196      0.0000    107.6414    706.6531
  1167.7500      6.4097      0.0000    109.9718    701.2936
  1168.0000      6.3706      0.0000    111.7814    689.9893
  1168.2500      6.3101      0.0000    112.7507    680.0740
  1168.5000      6.2482      0.0000    113.1002    674.9083
  1168.7500      6.1964      0.0000    113.5481    673.1014
  1169.0000      6.1833      0.0000    114.8000    672.5511
  1169.2500      6.2407      0.0000    117.1671    672.4048
  1169.5000      6.3503      0.0000    120.4729    672.4337
  1169.7500      6.4640      0.0000    124.1469    672.4148
  1170.0000      6.5605      0.0000    127.5251    672.2222
  1170.2500      6.6415      0.0000    130.2441    671.9647
  1170.5000      6.7153      0.0000    132.3321    671.8047
  1170.7500      6.7860      0.0000    133.8836    671.7825
  1171.0000      6.8245      0.0000    134.6978    671.8534
  1171.2500      6.8118      0.0000    134.2256    671.9904
  1171.5000      6.7928      0.0000    131.8145    672.2332
  1171.7500      6.8058      0.0000    127.1727    672.6031
  1172.0000      6.8263      0.0000    120.8409    672.9375
  1172.2500      6.8174      0.0000    114.2621    672.9454
