~Version Information
VERS.                      2.0: CWLS Log ASCII Standard - VERSION 2.0
WRAP.                       NO: One line per depth step
~Well Information Block
STRT.FT                 0.0000: 
STOP.FT              1877.2500: 
STEP.FT                 0.2500: 
NULL.                -999.2500: 
COMP.          Pioneer Natural Resources: COMPANY
WELL.            Corazon 13-10: WELL
FLD.           Purgatoire River: FIELD
LOC.           2510' FSL & 439' FWL--------: LOCATION
PROV.                 Colorado: PROVINCE
CNTY.               Las Animas: COUNTRY
SRVC.                         : SERVICE COMPANY
DATE.          Mon Dec 19 14:34:49 2005: LOG DATE
UWI.                          : UNIQUE WELL ID
~Curve Information Block
DEPT.FT            0 000 00 00: Depth
CCL.                          : Casing Collar Locator
TT3.usec                      : CBL 3' Travel Time
AMP3.mV                       : CBL 3' Amplitude
AMP5.mV                       : CBL 5' Amplitude
GR.GAPI                       : Gamma Ray
~Parameter Information Block
~A  Depth       CCL         TT3         AMP3        AMP5         GR     
# ...
   868.0000      0.0000    260.1537     76.4462     32.9532     63.0627
   868.2500      0.0000    259.9970     75.9029     38.3086     56.4906
   868.5000      0.0000    259.9566     74.9160     41.6818     55.0076
   868.7500      0.0000    259.9561     73.7448     43.0998     57.4725
   869.0000      0.0000    259.9784     72.5553     43.1751     62.1298
   869.2500      0.0000    260.0175     71.4525     42.5727     67.9250
   869.5000      0.0000    260.0707     70.4549     41.7006     74.5678
   869.7500      0.0000    260.1345     69.5228     40.7123     81.3484
   870.0000      0.0000    260.2029     68.6335     39.6390     86.3832
   870.2500      0.0000    260.2669     67.8245     38.4912     87.5767
   870.5000      0.0000    260.3199     67.1493     37.2887     84.6130
   870.7500      0.0000    260.3659     66.5882     36.0691     79.6770
   871.0000      0.0000    260.4213     66.0156     34.8877     75.6056
   871.2500      0.0000    260.5042     65.2846     33.8026     73.3115
   871.5000      0.0000    260.6193     64.3605     32.8478     71.4874
   871.7500      0.0000    260.7579     63.3648     32.0159     68.9257
   872.0000      0.0000    260.9189     62.4627     31.2635     66.6392
   872.2500      0.0000    261.1274     61.7052     30.5438     67.3539
   872.5000      0.0000    261.4242     60.9931     29.8499     73.1644
   872.7500      0.0000    261.8254     60.2002     29.2202     84.0659
   873.0000      0.0000    262.2959     59.3139     28.6852     98.3549
   873.2500      0.0000    262.7660     58.4550     28.2133    113.6800
   873.5000      0.0000    263.2068     57.7752     27.7276    127.7229
   873.7500      0.0000    263.7553     57.3387     27.1818    138.6629
   874.0000      0.0000    264.8553     57.0769     26.6023    145.6916
   874.2500      0.0000    267.2657     56.8412     26.0476    149.2767
   874.5000      0.0000    271.6965     56.5053     25.5491    150.7351
   874.7500      0.0000    278.1187     56.0392     25.1042    151.2628
   875.0000      0.0000    285.3860     55.5064     24.7090    151.3569
   875.2500      0.0000    291.8029     55.0005     24.3713    151.0873
   875.5000      0.0000    296.2303     54.5869     24.0967    150.3604
   875.7500      0.0000    298.6232     54.2954     23.8847    148.8924
   876.0000      0.0000    299.6422     54.1426     23.7379    146.6545
   876.2500      0.0000    299.9940     54.1348     23.6629    144.3545
   876.5000      0.0000    300.1130     54.2435     23.6620    142.7730
   876.7500      0.0000    300.1806     54.3997     23.7265    141.7537
   877.0000      0.0000    300.2403     54.5229     23.8313    140.4184
   877.2500      0.0000    300.2831     54.5630     23.9326    138.1738
   877.5000      0.0000    300.2964     54.5166     23.9749    135.0083
   877.7500      0.0000    300.2811     54.4136     23.9081    131.0413
   878.0000      0.0000    300.2486     54.2875     23.7104    126.2441
   878.2500      0.0000    300.2123     54.1442     23.4043    120.4351
   878.5000      0.0000    300.1819     53.9537     23.0420    113.4662
   878.7500      0.0000    300.1656     53.6759     22.6639    105.9812
   879.0000      0.0000    300.1701     53.2917     22.2772    100.0988
   879.2500      0.0000    300.1990     52.8053     21.8719     98.4932
   879.5000      0.0000    300.2487     52.2225     21.4431    102.2234
   879.7500      0.0000    300.3060     51.5335     20.9925    109.6478
   880.0000      0.0000    300.3546     50.7152     20.5189    117.5182
   880.2500      0.0000    300.3851     49.7486     20.0134    123.0155
   880.5000      0.0000    300.3975     48.6420     19.4656    125.1264
   880.7500      0.0000    300.3973     47.4440     18.8728    124.7974
   881.0000      0.0000    300.3919     46.2303     18.2460    124.1744
   881.2500      0.0000    300.3917     45.0703     17.6122    125.4933
   881.5000      0.0000    300.4077     43.9985     17.0027    130.0105
   881.7500      0.0000    300.4475     43.0143     16.4302    137.2908
   882.0000      0.0000    300.5130     42.1029     15.8848    145.4812
   882.2500      0.0000    300.6013     41.2520     15.3646    152.6125
   882.5000      0.0000    300.7066     40.4477     14.8920    157.6652
   882.7500      0.0000    300.8251     39.6674     14.4844    160.3497
   883.0000      0.0000    300.9558     38.8921     14.1187    160.5359
   883.2500      0.0000    301.0945     38.1275     13.7397    158.6791
   883.5000      0.0000    301.2281     37.4013     13.3112    156.2830
   883.7500      0.0000    301.3398     36.7357     12.8553    154.8827
   884.0000      0.0000    301.4180     36.1289     12.4363    154.6661
   884.2500      0.0000    301.4622     35.5628     12.1047    154.8726
   884.5000      0.0000    301.4829     35.0207     11.8614    155.3416
   884.7500      0.0000    301.4983     34.5004     11.6718    156.7957
   885.0000      0.0000    301.5250     34.0190     11.5015    159.5504
   885.2500      0.0000    301.5700     33.5980     11.3277    162.4954
   885.5000      0.0000    301.6321     33.2347     11.1275    163.5215
   885.7500      0.0000    301.7093     32.8890     10.8792    161.0360
   886.0000      0.0000    301.8010     32.5087     10.5788    155.3976
   886.2500      0.0000    301.9023     32.0660     10.2442    148.8732
   886.5000      0.0000    302.0039     31.5691      9.9062    143.9807
   886.7500      0.0000    302.1011     31.0427      9.5983    141.8838
   887.0000      0.0000    302.2013     30.5039      9.3423    142.2545
   887.2500      0.0000    302.3216     29.9508      9.1354    143.9861
   887.5000      0.0000    302.4810     29.3664      8.9580    145.5847
   887.7500      0.0000    302.7203     28.7376      8.7924    145.3539
   888.0000      0.0000    303.1638     28.0796      8.6296    142.1449
   888.2500      0.0000    304.3514     27.4407      8.4690    136.5815
   888.5000      0.0000    308.1089     26.8770      8.3116    131.3251
   888.7500      0.0000    318.6829     26.4150      8.1479    129.4410
   889.0000      0.0000    342.4122     26.0359      7.9555    132.0191
   889.2500      0.0000    383.3351     25.6951      7.7199    137.1043
   889.5000      0.0000    436.6440     25.3613      7.4561    140.7782
   889.7500      0.0000    488.7154     25.0300      7.2042    139.5605
   890.0000      0.0000    527.7689     24.6978      6.9952    132.3097
   890.2500      0.0000    552.7230     24.3393      6.8278    120.3204
   890.5000      0.0000    567.5229     23.9249      6.6815    106.0944
   890.7500      0.0000    571.8975     23.4554      6.5478     92.2391
   891.0000      0.0000    566.2370     22.9729      6.4330     81.2086
   891.2500      0.0000    561.8372     22.5381      6.3340     75.3298
   891.5000      0.0000    575.0313     22.1937      6.2329     76.2784
   891.7500      0.0000    609.7629     21.9365      6.1219     83.9678
   892.0000      0.0000    653.0213     21.7203      6.0172     96.0662
   892.2500      0.0000    688.4084     21.4914      5.9354    109.0913
   892.5000      0.0000    709.1217     21.2270      5.8652    120.0965
   892.7500      0.0000    718.0060     20.9436      5.7797    127.5125
   893.0000      0.0000    720.7015     20.6766      5.6719    131.2747
   893.2500      0.0000    721.1277     20.4537      5.5587    132.7210
   893.5000      0.0000    721.0234     20.2829      5.4508    133.6780
   893.7500      0.0000    720.9237     20.1575      5.3380    134.8832
   894.0000      0.0000    720.9673     20.0672      5.2097    135.5094
   894.2500      0.0000    721.3102     20.0011      5.0772    134.4789
   894.5000      0.0000    722.2726     19.9458      4.9728    131.8439
   894.7500      0.0000    724.2443     19.8841      4.9276    128.6593
   895.0000      0.0000    727.2795     19.7974      4.9438    125.8345
   895.2500      0.0000    730.7571     19.6701      4.9792    123.4050
   895.5000      0.0000    733.6594     19.5012      4.9673    120.9506
   895.7500      0.0000    735.3369     19.3169      4.8684    118.4701
