~Version Information
VERS.                      2.0: CWLS Log ASCII Standard - VERSION 2.0
WRAP.                       NO: One line per depth step
~Well Information Block
STRT.FT               400.0000: 
STOP.FT              1577.5000: 
STEP.FT                 0.1000: 
NULL.                -999.2500: 
COMP.          Pioneer Natural Resources: COMPANY
WELL.          Lorencito 10-36-33-67: WELL
FLD.           Purgatoire River: FIELD
LOC.           2130' FSL & 2362' FEL: LOCATION
STAT.                 Colorado: State
CNTY.               Las Animas: COUNTY
CTRY. USA : Country
SECT. 36 : Section
TOWN. 33S : Township
RANG. 67W : Range
SRVC.                Patterson: SERVICE COMPANY
DATE.          Mon Aug 29 07:03:31 2005: LOG DATE
API.           05 071 08501 00: UNIQUE WELL ID
~Curve Information Block
DEPT.FT            0 000 00 00: Depth
DCAL.in                       : CDL Caliper
RHOB.g/cc                     : CDL Bulk Density
RHOC.g/cc                     : CDL Density Correction
DPOR.pu                       : CDL Density Porosity
GR.GAPI                       : Gamma Ray
NPOR.pu                       : Neutron Porosity
~Parameter Information Block
~A  Depth       DCAL        RHOB        RHOC        DPOR         GR         NPOR    
# ...
  1100.8000      8.1503      2.5834      0.1156      4.0353    129.5665     25.6323
  1100.9000      8.1503      2.5527      0.1245      5.8952    129.7712     25.2278
  1101.0000      8.0712      2.5125      0.1035      8.3353    130.4747     24.9369
  1101.1000      8.0712      2.4750      0.0980     10.6031    135.0024     24.8261
  1101.2000      8.0712      2.4439      0.0712     12.4919    140.2344     24.5791
  1101.3000      8.0311      2.4298     -0.0171     13.3437    141.4118     24.4091
  1101.4000      8.0311      2.4548      0.0644     11.8285    136.5543     24.5491
  1101.5000      7.9938      2.5088      0.1090      8.5552    127.9408     24.7051
  1101.6000      7.9938      2.5556      0.1438      5.7215    123.0849     24.3665
  1101.7000      7.9938      2.5750      0.1893      4.5456    125.7967     23.4032
  1101.8000      8.0015      2.5717      0.1901      4.7477    131.3114     22.4312
  1101.9000      8.0015      2.5522      0.1982      5.9253    132.9220     21.7554
  1102.0000      8.0062      2.5165      0.1414      8.0904    126.5131     20.6797
  1102.1000      8.0062      2.4649      0.0783     11.2205    113.3060     19.1507
  1102.2000      8.0062      2.3938      0.0961     15.5302    103.2733     17.9346
  1102.3000      8.0374      2.3075      0.0275     20.7550    103.8551     16.9051
  1102.4000      8.0374      2.2200      0.0303     26.0632    107.8019     15.5661
  1102.5000      8.0593      2.1307      0.0112     31.4716    105.1447     14.4790
  1102.6000      8.0593      2.0439     -0.0113     36.7352     97.1465     14.2734
  1102.7000      8.0593      1.9718      0.0158     41.1006     90.4091     14.4781
  1102.8000      8.0737      1.9080      0.0001     44.9716     86.3602     14.3469
  1102.9000      8.0737      1.8406      0.1371     49.0550     84.1736     13.9662
  1103.0000      8.0857      1.7818      0.0784     52.6175     85.6284     14.0191
  1103.1000      8.0857      1.7503      0.1703     54.5257     91.3720     14.7329
  1103.2000      8.0857      1.7425      0.1534     55.0023     95.3740     15.5853
  1103.3000      8.1497      1.7545      0.0592     54.2710     94.9668     16.1161
  1103.4000      8.1497      1.7916      0.1263     52.0262     94.3778     16.4451
  1103.5000      8.2196      1.8573      0.0556     48.0439     94.8522     17.0121
  1103.6000      8.2196      1.9489      0.0892     42.4891     98.7862     18.0601
  1103.7000      8.2196      2.0358      0.1369     37.2270    106.9035     19.1481
  1103.8000      8.2616      2.0857      0.1201     34.2023    111.3575     19.6633
  1103.9000      8.2616      2.1065      0.0985     32.9368    107.3782     19.6951
  1104.0000      8.2732      2.1219      0.0743     32.0045    100.3033     19.8991
  1104.1000      8.2732      2.1347      0.0829     31.2308     96.6535     20.6488
  1104.2000      8.2732      2.1439      0.0514     30.6701     98.4328     21.7345
  1104.3000      8.2881      2.1652      0.0552     29.3830    103.1698     22.8498
  1104.4000      8.2881      2.2096      0.1112     26.6917    106.6873     23.6841
  1104.5000      8.1596      2.2762      0.1082     22.6559    109.0702     24.1518
  1104.6000      8.1596      2.3575      0.1456     17.7299    110.5912     24.5855
  1104.7000      8.1596      2.4404      0.2032     12.7031    108.3654     24.9887
  1104.8000      8.0798      2.5041      0.2868      8.8432    105.0721     24.9611
  1104.9000      8.0798      2.5317      0.2062      7.1686    107.9955     24.6475
  1105.0000      8.0375      2.5331      0.1346      7.0865    116.2099     24.5887
  1105.1000      8.0375      2.5318      0.0623      7.1640    124.3570     24.9924
  1105.2000      8.0375      2.5398      0.1162      6.6761    129.2310     25.4943
  1105.3000      8.0085      2.5557      0.0549      5.7160    129.4615     25.5264
  1105.4000      8.0085      2.5724      0.0969      4.7052    128.3771     25.1890
  1105.5000      7.9772      2.5775      0.1233      4.3916    129.2268     24.9478
  1105.6000      7.9772      2.5668      0.1335      5.0450    130.2134     24.8369
  1105.7000      7.9772      2.5515      0.1041      5.9724    126.7136     24.7380
  1105.8000      7.9630      2.5485      0.0610      6.1534    117.9368     24.6523
  1105.9000      7.9630      2.5566      0.0956      5.6600    112.2225     24.4389
  1106.0000      7.9522      2.5544      0.1006      5.7941    115.5111     24.0551
  1106.1000      7.9522      2.5383      0.0516      6.7680    120.7855     23.7676
  1106.2000      7.9522      2.5274      0.0530      7.4273    118.1370     23.6252
  1106.3000      7.9976      2.5225      0.0798      7.7260    110.7722     23.6554
  1106.4000      7.9976      2.5143      0.0394      8.2224    110.1697     23.9505
  1106.5000      8.0422      2.5136      0.0333      8.2685    121.6031     24.2854
  1106.6000      8.0422      2.5307      0.0197      7.2313    137.3224     24.4710
  1106.7000      8.0422      2.5569      0.0416      5.6417    143.6833     24.6440
  1106.8000      8.0755      2.5738      0.0514      4.6155    140.1086     24.8161
  1106.9000      8.0755      2.5675      0.0849      5.0007    137.4201     24.8095
  1107.0000      8.1176      2.5408      0.0701      6.6208    136.4391     24.6415
  1107.1000      8.1176      2.5153     -0.0220      8.1652    131.1806     24.5515
  1107.2000      8.1176      2.5074      0.0093      8.6415    126.0362     24.7591
  1107.3000      8.1085      2.5119     -0.0219      8.3681    124.9959     25.0971
  1107.4000      8.1085      2.5210     -0.0088      7.8200    122.4765     25.2257
  1107.5000      8.0673      2.5283     -0.0031      7.3742    113.8941     25.2343
  1107.6000      8.0673      2.5289     -0.0061      7.3398    103.1634     25.4221
  1107.7000      8.0673      2.5324     -0.0145      7.1251     96.5486     25.5099
  1107.8000      8.0584      2.5475      0.0106      6.2145     92.2481     25.1570
  1107.9000      8.0584      2.5544      0.0904      5.7967     87.8842     24.7751
  1108.0000      8.0770      2.5392     -0.0162      6.7150     87.8651     24.6904
  1108.1000      8.0770      2.5234      0.0124      7.6742     90.8955     24.5604
  1108.2000      8.0770      2.5312     -0.0140      7.1987     86.0054     24.3051
  1108.3000      8.0395      2.5676      0.0607      4.9969     73.3321     24.3170
  1108.4000      8.0395      2.6177      0.0479      1.9594     64.9050     24.5205
  1108.5000      8.0158      2.6604      0.0780     -0.6294     65.1199     24.4520
  1108.6000      8.0158      2.6905      0.0721     -2.4519     70.5211     23.9136
  1108.7000      8.0158      2.7236      0.1025     -4.4585     76.1043     23.2355
  1108.8000      8.0072      2.7686      0.1214     -7.1850     77.6079     22.8439
  1108.9000      8.0072      2.8112      0.1112     -9.7690     73.7172     22.7815
  1109.0000      7.9929      2.8341      0.1457    -11.1567     69.8263     23.0306
  1109.1000      7.9929      2.8343      0.0778    -11.1724     73.2455     23.4280
  1109.2000      7.9929      2.8124      0.1156     -9.8408     78.9862     23.5369
  1109.3000      7.9417      2.7548      0.1046     -6.3492     79.2335     23.0674
  1109.4000      7.9417      2.6658      0.0151     -0.9581     77.8131     22.1816
  1109.5000      7.9275      2.5842     -0.0300      3.9901     79.4728     21.3862
  1109.6000      7.9275      2.5366     -0.0033      6.8726     82.2166     21.1327
  1109.7000      7.9275      2.5120     -0.0050      8.3649     83.4095     21.3729
  1109.8000      7.9773      2.4865      0.0066      9.9121     85.1843     21.5628
  1109.9000      7.9773      2.4550      0.0380     11.8156     90.6337     21.4558
  1110.0000      7.9909      2.4378     -0.0389     12.8633     97.8940     21.4180
  1110.1000      7.9909      2.4528     -0.0185     11.9524    103.3965     21.5434
  1110.2000      7.9909      2.4871      0.0506      9.8697    105.8405     21.6253
  1110.3000      7.9836      2.5101      0.0883      8.4783    106.4592     21.8436
