~Version Information
VERS.                      2.0: CWLS Log ASCII Standard - VERSION 2.0
WRAP.                       NO: One line per depth step
~Well Information Block
STRT.FT                -8.0000: 
STOP.FT               918.7500: 
STEP.FT                 0.2500: 
NULL.                -999.2500: 
COMP.          Pioneer Natural Resources: COMPANY
WELL.          Sculpin 32-30 Tr: WELL
FLD.           Purgatorie River: FIELD
LOC.           1600' FNL & 1857' FEL--: LOCATION
CNTY.               Las Animas: COUNTY
SRVC.          Patterson Wireline: SERVICE COMPANY
DATE.          Thu Aug 03 08:40:45 2006: LOG DATE
UWI.           05 071 08706 00: UNIQUE WELL ID
STAT.                       CO: STATE
~Curve Information Block
DEPT.FT            0 000 00 00: Depth
CCL.                          : Casing Collar Locator
TT3.usec                      : CBL 3' Travel Time
AMP3.mV                       : CBL 3' Amplitude
GR.GAPI                       : Gamma Ray
~Parameter Information Block
~A  Depth       CCL         TT3         AMP3         GR     
# ...
   427.5000      0.0000    708.8117      3.5383     38.1755
   427.7500      0.0000    702.1028      3.5084     38.7746
   428.0000      0.0000    687.3977      3.4226     40.6615
   428.2500      0.0000    668.5862      3.3030     44.0546
   428.5000      0.0000    651.1338      3.1726     48.9654
   428.7500      0.0000    639.6089      3.0475     55.0704
   429.0000      0.0000    636.9424      2.9368     61.8278
   429.2500      0.0000    645.1542      2.8445     68.7700
   429.5000      0.0000    664.0243      2.7724     75.6487
   429.7500      0.0000    688.0811      2.7234     82.1053
   430.0000      0.0000    707.7802      2.7062     87.3287
   430.2500      0.0000    716.2666      2.7353     90.5348
   430.5000      0.0000    714.1060      2.8226     91.8590
   430.7500      0.0000    706.5126      2.9672     92.3768
   431.0000      0.0000    697.8880      3.1514     93.1965
   431.2500      0.0000    690.1637      3.3478     94.7199
   431.5000      0.0000    684.2776      3.5297     96.6391
   431.7500      0.0000    681.1259      3.6790     98.3765
   432.0000      0.0000    681.3151      3.7882     99.6130
   432.2500      0.0000    684.7286      3.8571    100.5923
   432.5000      0.0000    690.1454      3.8884    101.9355
   432.7500      0.0000    695.1602      3.8866    104.0387
   433.0000      0.0000    697.1517      3.8604    106.5840
   433.2500      0.0000    694.9758      3.8221    108.5313
   433.5000      0.0000    689.7780      3.7849    108.6423
   433.7500      0.0000    684.0200      3.7596    106.3490
   434.0000      0.0000    679.8448      3.7523    102.3637
   434.2500      0.0000    678.4214      3.7625     98.2260
   434.5000      0.0000    680.3608      3.7840     94.9783
   434.7500      0.0000    685.7925      3.8080     92.4680
   435.0000      0.0000    693.3741      3.8263     90.0802
   435.2500      0.0000    699.6730      3.8315     87.7210
   435.5000      0.0000    700.8645      3.8183     85.8011
   435.7500      0.0000    695.7651      3.7863     84.5914
   436.0000      0.0000    686.6015      3.7418     83.7785
   436.2500      0.0000    676.4955      3.6967     82.4505
   436.5000      0.0000    667.0185      3.6651     79.4626
   436.7500      0.0000    658.5580      3.6592     74.0303
   437.0000      0.0000    652.0113      3.6849     66.3421
   437.2500      0.0000    648.8815      3.7392     57.7969
   437.5000      0.0000    649.6612      3.8123     50.4515
   437.7500      0.0000    652.8187      3.8901     45.8588
   438.0000      0.0000    655.6470      3.9551     44.2721
   438.2500      0.0000    655.8019      3.9937     44.9574
   438.5000      0.0000    652.2576      4.0067     47.1878
   438.7500      0.0000    645.7493      4.0097     50.7520
   439.0000      0.0000    638.6613      4.0169     55.4816
   439.2500      0.0000    633.9684      4.0251     60.5795
   439.5000      0.0000    633.9830      4.0161     64.8409
   439.7500      0.0000    639.7426      3.9753     67.6988
   440.0000      0.0000    650.4836      3.9054     69.6826
   440.2500      0.0000    662.9600      3.8222     71.5619
   440.5000      0.0000    672.0944      3.7421     73.3276
   440.7500      0.0000    673.7321      3.6754     74.2913
   441.0000      0.0000    667.3663      3.6281     73.9034
   441.2500      0.0000    656.2618      3.6035     72.2404
   441.5000      0.0000    645.3353      3.6003     69.9269
   441.7500      0.0000    638.7285      3.6076     67.6954
   442.0000      0.0000    637.7872      3.6066     65.8001
   442.2500      0.0000    640.1429      3.5790     63.9102
   442.5000      0.0000    641.4226      3.5183     61.7973
   442.7500      0.0000    638.6746      3.4343     59.9048
   443.0000      0.0000    631.9100      3.3481     58.9693
   443.2500      0.0000    622.8845      3.2804     59.4527
   443.5000      0.0000    613.8735      3.2354     61.5555
   443.7500      0.0000    607.7164      3.1983     65.1842
   444.0000      0.0000    607.6239      3.1485     69.4406
   444.2500      0.0000    616.0281      3.0780     72.5500
   444.5000      0.0000    633.3232      2.9963     72.9499
   444.7500      0.0000    657.2324      2.9203     70.6976
   445.0000      0.0000    682.8329      2.8636     67.8100
   445.2500      0.0000    703.3495      2.8338     67.1388
   445.5000      0.0000    712.5009      2.8360     70.6138
   445.7500      0.0000    708.4390      2.8776     77.9977
   446.0000      0.0000    695.9114      2.9650     86.7654
   446.2500      0.0000    682.9890      3.0949     93.3481
   446.5000      0.0000    674.9812      3.2536     95.4056
   446.7500      0.0000    672.0303      3.4278     93.4874
   447.0000      0.0000    671.6393      3.6145     90.3621
   447.2500      0.0000    671.8134      3.8173     88.5948
   447.5000      0.0000    671.9213      4.0314     88.6630
   447.7500      0.0000    672.0520      4.2371     89.1360
   448.0000      0.0000    672.3450      4.4068     88.5628
   448.2500      0.0000    672.7701      4.5191     87.1856
   448.5000      0.0000    673.1763      4.5649     86.6766
   448.7500      0.0000    673.3770      4.5454     88.1951
   449.0000      0.0000    673.1232      4.4656     91.0612
   449.2500      0.0000    672.0803      4.3306     93.4791
   449.5000      0.0000    669.9839      4.1459     94.2227
   449.7500      0.0000    667.0366      3.9234     93.3599
   450.0000      0.0000    664.1987      3.6885     91.7636
   450.2500      0.0000    662.7791      3.4749     90.5328
   450.5000      0.0000    663.4253      3.3100     90.7616
   450.7500      0.0000    665.6638      3.2033     93.0676
   451.0000      0.0000    668.6385      3.1483     96.8469
   451.2500      0.0000    671.9745      3.1321    100.3393
   451.5000      0.0000    675.3560      3.1454    102.0322
   451.7500      0.0000    677.2509      3.1858    101.9587
   452.0000      0.0000    674.8379      3.2524    101.3322
   452.2500      0.0000    666.1766      3.3387    101.1546
   452.5000      0.0000    652.5040      3.4297    101.5229
   452.7500      0.0000    637.7181      3.5043    101.9772
   453.0000      0.0000    625.6118      3.5396    101.9933
   453.2500      0.0000    618.0603      3.5202    101.1725
   453.5000      0.0000    615.2650      3.4481     99.3626
   453.7500      0.0000    616.5089      3.3427     96.7614
   454.0000      0.0000    620.6734      3.2242     94.0402
   454.2500      0.0000    626.8904      3.0981     92.4474
   454.5000      0.0000    634.8834      2.9578     93.4355
   454.7500      0.0000    644.3230      2.8038     97.6105
   455.0000      0.0000    653.9960      2.6543    103.9140
   455.2500      0.0000    662.1077      2.5371    110.0401
   455.5000      0.0000    667.4855      2.4711    113.8746
   455.7500      0.0000    670.2989      2.4561    114.6118
   456.0000      0.0000    671.7195      2.4764    112.7387
   456.2500      0.0000    673.2321      2.5113    109.2838
   456.5000      0.0000    676.2110      2.5435    105.1073
   456.7500      0.0000    681.5370      2.5626    100.7939
   457.0000      0.0000    688.9743      2.5660     97.1050
   457.2500      0.0000    696.8098      2.5590     95.1382
   457.5000      0.0000    702.5611      2.5508     95.4720
   457.7500      0.0000    704.4736      2.5491     97.1965
   458.0000      0.0000    702.4821      2.5554     98.3214
   458.2500      0.0000    697.8326      2.5667     97.3704
   458.5000      0.0000    692.0361      2.5779     94.5850
   458.7500      0.0000    686.2865      2.5846     91.7952
   459.0000      0.0000    681.5049      2.5819     91.0839
   459.2500      0.0000    678.3749      2.5647     93.1316
   459.5000      0.0000    677.1659      2.5296     96.6927
   459.7500      0.0000    677.6293      2.4766     99.8154
   460.0000      0.0000    678.9300      2.4116    101.4478
   460.2500      0.0000    679.7312      2.3475    101.6606
   460.5000      0.0000    678.8586      2.3093    100.7771
   460.7500      0.0000    676.2927      2.3346     98.9074
