~Version Information
VERS.                      2.0: CWLS Log ASCII Standard - VERSION 2.0
WRAP.                       NO: One line per depth step
~Well Information Block
STRT.FT                 0.0000: 
STOP.FT               787.2500: 
STEP.FT                 0.2500: 
NULL.                -999.2500: 
COMP.          Pioneer Natural Resources: COMPANY
WELL.             Veedol 34-28: WELL
FLD.           Purgatorie River: FIELD
LOC.           357' FSL & 2520' FEL: LOCATION
PROV.                 Colorado: PROVINCE
CNTY.               Las Animas: COUNTRY
SRVC.                Patterson: SERVICE COMPANY
DATE.          Wed Dec 28 10:10:37 2005: LOG DATE
UWI.                          : UNIQUE WELL ID
~Curve Information Block
DEPT.FT            0 000 00 00: Depth
CCL.                          : Casing Collar Locator
TT3.usec                      : CBL 3' Travel Time
AMP3.mV                       : CBL 3' Amplitude
GR.GAPI                       : Gamma Ray
~Parameter Information Block
~A  Depth       CCL         TT3         AMP3         GR     
# ...
   301.5000      0.0000    713.8463     12.9364     90.2553
   301.7500      0.0000    720.7267     12.8029     91.6411
   302.0000      0.0000    723.3316     12.6589     94.7017
   302.2500      0.0000    723.8436     12.5374     97.2341
   302.5000      0.0000    723.5971     12.5023     97.0356
   302.7500      0.0000    722.2736     12.5542     93.5603
   303.0000      0.0000    718.6981     12.6142     87.8405
   303.2500      0.0000    712.6619     12.6259     81.0167
   303.5000      0.0000    706.0262     12.5998     73.5479
   303.7500      0.0000    700.7151     12.5428     65.6093
   304.0000      0.0000    697.7319     12.4586     57.5725
   304.2500      0.0000    698.1961     12.3861     50.1869
   304.5000      0.0000    701.8552     12.3412     44.6307
   304.7500      0.0000    707.2969     12.2905     42.1409
   305.0000      0.0000    713.6121     12.2298     43.2315
   305.2500      0.0000    719.1438     12.2078     47.3232
   305.5000      0.0000    721.8385     12.2516     53.1914
   305.7500      0.0000    720.1990     12.3397     59.6415
   306.0000      0.0000    712.3958     12.4441     65.7184
   306.2500      0.0000    699.4271     12.5391     70.6434
   306.5000      0.0000    689.7771     12.5965     74.0115
   306.7500      0.0000    692.2808     12.6268     76.1429
   307.0000      0.0000    704.2253     12.6900     78.0021
   307.2500      0.0000    715.6665     12.8250     80.5109
   307.5000      0.0000    721.6872     12.9925     83.7087
   307.7500      0.0000    723.7108     13.1055     86.4871
   308.0000      0.0000    724.1638     13.1120     87.4203
   308.2500      0.0000    724.0175     13.0365     86.2205
   308.5000      0.0000    722.8471     12.9451     84.2352
   308.7500      0.0000    719.5842     12.8759     83.3458
   309.0000      0.0000    714.8446     12.7991     84.6428
   309.2500      0.0000    712.3419     12.6726     88.1149
   309.5000      0.0000    714.6587     12.5244     92.8373
   309.7500      0.0000    719.3179     12.4401     97.1635
   310.0000      0.0000    722.6269     12.4779     99.4288
   310.2500      0.0000    723.6544     12.6075     99.0992
   310.5000      0.0000    721.7831     12.7258     97.2071
   310.7500      0.0000    712.0878     12.7469     95.6214
   311.0000      0.0000    686.5089     12.6738     95.9246
   311.2500      0.0000    649.1504     12.5668     98.4732
   311.5000      0.0000    625.9503     12.4673    101.7918
   311.7500      0.0000    634.7383     12.3723    102.9674
   312.0000      0.0000    658.7370     12.2675     99.6275
   312.2500      0.0000    674.6963     12.1593     92.1563
   312.5000      0.0000    679.9194     12.0875     83.5837
   312.7500      0.0000    682.0073     12.0965     76.9357
   313.0000      0.0000    686.3903     12.1649     73.0235
   313.2500      0.0000    693.9268     12.1958     70.8481
   313.5000      0.0000    699.7565     12.1251     69.2420
   313.7500      0.0000    697.6379     12.0204     67.6023
   314.0000      0.0000    690.3168     12.0012     65.6987
   314.2500      0.0000    689.2312     12.0706     63.4929
   314.5000      0.0000    699.1710     12.1435     61.0352
   314.7500      0.0000    712.2767     12.1964     58.2108
   315.0000      0.0000    720.4459     12.2394     54.7711
   315.2500      0.0000    723.3387     12.2367     51.0569
   315.5000      0.0000    723.8864     12.1652     48.6350
   315.7500      0.0000    723.8454     12.0638     49.7107
   316.0000      0.0000    723.7116     11.9691     55.4814
   316.2500      0.0000    723.4256     11.8626     64.8705
   316.5000      0.0000    722.3030     11.7109     74.8629
   316.7500      0.0000    719.2508     11.5243     82.3094
   317.0000      0.0000    714.8030     11.3519     85.7015
   317.2500      0.0000    712.3955     11.2438     85.4746
   317.5000      0.0000    713.9987     11.2154     82.9893
   317.7500      0.0000    715.4374     11.2151     79.5321
   318.0000      0.0000    709.8246     11.1500     76.0321
   318.2500      0.0000    695.1008     10.9811     73.1187
   318.5000      0.0000    677.3796     10.7657     71.0992
   318.7500      0.0000    665.4963     10.5944     69.8638
   319.0000      0.0000    662.8843     10.5158     68.9949
   319.2500      0.0000    665.8585     10.5151     68.2396
   319.5000      0.0000    666.6725     10.5316     67.9037
   319.7500      0.0000    660.1609     10.5049     68.5690
   320.0000      0.0000    649.7919     10.4446     70.4250
   320.2500      0.0000    644.6191     10.4307     73.0435
   320.5000      0.0000    649.4744     10.5026     75.6844
   320.7500      0.0000    659.7264     10.5935     77.6377
   321.0000      0.0000    666.5405     10.6217     78.4798
   321.2500      0.0000    666.9039     10.5833     78.3230
   321.5000      0.0000    666.1067     10.5120     77.7568
   321.7500      0.0000    669.2138     10.4331     77.3065
   322.0000      0.0000    674.6323     10.3892     76.8283
   322.2500      0.0000    678.8048     10.4192     75.5122
   322.5000      0.0000    681.8771     10.4921     72.8071
   322.7500      0.0000    686.7054     10.5303     69.4979
   323.0000      0.0000    694.5139     10.4920     67.4196
   323.2500      0.0000    701.4127     10.4087     67.7294
   323.5000      0.0000    701.7145     10.3574     69.8452
   323.7500      0.0000    696.3831     10.3925     72.3604
   324.0000      0.0000    693.3052     10.4909     74.4585
   324.2500      0.0000    697.7104     10.5794     76.0502
   324.5000      0.0000    706.0827     10.6078     77.1256
   324.7500      0.0000    710.1913     10.5748     77.6140
   325.0000      0.0000    705.6426     10.5107     77.6578
   325.2500      0.0000    695.7112     10.4596     77.5244
   325.5000      0.0000    686.8704     10.4493     77.2500
   325.7500      0.0000    682.1868     10.4535     76.5791
   326.0000      0.0000    680.5653     10.4177     75.2244
   326.2500      0.0000    680.1730     10.3332     73.0271
   326.5000      0.0000    680.1652     10.2516     69.9584
   326.7500      0.0000    680.2578     10.2278     66.2537
   327.0000      0.0000    680.2891     10.2688     62.6313
   327.2500      0.0000    680.2474     10.3361     60.2009
   327.5000      0.0000    680.2581     10.3898     59.9645
   327.7500      0.0000    680.6024     10.4275     62.3173
   328.0000      0.0000    682.1790     10.4776     66.8541
   328.2500      0.0000    686.6686     10.5592     72.4545
   328.5000      0.0000    694.4005     10.6594     77.5642
   328.7500      0.0000    701.4095     10.7387     80.7766
   329.0000      0.0000    702.6152     10.7588     81.5840
   329.2500      0.0000    699.3528     10.7258     80.6854
   329.5000      0.0000    697.8036     10.6944     79.3731
   329.7500      0.0000    700.4506     10.7144     78.3667
   330.0000      0.0000    705.7823     10.7801     77.2952
   330.2500      0.0000    712.3310     10.8384     75.4179
   330.5000      0.0000    718.1927     10.8481     72.7566
   330.7500      0.0000    721.6132     10.8229     70.3698
   331.0000      0.0000    722.8273     10.8125     69.4669
   331.2500      0.0000    723.0527     10.8538     70.2502
   331.5000      0.0000    723.0576     10.9460     71.7173
   331.7500      0.0000    723.0767     11.0624     72.6364
   332.0000      0.0000    723.1342     11.1820     72.6011
   332.2500      0.0000    723.2147     11.3132     72.1563
   332.5000      0.0000    723.2852     11.4880     72.2160
   332.7500      0.0000    723.2608     11.7362     73.4868
   333.0000      0.0000    722.8405     12.0413     76.1014
   333.2500      0.0000    720.8594     12.2472     79.3905
   333.5000      0.0000    714.4203     12.0117     81.9923
   333.7500      0.0000    700.6278     11.0944     82.5993
   334.0000      0.0000    682.7453      9.9060     80.9572
   334.2500      0.0000    670.6329      9.2813     78.1191
   334.5000      0.0000    665.4999      9.3541     75.6509
   334.7500      0.0000    652.3850      9.5831     74.5484
