~Version Information
VERS.                      2.0: CWLS Log ASCII Standard - VERSION 2.0
WRAP.                       NO: One line per depth step
~Well Information Block
STRT.FT                10.0000: 
STOP.FT               715.0000: 
STEP.FT                 0.1000: 
NULL.                -999.2500: 
COMP.          Pioneer Natural Resources: COMPANY
WELL.           Belvedere 14-7: WELL
FLD.           Purgatorie River: FIELD
LOC.           786' FSL & 1283' FWL: LOCATION
PROV.                 Colorado: PROVINCE
CNTY.               Las Animas: COUNTRY
SRVC.                Patterson: SERVICE COMPANY
DATE.          Mon Nov 28 07:30:54 2005: LOG DATE
UWI.           05-071-08557               : UNIQUE WELL ID
~Curve Information Block
DEPT.FT            0 000 00 00: Depth
DCAL.in                       : CDL Caliper
RHOB.g/cc                     : CDL Bulk Density
RHOC.g/cc                     : CDL Density Correction
DPOR.pu                       : CDL Density Porosity
GR.GAPI                       : Gamma Ray
NPOR.pu                       : Neutron Porosity
~Parameter Information Block
~A  Depth       DCAL        RHOB        RHOC        DPOR         GR         NPOR    
# ...
   566.8000      7.9375      2.5727      0.0442      4.6852     97.3401     24.0147
   566.9000      7.9375      2.5687      0.0823      4.9289     93.1241     24.1596
   567.0000      7.9385      2.5595      0.0511      5.4820     95.1692     24.3602
   567.1000      7.9385      2.5501      0.0475      6.0522     99.3116     24.4340
   567.2000      7.9385      2.5389      0.0096      6.7342    100.3279     24.6779
   567.3000      7.9435      2.5342      0.0209      7.0178     99.1493     25.2252
   567.4000      7.9435      2.5495      0.0333      6.0893     99.2235     25.8364
   567.5000      7.9337      2.5741      0.0987      4.6025    101.7067     26.1089
   567.6000      7.9337      2.5802      0.0822      4.2288    104.5918     25.7816
   567.7000      7.9337      2.5641      0.0408      5.2082    105.0185     25.1174
   567.8000      7.9290      2.5462      0.0400      6.2903    103.7937     24.5859
   567.9000      7.9290      2.5391      0.0158      6.7191    103.3677     24.3327
   568.0000      7.9188      2.5350      0.0315      6.9708    104.2276     24.2146
   568.1000      7.9188      2.5242      0.0190      7.6259    105.8799     24.2558
   568.2000      7.9188      2.5119      0.0066      8.3683    105.1070     24.5446
   568.3000      7.9157      2.5099      0.0378      8.4910    100.0541     24.8630
   568.4000      7.9157      2.5221      0.0341      7.7491     95.8587     25.1145
   568.5000      7.9309      2.5402      0.0285      6.6571     96.9496     25.4317
   568.6000      7.9309      2.5477      0.0623      6.2009    101.7747     25.7669
   568.7000      7.9309      2.5372      0.0536      6.8362    107.9915     25.8974
   568.8000      7.9277      2.5218      0.0451      7.7673    115.4003     25.8765
   568.9000      7.9277      2.5189      0.0546      7.9444    121.0730     25.9116
   569.0000      7.9254      2.5225      0.0813      7.7284    122.2926     26.0140
   569.1000      7.9254      2.5158      0.0436      8.1348    122.0761     26.0702
   569.2000      7.9254      2.5009      0.0472      9.0344    122.3203     26.0337
   569.3000      7.9303      2.4849      0.0732     10.0055    122.1451     26.0981
   569.4000      7.9303      2.4754      0.0075     10.5799    123.0800     26.4167
   569.5000      7.9469      2.4893      0.0354      9.7405    126.1735     26.7738
   569.6000      7.9469      2.5227      0.0538      7.7152    129.5109     27.0047
   569.7000      7.9469      2.5509      0.0947      6.0044    130.6272     27.1808
   569.8000      7.9537      2.5592      0.0576      5.5044    128.1780     27.2394
   569.9000      7.9537      2.5547      0.0714      5.7741    123.8837     26.9851
   570.0000      7.9505      2.5514      0.0668      5.9757    122.0239     26.6445
   570.1000      7.9505      2.5503      0.0694      6.0440    123.2749     26.6221
   570.2000      7.9505      2.5410      0.0610      6.6049    124.4377     26.7136
   570.3000      7.9499      2.5264     -0.0081      7.4891    124.4429     26.6623
   570.4000      7.9499      2.5246      0.0051      7.5995    123.9041     26.4823
   570.5000      7.9373      2.5325      0.0379      7.1200    123.4745     26.1140
   570.6000      7.9373      2.5328      0.0387      7.1009    124.2837     25.7295
   570.7000      7.9373      2.5298     -0.0031      7.2846    124.8609     25.6456
   570.8000      7.9534      2.5333      0.0275      7.0749    122.7421     25.7613
   570.9000      7.9534      2.5375      0.0234      6.8164    120.2765     25.8966
   571.0000      7.9453      2.5312      0.0680      7.2024    119.6669     26.0090
   571.1000      7.9453      2.4975      0.0528      9.2418    119.0042     25.9700
   571.2000      7.9453      2.4149      0.0648     14.2510    116.2594     25.9266
   571.3000      7.9508      2.2826     -0.0287     22.2644    111.5591     26.0667
   571.4000      7.9508      2.1358     -0.0922     31.1644    105.8805     26.2242
   571.5000      7.9661      2.0024     -0.0757     39.2468    100.1850     26.2941
   571.6000      7.9661      1.8821     -0.1548     46.5405     96.1430     26.3715
   571.7000      7.9661      1.7724     -0.1592     53.1891     93.9090     26.5075
   571.8000      7.9762      1.6691     -0.1527     59.4515     90.3746     26.6692
   571.9000      7.9762      1.5696     -0.1573     65.4771     82.3673     26.9397
   572.0000      7.9752      1.4893     -0.1191     70.3436     70.9889     27.4719
   572.1000      7.9752      1.4420     -0.0364     73.2110     60.5131     28.1702
   572.2000      7.9752      1.4169      0.0433     74.7339     53.8128     28.7913
   572.3000      7.9538      1.3963      0.0401     75.9839     50.1537     29.3470
   572.4000      7.9538      1.3872      0.0411     76.5338     48.7665     29.9322
   572.5000      7.9147      1.4130      0.0450     74.9699     49.0537     30.4304
   572.6000      7.9147      1.4832      0.0974     70.7139     49.3890     30.6088
   572.7000      7.9147      1.5890      0.1401     64.3055     49.7863     30.5872
   572.8000      7.9623      1.7156      0.1707     56.6284     50.8891     30.7184
   572.9000      7.9623      1.8494      0.2092     48.5195     53.5889     31.0322
   573.0000      8.0249      1.9853      0.2182     40.2824     58.3284     31.3346
   573.1000      8.0249      2.1277      0.2255     31.6526     62.6194     31.5782
   573.2000      8.0249      2.2717      0.2672     22.9254     66.0545     31.8207
   573.3000      8.1101      2.3911      0.2708     15.6912     71.7034     31.9562
   573.4000      8.1101      2.4568      0.1932     11.7105     80.5790     31.7739
   573.5000      8.0077      2.4730      0.0767     10.7280     90.0036     31.1445
   573.6000      8.0077      2.4701      0.0375     10.9028     97.6674     30.2365
   573.7000      8.0077      2.4599      0.0690     11.5189    104.2522     29.4498
   573.8000      7.9519      2.4292      0.0269     13.3812    109.6625     28.9052
   573.9000      7.9519      2.3639      0.0232     17.3376    111.0184     28.5377
   574.0000      7.9450      2.2627     -0.0340     23.4755    106.4692     28.3638
   574.1000      7.9450      2.1395     -0.0578     30.9407     98.5120     28.3275
   574.2000      7.9450      2.0142     -0.0653     38.5320     93.0747     28.2777
   574.3000      7.9770      1.9073     -0.1110     45.0148     92.8401     28.3088
   574.4000      7.9770      1.8405     -0.1279     49.0577     92.8120     28.6710
   574.5000      8.0169      1.8205     -0.0630     50.2705     89.0177     29.1951
   574.6000      8.0169      1.8365     -0.0537     49.3061     85.2296     29.6520
   574.7000      8.0169      1.8868      0.0066     46.2515     84.1635     30.0537
   574.8000      8.0182      1.9752      0.0941     40.8999     83.5829     30.3933
   574.9000      8.0182      2.0881      0.1697     34.0518     82.9182     30.5472
   575.0000      7.9459      2.2057      0.1943     26.9271     84.3303     30.4093
   575.1000      7.9459      2.3150      0.2083     20.3050     88.4602     30.1623
   575.2000      7.9459      2.4050      0.1926     14.8483     94.3758     30.1020
   575.3000      7.9742      2.4701      0.1125     10.9056     99.8079     30.2760
   575.4000      7.9742      2.5114      0.1229      8.3999    102.8440     30.4026
   575.5000      7.9744      2.5320      0.0736      7.1526    105.6144     30.2773
   575.6000      7.9744      2.5409      0.0448      6.6133    110.5256     29.9200
   575.7000      7.9744      2.5438      0.0477      6.4370    116.5325     29.3591
   575.8000      7.9597      2.5442      0.0013      6.4135    120.9993     28.7151
   575.9000      7.9597      2.5472      0.0370      6.2299    122.6933     28.0886
   576.0000      7.9572      2.5528      0.0390      5.8922    123.5922     27.5373
   576.1000      7.9572      2.5610      0.0490      5.3936    124.3716     27.1487
   576.2000      7.9572      2.5671      0.0546      5.0251    123.2067     26.8764
   576.3000      7.9448      2.5582      0.0450      5.5646    120.9689     26.7332
