~Version Information
VERS.                      2.0: CWLS Log ASCII Standard - VERSION 2.0
WRAP.                       NO: One line per depth step
~Well Information Block
STRT.FT                 0.0000: 
STOP.FT               712.5000: 
STEP.FT                 0.2500: 
NULL.                -999.2500: 
COMP.          Pioneer Natural Resources: COMPANY
WELL.                Mia 21-18: WELL
FLD.           Purgatorie River: FIELD
LOC.           1067' FNL & 1824' FWL: LOCATION
PROV.                 Colorado: PROVINCE
CNTY.               Las Animas: COUNTRY
SRVC.                Patterson: SERVICE COMPANY
DATE.          Mon Nov 28 13:12:22 2005: LOG DATE
UWI.           05-071-08559               : UNIQUE WELL ID
~Curve Information Block
DEPT.FT            0 000 00 00: Depth
CCL.                          : Casing Collar Locator
TT3.usec                      : CBL 3' Travel Time
AMP3.mV                       : CBL 3' Amplitude
GR.GAPI                       : Gamma Ray
~Parameter Information Block
~A  Depth       CCL         TT3         AMP3         GR     
# ...
   670.0000      0.0000    721.7040     17.9265     99.7707
   670.2500      0.0000    721.7624     17.8235    100.0246
   670.5000      0.0000    721.8651     17.8074     97.9783
   670.7500      0.0000    721.9832     17.8920     94.1423
   671.0000      0.0000    722.1056     18.0109     88.9417
   671.2500      0.0000    722.2002     18.0791     82.8591
   671.5000      0.0000    721.7698     18.0766     76.8531
   671.7500      0.0000    719.1746     18.0375     72.2629
   672.0000      0.0000    712.1672     17.9900     70.1178
   672.2500      0.0000    702.1688     17.9408     70.5565
   672.5000      0.0000    696.9667     17.8983     72.9668
   672.7500      0.0000    701.9398     17.8675     76.7269
   673.0000      0.0000    711.7861     17.8436     81.7308
   673.2500      0.0000    718.6055     17.8380     87.9003
   673.5000      0.0000    720.6761     17.8681     94.1631
   673.7500      0.0000    718.3436     17.9064     98.4088
   674.0000      0.0000    706.1808     17.8932     99.0068
   674.2500      0.0000    672.8019     17.7878     96.3896
   674.5000      0.0000    616.1203     17.5808     92.8655
   674.7500      0.0000    554.6061     17.3098     90.8179
   675.0000      0.0000    508.5987     17.0223     90.9734
   675.2500      0.0000    494.1766     16.5158     91.9448
   675.5000      0.0000    533.3377     15.3525     91.2563
   675.7500      0.0000    618.9421     13.6406     87.2787
   676.0000      0.0000    702.0948     12.2426     80.5735
   676.2500      0.0000    749.2519     11.7134     73.3990
   676.5000      2.0000    767.8968     11.7809     67.9822
   676.7500      0.0000    775.6022     11.9366     65.3657
   677.0000     -2.0000    777.7955     11.9074     65.5412
   677.2500      0.0000    770.7383     11.6538     67.9728
   677.5000      0.0000    746.0966     11.2649     71.6684
   677.7500      0.0000    692.7341     11.0069     75.2073
   678.0000      0.0000    615.5147     11.2030     77.3571
   678.2500      0.0000    551.5098     11.6946     77.7736
   678.5000      0.0000    533.5333     12.1942     76.9094
   678.7500      0.0000    551.8663     13.1075     75.3725
   679.0000      0.0000    588.0248     14.6386     73.5340
   679.2500      0.0000    638.0027     16.0350     71.4995
   679.5000      0.0000    685.8830     16.6543     69.2289
   679.7500      0.0000    713.1010     16.6187     66.7784
   680.0000      0.0000    721.8195     16.3282     64.3560
   680.2500      0.0000    723.2643     16.0440     61.9670
   680.5000      0.0000    723.4192     15.8567     59.1846
   680.7500      0.0000    723.5455     15.7948     55.5820
   681.0000      0.0000    723.6777     15.8709     51.3877
   681.2500      0.0000    723.9290     16.0344     47.6595
   681.5000      0.0000    724.6525     16.1927     45.7166
   681.7500      0.0000    726.7548     16.3092     46.1567
   682.0000      0.0000    731.9382     16.4155     48.2809
   682.2500      0.0000    741.2321     16.5367     50.6879
   682.5000      0.0000    752.4483     16.6663     52.6317
   682.7500      0.0000    761.3113     16.8018     54.5845
   683.0000      0.0000    765.8343     16.9461     57.2541
   683.2500      0.0000    767.2307     17.0757     60.3293
   683.5000      0.0000    767.1771     17.1513     62.5868
   683.7500      0.0000    765.8049     17.1584     63.1466
   684.0000      0.0000    761.2852     17.1145     62.2304
   684.2500      0.0000    751.0225     17.0405     60.5884
   684.5000      0.0000    733.7701     16.9311     58.6290
   684.7500      0.0000    710.9805     16.7558     56.5407
   685.0000      0.0000    689.6863     16.5011     54.9226
   685.2500      0.0000    682.1830     16.2145     54.5288
   685.5000      0.0000    692.8955     15.9838     55.3203
   685.7500      0.0000    711.3397     15.8512     56.3598
   686.0000      0.0000    727.1332     15.7786     56.7345
   686.2500      0.0000    739.7923     15.6975     56.2329
   686.5000      0.0000    750.1514     15.5395     55.2335
   686.7500      0.0000    754.7311     15.2645     54.3343
   687.0000      0.0000    751.2586     14.9298     54.0983
   687.2500      0.0000    743.7940     14.6766     54.8274
   687.5000      0.0000    740.0500     14.5955     56.4701
   687.7500      0.0000    744.0405     14.6435     58.8428
   688.0000      0.0000    751.8209     14.7348     61.8840
   688.2500      0.0000    755.2457     14.8550     65.5703
   688.5000      0.0000    750.3808     15.0324     69.6476
   688.7500      0.0000    741.4321     15.2422     73.4330
   689.0000      0.0000    735.9837     15.4082     75.8854
   689.2500      0.0000    737.1977     15.4785     76.2069
   689.5000      0.0000    742.2504     15.4577     74.6278
   689.7500      0.0000    747.4945     15.3951     72.3335
   690.0000      0.0000    750.9476     15.3784     70.4004
   690.2500      0.0000    751.0511     15.4772     69.0874
   690.5000      0.0000    747.9152     15.6674     68.3304
   690.7500      0.0000    743.0829     15.8598     68.5586
   691.0000      0.0000    738.0231     16.0000     70.6712
   691.2500      0.0000    735.2781     16.0987     75.2377
   691.5000      0.0000    736.2141     16.1709     81.8543
   691.7500      0.0000    738.1429     16.1802     89.2253
   692.0000      0.0000    738.8474     16.0963     95.7123
   692.2500      0.0000    740.1096     15.9658     99.9475
   692.5000      0.0000    743.4983     15.8663    101.4029
   692.7500      0.0000    748.6145     15.8547    100.5913
   693.0000      0.0000    754.8865     15.9618     98.4550
   693.2500      0.0000    760.7399     16.1625     95.4875
   693.5000      0.0000    764.3141     16.3839     91.8268
   693.7500      0.0000    765.1479     16.5939     88.1765
   694.0000      0.0000    761.6612     16.8328     85.8442
   694.2500      0.0000    744.7437     17.1325     85.4404
   694.5000      0.0000    694.2900     17.4707     86.2804
   694.7500      0.0000    596.4680     17.8208     87.6881
   695.0000      0.0000    474.3325     18.1719     90.0831
   695.2500      0.0000    376.4535     18.4996     93.8110
   695.5000      0.0000    326.1118     18.7737     97.3636
   695.7500      0.0000    309.4308     18.9721     97.5789
   696.0000      0.0000    305.7930     19.0788     91.5281
   696.2500      0.0000    305.2196     19.1072     78.2132
   696.5000      0.0000    305.1265     19.1221     59.3224
   696.7500      0.0000    305.1138     19.1853     38.8954
   697.0000      0.0000    305.4901     19.2652     21.5057
   697.2500      0.0000    308.5094     19.2531      9.8195
   697.5000      0.0000    321.6568     19.0922      3.6427
   697.7500      0.0000    355.9006     18.8312      1.0844
   698.0000      0.0000    407.0938     18.5530      0.2564
   698.2500      0.0000    448.0955     18.3137      0.0474
   698.5000      0.0000    473.7394     18.1268      0.0063
   698.7500      0.0000    521.0334     17.9780      0.0000
   699.0000      0.0000    596.3036     17.8798   -999.2500
   699.2500      0.0000    646.8170     17.8757   -999.2500
   699.5000      0.0000    644.7527     17.9634   -999.2500
   699.7500      0.0000    632.2487     18.0716   -999.2500
   700.0000      0.0000    652.6911     18.1355   -999.2500
   700.2500      0.0000    693.2253     18.1427   -999.2500
   700.5000      0.0000    722.7151     18.1010   -999.2500
   700.7500      0.0000    733.5875     18.0253   -999.2500
   701.0000      0.0000    732.5933     17.9429   -999.2500
   701.2500      0.0000    723.2542     17.7896   -999.2500
   701.5000      0.0000    694.0273     17.1539   -999.2500
   701.7500      0.0000    613.2405     15.1526   -999.2500
   702.0000      0.0000    458.4099     11.1826   -999.2500
   702.2500      0.0000    265.6736      6.1916   -999.2500
   702.5000      0.0000    111.4849      2.1859   -999.2500
   702.7500      0.0000     32.3511      0.1276   -999.2500
   703.0000      0.0000      6.3054     -0.5502   -999.2500
   703.2500      0.0000      0.8084     -0.6932   -999.2500
