~Version Information
VERS.                      2.0: CWLS Log ASCII Standard - VERSION 2.0
WRAP.                       NO: One line per depth step
~Well Information Block
STRT.FT               555.0000: 
STOP.FT              2322.2500: 
STEP.FT                 0.2500: 
NULL.                -999.2500: 
COMP.          Pioneer Natural Resources: COMPANY
WELL.          Fittipaldi 21-12: WELL
FLD.           Purgatoire River: FIELD
LOC.           207' FNL & 2110' FWL--: LOCATION
CNTY.               Las Animas: COUNTY
SRVC.                Patterson: SERVICE COMPANY
DATE.          Tue Mar 21 10:27:48 2006: LOG DATE
UWI.           05 071 08492 00: UNIQUE WELL ID
STAT.                 Colorado: STATE
~Curve Information Block
DEPT.FT            0 000 00 00: Depth
SN.Ohm-m                      : IEL Short Normal
SP.mV                         : IEL Spontaneous Potential
DIR.Ohm-m                     : IEL Induction Resistivity
GR.GAPI                       : Gamma Ray
~Parameter Information Block
~A  Depth        SN          SP         DIR          GR     
# ...
  1124.5000   2000.0000   1990.0000     14.7484     88.8747
  1124.7500   2000.0000   1990.0000     15.2510     89.0849
  1125.0000   2000.0000   1990.0000     15.6838     91.7926
  1125.2500   2000.0000   1990.0000     16.0595     95.0586
  1125.5000   2000.0000   1990.0000     16.3877    101.0227
  1125.7500   2000.0000   1990.0000     16.6644    104.6349
  1126.0000   2000.0000   1990.0000     16.8718    107.7709
  1126.2500   2000.0000   1990.0000     16.9919    107.9626
  1126.5000   2000.0000   1990.0000     17.0253    106.1927
  1126.7500   2000.0000   1990.0000     17.0043    104.5411
  1127.0000   2000.0000   1990.0000     16.9882    102.5622
  1127.2500   2000.0000   1990.0000     17.0422    101.7757
  1127.5000   2000.0000   1990.0000     17.2136    100.9160
  1127.7500   2000.0000   1990.0000     17.5138    100.0100
  1128.0000   2000.0000   1990.0000     17.9112     97.3500
  1128.2500   2000.0000   1990.0000     18.3348     94.5935
  1128.5000   2000.0000   1990.0000     18.6920     89.5640
  1128.7500   2000.0000   1990.0000     18.9011     86.3492
  1129.0000   2000.0000   1990.0000     18.9242     83.3947
  1129.2500   2000.0000   1990.0000     18.7791     83.5741
  1129.5000   2000.0000   1990.0000     18.5175     87.7327
  1129.7500   2000.0000   1990.0000     18.1906     92.6945
  1130.0000   2000.0000   1990.0000     17.8242    101.5614
  1130.2500   2000.0000   1990.0000     17.4191    107.1137
  1130.5000   2000.0000   1990.0000     16.9668    113.3519
  1130.7500   2000.0000   1990.0000     16.4691    115.9870
  1131.0000   2000.0000   1990.0000     15.9457    118.5494
  1131.2500   2000.0000   1990.0000     15.4295    119.9708
  1131.5000   2000.0000   1990.0000     14.9556    121.9849
  1131.7500   2000.0000   1990.0000     14.5535    122.8784
  1132.0000   2000.0000   1990.0000     14.2428    122.7029
  1132.2500   2000.0000   1990.0000     14.0307    121.4377
  1132.5000   2000.0000   1990.0000     13.9097    118.3172
  1132.7500   2000.0000   1990.0000     13.8592    115.8365
  1133.0000   2000.0000   1990.0000     13.8516    112.0211
  1133.2500   2000.0000   1990.0000     13.8613    109.6485
  1133.5000   2000.0000   1990.0000     13.8704    106.8522
  1133.7500   2000.0000   1990.0000     13.8709    105.7899
  1134.0000   2000.0000   1990.0000     13.8616    105.6757
  1134.2500   2000.0000   1990.0000     13.8446    106.5854
  1134.5000   2000.0000   1990.0000     13.8213    109.1190
  1134.7500   2000.0000   1990.0000     13.7890    111.1413
  1135.0000   2000.0000   1990.0000     13.7398    113.5807
  1135.2500   2000.0000   1990.0000     13.6644    114.2925
  1135.5000   2000.0000   1990.0000     13.5578    113.7922
  1135.7500   2000.0000   1990.0000     13.4248    112.6975
  1136.0000   2000.0000   1990.0000     13.2775    110.6900
  1136.2500   2000.0000   1990.0000     13.1298    109.4786
  1136.5000   2000.0000   1990.0000     12.9920    108.1143
  1136.7500   2000.0000   1990.0000     12.8691    107.5217
  1137.0000   2000.0000   1990.0000     12.7623    107.2168
  1137.2500   2000.0000   1990.0000     12.6724    107.5543
  1137.5000   2000.0000   1990.0000     12.6024    108.9948
  1137.7500   2000.0000   1990.0000     12.5586    110.4084
  1138.0000   2000.0000   1990.0000     12.5467    112.5493
  1138.2500   2000.0000   1990.0000     12.5660    113.5764
  1138.5000   2000.0000   1990.0000     12.6061    114.0877
  1138.7500   2000.0000   1990.0000     12.6491    113.7392
  1139.0000   2000.0000   1990.0000     12.6781    112.4956
  1139.2500   2000.0000   1990.0000     12.6866    111.4626
  1139.5000   2000.0000   1990.0000     12.6832    110.2486
  1139.7500   2000.0000   1990.0000     12.6874    110.0917
  1140.0000   2000.0000   1990.0000     12.7198    111.1137
  1140.2500   2000.0000   1990.0000     12.7950    112.2990
  1140.5000   2000.0000   1990.0000     12.9179    113.8320
  1140.7500   2000.0000   1990.0000     13.0838    114.3020
  1141.0000   2000.0000   1990.0000     13.2790    114.1075
  1141.2500   2000.0000   1990.0000     13.4814    113.4963
  1141.5000   2000.0000   1990.0000     13.6631    111.9937
  1141.7500   2000.0000   1990.0000     13.7988    110.6565
  1142.0000   2000.0000   1990.0000     13.8764    108.4769
  1142.2500   2000.0000   1990.0000     13.9041    107.2921
  1142.5000   2000.0000   1990.0000     13.9080    106.6990
  1142.7500   2000.0000   1990.0000     13.9215    107.5172
  1143.0000   2000.0000   1990.0000     13.9735    111.0389
  1143.2500   2000.0000   1990.0000     14.0825    114.7303
  1143.5000   2000.0000   1990.0000     14.2570    120.6259
  1143.7500   2000.0000   1990.0000     14.4988    123.3372
  1144.0000   2000.0000   1990.0000     14.8057    123.8044
  1144.2500   2000.0000   1990.0000     15.1726    121.7069
  1144.5000   2000.0000   1990.0000     15.5919    116.2423
  1144.7500   2000.0000   1990.0000     16.0553    111.8602
  1145.0000   2000.0000   1990.0000     16.5572    104.7820
  1145.2500   2000.0000   1990.0000     17.0933     99.7245
  1145.5000   2000.0000   1990.0000     17.6552     91.9162
  1145.7500   2000.0000   1990.0000     18.2231     87.2790
  1146.0000   2000.0000   1990.0000     18.7635     83.0793
  1146.2500   2000.0000   1990.0000     19.2375     83.0191
  1146.5000   2000.0000   1990.0000     19.6107     87.0762
  1146.7500   2000.0000   1990.0000     19.8573     91.5178
  1147.0000   2000.0000   1990.0000     19.9563     98.1025
  1147.2500   2000.0000   1990.0000     19.8917    101.1641
  1147.5000   2000.0000   1990.0000     19.6629    103.1431
  1147.7500   2000.0000   1990.0000     19.2943    103.2771
  1148.0000   2000.0000   1990.0000     18.8331    103.3736
  1148.2500   2000.0000   1990.0000     18.3325    104.1033
  1148.5000   2000.0000   1990.0000     17.8355    106.2398
  1148.7500   2000.0000   1990.0000     17.3669    107.8272
  1149.0000   2000.0000   1990.0000     16.9361    109.7302
  1149.2500   2000.0000   1990.0000     16.5447    110.7938
  1149.5000   2000.0000   1990.0000     16.1942    112.6846
  1149.7500   2000.0000   1990.0000     15.8909    114.1190
  1150.0000   2000.0000   1990.0000     15.6456    115.5780
  1150.2500   2000.0000   1990.0000     15.4686    115.5211
  1150.5000   2000.0000   1990.0000     15.3660    113.8520
  1150.7500   2000.0000   1990.0000     15.3371    112.1541
  1151.0000   2000.0000   1990.0000     15.3741    109.3913
  1151.2500   2000.0000   1990.0000     15.4597    107.2838
  1151.5000   2000.0000   1990.0000     15.5646    103.1070
  1151.7500   2000.0000   1990.0000     15.6493     99.7923
  1152.0000   2000.0000   1990.0000     15.6722     95.7016
  1152.2500   2000.0000   1990.0000     15.6024     94.7337
  1152.5000   2000.0000   1990.0000     15.4265     96.7147
  1152.7500   2000.0000   1990.0000     15.1472     99.9765
  1153.0000   2000.0000   1990.0000     14.7772    106.7859
  1153.2500   2000.0000   1990.0000     14.3352    112.1718
  1153.5000   2000.0000   1990.0000     13.8445    120.8238
  1153.7500   2000.0000   1990.0000     13.3315    126.2974
  1154.0000   2000.0000   1990.0000     12.8240    132.4628
  1154.2500   2000.0000   1990.0000     12.3481    134.4348
  1154.5000   2000.0000   1990.0000     11.9264    134.1056
  1154.7500   2000.0000   1990.0000     11.5756    132.5489
  1155.0000   2000.0000   1990.0000     11.3043    130.3784
  1155.2500   2000.0000   1990.0000     11.1116    129.8551
  1155.5000   2000.0000   1990.0000     10.9865    130.1475
  1155.7500   2000.0000   1990.0000     10.9098    130.3318
  1156.0000   2000.0000   1990.0000     10.8591    130.1827
  1156.2500   2000.0000   1990.0000     10.8138    130.3811
  1156.5000   2000.0000   1990.0000     10.7595    132.2601
  1156.7500   2000.0000   1990.0000     10.6900    134.5058
  1157.0000   2000.0000   1990.0000     10.6067    138.0906
  1157.2500   2000.0000   1990.0000     10.5160    139.8221
  1157.5000   2000.0000   1990.0000     10.4258    140.6091
  1157.7500   2000.0000   1990.0000     10.3443    139.7225
