~Version Information
VERS.                      2.0: CWLS Log ASCII Standard - VERSION 2.0
WRAP.                       NO: One line per depth step
~Well Information Block
STRT.FT               555.0000: 
STOP.FT              2286.5000: 
STEP.FT                 0.1000: 
NULL.                -999.2500: 
COMP.          Pioneer Natural Resources: COMPANY
WELL.          Roadster 41-33 Kv: WELL
FLD.           Purgatoire River: FIELD
LOC.           903' FNL & 248' FEL: LOCATION
PROV.                 Colorado: PROVINCE
CNTY.               Las Animas: COUNTRY
SRVC.                Patterson: SERVICE COMPANY
DATE.          Thu Dec 15 10:28:25 2005: LOG DATE
UWI.           05 071 08615 00: UNIQUE WELL ID
~Curve Information Block
DEPT.FT            0 000 00 00: Depth
DCAL.in                       : CDL Caliper
RHOB.g/cc                     : CDL Bulk Density
RHOC.g/cc                     : CDL Density Correction
DPOR.pu                       : CDL Density Porosity
GR.GAPI                       : Gamma Ray
NPOR.pu                       : Neutron Porosity
~Parameter Information Block
~A  Depth       DCAL        RHOB        RHOC        DPOR         GR         NPOR    
# ...
   670.2000      8.0646      1.8833      0.2254     46.4664    104.4814     22.8323
   670.3000      8.0627      1.9592      0.1528     41.8640    107.9423     23.9144
   670.4000      8.0627      2.0283      0.1372     37.6767    109.7207     24.5521
   670.5000      8.0500      2.0966      0.1380     33.5370    116.5826     24.8790
   670.6000      8.0500      2.1648      0.1364     29.4043    126.2189     25.6947
   670.7000      8.0500      2.2271      0.1661     25.6278    133.2046     27.0607
   670.8000      8.0538      2.2683      0.1435     23.1333    142.6868     27.6937
   670.9000      8.0538      2.2777      0.1099     22.5622    155.9500     27.2756
   671.0000      8.0439      2.2692      0.0693     23.0812    162.4596     26.9101
   671.1000      8.0439      2.2740      0.0122     22.7870    158.5394     27.0259
   671.2000      8.0439      2.3050      0.0424     20.9106    151.5571     26.9273
   671.3000      8.0458      2.3374      0.0595     18.9459    148.5492     26.1654
   671.4000      8.0458      2.3526      0.0058     18.0215    151.7893     25.6211
   671.5000      8.0493      2.3609      0.0455     17.5226    156.4041     25.8534
   671.6000      8.0493      2.3702      0.0548     16.9565    155.7395     25.9011
   671.7000      8.0493      2.3836      0.0684     16.1450    152.2646     25.3696
   671.8000      8.0558      2.4055      0.0858     14.8196    154.0489     25.0891
   671.9000      8.0558      2.4424      0.0811     12.5827    161.8575     25.1709
   672.0000      8.0543      2.4958      0.2146      9.3456    170.2375     25.0491
   672.1000      8.0543      2.5450      0.2219      6.3632    176.8114     24.9393
   672.2000      8.0543      2.5745      0.1864      4.5731    179.2654     25.3557
   672.3000      8.0540      2.6011      0.2110      2.9634    173.7679     26.1157
   672.4000      8.0540      2.6378      0.2996      0.7388    164.2185     26.6133
   672.5000      8.0524      2.6655      0.3227     -0.9421    159.2708     26.8336
   672.6000      8.0524      2.6686      0.2256     -1.1290    160.2171     27.0705
   672.7000      8.0524      2.6584      0.1737     -0.5113    160.1195     27.3125
   672.8000      8.0518      2.6492      0.1536      0.0499    154.6165     27.3429
   672.9000      8.0518      2.6384      0.1917      0.7032    147.6881     27.0429
   673.0000      8.0528      2.6173      0.0887      1.9792    143.8523     26.6076
   673.1000      8.0528      2.5954     -0.0313      3.3082    141.1093     26.2957
   673.2000      8.0528      2.5876      0.0302      3.7841    137.9295     26.3844
   673.3000      8.0524      2.5948      0.0197      3.3459    136.4668     26.8624
   673.4000      8.0524      2.6117      0.0588      2.3213    138.3621     27.1435
   673.5000      8.0526      2.6254      0.0628      1.4885    143.8128     26.9783
   673.6000      8.0526      2.6256      0.0572      1.4761    151.1477     26.7290
   673.7000      8.0526      2.6131      0.0585      2.2391    157.5589     26.6677
   673.8000      8.0522      2.5955      0.0502      3.3035    157.7054     26.8265
   673.9000      8.0522      2.5826      0.0395      4.0822    150.4859     27.0018
   674.0000      8.0529      2.5770      0.0337      4.4268    143.6377     27.2082
   674.1000      8.0529      2.5758      0.0030      4.4971    144.8050     27.6500
   674.2000      8.0529      2.5825     -0.0153      4.0883    153.5116     27.8353
   674.3000      8.0507      2.6005      0.0164      2.9996    162.9168     27.3465
   674.4000      8.0507      2.6186      0.0310      1.9050    162.6909     26.6870
   674.5000      8.0535      2.6217      0.0355      1.7176    153.6946     26.4896
   674.6000      8.0535      2.6052      0.0522      2.7149    149.9708     26.7709
   674.7000      8.0535      2.5780      0.0134      4.3628    152.7499     27.1650
   674.8000      8.0540      2.5552     -0.0052      5.7481    156.1020     27.3921
   674.9000      8.0540      2.5395     -0.0338      6.6992    159.6898     27.6575
   675.0000      8.0546      2.5316     -0.0829      7.1746    161.4655     28.3545
   675.1000      8.0546      2.5415     -0.0480      6.5728    161.4588     29.0639
   675.2000      8.0546      2.5680     -0.0234      4.9724    160.6913     28.7941
   675.3000      8.0548      2.5889      0.0526      3.7060    156.6902     27.4305
   675.4000      8.0548      2.5871      0.0422      3.8140    149.6790     26.0873
   675.5000      8.0554      2.5773      0.0117      4.4069    143.7208     25.6428
   675.6000      8.0554      2.5753      0.0615      4.5279    141.1681     25.9885
   675.7000      8.0554      2.5724      0.0055      4.7042    141.1783     26.8325
   675.8000      8.0555      2.5595     -0.0018      5.4841    144.5800     27.5096
   675.9000      8.0555      2.5449     -0.0076      6.3711    148.8040     27.0398
   676.0000      8.0554      2.5406      0.0021      6.6276    149.1534     25.8191
   676.1000      8.0554      2.5428      0.0333      6.4975    146.2633     25.2769
   676.2000      8.0554      2.5449     -0.0001      6.3726    141.8236     26.0133
   676.3000      8.0525      2.5464      0.0614      6.2809    141.6119     27.1747
   676.4000      8.0525      2.5432      0.0143      6.4741    147.7560     27.6069
   676.5000      8.0531      2.5388      0.0228      6.7417    152.1325     27.1989
   676.6000      8.0531      2.5365      0.0406      6.8796    153.4866     26.4447
   676.7000      8.0531      2.5273      0.0405      7.4370    157.0830     25.6894
   676.8000      8.0539      2.5088     -0.0207      8.5547    160.0226     25.5622
   676.9000      8.0539      2.4938     -0.0476      9.4649    155.6451     26.4950
   677.0000      8.0523      2.4872      0.0300      9.8688    145.0894     27.6386
   677.1000      8.0523      2.4852     -0.0064      9.9870    137.4746     27.9060
   677.2000      8.0523      2.4947     -0.0009      9.4096    136.7681     27.2099
   677.3000      8.0531      2.5190      0.0165      7.9383    140.3196     26.3211
   677.4000      8.0531      2.5418      0.0572      6.5575    145.7342     26.1130
   677.5000      8.0515      2.5456      0.0528      6.3281    150.8090     26.8294
   677.6000      8.0515      2.5323      0.0245      7.1332    154.6068     27.5879
   677.7000      8.0515      2.5179     -0.0131      8.0074    158.3013     27.3064
   677.8000      8.0527      2.5084      0.0241      8.5821    161.0752     26.3554
   677.9000      8.0527      2.4964      0.0172      9.3061    160.4766     25.7570
   678.0000      8.0539      2.4827     -0.0152     10.1394    159.6666     25.6540
   678.1000      8.0539      2.4725      0.0139     10.7557    160.4780     25.4774
   678.2000      8.0539      2.4611      0.0241     11.4469    159.7428     24.9708
   678.3000      8.0527      2.4418     -0.0041     12.6161    157.7728     24.7349
   678.4000      8.0527      2.4242     -0.0571     13.6829    155.6162     25.2140
   678.5000      8.0541      2.4245     -0.0319     13.6686    153.1421     25.9329
   678.6000      8.0541      2.4360      0.0113     12.9697    149.7773     26.3374
   678.7000      8.0541      2.4424     -0.0092     12.5806    145.1209     26.5236
   678.8000      8.0539      2.4463     -0.0137     12.3465    142.7120     26.5046
   678.9000      8.0539      2.4576     -0.0213     11.6584    144.3852     26.2977
   679.0000      8.0493      2.4699      0.0149     10.9144    145.6566     26.5819
   679.1000      8.0493      2.4668      0.0114     11.1006    146.9129     27.5686
   679.2000      8.0493      2.4517     -0.0370     12.0152    153.2507     28.0997
   679.3000      8.0401      2.4431     -0.0067     12.5373    157.7035     27.5197
   679.4000      8.0401      2.4492     -0.0272     12.1716    152.5734     26.9435
   679.5000      8.0496      2.4735     -0.0115     10.6971    140.6632     27.3499
   679.6000      8.0496      2.5196      0.0031      7.9060    128.7712     27.9949
   679.7000      8.0496      2.5749      0.0459      4.5499    124.3056     28.0302
