~Version Information
VERS.                      2.0: CWLS Log ASCII Standard - VERSION 2.0
WRAP.                       NO: One line per depth step
~Well Information Block
STRT.FT                 0.0000: 
STOP.FT              1426.7500: 
STEP.FT                 0.2500: 
NULL.                -999.2500: 
COMP.          Pioneer Natural Resources: COMPANY
WELL.            Bordeaux 42-2: WELL
FLD.           Purgatorie River: FIELD
LOC.           1963' FNL & 1148' FEL: LOCATION
PROV.                 Colorado: PROVINCE
CNTY.               Las Animas: COUNTRY
SRVC.                Patterson: SERVICE COMPANY
DATE.          Fri Dec 02 09:28:20 2005: LOG DATE
UWI.                          : UNIQUE WELL ID
~Curve Information Block
DEPT.FT            0 000 00 00: Depth
CCL.                          : Casing Collar Locator
TT3.usec                      : CBL 3' Travel Time
AMP3.mV                       : CBL 3' Amplitude
GR.GAPI                       : Gamma Ray
~Parameter Information Block
~A  Depth       CCL         TT3         AMP3         GR     
# ...
  1306.5000      0.0000    725.1215     10.5405     50.8422
  1306.7500      0.0000    707.4288     10.7818     52.8990
  1307.0000      0.0000    668.4118     10.9774     55.8507
  1307.2500      0.0000    641.6194     10.8840     58.2494
  1307.5000      0.0000    659.8963     10.1380     58.9278
  1307.7500      0.0000    710.3830      8.7981     57.8694
  1308.0000      0.0000    755.8726      7.5566     56.0466
  1308.2500      0.0000    777.2368      6.9573     54.4168
  1308.5000      2.0000    780.1241      6.8667     53.0912
  1308.7500      0.0000    784.2834      6.9058     51.4469
  1309.0000     -2.0000    805.6671      6.8884     49.0159
  1309.2500      0.0000    835.3297      6.7920     46.2859
  1309.5000      0.0000    847.0159      6.6632     44.5234
  1309.7500      0.0000    831.5706      6.6653     44.6700
  1310.0000      0.0000    802.6693      6.9407     46.5036
  1310.2500      0.0000    773.3850      7.3010     48.9109
  1310.5000      0.0000    749.6143      7.5485     50.7288
  1310.7500      0.0000    735.3552      7.9568     51.3092
  1311.0000      0.0000    733.2285      8.7031     50.7474
  1311.2500      0.0000    741.7541      9.4161     49.8925
  1311.5000      0.0000    753.3177      9.7638     49.8593
  1311.7500      0.0000    760.7466      9.8180     51.1336
  1312.0000      0.0000    763.3657      9.7862     53.1883
  1312.2500      0.0000    763.6787      9.7870     55.1613
  1312.5000      0.0000    763.2863      9.8326     56.7140
  1312.7500      0.0000    762.6658      9.8784     57.8874
  1313.0000      0.0000    762.0048      9.8977     58.3432
  1313.2500      0.0000    761.5095      9.9092     57.4316
  1313.5000      0.0000    761.3185      9.9281     55.1980
  1313.7500      0.0000    761.3833      9.9392     52.8056
  1314.0000      0.0000    761.5752      9.9214     51.7168
  1314.2500      0.0000    761.9164      9.8751     52.7316
  1314.5000      0.0000    762.5653      9.8216     55.7407
  1314.7500      0.0000    763.5508      9.7844     59.8592
  1315.0000      0.0000    764.5809      9.7729     63.6859
  1315.2500      0.0000    764.8514      9.7774     65.8856
  1315.5000      0.0000    762.0908      9.7843     65.8013
  1315.7500      0.0000    751.7838      9.7885     63.5782
  1316.0000      0.0000    730.8752      9.7776     59.9764
  1316.2500      0.0000    704.4036      9.7379     56.2426
  1316.5000      0.0000    682.9841      9.6835     53.7984
  1316.7500      0.0000    671.7883      9.6354     53.4974
  1317.0000      0.0000    667.9335      9.5966     55.0266
  1317.2500      0.0000    667.0253      9.5654     57.1595
  1317.5000      0.0000    666.9929      9.5384     58.7212
  1317.7500      0.0000    667.7161      9.5102     59.3155
  1318.0000      0.0000    670.6276      9.4901     59.1905
  1318.2500      0.0000    677.9479      9.4861     58.6992
  1318.5000      0.0000    688.2067      9.4772     58.1719
  1318.7500      0.0000    693.3895      9.4365     58.0637
  1319.0000      0.0000    688.0399      9.3621     58.7419
  1319.2500      0.0000    677.7170      9.2765     60.0567
  1319.5000      0.0000    670.5137      9.2218     61.3372
  1319.7500      0.0000    667.8611      9.2288     61.9388
  1320.0000      0.0000    667.3470      9.2654     61.8107
  1320.2500      0.0000    667.2748      9.2734     61.4073
  1320.5000      0.0000    667.2244      9.2494     60.9175
  1320.7500      0.0000    667.2498      9.2396     59.7793
  1321.0000      0.0000    667.3529      9.2680     57.3081
  1321.2500      0.0000    667.4410      9.2952     53.7279
  1321.5000      0.0000    667.5096      9.2755     50.2426
  1321.7500      0.0000    667.6648      9.2287     48.1093
  1322.0000      0.0000    667.9377      9.2078     47.9079
  1322.2500      0.0000    668.1779      9.2171     49.5486
  1322.5000      0.0000    668.2219      9.2161     52.4956
  1322.7500      0.0000    668.1104      9.1874     55.8963
  1323.0000      0.0000    668.0003      9.1655     58.8567
  1323.2500      0.0000    667.9206      9.1896     60.8382
  1323.5000      0.0000    667.7898      9.2377     61.7623
  1323.7500      0.0000    667.6407      9.2503     61.7013
  1324.0000      0.0000    667.5963      9.2117     60.6167
  1324.2500      0.0000    667.5961      9.1548     58.5976
  1324.5000      0.0000    667.4288      9.1136     56.2626
  1324.7500      0.0000    667.0863      9.1045     54.5247
  1325.0000      0.0000    666.8263      9.1197     53.8224
  1325.2500      0.0000    666.8610      9.1234     53.8649
  1325.5000      0.0000    667.1065      9.0661     54.2340
  1325.7500      0.0000    667.2987      8.9269     54.8620
  1326.0000      0.0000    667.4378      8.7522     55.7736
  1326.2500      0.0000    668.3456      8.6082     56.7993
  1326.5000      0.0000    672.7055      8.5010     57.8136
  1326.7500      0.0000    685.7515      8.3973     58.9648
  1327.0000      0.0000    711.2228      8.2925     60.4028
  1327.2500      0.0000    744.3315      8.2129     61.8742
  1327.5000      0.0000    773.5652      8.1744     62.8191
  1327.7500      0.0000    790.4968      8.1677     62.9496
  1328.0000      0.0000    794.9096      8.1725     62.6179
  1328.2500      0.0000    792.3988      8.1634     62.6060
  1328.5000      0.0000    787.4927      8.1157     63.6278
  1328.7500      0.0000    779.5111      8.0253     65.9697
  1329.0000      0.0000    764.5204      7.9172     69.4891
  1329.2500      0.0000    739.8998      7.8226     73.7639
  1329.5000      0.0000    710.2385      7.7730     77.9725
  1329.7500      0.0000    686.1843      7.8223     80.8253
  1330.0000      0.0000    673.4831      8.0064     81.3209
  1330.2500      0.0000    669.1513      8.2912     79.6921
  1330.5000      0.0000    668.2352      8.5859     77.0954
  1330.7500      0.0000    668.2424      8.7746     74.5849
  1331.0000      0.0000    668.4995      8.7810     72.8216
  1331.2500      0.0000    668.8203      8.6457     72.1690
  1331.5000      0.0000    669.0474      8.4964     72.4075
  1331.7500      0.0000    669.0839      8.4215     72.7320
  1332.0000      0.0000    668.9499      8.4224     72.3722
  1332.2500      0.0000    668.7193      8.4682     71.0148
  1332.5000      0.0000    668.4429      8.5373     68.7445
  1332.7500      0.0000    668.1631      8.6079     65.9741
  1333.0000      0.0000    667.9457      8.6393     63.3777
  1333.2500      0.0000    667.8458      8.6111     61.5870
  1333.5000      0.0000    667.8459      8.5554     60.8745
  1333.7500      0.0000    667.8856      8.5145     61.2135
  1334.0000      0.0000    667.9955      8.4970     62.6092
  1334.2500      0.0000    668.3262      8.4927     65.1109
  1334.5000      0.0000    668.9164      8.5126     68.2899
  1334.7500      0.0000    669.4636      8.5703     70.9472
  1335.0000      0.0000    669.5359      8.6419     71.7037
  1335.2500      0.0000    669.0954      8.6914     69.9931
  1335.5000      0.0000    668.5685      8.7049     66.4798
  1335.7500      0.0000    668.3307      8.6990     62.7209
  1336.0000      0.0000    668.3856      8.7004     60.4947
  1336.2500      0.0000    668.5299      8.7040     61.0435
  1336.5000      0.0000    668.6163      8.6793     64.4025
  1336.7500      0.0000    668.6493      8.6145     69.2332
  1337.0000      0.0000    668.7083      8.5366     73.5285
  1337.2500      0.0000    668.8377      8.4931     75.9104
  1337.5000      0.0000    669.0290      8.5016     76.4383
  1337.7500      0.0000    669.2855      8.5296     76.1031
  1338.0000      0.0000    669.8181      8.5521     75.5963
  1338.2500      0.0000    671.5348      8.5868     74.7179
  1338.5000      0.0000    676.2925      8.6431     73.0616
  1338.7500      0.0000    685.2542      8.6971     71.0151
  1339.0000      0.0000    696.1974      8.7304     69.5561
  1339.2500      0.0000    704.6016      8.7402     69.0058
  1339.5000      0.0000    707.7203      8.7290     68.5949
  1339.7500      0.0000    705.2677      8.7279     67.5252
