~Version Information
 VERS.                                  2.0 : CWLS LAS VERSION
 WRAP.                                   NO : WRAPING MODE
 SWARE .                 MController 2.5.0N : SOFTWARE VERSION
~Well Information
 WELL.                        Cayenne 23-23 : WELL
 COMP.    Pioneer Natural Resources USA Inc : COMPANY
 FLD.                      Purgatoire River : FIELD
 LOC.                 NE/SW SEC23 T32S R66W : LOCATION
 DATE.                          08/16-17/05 : DATE(S) LOGGED
 SRVC.       Blanco Geological Services LLC : SERVICE COMPANY
 STAT.                             Colorado : STATE
 CNTY.                           Las Animas : COUNTY
 CTRY.                                  USA : COUNTRY
 API.                       05-071-08476-00 : API NUMBER
 STRT.FT                             901.00 : START DEPTH
 STOP.FT                            2365.00 : STOP DEPTH
 STEP.FT                               1.00 : DEPTH INCREMENT
 NULL.                                -9999 : NULL VALUE
~Curve information
 DEPTH.FT                                   :
 ROP.MIN/FT                                 :
 GAS.UNITS                                  :
~ASCII Log data
# ...
      1101.0         0.20        586.0 
      1102.0         0.17        586.7 
      1103.0         0.20        586.7 
      1104.0         0.20        579.6 
      1105.0         0.60        559.9 
      1106.0        11.83        563.8 
      1107.0         0.40        691.1 
      1108.0         0.20        760.1 
      1109.0         0.23        836.4 
      1110.0         0.30       1180.3 
      1111.0         0.23       1757.1 
      1112.0         0.17       2070.1 
      1113.0         0.20       2395.2 
      1114.0         0.23       2395.2 
      1115.0         0.23       1924.7 
      1116.0         0.23       1567.0 
      1117.0         0.27       1209.9 
      1118.0         0.23        974.4 
      1119.0         0.23        859.3 
      1120.0         0.22        767.1 
      1121.0         0.17        725.3 
      1122.0         0.13        697.2 
      1123.0         0.23        685.0 
      1124.0         0.20        662.1 
      1125.0         0.17        660.8 
      1126.0         0.17        658.2 
      1127.0         0.20        650.2 
      1128.0         0.17        637.9 
      1129.0         0.17        637.6 
      1130.0         0.17        638.2 
      1131.0         0.17        635.0 
      1132.0         0.17        632.4 
      1133.0         0.17        628.3 
      1134.0         0.17        624.7 
      1135.0         0.33        620.8 
      1136.0         2.65        720.4 
      1137.0         0.77        960.2 
      1138.0         0.42       1360.1 
      1139.0         0.30       2552.5 
      1140.0         0.30       3035.6 
      1141.0         3.18       3016.6 
      1142.0         0.20        524.8 
      1143.0         0.10        523.2 
      1144.0         0.30        533.2 
      1145.0         0.20        539.9 
      1146.0         0.20        552.2 
      1147.0         0.20        569.6 
      1148.0         0.17        581.2 
      1149.0         0.17        616.0 
      1150.0         0.20        655.3 
      1151.0         0.13        672.7 
      1152.0         0.27        691.1 
      1153.0         0.53        692.4 
      1154.0         0.55        645.0 
      1155.0         0.37        606.3 
      1156.0         0.20        600.2 
      1157.0         0.20        598.0 
      1158.0         0.23        596.0 
      1159.0         0.23        597.3 
      1160.0         0.20        592.2 
      1161.0         0.17        587.0 
      1162.0         0.23        581.8 
      1163.0         0.20        577.3 
      1164.0         0.33        576.7 
      1165.0         1.45        600.2 
      1166.0         1.47        842.9 
      1167.0         0.43       1016.3 
      1168.0         0.27       1180.9 
      1169.0         0.17       1376.2 
      1170.0         0.15       1487.1 
      1171.0         0.30       1645.6 
      1172.0         0.27       1656.0 
      1173.0         0.27       1490.0 
      1174.0         0.23       1216.1 
      1175.0         0.17       1041.7 
      1176.0         0.20        931.2 
      1177.0         0.23        828.1 
      1178.0         0.23        728.2 
      1179.0         0.23        673.7 
      1180.0         0.23        645.3 
      1181.0         0.20        616.3 
      1182.0         0.23        609.2 
      1183.0         0.23        607.0 
      1184.0         0.25        608.6 
      1185.0         0.13        607.9 
      1186.0         0.17        606.7 
      1187.0         0.13        605.7 
      1188.0         0.13        607.6 
      1189.0         0.20        603.1 
      1190.0         0.20        601.8 
      1191.0         0.20        596.3 
      1192.0         0.20        592.5 
      1193.0         0.20        583.5 
      1194.0         0.23        578.0 
      1195.0         0.40        581.2 
      1196.0         2.65        697.2 
      1197.0         0.50        909.6 
      1198.0         0.30       1108.4 
      1199.0         0.27       1324.7 
      1200.0         0.20       1449.4 
      1201.0         0.23       1505.8 
      1202.0         0.28       1495.5 
      1203.0         0.23       1324.0 
      1204.0         0.20       1131.6 
      1205.0         0.23       1009.8 
      1206.0         0.20        901.5 
      1207.0         0.20        823.5 
      1208.0         0.20        752.3 
      1209.0         0.17        715.3 
      1210.0         0.17        683.7 
      1211.0         0.17        662.7 
      1212.0         0.20        649.2 
      1213.0         0.20        630.8 
      1214.0         0.20        621.8 
      1215.0         0.23        619.9 
      1216.0         0.17        618.6 
      1217.0         0.13        618.6 
      1218.0         0.20        625.0 
      1219.0         0.18        624.1 
      1220.0         0.30        627.9 
      1221.0         0.30        627.6 
      1222.0         0.40        624.4 
      1223.0         0.40        617.0 
      1224.0         0.40        609.9 
      1225.0         1.88        613.4 
      1226.0         1.13        683.0 
      1227.0         0.40        866.4 
      1228.0         0.27        995.0 
      1229.0         0.27       1169.0 
      1230.0         0.30       1362.0 
      1231.0         0.23       1440.4 
      1232.0         0.25       1443.9 
      1233.0         0.20       1356.9 
      1234.0         0.17       1231.2 
      1235.0         0.27       1099.4 
      1236.0         0.27        929.6 
      1237.0         0.27        820.3 
      1238.0         0.27        743.3 
      1239.0         0.27        697.2 
      1240.0         0.27        669.2 
      1241.0         0.23        660.5 
      1242.0         0.27        653.7 
      1243.0         0.27        643.1 
      1244.0         0.27        632.1 
      1245.0         0.23        618.9 
      1246.0         0.28        607.3 
      1247.0         0.23        594.1 
      1248.0         0.23        586.7 
      1249.0         0.20        576.4 
      1250.0         0.23        572.8 
      1251.0         0.23        566.1 
      1252.0         0.23        559.3 
      1253.0         0.27        555.1 
      1254.0         0.27        555.7 
      1255.0         2.42        589.6 
      1256.0         1.93       1663.7 
      1257.0         0.42       1734.3 
      1258.0         0.37       1497.1 
      1259.0         0.27        990.5 
      1260.0         0.27        807.4 
      1261.0         0.27        712.4 
      1262.0         0.23        669.8 
      1263.0         0.20        649.8 
      1264.0         0.27        638.9 
      1265.0         0.23        623.4 
      1266.0         0.23        610.2 
      1267.0         0.27        596.3 
      1268.0         0.27        586.0 
      1269.0         0.23        579.9 
      1270.0         0.28        587.6 
      1271.0         0.20        595.4 
      1272.0         0.27        601.8 
      1273.0         0.27        600.2 
      1274.0         0.17        595.1 
      1275.0         0.23        595.1 
      1276.0         0.23        589.3 
      1277.0         0.23        582.8 
      1278.0         0.30        572.8 
      1279.0         0.23        565.1 
      1280.0         0.27        558.0 
      1281.0         0.27        555.7 
      1282.0         0.30        559.3 
      1283.0         0.25        561.9 
      1284.0         0.50        561.5 
      1285.0         1.33        593.8 
      1286.0         3.72       1686.6 
      1287.0         0.37       1990.1 
      1288.0         0.30       3051.4 
      1289.0         0.23       3546.4 
      1290.0         0.28       3585.0 
      1291.0         0.40       2760.7 
      1292.0         0.27       1318.2 
      1293.0         0.27        871.9 
      1294.0         0.30        651.1 
      1295.0         0.30        551.2 
      1296.0         0.30        540.3 
      1297.0         0.30        555.7 
      1298.0         0.27        562.5 
      1299.0         0.30        565.7 
      1300.0         0.23        567.7 
