~Version Information
VERS.                      2.0: CWLS Log ASCII Standard - VERSION 2.0
WRAP.                       NO: One line per depth step
~Well Information Block
STRT.FT               570.0000: 
STOP.FT              2094.0000: 
STEP.FT                 0.2500: 
NULL.                -999.2500: 
COMP.          XTO Energy Inc.: COMPANY
WELL.          Golden Eagle 19-10: WELL
FLD.           Purgatoire River: FIELD
LOC.           2684' FSL & 1825' FEL: LOCATION
CNTY.               Las Animas: COUNTY
CTRY.                      USA: COUNTRY
API.               05 071 08697:  
SRVC.                Patterson: SERVICE COMPANY
DATE.          Sun Mar 05 02:13:24 2006: LOG DATE
UWI.           05 071 08697 00: UNIQUE WELL ID
STAT.                 Colorado: STATE
~Curve Information Block
DEPT.FT            0 000 00 00: Depth
SP.mV                         : DIL Spontaneous Potential
RILD.Ohm-m                    : DIL Deep Resistivity
RILM.Ohm-m                    : DIL Medium Resistivity
RLL3.Ohm-m                    : DIL Shallow Resistivity
GR.GAPI                       : Gamma Ray
~Parameter Information Block
~A  Depth        SP         RILD        RILM        RLL3         GR     
# ...
  1074.0000   -999.2500     12.4675     11.5639   -999.2500    158.7972
  1074.2500   -999.2500     12.3646     11.3988   -999.2500    158.2307
  1074.5000   -999.2500     12.2607     11.3585   -999.2500    154.4114
  1074.7500   -999.2500     12.1933     11.4398   -999.2500    149.8444
  1075.0000   -999.2500     12.2096     11.6402   -999.2500    140.5328
  1075.2500   -999.2500     12.3502     11.9584   -999.2500    133.4130
  1075.5000   -999.2500     12.6360     12.3945   -999.2500    122.7453
  1075.7500   -999.2500     13.0645     12.9497   -999.2500    116.2968
  1076.0000   -999.2500     13.6139     13.6256   -999.2500    108.2605
  1076.2500   -999.2500     14.2473     14.4221   -999.2500    104.0229
  1076.5000   -999.2500     14.9145     15.3336   -999.2500     99.0956
  1076.7500   -999.2500     15.5523     16.3420   -999.2500     96.7377
  1077.0000   -999.2500     16.0886     17.4051   -999.2500     94.9050
  1077.2500   -999.2500     16.4573     18.4453   -999.2500     94.9620
  1077.5000   -999.2500     16.6221     19.3467   -999.2500     96.7148
  1077.7500   -999.2500     16.5916     19.9729   -999.2500     98.6901
  1078.0000   -999.2500     16.4095     20.2121   -999.2500    102.8487
  1078.2500   -999.2500     16.1280     20.0281   -999.2500    106.9589
  1078.5000   -999.2500     15.7880     19.4819   -999.2500    116.3296
  1078.7500   -999.2500     15.4151     18.7033   -999.2500    124.7340
  1079.0000   -999.2500     15.0235     17.8348   -999.2500    138.4729
  1079.2500   -999.2500     14.6184     16.9863   -999.2500    146.3766
  1079.5000   -999.2500     14.1978     16.2176   -999.2500    153.6970
  1079.7500   -999.2500     13.7581     15.5428   -999.2500    155.2722
  1080.0000   -999.2500     13.3019     14.9456   -999.2500    154.0259
  1080.2500   -999.2500     12.8406     14.3966   -999.2500    151.8931
  1080.5000   -999.2500     12.3905     13.8681   -999.2500    148.1760
  1080.7500   -999.2500     11.9652     13.3448   -999.2500    145.8620
  1081.0000   -999.2500     11.5735     12.8271   -999.2500    143.3428
  1081.2500   -999.2500     11.2232     12.3281   -999.2500    142.7201
  1081.5000   -999.2500     10.9248     11.8671   -999.2500    143.8387
  1081.7500   -999.2500     10.6921     11.4627   -999.2500    145.9487
  1082.0000   -999.2500     10.5389     11.1295   -999.2500    150.8690
  1082.2500   -999.2500     10.4744     10.8763   -999.2500    155.0143
  1082.5000   -999.2500     10.4984     10.7073   -999.2500    161.3386
  1082.7500   -999.2500     10.5983     10.6228   -999.2500    164.4233
  1083.0000   -999.2500     10.7491     10.6199   -999.2500    165.3017
  1083.2500   -999.2500     10.9197     10.6926   -999.2500    162.9962
  1083.5000   -999.2500     11.0834     10.8313   -999.2500    156.6110
  1083.7500   -999.2500     11.2262     11.0233   -999.2500    152.0693
  1084.0000   -999.2500     11.3472     11.2533   -999.2500    147.7510
  1084.2500   -999.2500     11.4523     11.5057   -999.2500    147.5750
  1084.5000   -999.2500     11.5498     11.7668   -999.2500    151.0854
  1084.7500   -999.2500     11.6508     12.0265   -999.2500    154.6146
  1085.0000   -999.2500     11.7694     12.2781   -999.2500    158.7932
  1085.2500   -999.2500     11.9155     12.5152   -999.2500    159.6691
  1085.5000   -999.2500     12.0835     12.7286   -999.2500    157.6558
  1085.7500   -999.2500     12.2471     12.9035   -999.2500    154.5976
  1086.0000   -999.2500     12.3690     13.0209   -999.2500    149.2629
  1086.2500   -999.2500     12.4211     13.0613   -999.2500    146.5757
  1086.5000   -999.2500     12.3969     13.0121   -999.2500    145.7683
  1086.7500   -999.2500     12.3067     12.8722   -999.2500    147.5972
  1087.0000   -999.2500     12.1625     12.6528   -999.2500    152.3357
  1087.2500   -999.2500     11.9692     12.3736   -999.2500    155.4818
  1087.5000   -999.2500     11.7272     12.0564   -999.2500    159.0400
  1087.7500   -999.2500     11.4413     11.7204   -999.2500    160.9308
  1088.0000   -999.2500     11.1238     11.3799   -999.2500    163.9535
  1088.2500   -999.2500     10.7925     11.0444   -999.2500    166.0879
  1088.5000   -999.2500     10.4630     10.7203   -999.2500    168.4611
  1088.7500   -999.2500     10.1442     10.4121   -999.2500    168.9701
  1089.0000   -999.2500      9.8380     10.1230   -999.2500    168.4918
  1089.2500   -999.2500      9.5440      9.8559   -999.2500    168.1050
  1089.5000   -999.2500      9.2640      9.6131   -999.2500    168.2306
  1089.7500   -999.2500      9.0018      9.3968   -999.2500    168.6640
  1090.0000   -999.2500      8.7618      9.2091   -999.2500    169.5477
  1090.2500   -999.2500      8.5473      9.0509   -999.2500    170.4452
  1090.5000   -999.2500      8.3606      8.9209   -999.2500    172.3681
  1090.7500   -999.2500      8.2028      8.8148   -999.2500    173.6164
  1091.0000   -999.2500      8.0724      8.7251   -999.2500    174.5242
  1091.2500   -999.2500      7.9643      8.6421   -999.2500    174.4055
  1091.5000   -999.2500      7.8689      8.5564   -999.2500    173.7617
  1091.7500   -999.2500      7.7746      8.4614   -999.2500    173.4410
  1092.0000   -999.2500      7.6712      8.3546   -999.2500    173.5836
  1092.2500   -999.2500      7.5539      8.2383   -999.2500    174.1862
  1092.5000   -999.2500      7.4250      8.1167   -999.2500    175.4138
  1092.7500   -999.2500      7.2924      7.9945   -999.2500    175.8655
  1093.0000   -999.2500      7.1662      7.8748   -999.2500    175.3798
  1093.2500   -999.2500      7.0548      7.7590   -999.2500    174.6808
  1093.5000   -999.2500      6.9629      7.6473   -999.2500    174.6732
  1093.7500   -999.2500      6.8910      7.5396   -999.2500    175.9712
  1094.0000   -999.2500      6.8373      7.4367   -999.2500    179.2259
  1094.2500   -999.2500      6.7989      7.3403   -999.2500    181.2114
  1094.5000   -999.2500      6.7722      7.2526   -999.2500    182.6081
  1094.7500   -999.2500      6.7536      7.1757   -999.2500    182.6001
  1095.0000   -999.2500      6.7394      7.1111   -999.2500    182.3200
  1095.2500   -999.2500      6.7277      7.0601   -999.2500    182.4385
  1095.5000   -999.2500      6.7208      7.0236   -999.2500    183.0237
  1095.7500   -999.2500      6.7249      7.0024   -999.2500    183.4807
  1096.0000   -999.2500      6.7480      6.9974   -999.2500    184.3721
  1096.2500   -999.2500      6.7951      7.0089   -999.2500    185.2859
  1096.5000   -999.2500      6.8639      7.0370   -999.2500    186.6158
  1096.7500   -999.2500      6.9434      7.0806   -999.2500    186.5305
  1097.0000   -999.2500      7.0183      7.1376   -999.2500    183.5584
  1097.2500   -999.2500      7.0766      7.2054   -999.2500    179.8640
  1097.5000   -999.2500      7.1162      7.2804   -999.2500    173.6589
  1097.7500   -999.2500      7.1439      7.3593   -999.2500    170.2877
  1098.0000   -999.2500      7.1695      7.4391   -999.2500    167.4914
  1098.2500   -999.2500      7.1990      7.5175   -999.2500    167.1706
  1098.5000   -999.2500      7.2326      7.5934   -999.2500    168.2723
  1098.7500   -999.2500      7.2661      7.6670   -999.2500    169.3047
  1099.0000   -999.2500      7.2945      7.7393   -999.2500    169.9917
  1099.2500   -999.2500      7.3154      7.8116   -999.2500    169.5311
  1099.5000   -999.2500      7.3292      7.8840   -999.2500    168.0214
  1099.7500   -999.2500      7.3377      7.9544   -999.2500    167.2605
  1100.0000   -999.2500      7.3413      8.0177   -999.2500    167.5376
  1100.2500   -999.2500      7.3382      8.0663   -999.2500    168.5719
  1100.5000   -999.2500      7.3256      8.0924   -999.2500    170.1014
  1100.7500   -999.2500      7.3018      8.0903   -999.2500    170.3586
  1101.0000   -999.2500      7.2681      8.0592   -999.2500    169.5630
  1101.2500   -999.2500      7.2285      8.0031   -999.2500    168.9189
  1101.5000   -999.2500      7.1887      7.9293   -999.2500    168.8074
  1101.7500   -999.2500      7.1538      7.8457   -999.2500    169.2410
