~Version Information
VERS.                      2.0: CWLS Log ASCII Standard - VERSION 2.0
WRAP.                       NO: One line per depth step
~Well Information Block
STRT.FT               325.0000: 
STOP.FT              1014.5000: 
STEP.FT                 0.2500: 
NULL.                -999.2500: 
COMP.          Pioneer Natural Resources: COMPANY
WELL.                Doc 34-30: WELL
FLD.           Purgatoire River: FIELD
LOC.           454' FSL & 1386' FEL: LOCATION
CNTY.               Las Animas: COUNTY
SRVC.                Patterson: SERVICE COMPANY
DATE.          Wed Feb 15 20:26:19 2006: LOG DATE
UWI.           05 071 08694 00: UNIQUE WELL ID
STAT.                 Colorado: STATE
~Curve Information Block
DEPT.FT            0 000 00 00: Depth
SN.Ohm-m                      : IEL Short Normal
SP.mV                         : IEL Spontaneous Potential
DIR.Ohm-m                     : IEL Induction Resistivity
GR.GAPI                       : Gamma Ray
~Parameter Information Block
~A  Depth        SN          SP         DIR          GR     
# ...
   827.5000     14.5611     12.1278     14.4442     89.3568
   827.7500     15.1541     11.5549     14.7725     88.9526
   828.0000     15.7113     11.0125     15.0914     88.0551
   828.2500     16.1323     10.5129     15.4130     87.2135
   828.5000     16.4567     10.0628     15.7442     85.0706
   828.7500     16.7881      9.6636     16.0757     82.7231
   829.0000     17.1247      9.3132     16.3823     78.0680
   829.2500     17.3990      9.0104     16.6300     75.0091
   829.5000     17.5777      8.7568     16.7865     72.2922
   829.7500     17.6403      8.5557     16.8260     72.3857
   830.0000     17.5929      8.4126     16.7315     75.1475
   830.2500     17.4779      8.3372     16.5004     78.0012
   830.5000     17.2638      8.3460     16.1516     82.4857
   830.7500     16.8192      8.4609     15.7275     85.1564
   831.0000     16.0632      8.7070     15.2844     88.2895
   831.2500     15.0769      9.1047     14.8739     89.6098
   831.5000     14.0880      9.6544     14.5284     90.5024
   831.7500     13.3650     10.3217     14.2556     90.9172
   832.0000     13.0872     11.0384     14.0410     92.5964
   832.2500     13.2662     11.7239     13.8566     94.6698
   832.5000     13.7149     12.3132     13.6732     98.0903
   832.7500     14.1573     12.7758     13.4721     99.5950
   833.0000     14.4431     13.1161     13.2514     99.9507
   833.2500     14.6124     13.3646     13.0246     99.2078
   833.5000     14.7689     13.5641     12.8135     97.5345
   833.7500     14.9595     13.7559     12.6391     96.4656
   834.0000     15.1550     13.9678     12.5143     95.4487
   834.2500     15.2877     14.2086     12.4399     95.4482
   834.5000     15.3300     14.4699     12.4056     96.7977
   834.7500     15.3375     14.7322     12.3960     98.4467
   835.0000     15.3765     14.9721     12.3985    100.9626
   835.2500     15.4211     15.1698     12.4075    101.8877
   835.5000     15.3958     15.3177     12.4246    101.6250
   835.7500     15.2800     15.4250     12.4548    100.7971
   836.0000     15.1105     15.5147     12.5021    100.0680
   836.2500     14.9610     15.6126     12.5670    100.6477
   836.5000     14.9190     15.7358     12.6488    103.3967
   836.7500     14.9973     15.8867     12.7508    106.0641
   837.0000     15.0968     16.0579     12.8851    110.1144
   837.2500     15.1201     16.2430     13.0699    112.2335
   837.5000     15.0872     16.4404     13.3202    114.0294
   837.7500     15.1163     16.6496     13.6402    114.2806
   838.0000     15.3231     16.8666     14.0230    113.4046
   838.2500     15.7374     17.0860     14.4605    112.1720
   838.5000     16.3335     17.3019     14.9543    109.8810
   838.7500     17.1514     17.5013     15.5234    108.3096
   839.0000     18.3134     17.6642     16.2007    105.5991
   839.2500     19.8584     17.7783     17.0218    102.9756
   839.5000     21.6235     17.8582     18.0065     97.0248
   839.7500     23.3913     17.9430     19.1393     91.7991
   840.0000     25.0749     18.0741     20.3627     82.9737
   840.2500     26.6527     18.2752     21.5921     77.0050
   840.5000     28.0440     18.5484     22.7460     68.5345
   840.7500     29.1581     18.8802     23.7630     63.3802
   841.0000     29.9738     19.2492     24.5885     56.6907
   841.2500     30.5391     19.6330     25.1537     53.2217
   841.5000     30.9520     20.0166     25.3896     50.0238
   841.7500     31.2734     20.3982     25.2792     49.3435
   842.0000     31.3836     20.7858     24.8970     50.3620
   842.2500     31.0371     21.1892     24.3871     52.3425
   842.5000     30.1307     21.6144     23.8950     57.4698
   842.7500     28.8586     22.0620     23.5130     62.4126
   843.0000     27.5876     22.5271     23.2682     71.4693
   843.2500     26.5638     23.0002     23.1406     77.6148
   843.5000     25.7747     23.4672     23.0890     84.9363
   843.7500     25.1525     23.9096     23.0701     87.7108
   844.0000     24.7361     24.3060     23.0485     88.4265
   844.2500     24.5314     24.6358     23.0014     87.0109
   844.5000     24.4121     24.8826     22.9193     83.2467
   844.7500     24.2471     25.0387     22.8028     80.3807
   845.0000     24.0578     25.1083     22.6580     76.4131
   845.2500     23.9804     25.1066     22.4924     74.1182
   845.5000     24.1197     25.0529     22.3163     71.0122
   845.7500     24.4774     24.9624     22.1462     69.0949
   846.0000     24.9253     24.8445     22.0066     66.6292
   846.2500     25.2711     24.7068     21.9234     65.4232
   846.5000     25.4113     24.5579     21.9093     64.3665
   846.7500     25.3697     24.4051     21.9523     64.1106
   847.0000     25.2362     24.2518     22.0183     64.3855
   847.2500     25.1229     24.1015     22.0723     65.1885
   847.5000     25.1020     23.9618     22.1056     67.7828
   847.7500     25.1386     23.8425     22.1467     70.4229
   848.0000     25.1335     23.7468     22.2459     74.6987
   848.2500     25.0529     23.6673     22.4445     76.7656
   848.5000     24.9424     23.5926     22.7494     77.3947
   848.7500     24.8498     23.5194     23.1253     75.9784
   849.0000     24.8292     23.4582     23.5077     71.5628
   849.2500     24.9133     23.4295     23.8269     67.6780
   849.5000     25.0411     23.4532     24.0343     61.9331
   849.7500     25.1308     23.5392     24.1130     59.0766
   850.0000     25.1788     23.6827     24.0679     56.9860
   850.2500     25.2683     23.8655     23.9049     56.7557
   850.5000     25.4747     24.0625     23.6212     57.0524
   850.7500     25.7090     24.2491     23.2097     57.2722
   851.0000     25.7762     24.4115     22.6705     57.7119
   851.2500     25.5652     24.5536     22.0161     58.3576
   851.5000     25.0290     24.6962     21.2725     60.3046
   851.7500     24.1729     24.8691     20.4784     62.4653
   852.0000     23.1057     25.0992     19.6804     67.2907
   852.2500     21.9472     25.4011     18.9214     71.5991
   852.5000     20.8140     25.7717     18.2273     79.2199
   852.7500     19.8680     26.1894     17.6020     84.3845
   853.0000     19.1937     26.6175     17.0321     90.5940
   853.2500     18.7105     27.0132     16.4961     92.8356
   853.5000     18.2967     27.3423     15.9734     92.7206
   853.7500     17.9307     27.5928     15.4521     90.4830
   854.0000     17.6787     27.7788     14.9316     84.6914
   854.2500     17.5973     27.9322     14.4224     79.9905
   854.5000     17.6326     28.0842     13.9428     73.7507
   854.7500     17.6038     28.2479     13.5169     71.5092
   855.0000     17.3938     28.4151     13.1750     72.4781
   855.2500     17.1174     28.5700     12.9502     75.8240
   855.5000     16.9662     28.7030     12.8691     82.9991
   855.7500     16.9694     28.8130     12.9398     87.7589
   856.0000     16.9996     28.9013     13.1444     92.5535
   856.2500     16.9567     28.9685     13.4436     93.1181
   856.5000     16.9101     29.0120     13.7937     89.1859
   856.7500     17.0084     29.0240     14.1678     83.8685
   857.0000     17.3125     28.9942     14.5676     74.3807
   857.2500     17.8453     28.9194     15.0177     68.9716
   857.5000     18.6418     28.8125     15.5472     64.7909
   857.7500     19.6942     28.7042     16.1730     65.0021
   858.0000     20.9968     28.6348     16.8918     68.3422
   858.2500     22.5429     28.6376     17.6844     71.0856
   858.5000     24.2156     28.7232     18.5250     73.8790
   858.7500     25.8193     28.8760     19.3828     74.3520
   859.0000     27.2095     29.0683     20.2103     73.0824
   859.2500     28.3216     29.2806     20.9266     71.1467
   859.5000     29.1070     29.5099     21.4219     66.9009
   859.7500     29.5054     29.7623     21.5972     63.3883
   860.0000     29.4875     30.0442     21.4192     57.9120
   860.2500     29.0464     30.3631     20.9437     54.9310
   860.5000     28.1417     30.7319     20.2836     53.1359
   860.7500     26.7743     31.1631     19.5530     54.4631
