~Version Information
VERS.                      2.0: CWLS Log ASCII Standard - VERSION 2.0
WRAP.                       NO: One line per depth step
~Well Information Block
STRT.FT               245.0000: 
STOP.FT              1208.2000: 
STEP.FT                 0.1000: 
NULL.                -999.2500: 
COMP.          Pioneer Natural Resources: COMPANY
WELL.              Davida 34-8: WELL
FLD.           Purgatoire River: FIELD
LOC.           418' FSL & 1923' FEL--: LOCATION
CNTY.               Las Animas: COUNTY
SRVC.                Patterson: SERVICE COMPANY
DATE.          Mon Mar 20 08:22:01 2006: LOG DATE
UWI.           05 071 08722 00: UNIQUE WELL ID
STAT.                 Colorado: STATE
~Curve Information Block
DEPT.FT            0 000 00 00: Depth
DCAL.in                       : CDL Caliper
RHOB.g/cc                     : CDL Bulk Density
RHOC.g/cc                     : CDL Density Correction
DPOR.pu                       : CDL Density Porosity
NPOR.pu                       : Neutron Porosity
GR.GAPI                       : Gamma Ray
~Parameter Information Block
~A  Depth       DCAL        RHOB        RHOC        DPOR        NPOR         GR     
   245.0000      1.0504      0.7966      0.0897    112.3256     37.4263     36.2245
   245.1000      1.0504      0.7930      0.0781    112.5437     37.6455     36.9680
   245.2000      1.0504      0.7904      0.0806    112.7032     37.6104     37.6019
   245.3000      1.0501      0.7875      0.0725    112.8767     37.4192     36.2448
   245.4000      1.0501      0.7817      0.0824    113.2311     37.1927     34.5233
   245.5000      1.0513      0.7728      0.0750    113.7697     36.7883     35.7715
   245.6000      1.0513      0.7644      0.0678    114.2771     36.3349     40.2690
   245.7000      1.0513      0.7580      0.0839    114.6653     35.9861     44.2872
   245.8000      1.0536      0.7515      0.0688    115.0614     35.7681     44.5426
   245.9000      1.0536      0.7442      0.0653    115.5030     35.8512     41.3908
   246.0000      1.0558      0.7360      0.0611    115.9980     36.3214     37.9692
   246.1000      1.0558      0.7272      0.0448    116.5313     36.8927     36.4350
   246.2000      1.0558      0.7203      0.0374    116.9532     37.2390     36.4787
   246.3000      1.0566      0.7173      0.0244    117.1349     37.3777     36.6774
   246.4000      1.0566      0.7172      0.0385    117.1398     37.6575     37.3950
   246.5000      1.0597      0.7178      0.0317    117.1006     38.0403     39.0051
   246.6000      1.0597      0.7197      0.0305    116.9851     38.0826     39.3420
   246.7000      1.0597      0.7236      0.0455    116.7519     37.8620     37.6783
   246.8000      1.0635      0.7294      0.0285    116.3988     37.7819     35.4036
   246.9000      1.0635      0.7365      0.0414    115.9713     38.0130     33.2516
   247.0000      1.0677      0.7383      0.0541    115.8622     38.3668     31.2034
   247.1000      1.0677      0.7301      0.0429    116.3599     38.4270     29.5043
   247.2000      1.0677      0.7214      0.0148    116.8836     38.0880     29.3335
   247.3000      1.0646      0.7249      0.0314    116.6703     37.6848     30.5046
   247.4000      1.0646      0.7385      0.0460    115.8470     37.4505     31.6960
   247.5000      1.0579      0.7526      0.0581    114.9920     37.1988     32.1239
   247.6000      1.0579      0.7608      0.0600    114.4962     36.9538     32.2349
   247.7000      1.0579      0.7589      0.0726    114.6140     36.9053     34.3127
   247.8000      1.0629      0.7507      0.0305    115.1108     36.8055     39.1864
   247.9000      1.0629      0.7484      0.0279    115.2482     36.4392     43.3953
   248.0000      1.0792      0.7548      0.0585    114.8617     36.0812     43.8471
   248.1000      1.0792      0.7616      0.0551    114.4489     35.9079     41.7943
   248.2000      1.0792      0.7642      0.0634    114.2889     35.7554     40.2884
   248.3000      1.0920      0.7622      0.0623    114.4105     35.5224     40.9534
   248.4000      1.0920      0.7564      0.0528    114.7607     35.2480     43.2601
   248.5000      1.0972      0.7510      0.0400    115.0887     35.1160     45.5081
   248.6000      1.0972      0.7497      0.0424    115.1702     35.3987     46.6868
   248.7000      1.0972      0.7509      0.0477    115.0991     36.0093     47.1334
   248.8000      1.0978      0.7507      0.0398    115.1081     36.5382     47.5301
   248.9000      1.0978      0.7486      0.0411    115.2364     36.7408     47.5997
   249.0000      1.0949      0.7467      0.0397    115.3498     36.6919     47.5818
   249.1000      1.0949      0.7475      0.0356    115.3042     36.6864     50.0647
   249.2000      1.0949      0.7516      0.0400    115.0525     37.0014     55.2070
   249.3000      1.0919      0.7580      0.0472    114.6651     37.6411     58.0971
   249.4000      1.0919      0.7653      0.0520    114.2251     38.2319     57.1804
   249.5000      1.0922      0.7722      0.0603    113.8072     38.3898     57.4307
   249.6000      1.0922      0.7773      0.0668    113.4940     38.2299     61.3976
   249.7000      1.0922      0.7804      0.0714    113.3077     38.0835     66.1465
   249.8000      1.0965      0.7823      0.0640    113.1914     37.9190     68.2523
   249.9000      1.0965      0.7834      0.0679    113.1272     37.5951     67.3806
   250.0000      1.1020      0.7826      0.0671    113.1735     37.2862     67.1202
   250.1000      1.1020      0.7813      0.0565    113.2516     37.2651     68.8088
   250.2000      1.1020      0.7818      0.0607    113.2217     37.6055     69.1437
   250.3000      1.1036      0.7832      0.0599    113.1376     38.0028     66.3943
   250.4000      1.1036      0.7841      0.0603    113.0856     38.0665     62.9156
   250.5000      1.1024      0.7840      0.0665    113.0910     37.8107     60.8388
   250.6000      1.1024      0.7828      0.0682    113.1660     37.4887     59.1603
   250.7000      1.1024      0.7824      0.0498    113.1899     37.3752     56.8178
   250.8000      1.1019      0.7840      0.0730    113.0896     37.4744     54.3128
   250.9000      1.1019      0.7861      0.0568    112.9635     37.4801     53.1772
   251.0000      1.1017      0.7885      0.0712    112.8208     37.2305     53.1766
   251.1000      1.1017      0.7898      0.0755    112.7367     36.8952     51.4754
   251.2000      1.1017      0.7866      0.0671    112.9361     36.8920     47.1467
   251.3000      1.0982      0.7747      0.0767    113.6554     37.2907     42.3603
   251.4000      1.0982      0.7548      0.0719    114.8577     37.7376     40.5154
   251.5000      1.0845      0.7375      0.0452    115.9067     38.1727     42.1301
   251.6000      1.0845      0.7322      0.0508    116.2322     38.7774     45.0301
   251.7000      1.0845      0.7377      0.0357    115.8943     39.4556     49.0733
   251.8000      1.1000      0.7494      0.0678    115.1897     39.8771     54.7350
   251.9000      1.1000      0.7667      0.0561    114.1417     39.9075     60.8757
   252.0000      1.5643      0.8010      0.0525    112.0618     39.6325     65.8818
   252.1000      1.5643      0.8687      0.0888    107.9593     39.1144     67.9658
   252.2000      1.5643      0.9746      0.1200    101.5422     38.4740     70.0058
   252.3000      3.6919      1.1062      0.1750     93.5652     37.7971     76.2003
   252.4000      3.6919      1.2434      0.2282     85.2462     37.0035     84.8641
   252.5000      7.1463      1.3818      0.2518     76.8629     35.8228     92.1104
   252.6000      7.1463      1.5504      0.2988     66.6453     33.9234     96.3683
   252.7000      7.1463      1.7950      0.4158     51.8152     31.3415    100.2247
   252.8000      9.0841      2.1204      0.8261     32.0953     28.6838    107.3775
   252.9000      9.0841      2.4639      0.9431     11.2782     26.5020    116.5501
   253.0000      9.1932      2.7423      1.0503     -5.5923     24.7978    124.3949
   253.1000      9.1932      2.9043      1.0739    -15.4119     23.4029    129.5686
   253.2000      9.1932      2.9583      1.0515    -18.6822     22.1961    129.4863
   253.3000      8.8339      2.9347      1.0471    -17.2541     21.3266    126.1131
   253.4000      8.8339      2.8289      1.0062    -10.8447     21.1722    126.4869
   253.5000      8.7150      2.6403      0.6774      0.5888     21.6903    126.4674
   253.6000      8.7150      2.4346      0.3213     13.0547     22.1297    119.7598
   253.7000      8.7150      2.2862      0.2415     22.0501     21.9144    112.7633
   253.8000      8.7769      2.2044      0.2070     27.0084     21.1765    109.7948
   253.9000      8.7769      2.1631      0.1611     29.5101     20.1175    109.1396
   254.0000      8.8228      2.1402      0.1668     30.8998     18.8110    109.1297
   254.1000      8.8228      2.1243      0.1597     31.8597     17.7013    108.2771
   254.2000      8.8228      2.1189      0.1240     32.1859     17.1686    107.3598
   254.3000      8.8334      2.1264      0.1611     31.7358     17.0811    108.2632
   254.4000      8.8334      2.1422      0.1335     30.7772     17.3898    108.5143
   254.5000      8.8235      2.1674      0.1803     29.2491     18.0630    106.0096
