~Version Information
VERS.                      2.0: CWLS Log ASCII Standard - VERSION 2.0
WRAP.                       NO: One line per depth step
~Well Information Block
STRT.FT               650.0000: 
STOP.FT              2127.7000: 
STEP.FT                 0.1000: 
NULL.                -999.2500: 
COMP.          Pioneer Natural Resources: COMPANY
WELL.          Kennington 41-26: WELL
FLD.           Purgatoire River: FIELD
LOC.           940' FNL & 1008' FEL--: LOCATION
CNTY.               Las Animas: COUNTY
SRVC.                Patterson: SERVICE COMPANY
DATE.          Wed Mar 29 11:30:50 2006: LOG DATE
UWI.           05 071 08679 00: UNIQUE WELL ID
STAT.                 Colorado: STATE
~Curve Information Block
DEPT.FT            0 000 00 00: Depth
DCAL.in                       : CDL Caliper
RHOB.g/cc                     : CDL Bulk Density
RHOC.g/cc                     : CDL Density Correction
DPOR.pu                       : CDL Density Porosity
NPOR.pu                       : Neutron Porosity
GR.GAPI                       : Gamma Ray
~Parameter Information Block
~A  Depth       DCAL        RHOB        RHOC        DPOR        NPOR         GR     
# ...
  1034.0000      8.1970      2.5703      0.0877      4.8301     24.0540    149.5708
  1034.1000      8.1970      2.5392     -0.0273      6.7175     23.9575    147.9789
  1034.2000      8.1970      2.5113      0.0195      8.4058     23.8466    141.8971
  1034.3000      8.1989      2.5056      0.0098      8.7540     23.8751    135.2169
  1034.4000      8.1989      2.5180      0.0334      8.0007     24.0370    131.4334
  1034.5000      8.1992      2.5327      0.0351      7.1087     24.1554    130.7267
  1034.6000      8.1992      2.5327      0.0492      7.1068     24.0282    132.3684
  1034.7000      8.1992      2.5226      0.0421      7.7189     23.9905    133.9561
  1034.8000      8.1990      2.5185      0.0135      7.9712     24.3286    132.7844
  1034.9000      8.1990      2.5211      0.0439      7.8129     24.5953    129.6129
  1035.0000      8.1997      2.5230      0.0295      7.6972     24.3479    127.9910
  1035.1000      8.1997      2.5276      0.0380      7.4166     23.7789    130.1536
  1035.2000      8.1997      2.5405      0.0439      6.6368     23.2333    134.9248
  1035.3000      8.1998      2.5586      0.0220      5.5368     22.8897    137.2911
  1035.4000      8.1998      2.5694      0.0248      4.8873     22.8583    136.1249
  1035.5000      8.1983      2.5663      0.0258      5.0754     23.1169    136.4798
  1035.6000      8.1983      2.5617     -0.0006      5.3504     23.3978    138.0318
  1035.7000      8.1983      2.5599      0.0436      5.4635     23.5953    137.5699
  1035.8000      8.1978      2.5544     -0.0068      5.7938     23.8138    135.5647
  1035.9000      8.1978      2.5519      0.0460      5.9432     24.0140    131.2611
  1036.0000      8.1945      2.5613      0.0227      5.3784     24.2654    125.2913
  1036.1000      8.1945      2.5802      0.0321      4.2295     24.7867    120.0224
  1036.2000      8.1945      2.5978      0.0675      3.1626     25.5728    118.4027
  1036.3000      8.1784      2.6067      0.0604      2.6217     26.2087    120.5648
  1036.4000      8.1784      2.6077      0.0152      2.5656     26.2437    121.2075
  1036.5000      8.1477      2.5965      0.0646      3.2399     26.0246    117.5499
  1036.6000      8.1477      2.5699      0.0034      4.8567     26.2879    112.7454
  1036.7000      8.1477      2.5401     -0.0228      6.6595     27.0489    110.6889
  1036.8000      8.1124      2.5165     -0.0000      8.0926     27.6856    113.3047
  1036.9000      8.1124      2.4982     -0.0064      9.1999     27.8700    118.9667
  1037.0000      8.0845      2.4954     -0.0249      9.3726     27.8091    124.2662
  1037.1000      8.0845      2.5144      0.0101      8.2202     27.5939    126.7287
  1037.2000      8.0845      2.5357      0.0590      6.9282     27.1500    125.4469
  1037.3000      8.0733      2.5348      0.0563      6.9848     26.5744    122.8028
  1037.4000      8.0733      2.5140      0.0208      8.2395     25.9519    123.0240
  1037.5000      8.0725      2.4960      0.0625      9.3344     25.2337    127.1457
  1037.6000      8.0725      2.4902      0.0513      9.6862     24.4008    131.2031
  1037.7000      8.0725      2.4912      0.0927      9.6224     23.5650    133.2877
  1037.8000      8.0736      2.4929      0.0827      9.5210     22.7039    136.6056
  1037.9000      8.0736      2.4960      0.0557      9.3308     21.8933    141.5410
  1038.0000      8.0773      2.5057      0.0587      8.7460     21.7323    142.6868
  1038.1000      8.0773      2.5113      0.0886      8.4044     22.3009    138.2545
  1038.2000      8.0773      2.4941      0.0239      9.4488     22.8075    133.7205
  1038.3000      8.0811      2.4614      0.0150     11.4329     22.8463    133.2855
  1038.4000      8.0811      2.4434     -0.0549     12.5212     22.7043    138.5862
  1038.5000      8.0811      2.4560     -0.0027     11.7556     22.7138    146.7892
  1038.6000      8.0811      2.4812      0.0209     10.2323     22.8517    148.2590
  1038.7000      8.0811      2.5004      0.0214      9.0693     22.8644    139.3939
  1038.8000      8.0776      2.5218      0.0386      7.7697     22.9261    126.9363
  1038.9000      8.0776      2.5530      0.0727      5.8803     23.5240    117.9827
  1039.0000      8.0746      2.5838      0.0933      4.0103     24.6314    115.4701
  1039.1000      8.0746      2.6050      0.0776      2.7266     25.7292    116.1098
  1039.2000      8.0746      2.6206      0.0401      1.7819     26.4523    117.4020
  1039.3000      8.0743      2.6344      0.0611      0.9478     26.9406    118.6747
  1039.4000      8.0743      2.6331      0.0914      1.0213     27.5328    116.4739
  1039.5000      8.0703      2.6065      0.0715      2.6382     28.2351    113.7238
  1039.6000      8.0703      2.5674      0.0157      5.0034     28.7715    115.8911
  1039.7000      8.0703      2.5344      0.0438      7.0036     28.9186    119.0570
  1039.8000      8.0590      2.5187      0.0224      7.9606     28.6833    116.9835
  1039.9000      8.0590      2.5248      0.0146      7.5891     28.3466    110.5616
  1040.0000      8.0508      2.5447      0.0756      6.3791     28.0843    105.4106
  1040.1000      8.0508      2.5655      0.0803      5.1201     27.9041    106.4130
  1040.2000      8.0508      2.5822      0.1004      4.1097     27.6211    111.3711
  1040.3000      8.0500      2.5888      0.1024      3.7078     26.9565    113.2521
  1040.4000      8.0500      2.5785      0.0982      4.3309     25.9563    109.2849
  1040.5000      8.0563      2.5551      0.0955      5.7511     24.8622    104.0823
  1040.6000      8.0563      2.5343      0.0427      7.0121     23.9271    104.4582
  1040.7000      8.0563      2.5249      0.0772      7.5804     23.4884    112.3586
  1040.8000      8.0648      2.5145      0.0330      8.2108     23.7169    122.8743
  1040.9000      8.0648      2.4975      0.0248      9.2405     24.3477    130.5485
  1041.0000      8.0666      2.4880     -0.0387      9.8186     24.7022    131.0735
  1041.1000      8.0666      2.4990      0.0194      9.1508     24.4961    123.3882
  1041.2000      8.0666      2.5272      0.0463      7.4414     24.3201    114.8012
  1041.3000      8.0632      2.5533      0.0672      5.8591     24.7363    114.0800
  1041.4000      8.0632      2.5642      0.0521      5.1996     25.3978    122.1197
  1041.5000      8.0553      2.5680      0.0798      4.9709     25.7837    133.8242
  1041.6000      8.0553      2.5715      0.0971      4.7576     25.8972    141.2362
  1041.7000      8.0553      2.5714      0.1102      4.7666     25.9230    139.0526
  1041.8000      8.0472      2.5687      0.0876      4.9268     25.8990    129.8397
  1041.9000      8.0472      2.5738      0.0455      4.6209     25.9068    118.5627
  1042.0000      8.0516      2.5861      0.0771      3.8702     26.0360    111.7092
  1042.1000      8.0516      2.5922      0.0872      3.5046     25.8645    115.9576
  1042.2000      8.0516      2.5940      0.0691      3.3967     25.3487    127.5336
  1042.3000      8.0628      2.5982      0.0657      3.1391     24.9911    134.1971
  1042.4000      8.0628      2.5960      0.0587      3.2707     24.9118    132.9961
  1042.5000      8.0690      2.5839      0.0396      4.0076     25.0537    130.9502
  1042.6000      8.0690      2.5718      0.0196      4.7415     25.3066    129.6962
  1042.7000      8.0690      2.5645      0.0617      5.1807     25.3228    126.8846
  1042.8000      8.0696      2.5594      0.0348      5.4898     25.0513    124.9383
  1042.9000      8.0696      2.5525      0.0057      5.9118     24.7744    126.8207
  1043.0000      8.0683      2.5383      0.0068      6.7673     24.6735    131.9023
  1043.1000      8.0683      2.5216     -0.0028      7.7802     24.7785    137.1603
  1043.2000      8.0683      2.5187     -0.0098      7.9573     24.9939    139.7124
  1043.3000      8.0683      2.5376      0.0029      6.8094     25.2834    137.5303
  1043.4000      8.0683      2.5658      0.0244      5.1053     25.6133    130.7549
  1043.5000      8.0695      2.5815      0.0518      4.1521     25.5925    123.4850
