~Version Information
VERS.                      2.0: CWLS Log ASCII Standard - VERSION 2.0
WRAP.                       NO: One line per depth step
~Well Information Block
STRT.FT               520.0000: 
STOP.FT              1373.0000: 
STEP.FT                 0.1000: 
NULL.                -999.2500: 
COMP.          Pioneer Natural Resources: COMPANY
WELL.            Gamma 13-3 Tr: WELL
FLD.           Purgatoire River: FIELD
LOC.           2127' FSL & 738' FWL: LOCATION
STAT.                 Colorado: State
CNTY.               Las Animas: COUNTY
CTRY.                      USA: Country
SECT.                        3: Section
TOWN.                       33S: Township
RANG.                       67W: Range
SRVC.                Patterson: SERVICE COMPANY
DATE.          Mon Sep 19 09:58:04 2005: LOG DATE
API.           05 071 08524 00: API
~Curve Information Block
DEPT.FT            0 000 00 00: Depth
DPOR.pu                       : CDL Density Porosity
GR.GAPI                       : Gamma Ray
NPOR.pu                       : Neutron Porosity
RHOB.g/cc                     : CDL Bulk Density
RHOC.g/cc                     : CDL Density Correction
DCAL.in                       : CDL Caliper
~Parameter Information Block
~A  Depth       DPOR         GR         NPOR        RHOB        RHOC        DCAL    
# ...
  1019.2000     41.2369     39.9354     21.5646      1.9696      0.1402      8.0137
  1019.3000     33.0759     43.7015     22.3005      2.1042      0.1683      8.0270
  1019.4000     23.4904     47.3199     22.6878      2.2624      0.1952      8.0270
  1019.5000     13.1296     48.1979     22.4766      2.4334      0.2830      8.0198
  1019.6000      4.5611     47.9347     22.2792      2.5747      0.2796      8.0198
  1019.7000     -0.4238     49.5506     22.5189      2.6570      0.2943      8.0198
  1019.8000     -1.4358     53.9215     22.4326      2.6737      0.2453      7.9925
  1019.9000      1.6551     59.3266     21.1740      2.6227      0.1737      7.9925
  1020.0000      8.5960     65.3849     19.1273      2.5082      0.0460      7.9523
  1020.1000     17.8476     69.4786     17.2691      2.3555     -0.0402      7.9523
  1020.2000     27.0439     66.8711     15.9538      2.2038     -0.1411      7.9523
  1020.3000     34.6578     61.7713     15.1393      2.0781     -0.1453      7.9220
  1020.4000     40.7703     60.3923     14.7481      1.9773     -0.1639      7.9220
  1020.5000     45.6750     60.2243     14.5235      1.8964     -0.1155      7.9113
  1020.6000     48.3775     59.8927     14.3058      1.8518     -0.0187      7.9113
  1020.7000     47.0729     61.5667     14.1961      1.8733     -0.0165      7.9113
  1020.8000     41.4094     63.0654     14.3115      1.9667      0.1404      7.9018
  1020.9000     34.2382     62.9431     14.6108      2.0851      0.2522      7.9018
  1021.0000     29.2516     63.9366     15.0532      2.1673      0.2579      7.8812
  1021.1000     28.0354     64.4373     15.5537      2.1874      0.2537      7.8812
  1021.2000     29.9873     60.4316     15.9548      2.1552      0.1846      7.8812
  1021.3000     33.4075     56.0798     16.2283      2.0988      0.1765      7.8720
  1021.4000     37.4717     59.8813     16.4381      2.0317      0.1396      7.8720
  1021.5000     42.2837     71.5215     16.5853      1.9523      0.0231      7.8970
  1021.6000     47.1113     80.0119     16.7552      1.8727     -0.0348      7.8970
  1021.7000     50.6852     79.1656     17.1860      1.8137     -0.1458      7.8970
  1021.8000     52.3209     75.7370     17.9099      1.7867     -0.1533      7.9461
  1021.9000     51.7720     77.3554     18.7175      1.7958     -0.1028      7.9461
  1022.0000     48.1352     84.2413     19.6425      1.8558     -0.0912      7.9806
  1022.1000     41.3034     92.4952     20.8491      1.9685      0.1101      7.9806
  1022.2000     33.7095     99.3241     22.2045      2.0938      0.2271      7.9806
  1022.3000     27.6339    106.3611     23.3229      2.1940      0.2519      7.9925
  1022.4000     22.6539    114.0649     24.1224      2.2762      0.2078      7.9925
  1022.5000     17.1084    120.3403     24.9088      2.3677      0.1914      7.9896
  1022.6000     11.0228    124.3242     25.8199      2.4681      0.2263      7.9896
  1022.7000      6.0122    125.0775     26.8122      2.5508      0.2343      7.9896
  1022.8000      2.6434    125.9897     27.6176      2.6064      0.2599      7.9720
  1022.9000      0.2856    131.7954     27.8231      2.6453      0.2675      7.9720
  1023.0000     -0.9836    140.5096     27.6304      2.6662      0.3200      7.9532
  1023.1000     -0.1218    148.6379     27.6648      2.6520      0.2776      7.9532
  1023.2000      2.6380    153.1590     27.9507      2.6065      0.1483      7.9532
  1023.3000      5.3100    154.1573     28.1532      2.5624      0.0652      7.9517
  1023.4000      6.9154    155.4950     28.3301      2.5359      0.0693      7.9517
  1023.5000      8.1126    155.2102     28.6787      2.5161      0.0580      7.9743
  1023.6000      9.1179    149.5697     29.1527      2.4996     -0.0023      7.9743
  1023.7000      9.1537    140.0226     29.4844      2.4990     -0.0176      7.9743
  1023.8000      7.9552    133.4985     29.4624      2.5187     -0.0027      8.0114
  1023.9000      6.5036    135.5393     29.2944      2.5427      0.0803      8.0114
  1024.0000      5.9935    145.8164     29.0433      2.5511      0.1020      8.0478
  1024.1000      6.2757    158.0924     28.5990      2.5465      0.0380      8.0478
  1024.2000      6.6592    161.5002     28.2979      2.5401      0.0534      8.0478
  1024.3000      8.2339    151.7850     28.4696      2.5141      0.0827      8.0629
  1024.4000     11.9598    138.1015     29.1111      2.4527      0.0016      8.0629
  1024.5000     15.6510    130.4838     29.9492      2.3918     -0.0220      8.0532
  1024.6000     16.4091    129.0366     30.6640      2.3793      0.0032      8.0532
  1024.7000     13.6040    133.6103     30.9530      2.4255     -0.0007      8.0532
  1024.8000      7.8478    143.2310     30.8480      2.5205      0.0170      8.0272
  1024.9000     -0.3424    148.8510     30.7214      2.6556      0.0969      8.0272
  1025.0000     -9.6855    144.3352     30.7258      2.8098      0.2029      7.9868
  1025.1000    -17.3221    133.0723     30.7738      2.9358      0.3222      7.9868
  1025.2000    -19.8502    121.4816     30.6570      2.9775      0.3987      7.9868
  1025.3000    -16.7535    113.9647     30.4196      2.9264      0.2855      7.9513
  1025.4000    -12.1583    112.2186     30.2502      2.8506      0.1686      7.9513
  1025.5000     -9.5294    112.0449     29.9804      2.8072      0.1541      7.9317
  1025.6000     -7.0773    109.8000     29.6903      2.7668      0.1076      7.9317
  1025.7000     -2.4274    110.5219     29.6151      2.6901     -0.0494      7.9317
  1025.8000      4.1492    118.2236     29.4361      2.5815     -0.0333      7.9351
  1025.9000     12.4781    129.5857     28.7987      2.4441     -0.0584      7.9351
  1026.0000     21.4146    140.4127     28.0288      2.2967     -0.1300      7.9733
  1026.1000     29.8516    149.7403     27.7881      2.1574     -0.0486      7.9733
  1026.2000     36.4314    157.3537     28.3332      2.0489     -0.1344      7.9733
  1026.3000     34.4117    162.6509     29.0503      2.0822     -0.2464      8.0332
  1026.4000     20.5699    164.6754     29.1476      2.3106      0.0200      8.0332
  1026.5000      3.0656    160.6003     28.7529      2.5994      0.1577      8.0666
  1026.6000     -9.3066    152.0525     28.5562      2.8036      0.5880      8.0666
  1026.7000    -16.6372    144.5714     28.8386      2.9245      0.2372      8.0666
  1026.8000    -21.4428    143.1188     29.3293      3.0038      0.6903      8.0622
  1026.9000    -17.6420    151.1635     29.8573      2.9411      0.9483      8.0622
  1027.0000     -3.9693    162.3641     30.4161      2.7155      0.2186      8.0470
  1027.1000      4.2133    166.0954     30.6964      2.5805     -0.1096      8.0470
  1027.2000      1.2660    161.0710     30.6897      2.6291      0.2227      8.0470
  1027.3000      0.9151    153.6017     30.9792      2.6349      0.1491      8.0230
  1027.4000      6.5642    150.8856     31.6190      2.5417      0.0904      8.0230
  1027.5000      9.4477    154.0715     31.9067      2.4941      0.1555      7.9792
  1027.6000      7.2199    156.4251     31.5374      2.5309     -0.0819      7.9792
  1027.7000      4.9634    151.5145     31.0622      2.5681      0.4945      7.9792
  1027.8000      2.0545    141.2669     30.9356      2.6161     -0.9094      7.9299
  1027.9000     -6.7867    129.3980     30.8121      2.7620     -0.0032      7.9299
  1028.0000    -13.0515    116.6117     29.9606      2.8654      0.2966      7.9005
  1028.1000     -5.1124    106.3441     28.1828      2.7344      0.1877      7.9005
  1028.2000     14.9623    104.6192     26.2837      2.4031     -0.0421      7.9005
  1028.3000     32.5204    110.2384     24.9702      2.1134     -0.6393      7.9188
  1028.4000     32.1682    114.1624     23.6423      2.1192     -0.6053      7.9188
  1028.5000     16.4954    113.4117     21.7204      2.3778     -0.6328      7.9885
  1028.6000      0.9485    113.9174     19.8265      2.6343     -0.2447      7.9885
  1028.7000     -9.2274    115.3421     18.4760      2.8023     -0.0296      7.9885
