~Version Information
VERS.                      2.0: CWLS Log ASCII Standard - VERSION 2.0
WRAP.                       NO: One line per depth step
~Well Information Block
STRT.FT                 0.0000: 
STOP.FT               683.5000: 
STEP.FT                 0.2500: 
NULL.                -999.2500: 
COMP.          Pioneer Natural Resources: COMPANY
WELL.           Belvedere 14-7: WELL
FLD.           Purgatorie River: FIELD
LOC.           786' FSL & 1283' FWL: LOCATION
PROV.                 Colorado: PROVINCE
CNTY.               Las Animas: COUNTRY
SRVC.                Patterson: SERVICE COMPANY
DATE.          Fri Dec 02 12:52:31 2005: LOG DATE
UWI.           05-071-08557               : UNIQUE WELL ID
~Curve Information Block
DEPT.FT            0 000 00 00: Depth
CCL.                          : Casing Collar Locator
TT3.usec                      : CBL 3' Travel Time
AMP3.mV                       : CBL 3' Amplitude
GR.GAPI                       : Gamma Ray
~Parameter Information Block
~A  Depth       CCL         TT3         AMP3         GR     
# ...
    33.5000      0.0000    730.1124     12.4825     63.4443
    33.7500      0.0000    729.6915     12.1633     62.4857
    34.0000      0.0000    728.4011     11.9379     62.6171
    34.2500      0.0000    725.1010     11.7818     64.5124
    34.5000      0.0000    719.9644     11.6594     68.0325
    34.7500      0.0000    714.1163     11.5513     72.1225
    35.0000      0.0000    703.2581     11.4705     75.5830
    35.2500      0.0000    677.6426     11.4553     77.9168
    35.5000      0.0000    642.5453     11.4958     79.3999
    35.7500      0.0000    627.9223     11.4959     80.5598
    36.0000      0.0000    651.4827     11.3598     81.9183
    36.2500      0.0000    691.0018     11.1253     84.0439
    36.5000      0.0000    717.8889     10.9388     87.1997
    36.7500      0.0000    728.1427     10.8689     90.6920
    37.0000      0.0000    730.2807     10.8631     93.0066
    37.2500      0.0000    728.1223     10.8763     92.9726
    37.5000      0.0000    715.6664     10.9244     90.8071
    37.7500      0.0000    677.4886     11.0377     87.9287
    38.0000      0.0000    603.7443     11.2055     85.7746
    38.2500      0.0000    516.7435     11.2885     84.7001
    38.5000      0.0000    466.8521     11.0310     83.8098
    38.7500      0.0000    488.1484     10.3601     81.7884
    39.0000      0.0000    569.2281      9.5837     77.9831
    39.2500      0.0000    671.0845      9.0647     72.8221
    39.5000      0.0000    757.7145      8.8817     67.2853
    39.7500      0.0000    801.8523      8.9087     62.0686
    40.0000      0.0000    792.6899      8.9900     57.3536
    40.2500     -2.0000    751.1248      9.0721     53.2161
    40.5000     -2.0000    712.9963      9.2056     50.0186
    40.7500      0.0000    699.6290      9.3929     48.3623
    41.0000      0.0000    704.3499      9.5725     48.7210
    41.2500      0.0000    703.6656      9.7908     51.1661
    41.5000      0.0000    682.7355     10.3262     55.4181
    41.7500      0.0000    636.9196     11.4442     60.9110
    42.0000      0.0000    572.1697     12.8917     66.6572
    42.2500      0.0000    525.4952     13.9981     71.3534
    42.5000      0.0000    539.7872     14.3906     74.2604
    42.7500      0.0000    603.9175     14.2455     76.2564
    43.0000      0.0000    659.0878     13.9499     79.5363
    43.2500      0.0000    658.8824     13.7529     85.6059
    43.5000      0.0000    599.5986     13.6819     93.5380
    43.7500      0.0000    517.5486     13.6703    100.5016
    44.0000      0.0000    462.7682     13.6938    103.9721
    44.2500      0.0000    451.0854     13.7811    103.4062
    44.5000      0.0000    451.9015     13.9460    100.2791
    44.7500      0.0000    435.8553     14.1508     96.8914
    45.0000      0.0000    411.3073     14.3127     94.9554
    45.2500      0.0000    404.4582     14.3580     94.7905
    45.5000      0.0000    432.7073     14.2981     95.4069
    45.7500      0.0000    492.8291     14.2259     95.1866
    46.0000      0.0000    547.1166     14.2248     92.8171
    46.2500      0.0000    547.0797     14.3030     88.1138
    46.5000      0.0000    493.0145     14.4174     82.2179
    46.7500      0.0000    433.9839     14.5167     76.8890
    47.0000      0.0000    408.8056     14.5675     73.3595
    47.2500      0.0000    422.7397     14.5729     71.5836
    47.5000      0.0000    458.8476     14.5775     70.4547
    47.7500      0.0000    489.2357     14.6384     68.8194
    48.0000      0.0000    507.6518     14.7554     66.3836
    48.2500      0.0000    539.8597     14.8739     63.7265
    48.5000      0.0000    586.0927     14.9727     61.6745
    48.7500      0.0000    600.5578     15.0704     60.7526
    49.0000      0.0000    559.1577     15.1660     61.0046
    49.2500      0.0000    500.2542     15.2480     62.0488
    49.5000      0.0000    475.2957     15.3380     63.2489
    49.7500      0.0000    491.9400     15.4678     63.9910
    50.0000      0.0000    528.8511     15.6243     64.0746
    50.2500      0.0000    566.7969     15.7719     63.9545
    50.5000      0.0000    592.3054     15.8913     64.4377
    50.7500      0.0000    611.9020     15.9636     65.8632
    51.0000      0.0000    641.6497     15.9861     67.5787
    51.2500      0.0000    674.5634     15.9964     68.4509
    51.5000      0.0000    696.4449     16.0093     67.9153
    51.7500      0.0000    707.8735     15.9724     66.3082
    52.0000      0.0000    711.6547     15.8409     64.3684
    52.2500      0.0000    706.9158     15.6713     62.9291
    52.5000      0.0000    692.3023     15.5922     63.0448
    52.7500      0.0000    657.4861     15.6813     65.6923
    53.0000      0.0000    588.6692     15.9114     70.8136
    53.2500      0.0000    500.5363     16.1757     76.8253
    53.5000      0.0000    439.2888     16.3395     81.5602
    53.7500      0.0000    440.0521     16.3525     83.8185
    54.0000      0.0000    495.9435     16.2926     83.7171
    54.2500      0.0000    562.9437     16.2510     81.7793
    54.5000      0.0000    601.4963     16.2265     78.4438
    54.7500      0.0000    621.0851     16.1487     74.4599
    55.0000      0.0000    651.3522     15.9962     70.9773
    55.2500      0.0000    687.7876     15.8562     68.8615
    55.5000      0.0000    708.4384     15.8225     68.0228
    55.7500      0.0000    711.1428     15.9033     67.5624
    56.0000      0.0000    709.6981     16.0411     66.7177
    56.2500      0.0000    713.5176     16.1429     65.6390
    56.5000      0.0000    720.1998     16.1458     65.1158
    56.7500      0.0000    722.6271     16.0945     65.6739
    57.0000      0.0000    713.6092     16.0729     67.0493
    57.2500      0.0000    685.8874     16.0587     68.3407
    57.5000      0.0000    646.0143     15.9115     68.5649
    57.7500      0.0000    624.4858     15.5312     67.3443
    58.0000      0.0000    641.4149     15.0019     65.2753
    58.2500      0.0000    676.3128     14.5251     63.5456
    58.5000      0.0000    701.8387     14.2405     63.0581
    58.7500      0.0000    714.4996     14.1738     63.9878
    59.0000      0.0000    719.5331     14.2833     66.1238
    59.2500      0.0000    717.6715     14.5086     69.2612
    59.5000      0.0000    709.9619     14.8150     73.0508
    59.7500      0.0000    701.3214     15.1779     76.7750
    60.0000      0.0000    695.8224     15.5482     79.7099
    60.2500      0.0000    691.7058     15.8928     81.7468
    60.5000      0.0000    680.2184     16.2375     83.3756
    60.7500      0.0000    644.9478     16.6208     84.9393
    61.0000      0.0000    571.9120     17.0850     86.0420
    61.2500      0.0000    472.6461     17.6818     85.8344
    61.5000      0.0000    383.9976     18.3553     83.9347
    61.7500      0.0000    331.7242     18.9364     81.0331
    62.0000      0.0000    311.1960     19.3511     78.4531
    62.2500      0.0000    305.7457     19.6593     77.0658
    62.5000      0.0000    304.7196     19.8813     76.7479
    62.7500      0.0000    304.5568     19.9955     76.9125
    63.0000      0.0000    304.5237     20.0773     77.1946
    63.2500      0.0000    304.4715     20.2669     77.3750
    63.5000      0.0000    304.3750     20.6124     77.0366
    63.7500      0.0000    304.2892     21.0309     75.7834
    64.0000      0.0000    304.2411     21.4154     73.7049
    64.2500      0.0000    304.2044     21.7168     71.3542
    64.5000      0.0000    304.1779     21.9253     69.2900
    64.7500      0.0000    304.1620     22.0520     67.7412
    65.0000      0.0000    304.1186     22.1477     66.6300
    65.2500      0.0000    304.0234     22.2741     65.7911
    65.5000      0.0000    303.9063     22.4636     65.2384
    65.7500      0.0000    303.8023     22.7343     65.3329
    66.0000      0.0000    303.6940     23.0946     66.4926
    66.2500      0.0000    303.5487     23.5005     68.5492
    66.5000      0.0000    303.3864     23.8493     70.5613
    66.7500      0.0000    303.2578     24.0608     71.5487
