~Version Information
VERS.                      2.0: CWLS Log ASCII Standard - VERSION 2.0
WRAP.                       NO: One line per depth step
~Well Information Block
STRT.FT               615.0000: 
STOP.FT              1607.0000: 
STEP.FT                 0.1000: 
NULL.                -999.2500: 
COMP.          Pioneer Natural Resources: COMPANY
WELL.          Galloway 32-13 Tr: WELL
FLD.           Purgatoire River: FIELD
LOC.           1910' FNL & 2002' FEL: LOCATION
PROV.                 Colorado: PROVINCE
CNTY.               Las Animas: COUNTRY
SRVC.                Patterson: SERVICE COMPANY
DATE.          Mon Nov 14 07:13:22 2005: LOG DATE
UWI.           05 071 08608 00: UNIQUE WELL ID
~Curve Information Block
DEPT.FT            0 000 00 00: Depth
DCAL.in                       : CDL Caliper
RHOB.g/cc                     : CDL Bulk Density
RHOC.g/cc                     : CDL Density Correction
DPOR.pu                       : CDL Density Porosity
GR.GAPI                       : Gamma Ray
NPOR.pu                       : Neutron Porosity
~Parameter Information Block
~A  Depth       DCAL        RHOB        RHOC        DPOR         GR         NPOR    
# ...
  1200.6000      7.9059      2.5998      0.0759      3.0432    145.4237     23.6703
  1200.7000      7.9059      2.5967      0.1042      3.2283    152.1395     24.4503
  1200.8000      7.9357      2.5745      0.0069      4.5767    153.8514     25.2489
  1200.9000      7.9357      2.5704      0.0604      4.8239    152.0829     25.6315
  1201.0000      7.9402      2.5883      0.0731      3.7399    150.1668     25.5387
  1201.1000      7.9402      2.5955      0.0843      3.3060    148.5046     25.0698
  1201.2000      7.9402      2.5794      0.0523      4.2797    144.3360     24.5597
  1201.3000      7.9181      2.5600      0.0536      5.4567    141.1837     24.6402
  1201.4000      7.9181      2.5620      0.0226      5.3341    143.1300     25.5954
  1201.5000      7.9258      2.5904      0.0412      3.6149    144.5322     26.6206
  1201.6000      7.9258      2.6170      0.0855      1.9988    141.6713     26.9475
  1201.7000      7.9258      2.6130      0.0951      2.2452    139.3238     26.9781
  1201.8000      7.9378      2.5928      0.0139      3.4667    142.2465     26.6347
  1201.9000      7.9378      2.5908      0.0523      3.5868    147.6010     25.5081
  1202.0000      7.9211      2.6051      0.0864      2.7202    147.0938     24.3257
  1202.1000      7.9211      2.6065      0.0917      2.6336    140.5379     24.0254
  1202.2000      7.9211      2.5833      0.0465      4.0430    133.8913     24.1914
  1202.3000      7.9450      2.5500      0.0443      6.0602    127.6173     23.7867
  1202.4000      7.9450      2.5335      0.0076      7.0627    123.1921     22.7782
  1202.5000      7.9409      2.5436     -0.0008      6.4489    123.5433     22.1302
  1202.6000      7.9409      2.5574      0.0762      5.6151    128.4066     22.6618
  1202.7000      7.9409      2.5573     -0.0073      5.6161    133.8864     23.8253
  1202.8000      7.9449      2.5582     -0.0202      5.5658    132.8097     23.9336
  1202.9000      7.9449      2.5652      0.0256      5.1382    126.2201     23.0759
  1203.0000      7.9216      2.5628      0.0162      5.2828    122.4563     22.6061
  1203.1000      7.9216      2.5515      0.0256      5.9702    122.5717     22.3757
  1203.2000      7.9216      2.5538     -0.0066      5.8300    123.7890     21.9977
  1203.3000      7.9198      2.5838      0.0477      4.0143    124.3571     21.8000
  1203.4000      7.9198      2.6266      0.1013      1.4161    122.1207     21.9633
  1203.5000      7.9150      2.6550      0.0976     -0.3017    118.3009     22.1867
  1203.6000      7.9150      2.6587      0.0826     -0.5302    114.9559     22.1545
  1203.7000      7.9150      2.6491      0.0624      0.0575    112.8205     21.9651
  1203.8000      7.9183      2.6379      0.0158      0.7326    111.2140     21.7198
  1203.9000      7.9183      2.6277      0.0124      1.3487    109.8550     21.2135
  1204.0000      7.8917      2.6176      0.0317      1.9619    108.2407     20.7996
  1204.1000      7.8917      2.6073      0.0527      2.5867    105.9440     20.8630
  1204.2000      7.8917      2.5926      0.0465      3.4769    103.7677     20.9629
  1204.3000      7.8967      2.5764      0.0115      4.4585    101.5455     20.9917
  1204.4000      7.8967      2.5713      0.0267      4.7716     97.1494     20.8926
  1204.5000      7.8902      2.5850      0.0217      3.9404     89.7508     20.1212
  1204.6000      7.8902      2.6191      0.0115      1.8698     83.1875     18.5664
  1204.7000      7.8902      2.6570      0.0821     -0.4235     78.3615     17.1331
  1204.8000      7.8914      2.6688      0.0787     -1.1387     72.3683     16.7944
  1204.9000      7.8914      2.6503      0.0492     -0.0181     67.3402     17.3618
  1205.0000      7.8924      2.6218      0.0317      1.7101     64.9581     17.9787
  1205.1000      7.8924      2.6022     -0.0006      2.8960     62.5907     18.1240
  1205.2000      7.8924      2.6011      0.0346      2.9651     59.3152     17.8369
  1205.3000      7.8799      2.6101      0.0018      2.4168     56.5117     17.6096
  1205.4000      7.8799      2.6106      0.0424      2.3867     54.7835     17.6929
  1205.5000      7.8965      2.5980      0.0179      3.1530     53.9772     17.7386
  1205.6000      7.8965      2.5923     -0.0427      3.4954     56.9264     17.4134
  1205.7000      7.8965      2.6052      0.0322      2.7137     64.5485     17.0995
  1205.8000      7.9105      2.6173      0.0806      1.9828     71.9660     17.2043
  1205.9000      7.9105      2.6154      0.0690      2.0979     75.9888     17.3540
  1206.0000      7.9123      2.6107      0.0686      2.3811     76.5516     17.4193
  1206.1000      7.9123      2.6118      0.0643      2.3176     77.7825     17.9960
  1206.2000      7.9123      2.6143      0.0910      2.1653     82.0057     19.1718
  1206.3000      7.9008      2.6103      0.0959      2.4039     84.4836     19.9994
  1206.4000      7.9008      2.6034      0.0786      2.8253     83.8680     19.9567
  1206.5000      7.8744      2.5993      0.0790      3.0722     84.3081     19.8866
  1206.6000      7.8744      2.5968      0.0787      3.2229     89.0845     20.4846
  1206.7000      7.8744      2.5988      0.0800      3.1022     96.0501     20.9652
  1206.8000      7.8533      2.6044      0.1249      2.7624     99.0709     20.7360
  1206.9000      7.8533      2.6064      0.0614      2.6422     96.7375     20.3150
  1207.0000      7.8532      2.6081      0.0569      2.5377     93.9277     19.9670
  1207.1000      7.8532      2.6199      0.0818      1.8263     94.2364     19.8936
  1207.2000      7.8532      2.6372      0.1225      0.7737     97.9854     20.1433
  1207.3000      7.8885      2.6389      0.0759      0.6745    102.8388     20.3832
  1207.4000      7.8885      2.6126      0.0894      2.2675    106.5779     20.8264
  1207.5000      7.9047      2.5754      0.0067      4.5217    109.3881     21.9526
  1207.6000      7.9047      2.5606      0.0224      5.4209    109.0132     22.9927
  1207.7000      7.9047      2.5739      0.0700      4.6105    103.9892     22.2964
  1207.8000      7.9151      2.5842      0.0739      3.9886     98.9427     20.6483
  1207.9000      7.9151      2.5619      0.0604      5.3381     96.7321     20.1353
  1208.0000      7.9043      2.5181     -0.0087      7.9931     94.5289     20.2126
  1208.1000      7.9043      2.4968     -0.0562      9.2858     91.6842     19.6661
  1208.2000      7.9043      2.5176      0.0241      8.0232     91.8956     19.4000
  1208.3000      7.9179      2.5576      0.0340      5.5971     97.7469     20.2805
  1208.4000      7.9179      2.5859      0.0683      3.8837    105.0906     21.7254
  1208.5000      7.9251      2.5846      0.0692      3.9638    108.2033     22.9727
  1208.6000      7.9251      2.5671     -0.0253      5.0251    109.1716     23.5155
  1208.7000      7.9251      2.5660      0.0577      5.0916    111.1992     23.2378
  1208.8000      7.9169      2.5873      0.0497      3.7992    113.0994     23.0510
  1208.9000      7.9169      2.6132      0.0689      2.2316    114.3110     23.6684
  1209.0000      7.9073      2.6285      0.0747      1.3044    114.9406     24.3639
  1209.1000      7.9073      2.6308      0.0253      1.1651    115.2549     24.0344
  1209.2000      7.9073      2.6312      0.0493      1.1373    115.7739     23.0528
  1209.3000      7.9203      2.6306      0.0838      1.1732    116.9702     22.7546
  1209.4000      7.9203      2.6197      0.0357      1.8386    118.1259     23.4254
  1209.5000      7.9222      2.6056      0.0730      2.6883    117.6314     24.0530
  1209.6000      7.9222      2.6015      0.0615      2.9372    116.7205     24.0847
  1209.7000      7.9222      2.6105      0.0594      2.3956    118.8598     24.0206
  1209.8000      7.9158      2.6182      0.0435      1.9279    126.5126     24.2546
  1209.9000      7.9158      2.6109      0.0477      2.3671    135.8629     24.6508
  1210.0000      7.9246      2.5995      0.0199      3.0596    137.3676     24.8102
  1210.1000      7.9246      2.5968      0.0396      3.2243    127.6924     24.5800
