~Version Information
VERS.                      2.0: CWLS Log ASCII Standard - VERSION 2.0
WRAP.                       NO: One line per depth step
~Well Information Block
STRT.FT               294.3000: 
STOP.FT              1461.0000: 
STEP.FT                 0.1000: 
NULL.                -999.2500: 
COMP.          Pioneer Natural Resources: COMPANY
WELL.              Lucky 21-36: WELL
FLD.           Purgatoire River: FIELD
CDN. :
PROV. :
UWI. :
STAT. :
CNTY. :
CTRY. :
API. :
COMP. :
WELL. :
FLD. :
LOC. :
DATE. :
SRVC. :
LOC.           799' FNL & 1578' FWL--: LOCATION
CNTY.               Las Animas: COUNTY
SRVC.          Superior Well Services: SERVICE COMPANY
DATE.          Tue Jul 08 08-29-33 2008: LOG DATE
UWI.           05 071 08456 00: UNIQUE WELL ID
STAT.                 Colorado: STATE
~Curve Information Block
DEPT.FT            0 000 00 00: Depth
DCAL.in                       : CDL Caliper
RHOB.g/cc                     : CDL Bulk Density
RHOC.g/cc                     : CDL Density Correction
DPOR.pu                       : CDL Density Porosity
NPOR.pu                       : Neutron Porosity
GR.GAPI                       : Gamma Ray
~Parameter Information Block
~A  Depth       DCAL        RHOB        RHOC        DPOR        NPOR         GR     
# ...
   380.7000      7.9601      2.5361      0.0472      6.9005     24.7835    107.8304
   380.8000      7.9606      2.5551      0.0436      5.7489     24.4079    106.2267
   380.9000      7.9611      2.5713      0.0793      4.7673     24.1334    109.0366
   381.0000      7.9619      2.5735      0.0508      4.6384     24.3802    110.9536
   381.1000      7.9633      2.5709      0.0751      4.7948     25.1510    105.7537
   381.2000      7.9652      2.5743      0.0687      4.5862     25.9681     98.7704
   381.3000      7.9676      2.5841      0.0282      3.9924     26.5251     95.5284
   381.4000      7.9704      2.5940      0.0784      3.3937     27.0770     94.4973
   381.5000      7.9734      2.5899      0.0355      3.6400     27.6424     96.2248
   381.6000      7.9764      2.5674      0.0166      5.0031     27.8914    100.2463
   381.7000      7.9792      2.5416     -0.0351      6.5676     27.7383    103.3917
   381.8000      7.9816      2.5325     -0.0204      7.1195     27.2152    105.1171
   381.9000      7.9834      2.5365      0.0298      6.8810     26.3382    107.0058
   382.0000      7.9845      2.5358      0.0026      6.9182     25.6182    111.2074
   382.1000      7.9847      2.5338     -0.0144      7.0417     25.6135    116.2567
   382.2000      7.9844      2.5364      0.0560      6.8879     26.0436    119.0556
   382.3000      7.9840      2.5340      0.0110      7.0299     26.1660    119.8198
   382.4000      7.9837      2.5248      0.0234      7.5869     25.7818    120.7121
   382.5000      7.9839      2.5155     -0.0026      8.1499     25.4437    122.0114
   382.6000      7.9842      2.5048      0.0168      8.8011     25.6029    122.1924
   382.7000      7.9846      2.4881     -0.0030      9.8120     26.0104    123.0311
   382.8000      7.9850      2.4763     -0.0321     10.5279     26.1314    125.9531
   382.9000      7.9856      2.4798     -0.0278     10.3152     25.9303    127.3778
   383.0000      7.9865      2.4823      0.0372     10.1644     25.5847    124.9685
   383.1000      7.9876      2.4608     -0.0035     11.4667     25.1431    122.7463
   383.2000      7.9886      2.4235      0.0138     13.7255     24.8555    122.6713
   383.3000      7.9893      2.4026     -0.0801     14.9909     24.8726    121.3237
   383.4000      7.9895      2.4113      0.0188     14.4645     24.8871    119.5601
   383.5000      7.9894      2.4285     -0.0216     13.4225     24.6922    121.2582
   383.6000      7.9892      2.4380      0.0139     12.8498     24.4191    125.3410
   383.7000      7.9890      2.4444      0.0443     12.4631     24.1524    128.1797
   383.8000      7.9889      2.4547      0.0491     11.8364     23.9299    128.6047
   383.9000      7.9889      2.4627      0.0933     11.3501     23.9014    127.4943
   384.0000      7.9888      2.4676      0.0352     11.0538     24.1627    126.9126
   384.1000      7.9889      2.4890      0.0869      9.7555     24.4667    128.5605
   384.2000      7.9894      2.5152      0.2064      8.1676     24.7000    130.9829
   384.3000      7.9903      2.5067      0.1515      8.6836     24.9541    131.7610
   384.4000      7.9915      2.4698      0.0501     10.9221     24.9832    129.5161
   384.5000      7.9928      2.4395      0.0744     12.7602     24.5236    127.5607
   384.6000      7.9937      2.4285      0.0216     13.4258     23.8587    131.1496
   384.7000      7.9940      2.4356      0.0474     12.9935     23.5334    135.9446
   384.8000      7.9937      2.4477      0.0857     12.2604     23.5920    135.1362
   384.9000      7.9929      2.4474      0.0468     12.2770     23.6976    131.2046
   385.0000      7.9917      2.4397      0.0507     12.7458     23.6935    127.9494
   385.1000      7.9900      2.4410      0.0632     12.6674     23.7473    125.5309
   385.2000      7.9881      2.4567      0.0955     11.7131     24.0478    125.3634
   385.3000      7.9861      2.4811      0.1271     10.2374     24.2570    127.9751
   385.4000      7.9843      2.5009      0.1483      9.0362     24.0865    131.1886
   385.5000      7.9832      2.5070      0.1466      8.6637     23.6684    133.2157
   385.6000      7.9829      2.5007      0.1574      9.0511     23.2110    133.1258
   385.7000      7.9834      2.4867      0.1245      9.8985     22.9686    132.2007
   385.8000      7.9845      2.4705      0.1284     10.8786     23.1548    132.3772
   385.9000      7.9859      2.4515      0.1130     12.0293     23.6477    132.7659
   386.0000      7.9875      2.4290      0.0256     13.3915     24.0144    131.6477
   386.1000      7.9894      2.4108      0.0648     14.4972     24.0621    131.6501
   386.2000      7.9917      2.3997      0.0603     15.1712     24.0584    132.6229
   386.3000      7.9946      2.3866      0.0977     15.9610     23.9880    132.8591
   386.4000      7.9977      2.3661      0.0093     17.2060     23.6587    135.4712
   386.5000      8.0006      2.3514     -0.0154     18.0958     23.2792    137.4448
   386.6000      8.0025      2.3521      0.0117     18.0537     23.0442    131.6866
   386.7000      8.0031      2.3583      0.0616     17.6760     23.0611    120.9361
   386.8000      8.0022      2.3559      0.1086     17.8230     23.4101    114.0019
   386.9000      7.9996      2.3365      0.1235     18.9999     23.8324    115.9950
   387.0000      7.9953      2.3130      0.0442     20.4258     24.1563    123.0458
   387.1000      7.9897      2.3150      0.0541     20.3016     24.4521    127.2403
   387.2000      7.9832      2.3466      0.0929     18.3895     24.6454    126.7596
   387.3000      7.9767      2.3792      0.1628     16.4120     24.7119    125.6158
   387.4000      7.9709      2.3965      0.0809     15.3664     24.7065    125.5054
   387.5000      7.9664      2.4119      0.0983     14.4304     24.5201    125.8146
   387.6000      7.9635      2.4374      0.1093     12.8824     24.1801    125.7882
   387.7000      7.9623      2.4633      0.1372     11.3155     24.0997    122.8356
   387.8000      7.9629      2.4713      0.1166     10.8315     24.2868    117.4260
   387.9000      7.9646      2.4592      0.0982     11.5666     24.1721    114.6398
   388.0000      7.9671      2.4433      0.0634     12.5278     23.5041    117.4033
   388.1000      7.9695      2.4393      0.0223     12.7681     22.6747    122.2445
   388.2000      7.9715      2.4476      0.0695     12.2648     22.0288    124.3405
   388.3000      7.9728      2.4547      0.0926     11.8381     21.4849    122.7345
   388.4000      7.9733      2.4520      0.1079     12.0028     21.1511    118.2564
   388.5000      7.9732      2.4483      0.0462     12.2271     21.0947    114.9614
   388.6000      7.9725      2.4548      0.0847     11.8301     21.1364    114.8620
   388.7000      7.9711      2.4692      0.0959     10.9546     21.3296    114.1314
   388.8000      7.9691      2.4847      0.1031     10.0197     21.6957    111.9219
   388.9000      7.9667      2.4925      0.0705      9.5428     21.9815    110.8793
   389.0000      7.9641      2.4827      0.0963     10.1418     22.0441    111.4605
   389.1000      7.9616      2.4572      0.0652     11.6850     21.9046    114.3440
   389.2000      7.9594      2.4352      0.0457     13.0199     21.4572    121.5248
   389.3000      7.9577      2.4338      0.0075     13.1025     20.8327    129.4569
   389.4000      7.9562      2.4526      0.0636     11.9624     20.5402    130.0088
   389.5000      7.9550      2.4771      0.0833     10.4777     20.7290    122.8638
   389.6000      7.9540      2.4926      0.0659      9.5367     20.9682    118.5163
   389.7000      7.9531      2.4883      0.0822      9.8012     21.1134    120.1315
   389.8000      7.9522      2.4655      0.0217     11.1797     21.3649    121.7861
   389.9000      7.9513      2.4478      0.0076     12.2518     21.5182    124.2204
   390.0000      7.9502      2.4527      0.0083     11.9571     21.2407    129.3532
   390.1000      7.9491      2.4708      0.0681     10.8596     20.4903    131.5833
   390.2000      7.9484      2.4856      0.0677      9.9648     19.5864    128.1907
