~Version Information
VERS.                      2.0: CWLS Log ASCII Standard - VERSION 2.0
WRAP.                       NO: One line per depth step
~Well Information Block
STRT.FT               400.0000: 
STOP.FT              2232.0000: 
STEP.FT                 0.2500: 
NULL.                -999.2500: 
COMP.          Evergreen Operating Corporation: COMPANY
WELL.                Croc 42-9: WELL
FLD.           Purgatorie River: FIELD
LOC.           2262' FNL & 238' FEL: LOCATION
STAT.                 Colorado: State
CNTY.               Las Animas: COUNTY
CTRY. USA : Country
SECT. 9 : Section
TOWN. 32S : Township
RANG. 66W : Range
SRVC.                Patterson: SERVICE COMPANY
DATE.          Wed Jul 21 23:25:54 2004: LOG DATE
API.           05 071 08106 00: UNIQUE WELL ID
~Curve Information Block
DEPT.FT            0 000 00 00: Depth
SN.Ohm-m                      : IEL Short Normal
SP.mV                         : IEL Spontaneous Potential
DIR.Ohm-m                     : IEL Induction Resistivity
GR.GAPI                       : Gamma Ray
~Parameter Information Block
~A  Depth        SN          SP         DIR          GR     
# ...
  1237.5000     12.4819     85.8780 100000.0000    148.2692
  1237.7500     12.7901     86.5016 100000.0000    145.6659
  1238.0000     13.1726     86.9576 100000.0000    140.3645
  1238.2500     13.5862     87.3293 100000.0000    136.7196
  1238.5000     13.9750     87.7052 100000.0000    132.4698
  1238.7500     14.3111     88.1273 100000.0000    130.8638
  1239.0000     14.5793     88.5793 100000.0000    130.2049
  1239.2500     14.7597     89.0043 100000.0000    130.5632
  1239.5000     14.8540     89.3381 100000.0000    131.6655
  1239.7500     14.9156     89.5492    294.4774    132.6396
  1240.0000     15.0207     89.6585    122.2030    134.3870
  1240.2500     15.1785     89.7213    481.0417    135.5253
  1240.5000     15.3142     89.7878 100000.0000    136.7454
  1240.7500     15.4045     89.8773 100000.0000    137.3667
  1241.0000     15.5486     89.9771 100000.0000    138.8873
  1241.2500     15.8197     90.0599 100000.0000    140.4386
  1241.5000     16.1441     90.1039 100000.0000    141.9020
  1241.7500     16.3793     90.1127 100000.0000    140.5844
  1242.0000     16.4293     90.1239 100000.0000    133.7193
  1242.2500     16.2718     90.1906 100000.0000    127.1468
  1242.5000     15.9218     90.3425 100000.0000    119.2086
  1242.7500     15.3721     90.5652     36.3786    117.7581
  1243.0000     14.5895     90.8168     15.3619    122.1854
  1243.2500     13.5896     91.0548     10.4187    127.8461
  1243.5000     12.4942     91.2453      8.4533    136.0596
  1243.7500     11.5061     91.3625      7.5356    139.5226
  1244.0000     10.7970     91.3976      7.0852    141.2690
  1244.2500     10.3847     91.3711      6.8689    141.1428
  1244.5000     10.1255     91.3253      6.7856    141.0667
  1244.7500      9.8246     91.2984      6.7952    141.6035
  1245.0000      9.3716     91.3055      6.8815    142.5816
  1245.2500      8.8128     91.3450      7.0298    142.4209
  1245.5000      8.3165     91.4200      7.2166    139.7917
  1245.7500      8.0684     91.5473      7.4121    136.5167
  1246.0000      8.1563     91.7434      7.5893    130.7569
  1246.2500      8.5030     92.0029      7.7324    127.5955
  1246.5000      8.9355     92.2912      7.8369    125.5960
  1246.7500      9.3279     92.5600      7.9032    126.1826
  1247.0000      9.6353     92.7736      7.9319    128.2552
  1247.2500      9.8537     92.9246      7.9232    129.0972
  1247.5000     10.0115     93.0296      7.8814    128.3356
  1247.7500     10.1338     93.1139      7.8168    126.6450
  1248.0000     10.1916     93.1980      7.7449    123.5561
  1248.2500     10.1251     93.2900      7.6836    121.9652
  1248.5000      9.9219     93.3855      7.6491    121.1544
  1248.7500      9.6559     93.4733      7.6540    121.5686
  1249.0000      9.4093     93.5394      7.7051    122.6967
  1249.2500      9.1956     93.5613      7.8013    123.3776
  1249.5000      9.0155     93.5067      7.9316    124.6797
  1249.7500      8.9041     93.3551      8.0767    126.4118
  1250.0000      8.8804     93.1243      8.2136    130.8148
  1250.2500      8.9220     92.8668      8.3248    134.2735
  1250.5000      9.0041     92.6359      8.4058    137.8238
  1250.7500      9.1205     92.4564      8.4645    137.7403
  1251.0000      9.2767     92.3256      8.5152    132.9877
  1251.2500      9.5088     92.2326      8.5711    127.3184
  1251.5000      9.8928     92.1740      8.6421    117.8875
  1251.7500     10.4767     92.1506      8.7367    113.0932
  1252.0000     11.1825     92.1569      8.8613    110.8568
  1252.2500     11.8159     92.1774      9.0165    113.0886
  1252.5000     12.2038     92.1946      9.1925    120.6985
  1252.7500     12.2891     92.2000      9.3693    126.9928
  1253.0000     12.1241     92.1992      9.5224    134.9545
  1253.2500     11.8268     92.2076      9.6319    137.7272
  1253.5000     11.5104     92.2385      9.6890    137.3425
  1253.7500     11.2368     92.2913      9.6956    134.8461
  1254.0000     11.0334     92.3496      9.6584    130.0274
  1254.2500     10.9130     92.3923      9.5840    127.1752
  1254.5000     10.8665     92.4084      9.4767    124.1696
  1254.7500     10.8731     92.4017      9.3400    122.9254
  1255.0000     10.9401     92.3846      9.1789    121.7976
  1255.2500     11.1061     92.3699      9.0012    121.4373
  1255.5000     11.3632     92.3693      8.8171    121.4126
  1255.7500     11.5991     92.3939      8.6360    121.3993
  1256.0000     11.6727     92.4468      8.4645    120.1200
  1256.2500     11.5446     92.5159      8.3059    117.9315
  1256.5000     11.3021     92.5764      8.1606    113.7482
  1256.7500     11.0649     92.6030      8.0268    112.0903
  1257.0000     10.8802     92.5818      7.9019    113.9081
  1257.2500     10.7085     92.5168      7.7825    118.0619
  1257.5000     10.4726     92.4253      7.6661    126.3034
  1257.7500     10.0986     92.3285      7.5523    131.3072
  1258.0000      9.5474     92.2431      7.4436    136.0167
  1258.2500      8.8387     92.1765      7.3458    136.9891
  1258.5000      8.0640     92.1254      7.2665    135.8579
  1258.7500      7.3849     92.0776      7.2137    134.1774
  1259.0000      6.9811     92.0155      7.1943    131.6928
  1259.2500      6.9771     91.9229      7.2138    130.5162
  1259.5000      7.3986     91.7926      7.2766    129.3723
  1259.7500      8.1438     91.6282      7.3860    128.7243
  1260.0000      9.0169     91.4374      7.5447    127.6489
  1260.2500      9.8524     91.2259      7.7546    126.9379
  1260.5000     10.6033     91.0008      8.0181    126.0337
  1260.7500     11.2924     90.7761      8.3399    125.3841
  1261.0000     11.9415     90.5689      8.7282    123.7209
  1261.2500     12.5830     90.3878      9.1941    122.0272
  1261.5000     13.2607     90.2282      9.7497    119.4980
  1261.7500     13.9991     90.0802     10.4068    118.6617
  1262.0000     14.8102     89.9410     11.1762    119.0482
  1262.2500     15.7010     89.8200     12.0679    119.5708
  1262.5000     16.6769     89.7294     13.0911    118.7434
  1262.7500     17.8021     89.6644     14.2519    116.4772
  1263.0000     19.2440     89.5939     15.5533    110.6123
  1263.2500     21.1882     89.4755     16.9998    105.5281
  1263.5000     23.6895     89.2853     18.6081     97.2417
  1263.7500     26.6901     89.0333     20.4161     91.8384
  1264.0000     30.1745     88.7522     22.4726     84.1988
  1264.2500     34.1046     88.4746     24.8022     79.2052
  1264.5000     38.3076     88.2165     27.3564     71.4367
  1264.7500     42.6235     87.9750     29.9848     66.0357
  1265.0000     46.8929     87.7374     32.4679     58.0161
  1265.2500     50.7658     87.4921     34.6101     53.1516
  1265.5000     53.7802     87.2366     36.3250     47.2807
  1265.7500     55.5690     86.9791     37.6345     44.5749
  1266.0000     55.9541     86.7356     38.6001     42.6827
  1266.2500     55.0124     86.5252     39.2675     43.2181
  1266.5000     53.1399     86.3626     39.6631     47.4464
  1266.7500     50.9305     86.2500     39.8132     52.6428
  1267.0000     48.8517     86.1716     39.7452     63.0270
  1267.2500     47.0695     86.0975     39.4800     70.5785
  1267.5000     45.5849     85.9982     39.0320     80.7218
  1267.7500     44.4285     85.8621     38.4218     85.6455
  1268.0000     43.7202     85.7048     37.6905     89.5504
  1268.2500     43.5945     85.5511     36.9144     90.3569
  1268.5000     44.0772     85.3967     36.2163     90.6648
  1268.7500     45.0614     85.1868     35.7515     90.8299
  1269.0000     46.4079     84.8432     35.6599     90.2127
  1269.2500     48.0375     84.3209     36.0097     88.3581
  1269.5000     49.9449     83.6419     36.7704     82.9779
  1269.7500     52.1947     82.8763     37.8329     78.2212
  1270.0000     54.8818     82.0980     39.0703     70.8485
  1270.2500     57.9927     81.3546     40.4010     66.5761
  1270.5000     61.2991     80.6650     41.8081     61.9557
  1270.7500     64.4594     80.0340     43.2940     60.0188
