~Version Information
VERS.                      2.0: CWLS Log ASCII Standard - VERSION 2.0
WRAP.                       NO: One line per depth step
~Well Information Block
STRT.FT                -7.2500: 
STOP.FT              1221.7500: 
STEP.FT                 0.2500: 
NULL.                -999.2500: 
COMP.          Pioneer Natural Resources: COMPANY
WELL.           Tennis 7-12 Tr: WELL
FLD.           Purgatorie River: FIELD
LOC.           1794' FNL & 1563' FEL--: LOCATION
PROV.                       CO: PROVINCE
CNTY.               Las Animas: COUNTRY
SRVC.          Patterson Wireline: SERVICE COMPANY
DATE.          Tue Dec 27 14:16:59 2005: LOG DATE
UWI.           05 071 008635 00: UNIQUE WELL ID
~Curve Information Block
DEPT.FT            0 000 00 00: Depth
CCL.                          : Casing Collar Locator
TT3.usec                      : CBL 3' Travel Time
AMP3.mV                       : CBL 3' Amplitude
GR.GAPI                       : Gamma Ray
~Parameter Information Block
~A  Depth       CCL         TT3         AMP3         GR     
# ...
   562.2500      0.0000    830.8736      6.3175    140.4383
   562.5000      0.0000    838.1175      6.3294    140.2943
   562.7500      0.0000    841.5872      6.3237    137.0628
   563.0000      0.0000    838.6206      6.2870    131.9573
   563.2500      0.0000    830.2410      6.2297    125.6916
   563.5000      0.0000    819.1846      6.1755    118.7448
   563.7500      0.0000    807.5344      6.1400    112.0213
   564.0000      0.0000    796.5945      6.1226    106.7844
   564.2500      0.0000    788.5211      6.1203    103.6904
   564.5000      0.0000    787.3800      6.1414    102.1499
   564.7500      0.0000    796.7608      6.1983    100.9223
   565.0000      0.0000    814.2902      6.2887     99.2978
   565.2500      0.0000    829.9833      6.3881     97.5834
   565.5000      0.0000    833.9096      6.4620     96.3952
   565.7500      0.0000    825.8340      6.4861     95.7702
   566.0000      0.0000    814.3892      6.4558     95.4494
   566.2500      0.0000    807.2175      6.3842     95.9508
   566.5000      0.0000    805.0817      6.2957     98.7221
   566.7500      0.0000    804.8991      6.2169    105.0028
   567.0000      0.0000    804.5574      6.1644    114.5269
   567.2500      0.0000    803.8846      6.1400    125.0500
   567.5000      0.0000    803.2715      6.1367    133.0647
   567.7500      0.0000    802.7916      6.1482    135.8369
   568.0000      0.0000    802.0742      6.1707    133.6119
   568.2500      0.0000    800.2307      6.2006    129.8410
   568.5000      0.0000    795.8538      6.2308    128.7306
   568.7500      0.0000    787.6536      6.2520    132.0272
   569.0000      0.0000    775.7380      6.2585    137.8250
   569.2500      0.0000    762.3478      6.2568    142.3473
   569.5000      0.0000    750.8846      6.2638    142.6685
   569.7500      0.0000    744.0067      6.2931    137.9503
   570.0000      0.0000    742.6961      6.3413    129.2002
   570.2500      0.0000    746.5634      6.3879    118.7025
   570.5000      0.0000    754.1642      6.4095    109.1719
   570.7500      0.0000    763.1539      6.3958    102.5550
   571.0000      0.0000    771.1002      6.3536     99.2915
   571.2500      0.0000    776.3192      6.2958     98.6676
   571.5000      0.0000    777.5338      6.2309     99.7918
   571.7500      0.0000    773.5713      6.1647    102.1649
   572.0000      0.0000    764.8602      6.1072    105.3506
   572.2500      0.0000    754.8178      6.0706    108.5667
   572.5000      0.0000    748.0602      6.0597    111.0767
   572.7500      0.0000    746.8562      6.0675    112.7939
   573.0000      0.0000    750.1711      6.0819    113.9721
   573.2500      0.0000    755.9906      6.0939    114.3172
   573.5000      0.0000    763.3457      6.1010    112.8416
   573.7500      0.0000    771.7194      6.1046    108.9389
   574.0000      0.0000    779.3970      6.1066    103.5840
   574.2500      0.0000    783.2433      6.1080     99.1362
   574.5000      0.0000    780.3157      6.1101     97.5928
   574.7500      0.0000    769.8578      6.1169     98.8907
   575.0000      0.0000    754.1707      6.1336    101.1323
   575.2500      0.0000    737.4904      6.1586    102.7799
   575.5000      0.0000    723.3535      6.1782    104.6763
   575.7500      0.0000    712.4028      6.1752    109.3969
   576.0000      0.0000    702.7256      6.1457    118.0865
   576.2500      0.0000    692.6148      6.1067    128.1528
   576.5000      0.0000    683.0400      6.0826    134.8721
   576.7500      0.0000    676.5795      6.0854    135.5897
   577.0000      0.0000    673.6564      6.1100    131.7834
   577.2500      0.0000    671.3646      6.1462    126.8510
   577.5000      0.0000    667.4777      6.1890    122.8217
   577.7500      0.0000    664.5502      6.2395    119.6342
   578.0000      0.0000    668.3432      6.2937    116.4449
   578.2500      0.0000    681.9358      6.3327    112.6588
   578.5000      0.0000    701.4439      6.3240    108.2712
   578.7500      0.0000    717.5728      6.2517    104.0246
   579.0000      0.0000    722.6496      6.1521    101.0727
   579.2500      0.0000    717.9345      6.0941     99.8656
   579.5000      0.0000    714.2633      6.0946     99.2569
   579.7500      0.0000    723.7718      6.0804     97.2407
   580.0000      0.0000    749.0571      5.9763     92.9632
   580.2500      0.0000    779.7441      5.8050     87.5030
   580.5000      0.0000    800.6689      5.6583     82.3225
   580.7500      0.0000    804.6434      5.5956     77.6682
   581.0000      2.0000    797.9491      5.6121     73.1834
   581.2500      0.0000    793.5455      5.6817     69.5600
   581.5000      0.0000    799.3562      5.7967     68.5790
   581.7500      0.0000    813.0809      5.9650     71.3624
   582.0000      0.0000    826.4453      6.1703     77.0941
   582.2500      0.0000    832.2819      6.3369     83.7710
   582.5000      0.0000    827.4443      6.3630     90.1648
   582.7500      0.0000    811.2149      6.2208     96.9130
   583.0000      0.0000    784.2363      5.9970    105.5057
   583.2500      0.0000    750.1779      5.8096    116.1585
   583.5000      0.0000    716.0984      5.7118    126.8856
   583.7500      0.0000    688.9401      5.6933    134.7393
   584.0000      0.0000    671.6818      5.7347    137.7809
   584.2500      0.0000    662.9473      5.8262    135.8598
   584.5000      0.0000    659.7293      5.9504    129.8802
   584.7500      0.0000    660.2998      6.0736    120.8596
   585.0000      0.0000    664.7709      6.1644    109.9080
   585.2500      0.0000    672.7404      6.2114     98.6749
   585.5000      0.0000    680.9020      6.2248     89.0991
   585.7500      0.0000    684.2096      6.2215     82.4390
   586.0000      0.0000    679.8682      6.2140     78.6660
   586.2500      0.0000    669.7184      6.2074     76.8430
   586.5000      0.0000    658.4208      6.2031     75.9902
   586.7500      0.0000    649.7048      6.2013     75.5503
   587.0000      0.0000    644.3897      6.2004     75.2034
   587.2500      0.0000    641.0171      6.1947     74.5818
   587.5000      0.0000    637.4215      6.1763     73.2873
   587.7500      0.0000    631.9753      6.1419     71.1302
   588.0000      0.0000    624.5854      6.0987     68.4384
   588.2500      0.0000    617.3202      6.0630     66.0900
   588.5000      0.0000    613.7938      6.0513     64.9705
   588.7500      0.0000    617.1502      6.0706     65.3564
   589.0000      0.0000    628.1904      6.1151     66.9968
   589.2500      0.0000    645.1797      6.1671     69.5753
   589.5000      0.0000    664.9282      6.2001     72.7094
   589.7500      0.0000    683.9305      6.1917     75.6492
   590.0000      0.0000    699.5468      6.1421     77.5049
   590.2500      0.0000    711.4144      6.0801     77.9224
   590.5000      0.0000    721.7854      6.0424     77.2523
   590.7500      0.0000    733.5600      6.0472     76.0063
   591.0000      0.0000    746.9973      6.0871     74.4647
   591.2500      0.0000    758.1568      6.1393     72.8152
   591.5000      0.0000    761.4851      6.1819     71.3703
   591.7500      0.0000    754.8624      6.2065     70.5732
   592.0000      0.0000    741.9515      6.2181     70.8633
   592.2500      0.0000    729.1552      6.2195     72.4727
   592.5000      0.0000    720.7245      6.2005     75.3364
   592.7500      0.0000    717.0905      6.1520     79.3426
   593.0000      0.0000    716.8235      6.0900     84.5900
   593.2500      0.0000    718.7670      6.0520     91.0200
   593.5000      0.0000    722.1129      6.0681     97.8261
   593.7500      0.0000    724.9584      6.1357    103.8898
   594.0000      0.0000    723.2344      6.2212    109.0715
   594.2500      0.0000    711.8405      6.2820    114.4036
   594.5000      0.0000    688.2043      6.2936    120.7381
   594.7500      0.0000    655.4930      6.2629    127.7131
   595.0000      0.0000    621.6160      6.2177    133.9210
   595.2500      0.0000    594.1958      6.1834    137.5207
   595.5000      0.0000    576.2671      6.1682    137.2786
