~Version Information
VERS.                      2.0: CWLS Log ASCII Standard - VERSION 2.0
WRAP.                       NO: One line per depth step
~Well Information Block
STRT.FT               260.0000: 
STOP.FT              1230.0000: 
STEP.FT                 0.2500: 
NULL.                -999.2500: 
COMP.          Pioneer Natural Resources: COMPANY
WELL.             Mahalo 12-20: WELL
FLD.           Purgatoire River: FIELD
LOC.           1689' FNL & 479' FWL: LOCATION
CNTY.               Las Animas: COUNTY
SRVC.                Patterson: SERVICE COMPANY
DATE.          Thu Feb 23 20:25:01 2006: LOG DATE
UWI.           05 071 08700 00: UNIQUE WELL ID
STAT.                 Colorado: STATE
~Curve Information Block
DEPT.FT            0 000 00 00: Depth
SN.Ohm-m                      : IEL Short Normal
SP.mV                         : IEL Spontaneous Potential
DIR.Ohm-m                     : IEL Induction Resistivity
GR.GAPI                       : Gamma Ray
~Parameter Information Block
~A  Depth        SN          SP         DIR          GR     
# ...
   327.0000   2000.0000   2000.0000     25.1481    106.1992
   327.2500   2000.0000   2000.0000     25.4386    105.9376
   327.5000   2000.0000   2000.0000     25.7163    103.5053
   327.7500   2000.0000   2000.0000     25.9768    100.7986
   328.0000   2000.0000   2000.0000     26.1942     95.8868
   328.2500   2000.0000   2000.0000     26.3413     92.5539
   328.5000   2000.0000   2000.0000     26.4087     88.4402
   328.7500   2000.0000   2000.0000     26.4110     86.7253
   329.0000   2000.0000   2000.0000     26.3801     85.6512
   329.2500   2000.0000   2000.0000     26.3593     85.4455
   329.5000   2000.0000   2000.0000     26.3976     85.0822
   329.7500   2000.0000   2000.0000     26.5389     84.7922
   330.0000   2000.0000   2000.0000     26.8056     84.8646
   330.2500   2000.0000   2000.0000     27.1870     85.3230
   330.5000   2000.0000   2000.0000     27.6441     85.7169
   330.7500   2000.0000   2000.0000     28.1267     85.1016
   331.0000   2000.0000   2000.0000     28.5877     82.5535
   331.2500   2000.0000   2000.0000     28.9831     80.1221
   331.5000   2000.0000   2000.0000     29.2690     76.1031
   331.7500   2000.0000   2000.0000     29.4168     73.4290
   332.0000   2000.0000   2000.0000     29.4393     69.6982
   332.2500   2000.0000   2000.0000     29.3962     67.5362
   332.5000   2000.0000   2000.0000     29.3629     64.9929
   332.7500   2000.0000   2000.0000     29.3923     63.9430
   333.0000   2000.0000   2000.0000     29.5043     63.7010
   333.2500   2000.0000   2000.0000     29.7011     64.4022
   333.5000   2000.0000   2000.0000     29.9832     65.8541
   333.7500   2000.0000   2000.0000     30.3459     66.2580
   334.0000   2000.0000   2000.0000     30.7676     65.0282
   334.2500   2000.0000   2000.0000     31.2066     63.0661
   334.5000   2000.0000   2000.0000     31.6132     59.4982
   334.7500   2000.0000   2000.0000     31.9548     57.3971
   335.0000   2000.0000   2000.0000     32.2355     55.2251
   335.2500   2000.0000   2000.0000     32.4917     54.3795
   335.5000   2000.0000   2000.0000     32.7541     53.5784
   335.7500   2000.0000   2000.0000     33.0079     53.0041
   336.0000   2000.0000   2000.0000     33.1969     51.5354
   336.2500   2000.0000   2000.0000     33.2749     50.0921
   336.5000   2000.0000   2000.0000     33.2508     47.8667
   336.7500   2000.0000   2000.0000     33.1741     46.9859
   337.0000   2000.0000   2000.0000     33.0764     47.2978
   337.2500   2000.0000   2000.0000     32.9353     48.4195
   337.5000   2000.0000   2000.0000     32.6947     50.2943
   337.7500   2000.0000   2000.0000     32.3186     50.9473
   338.0000   2000.0000   2000.0000     31.8184     50.5192
   338.2500   2000.0000   2000.0000     31.2256     49.5183
   338.5000   2000.0000   2000.0000     30.5460     47.9508
   338.7500   2000.0000   2000.0000     29.7502     47.6195
   339.0000   2000.0000   2000.0000     28.8090     49.4381
   339.2500   2000.0000   2000.0000     27.7300     52.7917
   339.5000   2000.0000   2000.0000     26.5549     61.8844
   339.7500   2000.0000   2000.0000     25.3317     71.0066
   340.0000   2000.0000   2000.0000     24.1013     88.9232
   340.2500   2000.0000   2000.0000     22.9026    102.3642
   340.5000   2000.0000   2000.0000     21.7764    120.6808
   340.7500   2000.0000   2000.0000     20.7557    129.3827
   341.0000   2000.0000   2000.0000     19.8547    136.1103
   341.2500   2000.0000   2000.0000     19.0699    137.6142
   341.5000   2000.0000   2000.0000     18.3897    138.1906
   341.7500   2000.0000   2000.0000     17.8048    138.0778
   342.0000   2000.0000   2000.0000     17.3098    136.4763
   342.2500   2000.0000   2000.0000     16.8989    134.0277
   342.5000   2000.0000   2000.0000     16.5615    128.6328
   342.7500   2000.0000   2000.0000     16.2843    124.4105
   343.0000   2000.0000   2000.0000     16.0582    117.6829
   343.2500   2000.0000   2000.0000     15.8838    113.0936
   343.5000   2000.0000   2000.0000     15.7709    106.7526
   343.7500   2000.0000   2000.0000     15.7302    103.6625
   344.0000   2000.0000   2000.0000     15.7648    102.1096
   344.2500   2000.0000   2000.0000     15.8659    103.4856
   344.5000   2000.0000   2000.0000     16.0180    108.4061
   344.7500   2000.0000   2000.0000     16.2085    112.4586
   345.0000   2000.0000   2000.0000     16.4318    117.5574
   345.2500   2000.0000   2000.0000     16.6798    119.3789
   345.5000   2000.0000   2000.0000     16.9245    118.7707
   345.7500   2000.0000   2000.0000     17.1118    115.9786
   346.0000   2000.0000   2000.0000     17.1801    109.2559
   346.2500   2000.0000   2000.0000     17.0946    104.4622
   346.5000   2000.0000   2000.0000     16.8721     99.1134
   346.7500   2000.0000   2000.0000     16.5762     97.3359
   347.0000   2000.0000   2000.0000     16.2872     97.1431
   347.2500   2000.0000   2000.0000     16.0694     98.4778
   347.5000   2000.0000   2000.0000     15.9488    102.7009
   347.7500   2000.0000   2000.0000     15.9107    106.8959
   348.0000   2000.0000   2000.0000     15.9122    114.4367
   348.2500   2000.0000   2000.0000     15.9026    119.6000
   348.5000   2000.0000   2000.0000     15.8446    126.4335
   348.7500   2000.0000   2000.0000     15.7247    129.8523
   349.0000   2000.0000   2000.0000     15.5543    132.7305
   349.2500   2000.0000   2000.0000     15.3597    133.2108
   349.5000   2000.0000   2000.0000     15.1688    132.5152
   349.7500   2000.0000   2000.0000     15.0018    131.6300
   350.0000   2000.0000   2000.0000     14.8697    130.2165
   350.2500   2000.0000   2000.0000     14.7791    129.1983
   350.5000   2000.0000   2000.0000     14.7385    127.1815
   350.7500   2000.0000   2000.0000     14.7587    125.4973
   351.0000   2000.0000   2000.0000     14.8483    123.2227
   351.2500   2000.0000   2000.0000     15.0053    122.3763
   351.5000   2000.0000   2000.0000     15.2145    121.9994
   351.7500   2000.0000   2000.0000     15.4554    121.7470
   352.0000   2000.0000   2000.0000     15.7159    120.4903
   352.2500   2000.0000   2000.0000     15.9973    119.0527
   352.5000   2000.0000   2000.0000     16.3055    116.6321
   352.7500   2000.0000   2000.0000     16.6375    115.2369
   353.0000   2000.0000   2000.0000     16.9781    113.7582
   353.2500   2000.0000   2000.0000     17.3116    113.0652
   353.5000   2000.0000   2000.0000     17.6316    111.8661
   353.7500   2000.0000   2000.0000     17.9429    110.5657
   354.0000   2000.0000   2000.0000     18.2560    107.6704
   354.2500   2000.0000   2000.0000     18.5836    105.4255
   354.5000   2000.0000   2000.0000     18.9396    102.4269
   354.7500   2000.0000   2000.0000     19.3372    100.9233
   355.0000   2000.0000   2000.0000     19.7863     99.0841
   355.2500   2000.0000   2000.0000     20.2906     97.6967
   355.5000   2000.0000   2000.0000     20.8439     94.8981
   355.7500   2000.0000   2000.0000     21.4251     92.6813
   356.0000   2000.0000   2000.0000     21.9936     89.5930
   356.2500   2000.0000   2000.0000     22.4933     88.1167
   356.5000   2000.0000   2000.0000     22.8706     86.8854
   356.7500   2000.0000   2000.0000     23.0985     86.4592
   357.0000   2000.0000   2000.0000     23.1860     86.1804
   357.2500   2000.0000   2000.0000     23.1640     86.5005
   357.5000   2000.0000   2000.0000     23.0587     88.4299
   357.7500   2000.0000   2000.0000     22.8799     90.7577
   358.0000   2000.0000   2000.0000     22.6313     95.2111
   358.2500   2000.0000   2000.0000     22.3293     98.3924
   358.5000   2000.0000   2000.0000     22.0045    103.1981
   358.7500   2000.0000   2000.0000     21.6867    106.3859
   359.0000   2000.0000   2000.0000     21.3912    110.5800
   359.2500   2000.0000   2000.0000     21.1175    112.3032
   359.5000   2000.0000   2000.0000     20.8579    112.4084
   359.7500   2000.0000   2000.0000     20.6017    111.0544
   360.0000   2000.0000   2000.0000     20.3339    108.5870
   360.2500   2000.0000   2000.0000     20.0362    107.7362
