~Version Information
VERS.                      2.0: CWLS Log ASCII Standard - VERSION 2.0
WRAP.                       NO: One line per depth step
~Well Information Block
STRT.FT                 0.0000: 
STOP.FT              1538.0000: 
STEP.FT                 0.2500: 
NULL.                -999.2500: 
COMP.          Pioneer Natural Resources: COMPANY
WELL.           Butch 33-10 TR: WELL
FLD.           Purgatorie River: FIELD
LOC.           2309' FSL & 1337' FEL: LOCATION
PROV.                 Colorado: PROVINCE
CNTY.               Las Animas: COUNTRY
SRVC.                Patterson: SERVICE COMPANY
DATE.          Thu Jan 19 12:40:27 2006: LOG DATE
UWI.                          : UNIQUE WELL ID
~Curve Information Block
DEPT.FT            0 000 00 00: Depth
CCL.                          : Casing Collar Locator
TT3.usec                      : CBL 3' Travel Time
AMP3.mV                       : CBL 3' Amplitude
GR.GAPI                       : Gamma Ray
~Parameter Information Block
~A  Depth       CCL         TT3         AMP3         GR     
# ...
  1206.0000      0.0000    513.2922     12.7518     78.7985
  1206.2500      0.0000    516.9397     12.7196     75.1206
  1206.5000      0.0000    565.3300     12.6406     74.2189
  1206.7500      0.0000    610.4593     12.5551     74.7908
  1207.0000      0.0000    613.1884     12.5008     75.0926
  1207.2500      0.0000    586.3022     12.4786     74.2283
  1207.5000      0.0000    568.4073     12.4665     72.4348
  1207.7500      0.0000    574.2548     12.4673     70.2569
  1208.0000      0.0000    594.1608     12.4934     67.8722
  1208.2500      0.0000    615.6965     12.5165     65.1948
  1208.5000      0.0000    626.5057     12.5013     62.3253
  1208.7500      0.0000    623.1697     12.4630     59.7868
  1209.0000      0.0000    617.9825     12.4374     58.2777
  1209.2500      0.0000    623.3763     12.4199     58.1364
  1209.5000      0.0000    638.4356     12.3703     59.0870
  1209.7500      0.0000    652.9810     12.2649     60.4641
  1210.0000      0.0000    659.4480     12.1271     61.5605
  1210.2500      0.0000    659.8096     12.0099     61.8523
  1210.5000      0.0000    661.0226     11.9600     61.2252
  1210.7500      0.0000    665.7649     11.9836     60.1621
  1211.0000      0.0000    671.0159     12.0301     59.5909
  1211.2500      0.0000    673.8286     12.0425     60.3584
  1211.5000      0.0000    673.6437     12.0250     62.7972
  1211.7500      0.0000    669.1052     12.0214     66.6809
  1212.0000      0.0000    657.3900     12.0487     71.3158
  1212.2500      0.0000    642.9352     12.0881     75.5952
  1212.5000      0.0000    642.1496     12.1175     78.4040
  1212.7500      0.0000    663.5938     12.1318     79.4881
  1213.0000      0.0000    692.6094     12.1399     79.8757
  1213.2500      0.0000    712.3243     12.1411     80.9892
  1213.5000      0.0000    722.3344     12.1198     83.2643
  1213.7500      0.0000    727.7350     12.0635     85.8219
  1214.0000      0.0000    723.7012     11.9606     87.3221
  1214.2500      0.0000    698.4073     11.7528     86.8236
  1214.5000      0.0000    655.8636     11.2563     84.1471
  1214.7500      0.0000    625.8766     10.2258     80.0948
  1215.0000      0.0000    629.4071      8.7391     76.3844
  1215.2500      0.0000    654.1951      7.4632     74.7289
  1215.5000      0.0000    684.6351      7.0477     75.5495
  1215.7500      0.0000    717.7421      7.2614     77.6357
  1216.0000      0.0000    747.5398      7.4616     79.0997
  1216.2500      0.0000    766.6666      7.6133     78.6444
  1216.5000      0.0000    774.6719      8.0105     76.2632
  1216.7500     -2.0000    775.3342      8.6197     73.3114
  1217.0000     -2.0000    772.2461      9.1990     72.0417
  1217.2500      0.0000    765.2592      9.5653     74.4479
  1217.5000      0.0000    748.7767      9.6581     80.9306
  1217.7500      0.0000    709.4993      9.7502     89.9825
  1218.0000      0.0000    637.7711     10.5983     99.2102
  1218.2500      0.0000    558.8515     12.6402    106.6916
  1218.5000      0.0000    519.0670     14.9449    111.7011
  1218.7500      0.0000    522.4688     16.1370    114.7012
  1219.0000      0.0000    529.4577     16.1729    116.8751
  1219.2500      0.0000    511.4437     16.0606    119.3511
  1219.5000      0.0000    473.2849     16.4331    122.3905
  1219.7500      0.0000    444.8998     17.0617    125.3237
  1220.0000      0.0000    456.8775     17.4510    127.5389
  1220.2500      0.0000    515.9795     17.4657    129.2548
  1220.5000      0.0000    598.2039     17.2791    130.9106
  1220.7500      0.0000    665.9288     17.0657    132.1979
  1221.0000      0.0000    701.1610     16.8944    132.4111
  1221.2500      0.0000    712.7079     16.7567    131.5853
  1221.5000      0.0000    714.9239     16.6217    130.5615
  1221.7500      0.0000    715.0399     16.4860    129.8889
  1222.0000      0.0000    714.9391     16.3775    129.3167
  1222.2500      0.0000    714.8063     16.3359    128.5249
  1222.5000      0.0000    714.6265     16.3971    127.8559
  1222.7500      0.0000    714.3807     16.5525    128.0842
  1223.0000      0.0000    713.8513     16.6924    129.5099
  1223.2500      0.0000    712.2305     16.6154    131.2279
  1223.5000      0.0000    707.8704     16.1848    131.2728
  1223.7500      0.0000    700.1432     15.4807    127.8642
  1224.0000      0.0000    692.6182     14.7604    120.7850
  1224.2500      0.0000    690.3225     14.2383    111.3520
  1224.5000      0.0000    691.9937     13.9258    100.9811
  1224.7500      0.0000    691.9633     13.7730     90.1451
  1225.0000      0.0000    691.0631     13.8163     78.9319
  1225.2500      0.0000    696.2081     14.0650     68.3745
  1225.5000      0.0000    706.2093     14.4208     60.7813
  1225.7500      0.0000    704.5816     14.7779     58.5135
  1226.0000      0.0000    669.3941     15.1080     62.5789
  1226.2500      0.0000    592.6622     15.5192     72.3254
  1226.5000      0.0000    494.5890     16.2718     85.6971
  1226.7500      0.0000    409.5846     17.5760     99.3711
  1227.0000      0.0000    354.6082     19.3151    109.5729
  1227.2500      0.0000    324.6568     21.0639    114.1199
  1227.5000      0.0000    310.1877     22.4555    114.0189
  1227.7500      0.0000    304.5005     23.4476    112.6304
  1228.0000      0.0000    302.9214     24.0768    113.0479
  1228.2500      0.0000    302.8820     24.1927    116.2332
  1228.5000      0.0000    304.0489     23.6969    121.2944
  1228.7500      0.0000    309.1992     22.7847    126.8494
  1229.0000      0.0000    327.1639     21.7655    131.8121
  1229.2500      0.0000    371.9440     20.8286    135.3062
  1229.5000      0.0000    448.1450     20.0187    136.5854
  1229.7500      0.0000    533.7079     19.2829    135.4579
  1230.0000      0.0000    592.3206     18.5524    132.5934
  1230.2500      0.0000    611.7286     17.8471    129.0570
  1230.5000      0.0000    615.1117     17.2684    125.5981
  1230.7500      0.0000    626.5084     16.8772    122.5538
  1231.0000      0.0000    645.2209     16.6221    120.1119
  1231.2500      0.0000    662.4265     16.3797    118.2828
  1231.5000      0.0000    675.9443     16.0657    116.5054
  1231.7500      0.0000    684.6136     15.7644    113.5585
  1232.0000      0.0000    687.3884     15.6800    108.4668
  1232.2500      0.0000    687.3734     15.8877    101.6970
  1232.5000      0.0000    689.4561     16.2319     95.0156
  1232.7500      0.0000    693.2234     16.4971     90.0948
  1233.0000      0.0000    693.8302     16.5908     87.8252
  1233.2500      0.0000    691.7938     16.5704     88.8890
  1233.5000      0.0000    693.1951     16.5661     94.0381
  1233.7500      0.0000    698.9593     16.6593    103.2704
  1234.0000      0.0000    702.9713     16.8053    114.9112
  1234.2500      0.0000    701.2516     16.9034    125.7534
  1234.5000      0.0000    696.0007     16.9547    132.4400
  1234.7500      0.0000    690.6827     17.0916    133.3139
  1235.0000      0.0000    687.2894     17.3858    129.3726
  1235.2500      0.0000    687.4731     17.6842    123.6705
  1235.5000      0.0000    691.1113     17.7584    119.7839
  1235.7500      0.0000    696.6808     17.5724    120.0536
  1236.0000      0.0000    703.2318     17.2918    124.0979
  1236.2500      0.0000    709.1306     17.0953    128.8325
  1236.5000      0.0000    712.5029     17.0593    130.6587
  1236.7500      0.0000    712.5886     17.1521    128.1162
  1237.0000      0.0000    708.4426     17.2655    122.5207
  1237.2500      0.0000    699.2946     17.2947    116.3133
  1237.5000      0.0000    687.5428     17.2261    111.0195
  1237.7500      0.0000    678.1664     17.1159    106.5284
  1238.0000      0.0000    674.1391     16.9860    102.0398
  1238.2500      0.0000    674.5394     16.8202     97.6355
  1238.5000      0.0000    675.5051     16.6366     94.5813
  1238.7500      0.0000    672.8900     16.4669     93.8918
  1239.0000      0.0000    667.6598     16.3212     95.0541
  1239.2500      0.0000    664.9182     16.2352     96.6213
