~Version Information
VERS.                      2.0: CWLS Log ASCII Standard - VERSION 2.0
WRAP.                       NO: One line per depth step
~Well Information Block
STRT.FT               -14.7500: 
STOP.FT              1106.0000: 
STEP.FT                 0.2500: 
NULL.                -999.2500: 
COMP.          Pioneer Natural Resources: COMPANY
WELL.          Black Cat 13-32 Tr: WELL
FLD.           Purgatorie River: FIELD
LOC.           1679' FSL & 1150' FWL--: LOCATION
CNTY.               Las Animas: COUNTY
SRVC.          Patterson Wireline: SERVICE COMPANY
DATE.          Wed Mar 15 15:59:24 2006: LOG DATE
UWI.           05 071 08721 00: UNIQUE WELL ID
STAT.                       CO: STATE
~Curve Information Block
DEPT.FT            0 000 00 00: Depth
CCL.                          : Casing Collar Locator
TT3.usec                      : CBL 3' Travel Time
AMP3.mV                       : CBL 3' Amplitude
GR.GAPI                       : Gamma Ray
~Parameter Information Block
~A  Depth       CCL         TT3         AMP3         GR     
# ...
   186.2500      0.0000    768.6149      4.9369    103.4540
   186.5000      0.0000    763.0098      4.9802    103.1825
   186.7500      0.0000    756.9381      5.0082    101.4379
   187.0000      0.0000    754.2811      5.0283     98.2312
   187.2500      0.0000    756.4137      5.0468     94.8886
   187.5000      0.0000    761.4045      5.0678     92.9485
   187.7500      0.0000    765.2999      5.0935     93.0748
   188.0000      0.0000    764.9803      5.1221     94.7345
   188.2500      0.0000    760.5959      5.1457     96.8655
   188.5000      0.0000    755.4380      5.1552     98.8059
   188.7500      0.0000    753.2962      5.1448    100.1966
   189.0000      0.0000    755.5287      5.1096    100.1484
   189.2500      0.0000    759.7885      5.0414     97.4121
   189.5000      0.0000    760.9963      4.9346     91.8010
   189.7500      0.0000    754.1800      4.7969     85.0655
   190.0000      0.0000    737.7819      4.6517     80.0281
   190.2500      0.0000    715.0393      4.5251     78.7069
   190.5000      0.0000    692.0717      4.4271     80.8696
   190.7500      0.0000    674.0685      4.3413     84.0832
   191.0000      0.0000    662.9429      4.2432     85.4619
   191.2500      0.0000    658.3632      4.1398     83.9870
   191.5000      0.0000    660.5742      4.0840     81.3078
   191.7500      0.0000    671.7369      4.1271     80.0059
   192.0000      0.0000    693.7696      4.2583     81.0474
   192.2500      0.0000    724.2661      4.4176     83.1758
   192.5000      0.0000    755.0244      4.5632     84.6773
   192.7500      0.0000    776.1841      4.6964     85.1477
   193.0000      0.0000    782.8869      4.8294     85.3707
   193.2500      2.0000    777.8228      4.9644     86.0375
   193.5000      0.0000    767.5167      5.1086     87.0263
   193.7500      0.0000    757.0358      5.2993     87.8323
   194.0000      0.0000    748.2813      5.5966     88.5204
   194.2500      0.0000    741.7755      6.0249     90.0536
   194.5000      0.0000    738.2355      6.4995     93.4375
   194.7500      0.0000    738.1080      6.8418     98.4922
   195.0000      0.0000    740.7012      6.9193    103.6153
   195.2500      0.0000    744.4399      6.7677    106.8271
   195.5000      0.0000    747.8981      6.5408    107.2532
   195.7500      0.0000    750.9774      6.3648    105.8032
   196.0000      0.0000    755.5300      6.2679    104.2179
   196.2500      0.0000    763.9362      6.2178    103.2192
   196.5000      0.0000    775.9953      6.1757    101.8414
   196.7500      0.0000    787.6396      6.1178     98.8458
   197.0000      0.0000    793.6606      6.0343     94.5792
   197.2500      0.0000    791.5600      5.9268     91.0369
   197.5000      0.0000    782.5770      5.8034     90.1097
   197.7500      0.0000    769.8622      5.6736     91.9444
   198.0000      0.0000    756.5483      5.5435     94.8519
   198.2500      0.0000    745.1343      5.4126     96.6448
   198.5000      0.0000    737.3185      5.2756     96.4388
   198.7500      0.0000    733.5198      5.1319     95.4137
   199.0000      0.0000    732.6216      4.9919     95.6121
   199.2500      0.0000    732.2201      4.8714     97.9391
   199.5000      0.0000    729.5279      4.7810    101.5510
   199.7500      0.0000    723.2509      4.7229    104.9541
   200.0000      0.0000    714.8773      4.6947    107.0647
   200.2500      0.0000    707.3077      4.6910    107.2176
   200.5000      0.0000    702.3123      4.7036    104.9964
   200.7500      0.0000    699.7629      4.7258    100.5828
   201.0000      0.0000    698.8019      4.7573     94.9729
   201.2500      0.0000    698.9926      4.8028     89.4544
   201.5000      0.0000    700.5894      4.8605     84.8721
   201.7500      0.0000    704.2050      4.9165     81.2998
   202.0000      0.0000    710.0488      4.9527     78.1704
   202.2500      0.0000    717.2374      4.9597     74.8714
   202.5000      0.0000    724.1580      4.9404     71.3411
   202.7500      0.0000    729.6299      4.9064     67.8894
   203.0000      0.0000    733.3436      4.8713     64.5859
   203.2500      0.0000    735.4883      4.8432     61.2473
   203.5000      0.0000    736.7280      4.8190     57.8730
   203.7500      0.0000    737.7616      4.7876     54.7893
   204.0000      0.0000    737.8195      4.7401     52.5702
   204.2500      0.0000    734.6263      4.6758     51.9122
   204.5000      0.0000    727.0609      4.5957     53.1454
   204.7500      0.0000    717.0540      4.4957     55.6602
   205.0000      0.0000    708.0834      4.3727     58.1680
   205.2500      0.0000    702.5006      4.2384     59.6800
   205.5000      0.0000    700.8881      4.1194     60.0548
   205.7500      0.0000    703.3104      4.0407     59.6851
   206.0000      0.0000    710.2952      4.0088     59.0197
   206.2500      0.0000    722.2054      4.0110     58.3964
   206.5000      0.0000    737.7313      4.0261     57.9480
   206.7500      0.0000    753.5637      4.0333     57.5916
   207.0000      0.0000    766.1888      4.0184     57.2435
   207.2500      0.0000    773.9856      3.9794     56.8999
   207.5000      0.0000    777.3874      3.9270     56.3555
   207.7500      0.0000    777.6487      3.8769     55.1820
   208.0000      0.0000    776.0575      3.8422     53.3537
   208.2500      0.0000    773.6995      3.8266     51.7841
   208.5000      0.0000    771.0255      3.8226     51.9378
   208.7500      0.0000    767.5997      3.8131     54.8286
   209.0000      0.0000    762.7855      3.7833     60.4535
   209.2500      0.0000    757.1118      3.7308     68.0865
   209.5000      0.0000    752.8214      3.6672     76.8435
   209.7500      0.0000    752.3874      3.6102     85.8268
   210.0000      0.0000    756.1881      3.5750     93.9820
   210.2500      0.0000    762.5802      3.5705    100.1581
   210.5000      0.0000    770.8156      3.5995    103.4531
   210.7500      0.0000    782.1849      3.6566    103.6047
   211.0000      0.0000    796.4592      3.7259    101.1429
   211.2500      0.0000    808.8645      3.7850     97.0626
   211.5000      0.0000    813.7316      3.8137     92.1666
   211.7500      0.0000    810.8936      3.8022     86.7436
   212.0000      0.0000    805.9587      3.7554     80.9037
   212.2500      0.0000    804.4319      3.6948     74.9462
   212.5000      0.0000    807.8911      3.6527     69.2825
   212.7500      0.0000    815.8445      3.6523     64.3576
   213.0000      0.0000    828.1070      3.6916     60.7717
   213.2500      0.0000    843.2186      3.7480     59.1041
   213.5000      0.0000    856.3025      3.7986     59.3626
   213.7500      0.0000    861.5092      3.8322     60.7246
   214.0000      0.0000    856.9830      3.8483     61.9945
   214.2500      0.0000    846.1848      3.8517     62.2893
   214.5000      0.0000    834.6028      3.8485     61.3103
   214.7500      0.0000    826.2206      3.8419     59.2009
   215.0000      0.0000    822.2104      3.8329     56.4450
   215.2500      0.0000    821.1414      3.8254     53.9581
   215.5000      0.0000    820.0563      3.8273     52.9530
   215.7500      0.0000    816.4158      3.8428     54.3003
   216.0000      0.0000    810.0250      3.8664     57.9485
   216.2500      0.0000    803.0358      3.8867     63.1636
   216.5000      0.0000    797.2798      3.8912     69.2682
   216.7500      0.0000    791.8782      3.8700     75.9359
   217.0000      0.0000    784.5179      3.8185     82.9566
   217.2500      0.0000    774.5027      3.7413     90.1092
   217.5000      0.0000    763.1894      3.6518     97.2687
   217.7500      0.0000    751.8421      3.5644    104.3583
   218.0000      0.0000    740.4338      3.4867    111.1482
   218.2500      0.0000    728.7115      3.4168    117.1760
   218.5000      0.0000    717.5373      3.3454    121.8444
   218.7500      0.0000    708.5189      3.2594    124.5015
   219.0000      0.0000    702.4513      3.1492    124.5580
   219.2500      0.0000    698.4371      3.0211    121.9249
   219.5000      0.0000    694.3063      2.9037    117.4644
