~Version Information
VERS.                      2.0: CWLS Log ASCII Standard - VERSION 2.0
WRAP.                       NO: One line per depth step
~Well Information Block
STRT.FT               459.3000: 
STOP.FT              1604.7000: 
STEP.FT                 0.1000: 
NULL.                -999.2500: 
COMP.          Pioneer Natural Resources: COMPANY
WELL.          Grand Prix 13-12 Tr: WELL
FLD.           Purgatoire River: FIELD
LOC.           2595' FSL & 1277' FWL--: LOCATION
CNTY.               Las Animas: COUNTY
SRVC.                Patterson: SERVICE COMPANY
DATE.          Tue Apr 04 07:18:28 2006: LOG DATE
UWI.           05 071 08711 00: UNIQUE WELL ID
STAT.                 Colorado: STATE
~Curve Information Block
DEPT.FT            0 000 00 00: Depth
DCAL.in                       : CDL Caliper
RHOB.g/cc                     : CDL Bulk Density
RHOC.g/cc                     : CDL Density Correction
DPOR.pu                       : CDL Density Porosity
GR.GAPI                       : Gamma Ray
~Parameter Information Block
~A  Depth       DCAL        RHOB        RHOC        DPOR         GR     
# ...
   918.5000      7.8495      2.5108      0.1016      8.4387     66.1508
   918.6000      7.8495      2.5031      0.0995      8.9010     67.9739
   918.7000      7.8495      2.4972      0.0700      9.2620     69.6778
   918.8000      7.8386      2.5006      0.1184      9.0543     68.9997
   918.9000      7.8386      2.5106      0.0948      8.4498     66.9026
   919.0000      7.8315      2.5201      0.1092      7.8725     67.5812
   919.1000      7.8315      2.5251      0.1008      7.5712     69.3408
   919.2000      7.8315      2.5179      0.1185      8.0090     67.5816
   919.3000      7.8276      2.4912      0.1174      9.6236     63.0645
   919.4000      7.8276      2.4629      0.0302     11.3388     58.5569
   919.5000      7.8271      2.4612      0.0434     11.4452     56.9113
   919.6000      7.8271      2.4841      0.0760     10.0533     58.5736
   919.7000      7.8271      2.5110      0.0900      8.4270     58.1824
   919.8000      7.8265      2.5277      0.1052      7.4132     53.2791
   919.9000      7.8265      2.5304      0.1019      7.2458     49.7324
   920.0000      7.8189      2.5216      0.1110      7.7813     50.8803
   920.1000      7.8189      2.5057      0.0613      8.7461     53.7175
   920.2000      7.8189      2.4895      0.0390      9.7259     53.5856
   920.3000      7.8055      2.4795      0.0581     10.3309     48.5877
   920.4000      7.8055      2.4782      0.0400     10.4110     42.1599
   920.5000      7.7984      2.4829      0.0802     10.1270     38.9497
   920.6000      7.7984      2.4911      0.0384      9.6329     39.6770
   920.7000      7.7984      2.5028      0.0786      8.9213     41.6914
   920.8000      7.8099      2.5139      0.0554      8.2473     42.3738
   920.9000      7.8099      2.5226      0.0567      7.7215     42.0013
   921.0000      7.8360      2.5271      0.1136      7.4512     42.9108
   921.1000      7.8360      2.5216      0.0643      7.7811     45.0076
   921.2000      7.8360      2.5119      0.0593      8.3717     45.1269
   921.3000      7.8595      2.5057      0.0484      8.7431     42.4575
   921.4000      7.8595      2.4999      0.0526      9.0955     39.1218
   921.5000      7.8707      2.4857      0.0614      9.9547     36.1383
   921.6000      7.8707      2.4618      0.0576     11.4049     34.4776
   921.7000      7.8707      2.4438      0.0099     12.4960     34.9246
   921.8000      7.8703      2.4449      0.0484     12.4330     37.2324
   921.9000      7.8703      2.4533      0.0669     11.9220     39.2573
   922.0000      7.8609      2.4600      0.0634     11.5167     38.8497
   922.1000      7.8609      2.4753      0.0506     10.5886     37.1006
   922.2000      7.8609      2.5003      0.1220      9.0726     34.7248
   922.3000      7.8492      2.5179      0.1010      8.0043     31.9501
   922.4000      7.8492      2.5272      0.0852      7.4422     31.1834
   922.5000      7.8388      2.5410      0.0964      6.6060     33.3208
   922.6000      7.8388      2.5541      0.1220      5.8105     38.0946
   922.7000      7.8388      2.5463      0.1528      6.2835     43.4828
   922.8000      7.8308      2.5158      0.1200      8.1345     45.8721
   922.9000      7.8308      2.4877      0.0847      9.8376     46.4359
   923.0000      7.8274      2.4799      0.0830     10.3098     47.3536
   923.1000      7.8274      2.4832      0.1058     10.1117     47.3739
   923.2000      7.8274      2.4777      0.0788     10.4431     46.3633
   923.3000      7.8280      2.4568      0.0795     11.7117     46.3728
   923.4000      7.8280      2.4258      0.0821     13.5891     49.8976
   923.5000      7.8287      2.3910      0.0937     15.6942     57.5523
   923.6000      7.8287      2.3606      0.0104     17.5376     66.4358
   923.7000      7.8287      2.3395      0.0565     18.8173     73.9719
   923.8000      7.8338      2.3220      0.0198     19.8787     81.0903
   923.9000      7.8338      2.3084      0.0223     20.7027     87.6257
   924.0000      7.8539      2.3033      0.0331     21.0129     91.5792
   924.1000      7.8539      2.2987      0.0965     21.2903     92.9191
   924.2000      7.8539      2.2928      0.0708     21.6474     94.6969
   924.3000      7.8910      2.2940      0.1075     21.5782     98.9672
   924.4000      7.8910      2.2976      0.1131     21.3546    104.4263
   924.5000      7.9211      2.2955      0.1023     21.4877    107.7541
   924.6000      7.9211      2.2811      0.1189     22.3599    107.8753
   924.7000      7.9211      2.2481      0.1044     24.3600    109.1239
   924.8000      7.9236      2.2043      0.0659     27.0131    112.4883
   924.9000      7.9236      2.1676      0.0535     29.2353    114.4416
   925.0000      7.9161      2.1501      0.0470     30.2944    115.4696
   925.1000      7.9161      2.1553      0.0446     29.9807    116.7179
   925.2000      7.9161      2.1742      0.0380     28.8335    117.7055
   925.3000      7.9127      2.1870      0.0784     28.0592    117.5377
   925.4000      7.9127      2.1905      0.0109     27.8514    116.2096
   925.5000      7.9017      2.2106      0.0443     26.6299    115.4148
   925.6000      7.9017      2.2657      0.0985     23.2929    114.8352
   925.7000      7.9017      2.3424      0.2177     18.6399    112.9118
   925.8000      7.8849      2.4137      0.2411     14.3206    111.5257
   925.9000      7.8849      2.4651      0.2222     11.2032    113.3809
   926.0000      7.8675      2.5036      0.1885      8.8718    117.4945
   926.1000      7.8675      2.5404      0.1585      6.6432    121.4691
   926.2000      7.8675      2.5700      0.1764      4.8465    123.8363
   926.3000      7.8525      2.5707      0.1737      4.8056    123.5291
   926.4000      7.8525      2.5359      0.0660      6.9150    123.7799
   926.5000      7.8507      2.4848      0.0279     10.0136    124.9148
   926.6000      7.8507      2.4332     -0.0064     13.1410    122.0837
   926.7000      7.8507      2.3917     -0.0197     15.6568    117.5173
   926.8000      7.8554      2.3679     -0.0159     17.0972    116.0562
   926.9000      7.8554      2.3525     -0.0198     18.0273    116.1349
   927.0000      7.8637      2.3317     -0.0515     19.2896    113.4610
   927.1000      7.8637      2.3007     -0.0383     21.1667    109.8075
   927.2000      7.8637      2.2559      0.0062     23.8827    110.0756
   927.3000      7.8807      2.2011      0.0178     27.2057    113.6853
   927.4000      7.8807      2.1698      0.0013     29.1020    115.9735
   927.5000      7.8949      2.2146      0.0547     26.3897    113.3407
   927.6000      7.8949      2.3486      0.2302     18.2689    106.1755
   927.7000      7.8949      2.5203      0.3294      7.8601     99.8929
   927.8000      7.8917      2.6626      0.4249     -0.7645     97.8566
   927.9000      7.8917      2.7433      0.4083     -5.6560     96.6555
   928.0000      7.8721      2.7681      0.3902     -7.1604     92.1592
   928.1000      7.8721      2.7557      0.3184     -6.4033     85.7908
   928.2000      7.8721      2.7244      0.2592     -4.5062     81.9988
   928.3000      7.8486      2.6947      0.1980     -2.7099     82.3895
   928.4000      7.8486      2.6837      0.1631     -2.0434     84.8288
   928.5000      7.8335      2.6913      0.1635     -2.5041     85.1730
   928.6000      7.8335      2.7028      0.1299     -3.1988     84.0087
   928.7000      7.8335      2.7079      0.1217     -3.5103     86.3915
   928.8000      7.8292      2.7023      0.1597     -3.1682     92.3180
   928.9000      7.8292      2.6854      0.1086     -2.1441     94.3501
   929.0000      7.8361      2.6688      0.0998     -1.1400     88.6902
   929.1000      7.8361      2.6565      0.1061     -0.3930     82.2752
   929.2000      7.8361      2.6368      0.0907      0.7977     81.6014
   929.3000      7.8483      2.6092      0.0469      2.4728     83.1937
   929.4000      7.8483      2.5817      0.0624      4.1404     81.7755
   929.5000      7.8513      2.5598      0.0180      5.4665     79.2266
   929.6000      7.8513      2.5541      0.0566      5.8123     78.9085
