~Version Information
VERS.                      2.0: CWLS Log ASCII Standard - VERSION 2.0
WRAP.                       NO: One line per depth step
~Well Information Block
STRT.FT               555.0000: 
STOP.FT              2322.2500: 
STEP.FT                 0.2500: 
NULL.                -999.2500: 
COMP.          Pioneer Natural Resources: COMPANY
WELL.          Fittipaldi 21-12: WELL
FLD.           Purgatoire River: FIELD
LOC.           207' FNL & 2110' FWL--: LOCATION
CNTY.               Las Animas: COUNTY
SRVC.                Patterson: SERVICE COMPANY
DATE.          Tue Mar 21 10:27:48 2006: LOG DATE
UWI.           05 071 08492 00: UNIQUE WELL ID
STAT.                 Colorado: STATE
~Curve Information Block
DEPT.FT            0 000 00 00: Depth
SN.Ohm-m                      : IEL Short Normal
SP.mV                         : IEL Spontaneous Potential
DIR.Ohm-m                     : IEL Induction Resistivity
GR.GAPI                       : Gamma Ray
~Parameter Information Block
~A  Depth        SN          SP         DIR          GR     
# ...
  1024.0000   2000.0000   1990.0000     10.8193    124.0106
  1024.2500   2000.0000   1990.0000     10.6427    122.1291
  1024.5000   2000.0000   1990.0000     10.4579    121.3287
  1024.7500   2000.0000   1990.0000     10.2841    122.6308
  1025.0000   2000.0000   1990.0000     10.1374    126.7495
  1025.2500   2000.0000   1990.0000     10.0252    130.1621
  1025.5000   2000.0000   1990.0000      9.9455    134.9737
  1025.7500   2000.0000   1990.0000      9.8926    137.3354
  1026.0000   2000.0000   1990.0000      9.8646    138.7631
  1026.2500   2000.0000   1990.0000      9.8666    138.1197
  1026.5000   2000.0000   1990.0000      9.9104    135.2152
  1026.7500   2000.0000   1990.0000     10.0106    132.6036
  1027.0000   2000.0000   1990.0000     10.1798    128.8017
  1027.2500   2000.0000   1990.0000     10.4251    126.7645
  1027.5000   2000.0000   1990.0000     10.7449    124.5972
  1027.7500   2000.0000   1990.0000     11.1263    123.6134
  1028.0000   2000.0000   1990.0000     11.5441    122.6385
  1028.2500   2000.0000   1990.0000     11.9640    122.3036
  1028.5000   2000.0000   1990.0000     12.3524    122.1110
  1028.7500   2000.0000   1990.0000     12.6892    121.8989
  1029.0000   2000.0000   1990.0000     12.9739    120.9899
  1029.2500   2000.0000   1990.0000     13.2219    119.9983
  1029.5000   2000.0000   1990.0000     13.4530    118.2114
  1029.7500   2000.0000   1990.0000     13.6824    116.8230
  1030.0000   2000.0000   1990.0000     13.9190    114.3431
  1030.2500   2000.0000   1990.0000     14.1655    112.7156
  1030.5000   2000.0000   1990.0000     14.4214    111.3473
  1030.7500   2000.0000   1990.0000     14.6847    111.4951
  1031.0000   2000.0000   1990.0000     14.9538    112.8691
  1031.2500   2000.0000   1990.0000     15.2300    114.0219
  1031.5000   2000.0000   1990.0000     15.5165    115.4904
  1031.7500   2000.0000   1990.0000     15.8162    116.1483
  1032.0000   2000.0000   1990.0000     16.1290    116.4096
  1032.2500   2000.0000   1990.0000     16.4541    115.8447
  1032.5000   2000.0000   1990.0000     16.7946    113.4370
  1032.7500   2000.0000   1990.0000     17.1615    110.7936
  1033.0000   2000.0000   1990.0000     17.5710    106.0253
  1033.2500   2000.0000   1990.0000     18.0362    102.9746
  1033.5000   2000.0000   1990.0000     18.5606     99.3912
  1033.7500   2000.0000   1990.0000     19.1397     97.7982
  1034.0000   2000.0000   1990.0000     19.7700     96.5818
  1034.2500   2000.0000   1990.0000     20.4576     96.5455
  1034.5000   2000.0000   1990.0000     21.2184     97.5989
  1034.7500   2000.0000   1990.0000     22.0672     98.8556
  1035.0000   2000.0000   1990.0000     22.9985    100.8100
  1035.2500   2000.0000   1990.0000     23.9705    101.5117
  1035.5000   2000.0000   1990.0000     24.9088    100.6945
  1035.7500   2000.0000   1990.0000     25.7340     98.7360
  1036.0000   2000.0000   1990.0000     26.3990     94.4558
  1036.2500   2000.0000   1990.0000     26.9063     91.7129
  1036.5000   2000.0000   1990.0000     27.2923     89.4957
  1036.7500   2000.0000   1990.0000     27.5998     89.6021
  1037.0000   2000.0000   1990.0000     27.8570     91.1613
  1037.2500   2000.0000   1990.0000     28.0725     92.2605
  1037.5000   2000.0000   1990.0000     28.2392     93.3351
  1037.7500   2000.0000   1990.0000     28.3405     93.9252
  1038.0000   2000.0000   1990.0000     28.3611     95.4257
  1038.2500   2000.0000   1990.0000     28.2972     97.0647
  1038.5000   2000.0000   1990.0000     28.1653    100.1043
  1038.7500   2000.0000   1990.0000     28.0000    101.9410
  1039.0000   2000.0000   1990.0000     27.8383    103.3558
  1039.2500   2000.0000   1990.0000     27.7032    103.0751
  1039.5000   2000.0000   1990.0000     27.5977    100.9801
  1039.7500   2000.0000   1990.0000     27.5150     98.8846
  1040.0000   2000.0000   1990.0000     27.4525     95.6362
  1040.2500   2000.0000   1990.0000     27.4166     93.9155
  1040.5000   2000.0000   1990.0000     27.4175     92.5025
  1040.7500   2000.0000   1990.0000     27.4608     92.2984
  1041.0000   2000.0000   1990.0000     27.5453     92.6429
  1041.2500   2000.0000   1990.0000     27.6643     93.1037
  1041.5000   2000.0000   1990.0000     27.8032     94.2470
  1041.7500   2000.0000   1990.0000     27.9355     95.4615
  1042.0000   2000.0000   1990.0000     28.0274     97.7068
  1042.2500   2000.0000   1990.0000     28.0528     99.0001
  1042.5000   2000.0000   1990.0000     28.0098     99.8957
  1042.7500   2000.0000   1990.0000     27.9212     99.6886
  1043.0000   2000.0000   1990.0000     27.8200     98.3428
  1043.2500   2000.0000   1990.0000     27.7307     96.9719
  1043.5000   2000.0000   1990.0000     27.6549     94.9557
  1043.7500   2000.0000   1990.0000     27.5701     94.2101
  1044.0000   2000.0000   1990.0000     27.4397     94.4414
  1044.2500   2000.0000   1990.0000     27.2328     95.2358
  1044.5000   2000.0000   1990.0000     26.9399     96.5618
  1044.7500   2000.0000   1990.0000     26.5778     97.2593
  1045.0000   2000.0000   1990.0000     26.1844     98.1833
  1045.2500   2000.0000   1990.0000     25.8113     99.0021
  1045.5000   2000.0000   1990.0000     25.5146    100.8474
  1045.7500   2000.0000   1990.0000     25.3377    102.3820
  1046.0000   2000.0000   1990.0000     25.2881    104.4585
  1046.2500   2000.0000   1990.0000     25.3190    105.1599
  1046.5000   2000.0000   1990.0000     25.3295    104.4596
  1046.7500   2000.0000   1990.0000     25.1905    102.6820
  1047.0000   2000.0000   1990.0000     24.7969     98.4274
  1047.2500   2000.0000   1990.0000     24.1200     95.1540
  1047.5000   2000.0000   1990.0000     23.2259     91.2795
  1047.7500   2000.0000   1990.0000     22.2452     90.4545
  1048.0000   2000.0000   1990.0000     21.3172     92.9090
  1048.2500   2000.0000   1990.0000     20.5434     96.7948
  1048.5000   2000.0000   1990.0000     19.9653    104.2338
  1048.7500   2000.0000   1990.0000     19.5630    108.8209
  1049.0000   2000.0000   1990.0000     19.2647    113.1397
  1049.2500   2000.0000   1990.0000     18.9699    113.9383
  1049.5000   2000.0000   1990.0000     18.5851    112.8472
  1049.7500   2000.0000   1990.0000     18.0632    111.5772
  1050.0000   2000.0000   1990.0000     17.4207    110.4134
  1050.2500   2000.0000   1990.0000     16.7217    110.4840
  1050.5000   2000.0000   1990.0000     16.0420    111.4144
  1050.7500   2000.0000   1990.0000     15.4389    112.1756
  1051.0000   2000.0000   1990.0000     14.9398    113.4221
  1051.2500   2000.0000   1990.0000     14.5434    114.6107
  1051.5000   2000.0000   1990.0000     14.2267    117.3764
  1051.7500   2000.0000   1990.0000     13.9519    119.6737
  1052.0000   2000.0000   1990.0000     13.6744    122.2960
  1052.2500   2000.0000   1990.0000     13.3537    122.3745
  1052.5000   2000.0000   1990.0000     12.9654    119.3455
  1052.7500   2000.0000   1990.0000     12.5110    116.0893
  1053.0000   2000.0000   1990.0000     12.0157    111.9253
  1053.2500   2000.0000   1990.0000     11.5150    110.7391
  1053.5000   2000.0000   1990.0000     11.0383    111.6764
  1053.7500   2000.0000   1990.0000     10.5983    113.6508
  1054.0000   2000.0000   1990.0000     10.1912    117.5147
  1054.2500   2000.0000   1990.0000      9.8041    120.0575
  1054.5000   2000.0000   1990.0000      9.4254    123.0768
  1054.7500   2000.0000   1990.0000      9.0520    124.5460
  1055.0000   2000.0000   1990.0000      8.6911    126.4869
  1055.2500   2000.0000   1990.0000      8.3556    127.8238
  1055.5000   2000.0000   1990.0000      8.0579    129.5975
  1055.7500   2000.0000   1990.0000      7.8053    130.2494
  1056.0000   2000.0000   1990.0000      7.5988    129.9871
  1056.2500   2000.0000   1990.0000      7.4350    128.9872
  1056.5000   2000.0000   1990.0000      7.3077    126.8579
  1056.7500   2000.0000   1990.0000      7.2102    125.6921
  1057.0000   2000.0000   1990.0000      7.1352    125.4640
  1057.2500   2000.0000   1990.0000      7.0757    126.6453
